~Version Information
 VERS.                  2.0:   CWLS log ASCII Standard -VERSION 2.0
 WRAP.                   NO:   One line per depth step
~Well Information Block
#MNEM.UNIT     VALUE/NAME     DESCRIPTION
#---------     -----------    ---------------------------
 STRT.S             03:19:12 24-Feb-20: START TIME 03:19:12 24-Feb-20
 STOP.S             03:27:48 24-Feb-20: STOP TIME  03:27:48 24-Feb-20
 STEP.S                   0.00: STEP TIME
 NULL.                 -999.25: NULL VALUE
 JOBN.        AZ-XX-0905059384:  JOB TICKET NUMB
 PDAT.          Mean Sea Level:  PERMANENT DATUM
 UNIT.                     N/A:  LOGGING EQUIPMENT ID
 DCON.         Sperry Drilling:  DIRECTNL CONTR
 DOE .                     N/A:  DOE NUMBER
 RIG .             West Chirag:  RIG NAME
 WELL.                     J22:  WELL NAME
 MWDS.                    Baku:  MWD SHOP
 SRVC.     TURAN Drilling & Engineering:  CONTRACTOR
 FLD .                     ACG:  FIELD NAME
 CTRY.              Azerbaijan:  COUNTRY NAME
 PROV.                    Baku:  PROVINCE
 STAT.                    Baku:  STATE NAME
 REGN.                   EESSA:  REGION
 BASE.              Azerbaijan:  LOGGING EQUIPMENT BASE LOCATION
 UWI .                     N/A:  UNIQUE WELL IDENTIFIER
 API .                     N/A:  API NUMBER
 COMP.     BP Exploration (Caspian Sea) Ltd.:  COMPANY
 WTYP.                Deviated:  WELL TYPE
 MDS .        Operator Entered:  MAG DATA SOURCE
 SON .        AZ-XX-0905059384:  JOB NUMBER
 FTOP.          Formation Tops:  FORM TOPS DESC
 ILTD.               Lithology:  INTERP LTH DESC
 SVYD.                  Survey:  SURVEY DESC
 DMOD.             Drill Model:  DRILL MOD DESC
 HPTY.       Minimum Curvature:  HOLE POS TYPE
 NREF.                    Grid:  NORTH REFERENCE
 SPUD.               09-Jan-20:  SPUD DATE
 DATE.      14.04.48 07-Feb-20:  END TIME
 STIM.      07.00.00 09-Jan-20:  START TIME
 DMF .             Drill Floor:  DRILL MEAS FROM
 DFST.                        :  DIST FSL TEXT
 DFWT.                        :  DIST FWL TEXT
 CNTY.                        :  COUNTY
 LOC .                        :  LOCATION
 LMF .             Drill Floor:  LOG MEASURED FROM
 DEP .m                   0.00:  DEPTH
 VSNS.m                  10.28:  VERT SEC N/S
 VSEW.m                  -6.24:  VERT SEC E/W
 AGAP.m                  43.00:  AIR GAP
 APD .m                  43.00:  DEPTH ABOVE PD
 WDMS.m                 169.80:  WD ELEV
 EGL .m                   0.00:  GROUND ELEVATION
 EPD .m                   0.00:  ELEVATION
 AZTC.deg                 6.27:  AZM TOTAL CORR
 GRDC.deg                 0.15:  GRID CORRECTION
 MDEC.deg                 6.42:  MAGNETIC DECL
 MDIP.deg                59.56:  MAGNETIC DIP
 MFLD.nT              50277.00:  MAGNETIC FIELD
 GVFD.g                   1.00:  GRAVITY FIELD
 VSDR.deg               148.53:  VERT SEC DIRECT
 TDD .m                3473.01:  TOTAL DEPTH (DRILLER)
 SDEP.m                 364.00:  START DEPTH
 DFSL.m                   0.00:  DISTANCE FSL
 DFWL.m                   0.00:  DISTANCE FWL
 UTMY.m             4443793.85:  UTM Y
 UTMX.m              519005.06:  UTM X
 WHEW.m                  -6.24:  WELL HEAD E/W
 WHNS.m                  10.28:  WELL HEAD N/S
 LONG.deg                51.22:  LONGITUDE
 LATI.deg                40.13:  LATITUDE
 TVDS.m                  43.00:  TVDSS CORRECTN
 EKB .m                   0.00:  KB ELEVATION
 EDF .m                  43.00:  DF ELEVATION
 TDL .m                 254.00:  TOTAL DEPTH (LOGGER)
 MAGU.                 1850021:  MAGUTM CHECKSUM
 VSC .                       0:  VS TO CLOSURE
~Parameter Information Block
#MNEM.UNIT       Value        Description
#---------     -----------    ---------------------------
 AV  .mps                 0.50:  Ann Velocity 
 AVMX.mps                 1.40:  Max Ann Veloc 
 AZIF.deg               144.94:  Azm, Final 
 BHAT.        Rotary Steerable:  BHA Type 
 BROT.°/30m               0.23:  Build Rotating 
 BS  .in                  8.50:  Bit Size 
 BTPL.psig              264.00:  Bit Press Loss 
 CABU.                     Yes:  Customer Abuse 
 COMM.                     ´á{:  Run Comments 1 
 TCS .hr                 87.30:  Time Ciculation Ended 
 CV  .mps                 2.45:  Crit Velocity 
 CVMX.mps                 2.74:  Max Crit Veloc 
 DD1 .             Aziz Aliyev:  Direct Drillr 1 
 DDSV.               Geo-Pilot:  DD Service 
 DEFF.%                 100.00:  % Det Eff 
 DLRX.°/30m               1.22:  Dogleg Rot Max 
 DLSO.°/30m               0.52:  Dogleg Oriented 
 DLSX.°/30m               1.22:  Dogleg Str Max 
 DRET.      12.59.00 23-Feb-20:  Drill End Time 
 DRST.      09.44.00 18-Feb-20:  Drill Start Tim 
 DTIM.hr                 23.03:  Time Drilling 
 EDEP.m                3473.01:  End Depth 
 ENG1.         Almaz Almadatov:  Engineer 1 
 ENG2.         Dair Mahammadov:  Engineer 2 
 ENG3.          Nazrin Asgarli:  Engineer 3 
 ETIM.      10.33.36 26-Feb-20:  End Time 
 FLOI.gpm               480.00:  Flow In 
 FLON.gpm               300.00:  Flow In Min 
 FLOS.cptm                1.00:  Fluid Loss 
 FLOX.gpm               550.00:  Flow In Max 
 HFLO.                      No:  High Flow 
 HPRE.                      No:  High Pressure 
 HTEM.                      No:  High Temp 
 HYDO.m                   1.80:  Hydro Offset 
 IFIN.deg                74.42:  Inc, Final 
 IMAX.deg                76.14:  Inc Max 
 IMIN.deg                74.42:  Inc Min 
 IMND.m                3462.72:  Inc Min Depth 
 IMXD.m                3235.69:  Inc Max Depth 
 JARR.                      No:  Jarring 
 LETM.      12.59.00 23-Feb-20:  Log End Time 
 LOST.hr                     0:  Lost Rig Time 
 LSTM.      09.44.00 18-Feb-20:  Log Start Time 
 MDCL.ppm             45000.00:  Mud Chlorides 
 MDES.     Inversion Oil/Synthetic:  Mud Desc 
 DFD .sg                  1.38:  Mud Density 
 MDMN.sg                  1.34:  Dens Mud Min 
 MDMX.sg                  1.49:  Dens Mud Max 
 MOIL.                      67:  Run Mud Oil % 
 MOWR.                   67:33:  Run Mud OWR 
 MSND.                    0.12:  Run Mud Sand % 
 MSOL.                      22:  Run Mud Solids% 
 DFV .spqt               81.00:  Mud Viscosity 
 MWOD.in                  6.75:  MWD Tool OD 
 MWSI.                      No:  Serv Intrp, MWD 
 OTIM.hr                231.44:  Time Operating 
 PCON.          Wear / Scratch:  Pad Condition 
 PMAX.psia             3400.00:  Press Op, Max 
 PV  .cP                 55.00:  Mud PV 
 RUN .                     800:  Run Number 
 ROPA.m/hr               12.00:  ROP Avg 
 ROPN.m/hr                5.00:  ROP Min 
 ROPX.m/hr               28.00:  ROP Max 
 RPMA.rpm               120.00:  RPM Surface Avg 
 RPMN.rpm                40.00:  RPM Surface Min 
 RPMX.rpm               130.00:  RPM Surface Max 
 RRUN.                    0800:  Rig Run Number 
 RTIM.hr                 45.00:  Time Reaming 
 SAZI.deg               145.38:  Azm, Start 
 SDEP.m                3219.01:  Start Depth 
 SIDD.                      No:  Serv Intrp, DD 
 SINC.deg                75.11:  Inc, Start 
 SPPA.psig             2400.00:  SPP Avg 
 SPPN.psig             2320.00:  SPP Min 
 SPPX.psig             3200.00:  SPP Max 
 STIM.      15.15.00 17-Feb-20:  Start Time 
 SVCS.                 DD, MWD:  Services 
 SVER.                    9.20:  Sperry Version 
 TDAT.m                 254.00:  Tot Depth Attmp 
 TDDF.                      No:  Trip for DD 
 TDLG.m                 254.00:  Tot Depth Loggd 
 TFF .                      No:  Trip for Fail 
 TQAA.f-kp               13.00:  Torque Abs Avg 
 TQAN.f-kp                7.00:  Torque Abs Min 
 TQAX.f-kp               15.00:  Torque Abs Max 
 TRRT.°/30m               0.21:  Turn Rotating 
 MRT .                  EWR-M5:  Maximum Recorded Temperature 
 TTMX.degC               64.00:  Max Tool Temp 
 VS01.                90586516:  Virtual Str1 SN 
 VS02.                90513691:  Virtual Str2 SN 
 VS03.                90586523:  Virtual Str3 SN 
 VS04.                90586520:  Virtual Str4 SN 
 VS05.                90590507:  Virtual Str5 SN 
 WBMN.klb                12.00:  WOB Min 
 WITN.           Rufat Babayev:  Customer Rep 2 
 WITN.         Alistair Sprott:  Customer Rep 
 WOBA.klb                18.00:  WOB Avg 
 WOBX.klb                30.00:  WOB Max 
 YP  .lhf2               41.00:  Yield Point 
~Curve Information Block
#MNEM.UNIT                 API CODE     Curve Description
#---------               -----------    ---------------------------
 TIME.HHMMSS            00 000 000 000:  GT Time & Date
 GTDEPTH.m              00 000 000 000:  GT Depth
 GTPQH.psia             00 000 000 000:  GT HR Quartz Pressure
 GTTQ.degC              00 000 000 000:  GT Quartz Temperature
 GTTN.NONE              00 000 000 000:  GT Test Number
 GTET.sec               00 000 000 000:  GT Elapsed Test Time
 GTTVD.m                00 000 000 000:  GT True Vertical Depth
#Other Information
#
#WARRANTY: Halliburton will use its best efforts to furnish customers with 
#accurate information and interpretations that are part of, and incident to, the services 
#provided.  However, Halliburton cannot and does not warrant the accuracy 
#or correctness of such information and interpretations.  Under no circumstances should any 
#such information or interpretation be relied upon as the sole basis for any drilling, 
#completion, production, or financial decision or any procedure involving any risk to the 
#safety of any drilling venture, drilling rig or its crew or any other third party.  The 
#Customer has full responsibility for all drilling, completion and production operation.  
#Halliburton makes no representations or warranties, either expressed or 
#implied, including, but not limited to, the implied warranties of merchantability or fitness 
#for a particular purpose, with respect to the services rendered.  In no event will 
#Halliburton be liable for failure to obtain any particular results or for 
#any damages, including, but not limited to, indirect, special or consequential damages, 
#resulting from the use of any information or interpretation provided by Halliburton.
#
~A           TIME           GTDEPTH  GTPQH  GTTQ  GTTN  GTET   GTTVD  
# ...
   03:23:25.207.24-Feb-2020 3366.71 4430.10 55.05 6.00 253.10 2706.89
   03:23:25.407.24-Feb-2020 3366.71 4430.10 55.05 6.00 253.30 2706.89
   03:23:25.607.24-Feb-2020 3366.71 4429.09 55.05 6.00 253.50 2706.89
   03:23:25.807.24-Feb-2020 3366.71 4428.88 55.05 6.00 253.70 2706.89
   03:23:26.007.24-Feb-2020 3366.71 4427.87 55.05 6.00 253.90 2706.89
   03:23:26.207.24-Feb-2020 3366.71 4428.77 55.05 6.00 254.10 2706.89
   03:23:26.407.24-Feb-2020 3366.71 4428.77 55.05 6.00 254.30 2706.89
   03:23:26.607.24-Feb-2020 3366.71 4428.69 55.05 6.00 254.50 2706.89
   03:23:26.808.24-Feb-2020 3366.71 4428.42 55.05 6.00 254.70 2706.89
   03:23:27.008.24-Feb-2020 3366.71 4428.25 55.05 6.00 254.90 2706.89
   03:23:27.208.24-Feb-2020 3366.71 4428.19 55.05 6.00 255.10 2706.89
   03:23:27.408.24-Feb-2020 3366.71 4428.19 55.05 6.00 255.30 2706.89
   03:23:27.608.24-Feb-2020 3366.71 4428.02 55.05 6.00 255.50 2706.89
   03:23:27.808.24-Feb-2020 3366.71 4427.97 55.05 6.00 255.70 2706.89
   03:23:28.008.24-Feb-2020 3366.71 4427.94 55.05 6.00 255.90 2706.89
   03:23:28.208.24-Feb-2020 3366.71 4427.93 55.05 6.00 256.10 2706.89
   03:23:28.408.24-Feb-2020 3366.71 4427.93 55.05 6.00 256.30 2706.89
   03:23:28.608.24-Feb-2020 3366.71 4428.03 55.05 6.00 256.50 2706.89
   03:23:28.808.24-Feb-2020 3366.71 4427.99 55.05 6.00 256.70 2706.89
   03:23:29.008.24-Feb-2020 3366.71 4427.48 55.05 6.00 256.90 2706.89
   03:23:29.208.24-Feb-2020 3366.71 4428.06 55.05 6.00 257.10 2706.89
   03:23:29.409.24-Feb-2020 3366.71 4428.06 55.05 6.00 257.30 2706.89
   03:23:29.609.24-Feb-2020 3366.71 4428.30 55.05 6.00 257.50 2706.89
   03:23:29.809.24-Feb-2020 3366.71 4428.11 55.05 6.00 257.70 2706.89
   03:23:30.009.24-Feb-2020 3366.71 4428.04 55.05 6.00 257.90 2706.89
   03:23:30.209.24-Feb-2020 3366.71 4428.05 55.05 6.00 258.10 2706.89
   03:23:30.409.24-Feb-2020 3366.71 4428.05 55.05 6.00 258.30 2706.89
   03:23:30.609.24-Feb-2020 3366.71 4428.02 55.05 6.00 258.50 2706.89
   03:23:30.809.24-Feb-2020 3366.71 4427.99 55.05 6.00 258.70 2706.89
   03:23:31.009.24-Feb-2020 3366.71 4427.82 55.05 6.00 258.90 2706.89
   03:23:31.209.24-Feb-2020 3366.71 4427.81 55.05 6.00 259.10 2706.89
   03:23:31.409.24-Feb-2020 3366.71 4427.85 55.05 6.00 259.30 2706.89
   03:23:31.609.24-Feb-2020 3366.71 4427.88 55.05 6.00 259.50 2706.89
   03:23:31.810.24-Feb-2020 3366.71 4427.99 55.05 6.00 259.70 2706.89
   03:23:32.010.24-Feb-2020 3366.71 4427.99 55.05 6.00 259.90 2706.89
   03:23:32.210.24-Feb-2020 3366.71 4427.97 55.05 6.00 260.10 2706.89
   03:23:32.410.24-Feb-2020 3366.71 4426.80 55.05 6.00 260.30 2706.89
   03:23:32.610.24-Feb-2020 3366.71 4428.24 55.05 6.00 260.50 2706.89
   03:23:32.810.24-Feb-2020 3366.71 4428.73 55.05 6.00 260.70 2706.89
   03:23:33.010.24-Feb-2020 3366.71 4428.13 55.05 6.00 260.90 2706.89
   03:23:33.210.24-Feb-2020 3366.71 4427.64 55.05 6.00 261.10 2706.89
   03:23:33.410.24-Feb-2020 3366.71 4427.64 55.05 6.00 261.30 2706.89
   03:23:33.610.24-Feb-2020 3366.71 4428.54 55.05 6.00 261.50 2706.89
   03:23:33.810.24-Feb-2020 3366.71 4428.30 55.05 6.00 261.70 2706.89
   03:23:34.010.24-Feb-2020 3366.71 4428.27 55.05 6.00 261.90 2706.89
   03:23:34.210.24-Feb-2020 3366.71 4428.28 55.05 6.00 262.10 2706.89
   03:23:34.411.24-Feb-2020 3366.71 4428.28 55.05 6.00 262.30 2706.89
   03:23:34.611.24-Feb-2020 3366.71 4428.53 55.05 6.00 262.51 2706.89
   03:23:34.811.24-Feb-2020 3366.71 4429.09 55.05 6.00 262.71 2706.89
   03:23:35.011.24-Feb-2020 3366.71 4428.57 55.05 6.00 262.91 2706.89
   03:23:35.211.24-Feb-2020 3366.71 4428.46 55.05 6.00 263.11 2706.89
   03:23:35.411.24-Feb-2020 3366.71 4428.46 55.05 6.00 263.31 2706.89
   03:23:35.611.24-Feb-2020 3366.71 4428.28 55.05 6.00 263.51 2706.89
   03:23:35.811.24-Feb-2020 3366.71 4427.77 55.05 6.00 263.71 2706.89
   03:23:36.011.24-Feb-2020 3366.71 4428.66 55.05 6.00 263.91 2706.89
   03:23:36.211.24-Feb-2020 3366.71 4428.36 55.05 6.00 264.11 2706.89
   03:23:36.411.24-Feb-2020 3366.71 4428.56 55.05 6.00 264.31 2706.89
   03:23:36.611.24-Feb-2020 3366.71 4428.49 55.05 6.00 264.51 2706.89
   03:23:36.812.24-Feb-2020 3366.71 4428.28 55.05 6.00 264.71 2706.89
   03:23:37.012.24-Feb-2020 3366.71 4428.26 55.05 6.00 264.91 2706.89
   03:23:37.212.24-Feb-2020 3366.71 4428.25 55.05 6.00 265.11 2706.89
   03:23:37.412.24-Feb-2020 3366.71 4428.25 55.05 6.00 265.31 2706.89
   03:23:37.612.24-Feb-2020 3366.71 4428.16 55.05 6.00 265.51 2706.89
   03:23:37.812.24-Feb-2020 3366.71 4428.17 55.05 6.00 265.71 2706.89
   03:23:38.012.24-Feb-2020 3366.71 4428.17 55.05 6.00 265.91 2706.89
   03:23:38.212.24-Feb-2020 3366.71 4428.25 55.05 6.00 266.11 2706.89
   03:23:38.412.24-Feb-2020 3366.71 4428.25 55.05 6.00 266.31 2706.89
   03:23:38.612.24-Feb-2020 3366.71 4428.27 55.05 6.00 266.51 2706.89
   03:23:38.812.24-Feb-2020 3366.71 4427.12 55.05 6.00 266.71 2706.89
   03:23:39.012.24-Feb-2020 3366.71 4428.57 55.05 6.00 266.91 2706.89
   03:23:39.212.24-Feb-2020 3366.71 4429.30 55.05 6.00 267.11 2706.89
   03:23:39.413.24-Feb-2020 3366.71 4429.30 55.05 6.00 267.31 2706.89
   03:23:39.613.24-Feb-2020 3366.71 4428.38 55.05 6.00 267.51 2706.89
   03:23:39.813.24-Feb-2020 3366.71 4428.44 55.05 6.00 267.71 2706.89
   03:23:40.013.24-Feb-2020 3366.71 4428.32 55.05 6.00 267.91 2706.89
   03:23:40.213.24-Feb-2020 3366.71 4428.31 55.05 6.00 268.11 2706.89
   03:23:40.413.24-Feb-2020 3366.71 4428.31 55.05 6.00 268.31 2706.89
   03:23:40.613.24-Feb-2020 3366.71 4428.31 55.05 6.00 268.51 2706.89
   03:23:40.813.24-Feb-2020 3366.71 4428.11 55.05 6.00 268.71 2706.89
   03:23:41.013.24-Feb-2020 3366.71 4428.15 55.05 6.00 268.91 2706.89
   03:23:41.213.24-Feb-2020 3366.71 4428.14 55.05 6.00 269.11 2706.89
   03:23:41.413.24-Feb-2020 3366.71 4428.14 55.05 6.00 269.31 2706.89
   03:23:41.613.24-Feb-2020 3366.71 4428.31 55.05 6.00 269.51 2706.89
   03:23:41.814.24-Feb-2020 3366.71 4428.29 55.05 6.00 269.71 2706.89
   03:23:42.014.24-Feb-2020 3366.71 4428.19 55.05 6.00 269.91 2706.89
   03:23:42.214.24-Feb-2020 3366.71 4427.29 55.05 6.00 270.11 2706.89
   03:23:42.414.24-Feb-2020 3366.71 4427.29 55.05 6.00 270.31 2706.89
   03:23:42.614.24-Feb-2020 3366.71 4428.81 55.05 6.00 270.51 2706.89
   03:23:42.814.24-Feb-2020 3366.71 4428.55 55.05 6.00 270.71 2706.89
   03:23:43.014.24-Feb-2020 3366.71 4427.45 55.05 6.00 270.91 2706.89
   03:23:43.214.24-Feb-2020 3366.71 4428.71 55.05 6.00 271.11 2706.89
   03:23:43.414.24-Feb-2020 3366.71 4428.71 55.05 6.00 271.31 2706.89
   03:23:43.614.24-Feb-2020 3366.71 4428.68 55.05 6.00 271.51 2706.89
   03:23:43.814.24-Feb-2020 3366.71 4428.49 55.05 6.00 271.71 2706.89
   03:23:44.014.24-Feb-2020 3366.71 4428.60 55.05 6.00 271.91 2706.89
   03:23:44.214.24-Feb-2020 3366.71 4427.70 55.05 6.00 272.11 2706.89
   03:23:44.415.24-Feb-2020 3366.71 4427.70 55.05 6.00 272.31 2706.89
   03:23:44.615.24-Feb-2020 3366.71 4429.24 55.05 6.00 272.51 2706.89
   03:23:44.815.24-Feb-2020 3366.71 4429.01 55.05 6.00 272.71 2706.89
   03:23:45.015.24-Feb-2020 3366.71 4428.89 55.05 6.00 272.91 2706.89
   03:23:45.215.24-Feb-2020 3366.71 4428.65 55.05 6.00 273.11 2706.89
   03:23:45.415.24-Feb-2020 3366.71 4428.65 55.05 6.00 273.31 2706.89
   03:23:45.615.24-Feb-2020 3366.71 4428.67 55.05 6.00 273.51 2706.89
   03:23:45.815.24-Feb-2020 3366.71 4428.96 55.05 6.00 273.71 2706.89
   03:23:46.015.24-Feb-2020 3366.71 4428.79 55.05 6.00 273.91 2706.89
   03:23:46.215.24-Feb-2020 3366.71 4428.76 55.05 6.00 274.11 2706.89
   03:23:46.415.24-Feb-2020 3366.71 4428.76 55.05 6.00 274.31 2706.89
   03:23:46.615.24-Feb-2020 3366.71 4428.66 55.05 6.00 274.51 2706.89
   03:23:46.816.24-Feb-2020 3366.71 4428.56 55.05 6.00 274.71 2706.89
   03:23:47.016.24-Feb-2020 3366.71 4428.52 55.05 6.00 274.91 2706.89
   03:23:47.216.24-Feb-2020 3366.71 4428.51 55.05 6.00 275.11 2706.89
   03:23:47.416.24-Feb-2020 3366.71 4428.51 55.05 6.00 275.31 2706.89
   03:23:47.616.24-Feb-2020 3366.71 4428.43 55.05 6.00 275.51 2706.89
   03:23:47.816.24-Feb-2020 3366.71 4428.49 55.05 6.00 275.71 2706.89
   03:23:48.016.24-Feb-2020 3366.71 4428.60 55.05 6.00 275.91 2706.89
