~Version Information
 VERS.                  2.0:   CWLS log ASCII Standard -VERSION 2.0
 WRAP.                   NO:   One line per depth step
~Well Information Block
#MNEM.UNIT     VALUE/NAME     DESCRIPTION
#---------     -----------    ---------------------------
 STRT.S             23:48:42 23-Feb-20: START TIME 23:48:42 23-Feb-20
 STOP.S             23:55:42 23-Feb-20: STOP TIME  23:55:42 23-Feb-20
 STEP.S                   0.00: STEP TIME
 NULL.                 -999.25: NULL VALUE
 JOBN.        AZ-XX-0905059384:  JOB TICKET NUMB
 PDAT.          Mean Sea Level:  PERMANENT DATUM
 UNIT.                     N/A:  LOGGING EQUIPMENT ID
 DCON.         Sperry Drilling:  DIRECTNL CONTR
 DOE .                     N/A:  DOE NUMBER
 RIG .             West Chirag:  RIG NAME
 WELL.                     J22:  WELL NAME
 MWDS.                    Baku:  MWD SHOP
 SRVC.     TURAN Drilling & Engineering:  CONTRACTOR
 FLD .                     ACG:  FIELD NAME
 CTRY.              Azerbaijan:  COUNTRY NAME
 PROV.                    Baku:  PROVINCE
 STAT.                    Baku:  STATE NAME
 REGN.                   EESSA:  REGION
 BASE.              Azerbaijan:  LOGGING EQUIPMENT BASE LOCATION
 UWI .                     N/A:  UNIQUE WELL IDENTIFIER
 API .                     N/A:  API NUMBER
 COMP.     BP Exploration (Caspian Sea) Ltd.:  COMPANY
 WTYP.                Deviated:  WELL TYPE
 MDS .        Operator Entered:  MAG DATA SOURCE
 SON .        AZ-XX-0905059384:  JOB NUMBER
 FTOP.          Formation Tops:  FORM TOPS DESC
 ILTD.               Lithology:  INTERP LTH DESC
 SVYD.                  Survey:  SURVEY DESC
 DMOD.             Drill Model:  DRILL MOD DESC
 HPTY.       Minimum Curvature:  HOLE POS TYPE
 NREF.                    Grid:  NORTH REFERENCE
 SPUD.               09-Jan-20:  SPUD DATE
 DATE.      14.04.48 07-Feb-20:  END TIME
 STIM.      07.00.00 09-Jan-20:  START TIME
 DMF .             Drill Floor:  DRILL MEAS FROM
 DFST.                        :  DIST FSL TEXT
 DFWT.                        :  DIST FWL TEXT
 CNTY.                        :  COUNTY
 LOC .                        :  LOCATION
 LMF .             Drill Floor:  LOG MEASURED FROM
 DEP .m                   0.00:  DEPTH
 VSNS.m                  10.28:  VERT SEC N/S
 VSEW.m                  -6.24:  VERT SEC E/W
 AGAP.m                  43.00:  AIR GAP
 APD .m                  43.00:  DEPTH ABOVE PD
 WDMS.m                 169.80:  WD ELEV
 EGL .m                   0.00:  GROUND ELEVATION
 EPD .m                   0.00:  ELEVATION
 AZTC.deg                 6.27:  AZM TOTAL CORR
 GRDC.deg                 0.15:  GRID CORRECTION
 MDEC.deg                 6.42:  MAGNETIC DECL
 MDIP.deg                59.56:  MAGNETIC DIP
 MFLD.nT              50277.00:  MAGNETIC FIELD
 GVFD.g                   1.00:  GRAVITY FIELD
 VSDR.deg               148.53:  VERT SEC DIRECT
 TDD .m                3473.01:  TOTAL DEPTH (DRILLER)
 SDEP.m                 364.00:  START DEPTH
 DFSL.m                   0.00:  DISTANCE FSL
 DFWL.m                   0.00:  DISTANCE FWL
 UTMY.m             4443793.85:  UTM Y
 UTMX.m              519005.06:  UTM X
 WHEW.m                  -6.24:  WELL HEAD E/W
 WHNS.m                  10.28:  WELL HEAD N/S
 LONG.deg                51.22:  LONGITUDE
 LATI.deg                40.13:  LATITUDE
 TVDS.m                  43.00:  TVDSS CORRECTN
 EKB .m                   0.00:  KB ELEVATION
 EDF .m                  43.00:  DF ELEVATION
 TDL .m                 254.00:  TOTAL DEPTH (LOGGER)
 MAGU.                 1850021:  MAGUTM CHECKSUM
 VSC .                       0:  VS TO CLOSURE
~Parameter Information Block
#MNEM.UNIT       Value        Description
#---------     -----------    ---------------------------
 AV  .mps                 0.50:  Ann Velocity 
 AVMX.mps                 1.40:  Max Ann Veloc 
 AZIF.deg               144.94:  Azm, Final 
 BHAT.        Rotary Steerable:  BHA Type 
 BROT.°/30m               0.23:  Build Rotating 
 BS  .in                  8.50:  Bit Size 
 BTPL.psig              264.00:  Bit Press Loss 
 CABU.                     Yes:  Customer Abuse 
 COMM.                     ¼ýd:  Run Comments 1 
 TCS .hr                 87.30:  Time Ciculation Ended 
 CV  .mps                 2.45:  Crit Velocity 
 CVMX.mps                 2.74:  Max Crit Veloc 
 DD1 .             Aziz Aliyev:  Direct Drillr 1 
 DDSV.               Geo-Pilot:  DD Service 
 DEFF.%                 100.00:  % Det Eff 
 DLRX.°/30m               1.22:  Dogleg Rot Max 
 DLSO.°/30m               0.52:  Dogleg Oriented 
 DLSX.°/30m               1.22:  Dogleg Str Max 
 DRET.      12.59.00 23-Feb-20:  Drill End Time 
 DRST.      09.44.00 18-Feb-20:  Drill Start Tim 
 DTIM.hr                 23.03:  Time Drilling 
 EDEP.m                3473.01:  End Depth 
 ENG1.         Almaz Almadatov:  Engineer 1 
 ENG2.         Dair Mahammadov:  Engineer 2 
 ENG3.          Nazrin Asgarli:  Engineer 3 
 ETIM.      10.33.36 26-Feb-20:  End Time 
 FLOI.gpm               480.00:  Flow In 
 FLON.gpm               300.00:  Flow In Min 
 FLOS.cptm                1.00:  Fluid Loss 
 FLOX.gpm               550.00:  Flow In Max 
 HFLO.                      No:  High Flow 
 HPRE.                      No:  High Pressure 
 HTEM.                      No:  High Temp 
 HYDO.m                   1.80:  Hydro Offset 
 IFIN.deg                74.42:  Inc, Final 
 IMAX.deg                76.14:  Inc Max 
 IMIN.deg                74.42:  Inc Min 
 IMND.m                3462.72:  Inc Min Depth 
 IMXD.m                3235.69:  Inc Max Depth 
 JARR.                      No:  Jarring 
 LETM.      12.59.00 23-Feb-20:  Log End Time 
 LOST.hr                     0:  Lost Rig Time 
 LSTM.      09.44.00 18-Feb-20:  Log Start Time 
 MDCL.ppm             45000.00:  Mud Chlorides 
 MDES.     Inversion Oil/Synthetic:  Mud Desc 
 DFD .sg                  1.38:  Mud Density 
 MDMN.sg                  1.34:  Dens Mud Min 
 MDMX.sg                  1.49:  Dens Mud Max 
 MOIL.                      67:  Run Mud Oil % 
 MOWR.                   67:33:  Run Mud OWR 
 MSND.                    0.12:  Run Mud Sand % 
 MSOL.                      22:  Run Mud Solids% 
 DFV .spqt               81.00:  Mud Viscosity 
 MWOD.in                  6.75:  MWD Tool OD 
 MWSI.                      No:  Serv Intrp, MWD 
 OTIM.hr                231.44:  Time Operating 
 PCON.          Wear / Scratch:  Pad Condition 
 PMAX.psia             3400.00:  Press Op, Max 
 PV  .cP                 55.00:  Mud PV 
 RUN .                     800:  Run Number 
 ROPA.m/hr               12.00:  ROP Avg 
 ROPN.m/hr                5.00:  ROP Min 
 ROPX.m/hr               28.00:  ROP Max 
 RPMA.rpm               120.00:  RPM Surface Avg 
 RPMN.rpm                40.00:  RPM Surface Min 
 RPMX.rpm               130.00:  RPM Surface Max 
 RRUN.                    0800:  Rig Run Number 
 RTIM.hr                 45.00:  Time Reaming 
 SAZI.deg               145.38:  Azm, Start 
 SDEP.m                3219.01:  Start Depth 
 SIDD.                      No:  Serv Intrp, DD 
 SINC.deg                75.11:  Inc, Start 
 SPPA.psig             2400.00:  SPP Avg 
 SPPN.psig             2320.00:  SPP Min 
 SPPX.psig             3200.00:  SPP Max 
 STIM.      15.15.00 17-Feb-20:  Start Time 
 SVCS.                 DD, MWD:  Services 
 SVER.                    9.20:  Sperry Version 
 TDAT.m                 254.00:  Tot Depth Attmp 
 TDDF.                      No:  Trip for DD 
 TDLG.m                 254.00:  Tot Depth Loggd 
 TFF .                      No:  Trip for Fail 
 TQAA.f-kp               13.00:  Torque Abs Avg 
 TQAN.f-kp                7.00:  Torque Abs Min 
 TQAX.f-kp               15.00:  Torque Abs Max 
 TRRT.°/30m               0.21:  Turn Rotating 
 MRT .                  EWR-M5:  Maximum Recorded Temperature 
 TTMX.degC               64.00:  Max Tool Temp 
 VS01.                90586516:  Virtual Str1 SN 
 VS02.                90513691:  Virtual Str2 SN 
 VS03.                90586523:  Virtual Str3 SN 
 VS04.                90586520:  Virtual Str4 SN 
 VS05.                90590507:  Virtual Str5 SN 
 WBMN.klb                12.00:  WOB Min 
 WITN.           Rufat Babayev:  Customer Rep 2 
 WITN.         Alistair Sprott:  Customer Rep 
 WOBA.klb                18.00:  WOB Avg 
 WOBX.klb                30.00:  WOB Max 
 YP  .lhf2               41.00:  Yield Point 
~Curve Information Block
#MNEM.UNIT                 API CODE     Curve Description
#---------               -----------    ---------------------------
 TIME.HHMMSS            00 000 000 000:  GT Time & Date
 GTDEPTH.m              00 000 000 000:  GT Depth
 GTPQH.psia             00 000 000 000:  GT HR Quartz Pressure
 GTTQ.degC              00 000 000 000:  GT Quartz Temperature
 GTTN.NONE              00 000 000 000:  GT Test Number
 GTET.sec               00 000 000 000:  GT Elapsed Test Time
 GTTVD.m                00 000 000 000:  GT True Vertical Depth
#Other Information
#
#WARRANTY: Halliburton will use its best efforts to furnish customers with 
#accurate information and interpretations that are part of, and incident to, the services 
#provided.  However, Halliburton cannot and does not warrant the accuracy 
#or correctness of such information and interpretations.  Under no circumstances should any 
#such information or interpretation be relied upon as the sole basis for any drilling, 
#completion, production, or financial decision or any procedure involving any risk to the 
#safety of any drilling venture, drilling rig or its crew or any other third party.  The 
#Customer has full responsibility for all drilling, completion and production operation.  
#Halliburton makes no representations or warranties, either expressed or 
#implied, including, but not limited to, the implied warranties of merchantability or fitness 
#for a particular purpose, with respect to the services rendered.  In no event will 
#Halliburton be liable for failure to obtain any particular results or for 
#any damages, including, but not limited to, indirect, special or consequential damages, 
#resulting from the use of any information or interpretation provided by Halliburton.
#
~A           TIME           GTDEPTH  GTPQH  GTTQ  GTTN  GTET   GTTVD  
# ...
   23:55:13.461.23-Feb-2020 3441.51 5694.50 56.61 1.00 391.04 2726.26
   23:55:13.661.23-Feb-2020 3441.51 5694.50 56.61 1.00 391.25 2726.26
   23:55:13.861.23-Feb-2020 3441.51 5704.64 56.61 1.00 391.45 2726.26
   23:55:14.061.23-Feb-2020 3441.51 5710.48 56.61 1.00 391.65 2726.26
   23:55:14.261.23-Feb-2020 3441.51 5708.12 56.61 1.00 391.85 2726.26
   23:55:14.461.23-Feb-2020 3441.51 5707.63 56.61 1.00 392.05 2726.26
   23:55:14.661.23-Feb-2020 3441.51 5707.63 56.61 1.00 392.25 2726.26
   23:55:14.861.23-Feb-2020 3441.51 5707.11 56.61 1.00 392.45 2726.26
   23:55:15.061.23-Feb-2020 3441.51 5706.87 56.61 1.00 392.65 2726.26
   23:55:15.261.23-Feb-2020 3441.51 5707.87 56.61 1.00 392.85 2726.26
   23:55:15.461.23-Feb-2020 3441.51 5707.39 56.61 1.00 393.05 2726.26
   23:55:15.661.23-Feb-2020 3441.51 5706.91 56.61 1.00 393.25 2726.26
   23:55:15.861.23-Feb-2020 3441.51 5707.82 56.61 1.00 393.45 2726.26
   23:55:16.061.23-Feb-2020 3441.51 5707.91 56.61 1.00 393.65 2726.26
   23:55:16.261.23-Feb-2020 3441.51 5715.34 56.61 1.00 393.85 2726.26
   23:55:16.462.23-Feb-2020 3441.51 5703.84 56.61 1.00 394.05 2726.26
   23:55:16.662.23-Feb-2020 3441.51 5706.21 56.61 1.00 394.25 2726.26
   23:55:16.862.23-Feb-2020 3441.51 5713.41 56.61 1.00 394.45 2726.26
   23:55:17.062.23-Feb-2020 3441.51 5706.55 56.61 1.00 394.65 2726.26
   23:55:17.262.23-Feb-2020 3441.51 5711.59 56.61 1.00 394.85 2726.26
   23:55:17.462.23-Feb-2020 3441.51 5707.47 56.61 1.00 395.05 2726.26
   23:55:17.662.23-Feb-2020 3441.51 5707.47 56.61 1.00 395.25 2726.26
   23:55:17.862.23-Feb-2020 3441.51 5707.87 56.61 1.00 395.45 2726.26
   23:55:18.062.23-Feb-2020 3441.51 5706.90 56.61 1.00 395.65 2726.26
   23:55:18.262.23-Feb-2020 3441.51 5707.90 56.61 1.00 395.85 2726.26
   23:55:18.462.23-Feb-2020 3441.51 5708.53 56.61 1.00 396.05 2726.26
   23:55:18.662.23-Feb-2020 3441.51 5708.53 56.61 1.00 396.25 2726.26
   23:55:18.862.23-Feb-2020 3441.51 5705.01 56.61 1.00 396.45 2726.26
   23:55:19.062.23-Feb-2020 3441.51 5708.28 56.61 1.00 396.65 2726.26
   23:55:19.262.23-Feb-2020 3441.51 5708.09 56.61 1.00 396.85 2726.26
   23:55:19.462.23-Feb-2020 3441.51 5707.50 56.61 1.00 397.05 2726.26
   23:55:19.662.23-Feb-2020 3441.51 5714.05 56.61 1.00 397.25 2726.26
   23:55:19.862.23-Feb-2020 3441.51 5701.50 56.61 1.00 397.45 2726.26
   23:55:20.062.23-Feb-2020 3441.51 5705.28 56.61 1.00 397.65 2726.26
   23:55:20.262.23-Feb-2020 3441.51 5713.43 56.61 1.00 397.85 2726.26
   23:55:20.462.23-Feb-2020 3441.51 5704.35 56.61 1.00 398.05 2726.26
   23:55:20.662.23-Feb-2020 3441.51 5717.84 56.61 1.00 398.25 2726.26
   23:55:20.862.23-Feb-2020 3441.51 5695.39 56.61 1.00 398.45 2726.26
   23:55:21.062.23-Feb-2020 3441.51 5716.98 56.61 1.00 398.65 2726.26
   23:55:21.262.23-Feb-2020 3441.51 5704.08 56.61 1.00 398.85 2726.26
   23:55:21.462.23-Feb-2020 3441.51 5710.15 56.61 1.00 399.05 2726.26
   23:55:21.662.23-Feb-2020 3441.51 5710.15 56.61 1.00 399.25 2726.26
   23:55:21.862.23-Feb-2020 3441.51 5695.80 56.61 1.00 399.45 2726.26
   23:55:22.062.23-Feb-2020 3441.51 5712.13 56.61 1.00 399.65 2726.26
   23:55:22.262.23-Feb-2020 3441.51 5710.36 56.61 1.00 399.85 2726.26
   23:55:22.462.23-Feb-2020 3441.51 5707.05 56.61 1.00 400.05 2726.26
   23:55:22.662.23-Feb-2020 3441.51 5721.78 56.61 1.00 400.25 2726.26
   23:55:22.862.23-Feb-2020 3441.51 5694.63 56.61 1.00 400.45 2726.26
   23:55:23.062.23-Feb-2020 3441.51 5712.08 56.61 1.00 400.65 2726.26
   23:55:23.262.23-Feb-2020 3441.51 5710.21 56.61 1.00 400.85 2726.26
   23:55:23.462.23-Feb-2020 3441.51 5706.55 56.61 1.00 401.05 2726.26
   23:55:23.662.23-Feb-2020 3441.51 5706.55 56.61 1.00 401.25 2726.26
   23:55:23.862.23-Feb-2020 3441.51 5706.73 56.61 1.00 401.45 2726.26
   23:55:24.062.23-Feb-2020 3441.51 5708.55 56.61 1.00 401.65 2726.26
   23:55:24.262.23-Feb-2020 3441.51 5706.82 56.61 1.00 401.85 2726.26
   23:55:24.462.23-Feb-2020 3441.51 5706.83 56.61 1.00 402.05 2726.26
   23:55:24.662.23-Feb-2020 3441.51 5706.83 56.61 1.00 402.25 2726.26
   23:55:24.862.23-Feb-2020 3441.51 5707.55 56.61 1.00 402.45 2726.26
   23:55:25.063.23-Feb-2020 3441.51 5706.97 56.61 1.00 402.65 2726.26
   23:55:25.263.23-Feb-2020 3441.51 5707.52 56.61 1.00 402.85 2726.26
   23:55:25.463.23-Feb-2020 3441.51 5707.64 56.61 1.00 403.05 2726.26
   23:55:25.663.23-Feb-2020 3441.51 5707.64 56.61 1.00 403.25 2726.26
   23:55:25.863.23-Feb-2020 3441.51 5718.45 56.61 1.00 403.45 2726.26
   23:55:26.063.23-Feb-2020 3441.51 5695.20 56.61 1.00 403.65 2726.26
   23:55:26.263.23-Feb-2020 3441.51 5714.92 56.61 1.00 403.85 2726.26
   23:55:26.463.23-Feb-2020 3441.51 5706.93 56.61 1.00 404.05 2726.26
   23:55:26.663.23-Feb-2020 3441.51 5706.93 56.61 1.00 404.25 2726.26
   23:55:26.863.23-Feb-2020 3441.51 5708.52 56.61 1.00 404.45 2726.26
   23:55:27.063.23-Feb-2020 3441.51 5706.80 56.61 1.00 404.65 2726.26
   23:55:27.263.23-Feb-2020 3441.51 5707.19 56.61 1.00 404.85 2726.26
   23:55:27.463.23-Feb-2020 3441.51 5707.00 56.61 1.00 405.05 2726.26
   23:55:27.663.23-Feb-2020 3441.51 5707.55 56.61 1.00 405.25 2726.26
   23:55:27.863.23-Feb-2020 3441.51 5708.37 56.61 1.00 405.45 2726.26
   23:55:28.063.23-Feb-2020 3441.51 5707.61 56.61 1.00 405.65 2726.26
   23:55:28.263.23-Feb-2020 3441.51 5704.92 56.61 1.00 405.85 2726.26
   23:55:28.463.23-Feb-2020 3441.51 5707.87 56.61 1.00 406.05 2726.26
   23:55:28.663.23-Feb-2020 3441.51 5707.87 56.61 1.00 406.25 2726.26
   23:55:28.863.23-Feb-2020 3441.51 5707.38 56.61 1.00 406.45 2726.26
   23:55:29.063.23-Feb-2020 3441.51 5708.80 56.61 1.00 406.65 2726.26
   23:55:29.263.23-Feb-2020 3441.51 5715.03 56.61 1.00 406.85 2726.26
   23:55:29.463.23-Feb-2020 3441.51 5694.95 56.61 1.00 407.05 2726.26
   23:55:29.663.23-Feb-2020 3441.51 5694.95 56.61 1.00 407.25 2726.26
   23:55:29.863.23-Feb-2020 3441.51 5704.74 56.61 1.00 407.45 2726.26
   23:55:30.063.23-Feb-2020 3441.51 5718.90 56.61 1.00 407.65 2726.26
   23:55:30.263.23-Feb-2020 3441.51 5697.03 56.61 1.00 407.85 2726.26
   23:55:30.463.23-Feb-2020 3441.51 5710.57 56.61 1.00 408.05 2726.26
   23:55:30.663.23-Feb-2020 3441.51 5710.57 56.61 1.00 408.25 2726.26
   23:55:30.863.23-Feb-2020 3441.51 5706.25 56.61 1.00 408.45 2726.26
   23:55:31.063.23-Feb-2020 3441.51 5710.10 56.61 1.00 408.65 2726.26
   23:55:31.263.23-Feb-2020 3441.51 5716.04 56.61 1.00 408.85 2726.26
   23:55:31.463.23-Feb-2020 3441.51 5696.02 56.61 1.00 409.05 2726.26
   23:55:31.663.23-Feb-2020 3441.51 5696.02 56.61 1.00 409.25 2726.26
   23:55:31.863.23-Feb-2020 3441.51 5706.54 56.61 1.00 409.45 2726.26
   23:55:32.063.23-Feb-2020 3441.51 5716.33 56.61 1.00 409.65 2726.26
   23:55:32.263.23-Feb-2020 3441.51 5704.97 56.61 1.00 409.85 2726.26
   23:55:32.463.23-Feb-2020 3441.51 5702.83 56.61 1.00 410.05 2726.26
   23:55:32.663.23-Feb-2020 3441.51 5716.66 56.61 1.00 410.25 2726.26
   23:55:32.863.23-Feb-2020 3441.51 5704.72 56.61 1.00 410.45 2726.26
   23:55:33.063.23-Feb-2020 3441.51 5710.56 56.61 1.00 410.65 2726.26
   23:55:33.263.23-Feb-2020 3441.51 5707.54 56.61 1.00 410.85 2726.26
   23:55:33.463.23-Feb-2020 3441.51 5708.55 56.61 1.00 411.05 2726.26
   23:55:33.663.23-Feb-2020 3441.51 5708.55 56.61 1.00 411.25 2726.26
   23:55:33.864.23-Feb-2020 3441.51 5707.18 56.61 1.00 411.45 2726.26
   23:55:34.064.23-Feb-2020 3441.51 5708.22 56.61 1.00 411.65 2726.26
   23:55:34.264.23-Feb-2020 3441.51 5707.77 56.61 1.00 411.85 2726.26
   23:55:34.464.23-Feb-2020 3441.51 5707.29 56.61 1.00 412.05 2726.26
   23:55:34.664.23-Feb-2020 3441.51 5707.29 56.61 1.00 412.25 2726.26
   23:55:34.864.23-Feb-2020 3441.51 5707.79 56.61 1.00 412.45 2726.26
   23:55:35.064.23-Feb-2020 3441.51 5707.32 56.61 1.00 412.65 2726.26
   23:55:35.264.23-Feb-2020 3441.51 5720.12 56.61 1.00 412.85 2726.26
   23:55:35.464.23-Feb-2020 3441.51 5696.75 56.61 1.00 413.05 2726.26
   23:55:35.664.23-Feb-2020 3441.51 5710.90 56.61 1.00 413.25 2726.26
   23:55:35.864.23-Feb-2020 3441.51 5709.56 56.61 1.00 413.45 2726.26
   23:55:36.064.23-Feb-2020 3441.51 5708.05 56.61 1.00 413.65 2726.26
   23:55:36.264.23-Feb-2020 3441.51 5709.41 56.61 1.00 413.85 2726.26
