~Version Information
 VERS.                  2.0:   CWLS log ASCII Standard -VERSION 2.0
 WRAP.                   NO:   One line per depth step
~Well Information Block
#MNEM.UNIT     VALUE/NAME     DESCRIPTION
#---------     -----------    ---------------------------
 STRT.S             01:26:08 24-Feb-20: START TIME 01:26:08 24-Feb-20
 STOP.S             01:33:25 24-Feb-20: STOP TIME  01:33:25 24-Feb-20
 STEP.S                   0.00: STEP TIME
 NULL.                 -999.25: NULL VALUE
 JOBN.        AZ-XX-0905059384:  JOB TICKET NUMB
 PDAT.          Mean Sea Level:  PERMANENT DATUM
 UNIT.                     N/A:  LOGGING EQUIPMENT ID
 DCON.         Sperry Drilling:  DIRECTNL CONTR
 DOE .                     N/A:  DOE NUMBER
 RIG .             West Chirag:  RIG NAME
 WELL.                     J22:  WELL NAME
 MWDS.                    Baku:  MWD SHOP
 SRVC.     TURAN Drilling & Engineering:  CONTRACTOR
 FLD .                     ACG:  FIELD NAME
 CTRY.              Azerbaijan:  COUNTRY NAME
 PROV.                    Baku:  PROVINCE
 STAT.                    Baku:  STATE NAME
 REGN.                   EESSA:  REGION
 BASE.              Azerbaijan:  LOGGING EQUIPMENT BASE LOCATION
 UWI .                     N/A:  UNIQUE WELL IDENTIFIER
 API .                     N/A:  API NUMBER
 COMP.     BP Exploration (Caspian Sea) Ltd.:  COMPANY
 WTYP.                Deviated:  WELL TYPE
 MDS .        Operator Entered:  MAG DATA SOURCE
 SON .        AZ-XX-0905059384:  JOB NUMBER
 FTOP.          Formation Tops:  FORM TOPS DESC
 ILTD.               Lithology:  INTERP LTH DESC
 SVYD.                  Survey:  SURVEY DESC
 DMOD.             Drill Model:  DRILL MOD DESC
 HPTY.       Minimum Curvature:  HOLE POS TYPE
 NREF.                    Grid:  NORTH REFERENCE
 SPUD.               09-Jan-20:  SPUD DATE
 DATE.      14.04.48 07-Feb-20:  END TIME
 STIM.      07.00.00 09-Jan-20:  START TIME
 DMF .             Drill Floor:  DRILL MEAS FROM
 DFST.                        :  DIST FSL TEXT
 DFWT.                        :  DIST FWL TEXT
 CNTY.                        :  COUNTY
 LOC .                        :  LOCATION
 LMF .             Drill Floor:  LOG MEASURED FROM
 DEP .m                   0.00:  DEPTH
 VSNS.m                  10.28:  VERT SEC N/S
 VSEW.m                  -6.24:  VERT SEC E/W
 AGAP.m                  43.00:  AIR GAP
 APD .m                  43.00:  DEPTH ABOVE PD
 WDMS.m                 169.80:  WD ELEV
 EGL .m                   0.00:  GROUND ELEVATION
 EPD .m                   0.00:  ELEVATION
 AZTC.deg                 6.27:  AZM TOTAL CORR
 GRDC.deg                 0.15:  GRID CORRECTION
 MDEC.deg                 6.42:  MAGNETIC DECL
 MDIP.deg                59.56:  MAGNETIC DIP
 MFLD.nT              50277.00:  MAGNETIC FIELD
 GVFD.g                   1.00:  GRAVITY FIELD
 VSDR.deg               148.53:  VERT SEC DIRECT
 TDD .m                3473.01:  TOTAL DEPTH (DRILLER)
 SDEP.m                 364.00:  START DEPTH
 DFSL.m                   0.00:  DISTANCE FSL
 DFWL.m                   0.00:  DISTANCE FWL
 UTMY.m             4443793.85:  UTM Y
 UTMX.m              519005.06:  UTM X
 WHEW.m                  -6.24:  WELL HEAD E/W
 WHNS.m                  10.28:  WELL HEAD N/S
 LONG.deg                51.22:  LONGITUDE
 LATI.deg                40.13:  LATITUDE
 TVDS.m                  43.00:  TVDSS CORRECTN
 EKB .m                   0.00:  KB ELEVATION
 EDF .m                  43.00:  DF ELEVATION
 TDL .m                 254.00:  TOTAL DEPTH (LOGGER)
 MAGU.                 1850021:  MAGUTM CHECKSUM
 VSC .                       0:  VS TO CLOSURE
~Parameter Information Block
#MNEM.UNIT       Value        Description
#---------     -----------    ---------------------------
 AV  .mps                 0.50:  Ann Velocity 
 AVMX.mps                 1.40:  Max Ann Veloc 
 AZIF.deg               144.94:  Azm, Final 
 BHAT.        Rotary Steerable:  BHA Type 
 BROT.°/30m               0.23:  Build Rotating 
 BS  .in                  8.50:  Bit Size 
 BTPL.psig              264.00:  Bit Press Loss 
 CABU.                     Yes:  Customer Abuse 
 TCS .hr                 87.30:  Time Ciculation Ended 
 CV  .mps                 2.45:  Crit Velocity 
 CVMX.mps                 2.74:  Max Crit Veloc 
 DD1 .             Aziz Aliyev:  Direct Drillr 1 
 DDSV.               Geo-Pilot:  DD Service 
 DEFF.%                 100.00:  % Det Eff 
 DLRX.°/30m               1.22:  Dogleg Rot Max 
 DLSO.°/30m               0.52:  Dogleg Oriented 
 DLSX.°/30m               1.22:  Dogleg Str Max 
 DRET.      12.59.00 23-Feb-20:  Drill End Time 
 DRST.      09.44.00 18-Feb-20:  Drill Start Tim 
 DTIM.hr                 23.03:  Time Drilling 
 EDEP.m                3473.01:  End Depth 
 ENG1.         Almaz Almadatov:  Engineer 1 
 ENG2.         Dair Mahammadov:  Engineer 2 
 ENG3.          Nazrin Asgarli:  Engineer 3 
 ETIM.      10.33.36 26-Feb-20:  End Time 
 FLOI.gpm               480.00:  Flow In 
 FLON.gpm               300.00:  Flow In Min 
 FLOS.cptm                1.00:  Fluid Loss 
 FLOX.gpm               550.00:  Flow In Max 
 HFLO.                      No:  High Flow 
 HPRE.                      No:  High Pressure 
 HTEM.                      No:  High Temp 
 HYDO.m                   1.80:  Hydro Offset 
 IFIN.deg                74.42:  Inc, Final 
 IMAX.deg                76.14:  Inc Max 
 IMIN.deg                74.42:  Inc Min 
 IMND.m                3462.72:  Inc Min Depth 
 IMXD.m                3235.69:  Inc Max Depth 
 JARR.                      No:  Jarring 
 LETM.      12.59.00 23-Feb-20:  Log End Time 
 LOST.hr                     0:  Lost Rig Time 
 LSTM.      09.44.00 18-Feb-20:  Log Start Time 
 MDCL.ppm             45000.00:  Mud Chlorides 
 MDES.     Inversion Oil/Synthetic:  Mud Desc 
 DFD .sg                  1.38:  Mud Density 
 MDMN.sg                  1.34:  Dens Mud Min 
 MDMX.sg                  1.49:  Dens Mud Max 
 MOIL.                      67:  Run Mud Oil % 
 MOWR.                   67:33:  Run Mud OWR 
 MSND.                    0.12:  Run Mud Sand % 
 MSOL.                      22:  Run Mud Solids% 
 DFV .spqt               81.00:  Mud Viscosity 
 MWOD.in                  6.75:  MWD Tool OD 
 MWSI.                      No:  Serv Intrp, MWD 
 OTIM.hr                231.44:  Time Operating 
 PCON.          Wear / Scratch:  Pad Condition 
 PMAX.psia             3400.00:  Press Op, Max 
 PV  .cP                 55.00:  Mud PV 
 RUN .                     800:  Run Number 
 ROPA.m/hr               12.00:  ROP Avg 
 ROPN.m/hr                5.00:  ROP Min 
 ROPX.m/hr               28.00:  ROP Max 
 RPMA.rpm               120.00:  RPM Surface Avg 
 RPMN.rpm                40.00:  RPM Surface Min 
 RPMX.rpm               130.00:  RPM Surface Max 
 RRUN.                    0800:  Rig Run Number 
 RTIM.hr                 45.00:  Time Reaming 
 SAZI.deg               145.38:  Azm, Start 
 SDEP.m                3219.01:  Start Depth 
 SIDD.                      No:  Serv Intrp, DD 
 SINC.deg                75.11:  Inc, Start 
 SPPA.psig             2400.00:  SPP Avg 
 SPPN.psig             2320.00:  SPP Min 
 SPPX.psig             3200.00:  SPP Max 
 STIM.      15.15.00 17-Feb-20:  Start Time 
 SVCS.                 DD, MWD:  Services 
 SVER.                    9.20:  Sperry Version 
 TDAT.m                 254.00:  Tot Depth Attmp 
 TDDF.                      No:  Trip for DD 
 TDLG.m                 254.00:  Tot Depth Loggd 
 TFF .                      No:  Trip for Fail 
 TQAA.f-kp               13.00:  Torque Abs Avg 
 TQAN.f-kp                7.00:  Torque Abs Min 
 TQAX.f-kp               15.00:  Torque Abs Max 
 TRRT.°/30m               0.21:  Turn Rotating 
 MRT .                  EWR-M5:  Maximum Recorded Temperature 
 TTMX.degC               64.00:  Max Tool Temp 
 VS01.                90586516:  Virtual Str1 SN 
 VS02.                90513691:  Virtual Str2 SN 
 VS03.                90586523:  Virtual Str3 SN 
 VS04.                90586520:  Virtual Str4 SN 
 VS05.                90590507:  Virtual Str5 SN 
 WBMN.klb                12.00:  WOB Min 
 WITN.           Rufat Babayev:  Customer Rep 2 
 WITN.         Alistair Sprott:  Customer Rep 
 WOBA.klb                18.00:  WOB Avg 
 WOBX.klb                30.00:  WOB Max 
 YP  .lhf2               41.00:  Yield Point 
~Curve Information Block
#MNEM.UNIT                 API CODE     Curve Description
#---------               -----------    ---------------------------
 TIME.HHMMSS            00 000 000 000:  GT Time & Date
 GTDEPTH.m              00 000 000 000:  GT Depth
 GTPQH.psia             00 000 000 000:  GT HR Quartz Pressure
 GTTQ.degC              00 000 000 000:  GT Quartz Temperature
 GTTN.NONE              00 000 000 000:  GT Test Number
 GTET.sec               00 000 000 000:  GT Elapsed Test Time
 GTTVD.m                00 000 000 000:  GT True Vertical Depth
#Other Information
#
#WARRANTY: Halliburton will use its best efforts to furnish customers with 
#accurate information and interpretations that are part of, and incident to, the services 
#provided.  However, Halliburton cannot and does not warrant the accuracy 
#or correctness of such information and interpretations.  Under no circumstances should any 
#such information or interpretation be relied upon as the sole basis for any drilling, 
#completion, production, or financial decision or any procedure involving any risk to the 
#safety of any drilling venture, drilling rig or its crew or any other third party.  The 
#Customer has full responsibility for all drilling, completion and production operation.  
#Halliburton makes no representations or warranties, either expressed or 
#implied, including, but not limited to, the implied warranties of merchantability or fitness 
#for a particular purpose, with respect to the services rendered.  In no event will 
#Halliburton be liable for failure to obtain any particular results or for 
#any damages, including, but not limited to, indirect, special or consequential damages, 
#resulting from the use of any information or interpretation provided by Halliburton.
#
~A           TIME           GTDEPTH  GTPQH  GTTQ  GTTN  GTET   GTTVD  
# ...
   01:31:07.224.24-Feb-2020 3405.01 4215.16 56.82 3.00 299.06 2716.73
   01:31:07.424.24-Feb-2020 3405.01 4215.13 56.82 3.00 299.26 2716.73
   01:31:07.624.24-Feb-2020 3405.01 4215.17 56.82 3.00 299.46 2716.73
   01:31:07.824.24-Feb-2020 3405.01 4215.17 56.82 3.00 299.66 2716.73
   01:31:08.024.24-Feb-2020 3405.01 4215.15 56.82 3.00 299.86 2716.73
   01:31:08.224.24-Feb-2020 3405.01 4215.14 56.82 3.00 300.06 2716.73
   01:31:08.424.24-Feb-2020 3405.01 4215.14 56.82 3.00 300.26 2716.73
   01:31:08.624.24-Feb-2020 3405.01 4215.16 56.82 3.00 300.46 2716.73
   01:31:08.824.24-Feb-2020 3405.01 4215.16 56.82 3.00 300.66 2716.73
   01:31:09.024.24-Feb-2020 3405.01 4215.18 56.82 3.00 300.86 2716.73
   01:31:09.224.24-Feb-2020 3405.01 4215.15 56.82 3.00 301.06 2716.73
   01:31:09.424.24-Feb-2020 3405.01 4215.15 56.82 3.00 301.26 2716.73
   01:31:09.624.24-Feb-2020 3405.01 4214.92 56.82 3.00 301.46 2716.73
   01:31:09.824.24-Feb-2020 3405.01 4215.51 56.82 3.00 301.66 2716.73
   01:31:10.024.24-Feb-2020 3405.01 4215.17 56.82 3.00 301.86 2716.73
   01:31:10.224.24-Feb-2020 3405.01 4215.05 56.82 3.00 302.06 2716.73
   01:31:10.424.24-Feb-2020 3405.01 4215.05 56.82 3.00 302.26 2716.73
   01:31:10.624.24-Feb-2020 3405.01 4215.28 56.82 3.00 302.46 2716.73
   01:31:10.824.24-Feb-2020 3405.01 4215.13 56.82 3.00 302.66 2716.73
   01:31:11.024.24-Feb-2020 3405.01 4215.09 56.82 3.00 302.86 2716.73
   01:31:11.225.24-Feb-2020 3405.01 4215.15 56.82 3.00 303.06 2716.73
   01:31:11.425.24-Feb-2020 3405.01 4215.21 56.82 3.00 303.26 2716.73
   01:31:11.625.24-Feb-2020 3405.01 4215.16 56.82 3.00 303.46 2716.73
   01:31:11.825.24-Feb-2020 3405.01 4215.15 56.82 3.00 303.66 2716.73
   01:31:12.025.24-Feb-2020 3405.01 4214.94 56.82 3.00 303.86 2716.73
   01:31:12.225.24-Feb-2020 3405.01 4215.51 56.82 3.00 304.06 2716.73
   01:31:12.425.24-Feb-2020 3405.01 4215.51 56.82 3.00 304.26 2716.73
   01:31:12.625.24-Feb-2020 3405.01 4215.07 56.82 3.00 304.46 2716.73
   01:31:12.825.24-Feb-2020 3405.01 4215.26 56.82 3.00 304.66 2716.73
   01:31:13.025.24-Feb-2020 3405.01 4215.14 56.82 3.00 304.86 2716.73
   01:31:13.225.24-Feb-2020 3405.01 4215.09 56.82 3.00 305.06 2716.73
   01:31:13.425.24-Feb-2020 3405.01 4215.09 56.82 3.00 305.26 2716.73
   01:31:13.625.24-Feb-2020 3405.01 4215.20 56.82 3.00 305.46 2716.73
   01:31:13.825.24-Feb-2020 3405.01 4215.15 56.82 3.00 305.66 2716.73
   01:31:14.025.24-Feb-2020 3405.01 4215.15 56.82 3.00 305.86 2716.73
   01:31:14.225.24-Feb-2020 3405.01 4215.16 56.82 3.00 306.06 2716.73
   01:31:14.425.24-Feb-2020 3405.01 4215.16 56.82 3.00 306.26 2716.73
   01:31:14.625.24-Feb-2020 3405.01 4215.15 56.82 3.00 306.46 2716.73
   01:31:14.825.24-Feb-2020 3405.01 4215.16 56.82 3.00 306.66 2716.73
   01:31:15.025.24-Feb-2020 3405.01 4215.15 56.82 3.00 306.86 2716.73
   01:31:15.225.24-Feb-2020 3405.01 4215.16 56.82 3.00 307.06 2716.73
   01:31:15.425.24-Feb-2020 3405.01 4215.18 56.81 3.00 307.26 2716.73
   01:31:15.625.24-Feb-2020 3405.01 4215.16 56.81 3.00 307.46 2716.73
   01:31:15.825.24-Feb-2020 3405.01 4215.13 56.81 3.00 307.66 2716.73
   01:31:16.026.24-Feb-2020 3405.01 4215.00 56.81 3.00 307.86 2716.73
   01:31:16.226.24-Feb-2020 3405.01 4215.39 56.81 3.00 308.06 2716.73
   01:31:16.426.24-Feb-2020 3405.01 4215.39 56.81 3.00 308.26 2716.73
   01:31:16.626.24-Feb-2020 3405.01 4215.10 56.81 3.00 308.46 2716.73
   01:31:16.826.24-Feb-2020 3405.01 4215.15 56.81 3.00 308.66 2716.73
   01:31:17.026.24-Feb-2020 3405.01 4215.14 56.81 3.00 308.86 2716.73
   01:31:17.226.24-Feb-2020 3405.01 4215.17 56.81 3.00 309.06 2716.73
   01:31:17.426.24-Feb-2020 3405.01 4215.17 56.81 3.00 309.26 2716.73
   01:31:17.626.24-Feb-2020 3405.01 4215.15 56.81 3.00 309.46 2716.73
   01:31:17.826.24-Feb-2020 3405.01 4215.18 56.81 3.00 309.66 2716.73
   01:31:18.026.24-Feb-2020 3405.01 4215.16 56.81 3.00 309.86 2716.73
   01:31:18.226.24-Feb-2020 3405.01 4215.15 56.81 3.00 310.06 2716.73
   01:31:18.426.24-Feb-2020 3405.01 4215.15 56.81 3.00 310.26 2716.73
   01:31:18.626.24-Feb-2020 3405.01 4215.16 56.81 3.00 310.46 2716.73
   01:31:18.826.24-Feb-2020 3405.01 4215.17 56.81 3.00 310.66 2716.73
   01:31:19.026.24-Feb-2020 3405.01 4215.18 56.81 3.00 310.86 2716.73
   01:31:19.226.24-Feb-2020 3405.01 4215.24 56.81 3.00 311.06 2716.73
   01:31:19.426.24-Feb-2020 3405.01 4215.12 56.81 3.00 311.26 2716.73
   01:31:19.626.24-Feb-2020 3405.01 4215.08 56.81 3.00 311.46 2716.73
   01:31:19.826.24-Feb-2020 3405.01 4215.16 56.81 3.00 311.66 2716.73
   01:31:20.026.24-Feb-2020 3405.01 4215.40 56.81 3.00 311.87 2716.73
   01:31:20.226.24-Feb-2020 3405.01 4215.02 56.81 3.00 312.07 2716.73
   01:31:20.426.24-Feb-2020 3405.01 4215.02 56.81 3.00 312.27 2716.73
   01:31:20.626.24-Feb-2020 3405.01 4215.20 56.81 3.00 312.47 2716.73
   01:31:20.827.24-Feb-2020 3405.01 4215.20 56.81 3.00 312.67 2716.73
   01:31:21.027.24-Feb-2020 3405.01 4215.16 56.81 3.00 312.87 2716.73
   01:31:21.227.24-Feb-2020 3405.01 4215.13 56.81 3.00 313.07 2716.73
   01:31:21.427.24-Feb-2020 3405.01 4215.13 56.81 3.00 313.27 2716.73
   01:31:21.627.24-Feb-2020 3405.01 4215.26 56.81 3.00 313.47 2716.73
   01:31:21.827.24-Feb-2020 3405.01 4215.10 56.81 3.00 313.67 2716.73
   01:31:22.027.24-Feb-2020 3405.01 4215.09 56.81 3.00 313.87 2716.73
   01:31:22.227.24-Feb-2020 3405.01 4215.32 56.81 3.00 314.07 2716.73
   01:31:22.427.24-Feb-2020 3405.01 4215.32 56.81 3.00 314.27 2716.73
   01:31:22.627.24-Feb-2020 3405.01 4215.07 56.81 3.00 314.47 2716.73
   01:31:22.827.24-Feb-2020 3405.01 4215.17 56.81 3.00 314.67 2716.73
   01:31:23.027.24-Feb-2020 3405.01 4215.22 56.81 3.00 314.87 2716.73
   01:31:23.227.24-Feb-2020 3405.01 4215.17 56.81 3.00 315.07 2716.73
   01:31:23.427.24-Feb-2020 3405.01 4215.17 56.81 3.00 315.27 2716.73
   01:31:23.627.24-Feb-2020 3405.01 4215.17 56.81 3.00 315.47 2716.73
   01:31:23.827.24-Feb-2020 3405.01 4215.16 56.81 3.00 315.67 2716.73
   01:31:24.027.24-Feb-2020 3405.01 4215.16 56.81 3.00 315.87 2716.73
   01:31:24.227.24-Feb-2020 3405.01 4215.16 56.81 3.00 316.07 2716.73
   01:31:24.427.24-Feb-2020 3405.01 4215.16 56.81 3.00 316.27 2716.73
   01:31:24.627.24-Feb-2020 3405.01 4215.15 56.81 3.00 316.47 2716.73
   01:31:24.827.24-Feb-2020 3405.01 4215.17 56.81 3.00 316.67 2716.73
   01:31:25.027.24-Feb-2020 3405.01 4215.18 56.81 3.00 316.87 2716.73
   01:31:25.227.24-Feb-2020 3405.01 4215.16 56.81 3.00 317.07 2716.73
   01:31:25.427.24-Feb-2020 3405.01 4215.16 56.81 3.00 317.27 2716.73
   01:31:25.628.24-Feb-2020 3405.01 4215.48 56.81 3.00 317.47 2716.73
   01:31:25.828.24-Feb-2020 3405.01 4215.19 56.81 3.00 317.67 2716.73
   01:31:26.028.24-Feb-2020 3405.01 4215.05 56.81 3.00 317.87 2716.73
   01:31:26.228.24-Feb-2020 3405.01 4215.18 56.81 3.00 318.07 2716.73
   01:31:26.428.24-Feb-2020 3405.01 4215.18 56.81 3.00 318.27 2716.73
   01:31:26.628.24-Feb-2020 3405.01 4215.14 56.81 3.00 318.47 2716.73
   01:31:26.828.24-Feb-2020 3405.01 4215.18 56.81 3.00 318.67 2716.73
   01:31:27.028.24-Feb-2020 3405.01 4215.15 56.81 3.00 318.87 2716.73
   01:31:27.228.24-Feb-2020 3405.01 4215.16 56.81 3.00 319.07 2716.73
   01:31:27.428.24-Feb-2020 3405.01 4215.18 56.81 3.00 319.27 2716.73
   01:31:27.628.24-Feb-2020 3405.01 4215.17 56.81 3.00 319.47 2716.73
   01:31:27.828.24-Feb-2020 3405.01 4215.16 56.81 3.00 319.67 2716.73
   01:31:28.028.24-Feb-2020 3405.01 4215.15 56.81 3.00 319.87 2716.73
   01:31:28.228.24-Feb-2020 3405.01 4215.18 56.81 3.00 320.07 2716.73
   01:31:28.428.24-Feb-2020 3405.01 4215.18 56.81 3.00 320.27 2716.73
   01:31:28.628.24-Feb-2020 3405.01 4215.34 56.81 3.00 320.47 2716.73
   01:31:28.828.24-Feb-2020 3405.01 4215.02 56.81 3.00 320.67 2716.73
   01:31:29.028.24-Feb-2020 3405.01 4215.09 56.81 3.00 320.87 2716.73
   01:31:29.228.24-Feb-2020 3405.01 4215.18 56.81 3.00 321.07 2716.73
   01:31:29.428.24-Feb-2020 3405.01 4215.21 56.81 3.00 321.27 2716.73
   01:31:29.628.24-Feb-2020 3405.01 4215.14 56.81 3.00 321.47 2716.73
   01:31:29.828.24-Feb-2020 3405.01 4214.97 56.81 3.00 321.67 2716.73
   01:31:30.028.24-Feb-2020 3405.01 4215.40 56.81 3.00 321.87 2716.73
