~Version Information
 VERS.                  2.0:   CWLS log ASCII Standard -VERSION 2.0
 WRAP.                   NO:   One line per depth step
~Well Information Block
#MNEM.UNIT     VALUE/NAME     DESCRIPTION
#---------     -----------    ---------------------------
 STRT.S             02:47:37 24-Feb-20: START TIME 02:47:37 24-Feb-20
 STOP.S             02:54:57 24-Feb-20: STOP TIME  02:54:57 24-Feb-20
 STEP.S                   0.00: STEP TIME
 NULL.                 -999.25: NULL VALUE
 JOBN.        AZ-XX-0905059384:  JOB TICKET NUMB
 PDAT.          Mean Sea Level:  PERMANENT DATUM
 UNIT.                     N/A:  LOGGING EQUIPMENT ID
 DCON.         Sperry Drilling:  DIRECTNL CONTR
 DOE .                     N/A:  DOE NUMBER
 RIG .             West Chirag:  RIG NAME
 WELL.                     J22:  WELL NAME
 MWDS.                    Baku:  MWD SHOP
 SRVC.     TURAN Drilling & Engineering:  CONTRACTOR
 FLD .                     ACG:  FIELD NAME
 CTRY.              Azerbaijan:  COUNTRY NAME
 PROV.                    Baku:  PROVINCE
 STAT.                    Baku:  STATE NAME
 REGN.                   EESSA:  REGION
 BASE.              Azerbaijan:  LOGGING EQUIPMENT BASE LOCATION
 UWI .                     N/A:  UNIQUE WELL IDENTIFIER
 API .                     N/A:  API NUMBER
 COMP.     BP Exploration (Caspian Sea) Ltd.:  COMPANY
 WTYP.                Deviated:  WELL TYPE
 MDS .        Operator Entered:  MAG DATA SOURCE
 SON .        AZ-XX-0905059384:  JOB NUMBER
 FTOP.          Formation Tops:  FORM TOPS DESC
 ILTD.               Lithology:  INTERP LTH DESC
 SVYD.                  Survey:  SURVEY DESC
 DMOD.             Drill Model:  DRILL MOD DESC
 HPTY.       Minimum Curvature:  HOLE POS TYPE
 NREF.                    Grid:  NORTH REFERENCE
 SPUD.               09-Jan-20:  SPUD DATE
 DATE.      14.04.48 07-Feb-20:  END TIME
 STIM.      07.00.00 09-Jan-20:  START TIME
 DMF .             Drill Floor:  DRILL MEAS FROM
 DFST.                        :  DIST FSL TEXT
 DFWT.                        :  DIST FWL TEXT
 CNTY.                        :  COUNTY
 LOC .                        :  LOCATION
 LMF .             Drill Floor:  LOG MEASURED FROM
 DEP .m                   0.00:  DEPTH
 VSNS.m                  10.28:  VERT SEC N/S
 VSEW.m                  -6.24:  VERT SEC E/W
 AGAP.m                  43.00:  AIR GAP
 APD .m                  43.00:  DEPTH ABOVE PD
 WDMS.m                 169.80:  WD ELEV
 EGL .m                   0.00:  GROUND ELEVATION
 EPD .m                   0.00:  ELEVATION
 AZTC.deg                 6.27:  AZM TOTAL CORR
 GRDC.deg                 0.15:  GRID CORRECTION
 MDEC.deg                 6.42:  MAGNETIC DECL
 MDIP.deg                59.56:  MAGNETIC DIP
 MFLD.nT              50277.00:  MAGNETIC FIELD
 GVFD.g                   1.00:  GRAVITY FIELD
 VSDR.deg               148.53:  VERT SEC DIRECT
 TDD .m                3473.01:  TOTAL DEPTH (DRILLER)
 SDEP.m                 364.00:  START DEPTH
 DFSL.m                   0.00:  DISTANCE FSL
 DFWL.m                   0.00:  DISTANCE FWL
 UTMY.m             4443793.85:  UTM Y
 UTMX.m              519005.06:  UTM X
 WHEW.m                  -6.24:  WELL HEAD E/W
 WHNS.m                  10.28:  WELL HEAD N/S
 LONG.deg                51.22:  LONGITUDE
 LATI.deg                40.13:  LATITUDE
 TVDS.m                  43.00:  TVDSS CORRECTN
 EKB .m                   0.00:  KB ELEVATION
 EDF .m                  43.00:  DF ELEVATION
 TDL .m                 254.00:  TOTAL DEPTH (LOGGER)
 MAGU.                 1850021:  MAGUTM CHECKSUM
 VSC .                       0:  VS TO CLOSURE
~Parameter Information Block
#MNEM.UNIT       Value        Description
#---------     -----------    ---------------------------
 AV  .mps                 0.50:  Ann Velocity 
 AVMX.mps                 1.40:  Max Ann Veloc 
 AZIF.deg               144.94:  Azm, Final 
 BHAT.        Rotary Steerable:  BHA Type 
 BROT.°/30m               0.23:  Build Rotating 
 BS  .in                  8.50:  Bit Size 
 BTPL.psig              264.00:  Bit Press Loss 
 CABU.                     Yes:  Customer Abuse 
 COMM.                     D
_:  Run Comments 1 
 TCS .hr                 87.30:  Time Ciculation Ended 
 CV  .mps                 2.45:  Crit Velocity 
 CVMX.mps                 2.74:  Max Crit Veloc 
 DD1 .             Aziz Aliyev:  Direct Drillr 1 
 DDSV.               Geo-Pilot:  DD Service 
 DEFF.%                 100.00:  % Det Eff 
 DLRX.°/30m               1.22:  Dogleg Rot Max 
 DLSO.°/30m               0.52:  Dogleg Oriented 
 DLSX.°/30m               1.22:  Dogleg Str Max 
 DRET.      12.59.00 23-Feb-20:  Drill End Time 
 DRST.      09.44.00 18-Feb-20:  Drill Start Tim 
 DTIM.hr                 23.03:  Time Drilling 
 EDEP.m                3473.01:  End Depth 
 ENG1.         Almaz Almadatov:  Engineer 1 
 ENG2.         Dair Mahammadov:  Engineer 2 
 ENG3.          Nazrin Asgarli:  Engineer 3 
 ETIM.      10.33.36 26-Feb-20:  End Time 
 FLOI.gpm               480.00:  Flow In 
 FLON.gpm               300.00:  Flow In Min 
 FLOS.cptm                1.00:  Fluid Loss 
 FLOX.gpm               550.00:  Flow In Max 
 HFLO.                      No:  High Flow 
 HPRE.                      No:  High Pressure 
 HTEM.                      No:  High Temp 
 HYDO.m                   1.80:  Hydro Offset 
 IFIN.deg                74.42:  Inc, Final 
 IMAX.deg                76.14:  Inc Max 
 IMIN.deg                74.42:  Inc Min 
 IMND.m                3462.72:  Inc Min Depth 
 IMXD.m                3235.69:  Inc Max Depth 
 JARR.                      No:  Jarring 
 LETM.      12.59.00 23-Feb-20:  Log End Time 
 LOST.hr                     0:  Lost Rig Time 
 LSTM.      09.44.00 18-Feb-20:  Log Start Time 
 MDCL.ppm             45000.00:  Mud Chlorides 
 MDES.     Inversion Oil/Synthetic:  Mud Desc 
 DFD .sg                  1.38:  Mud Density 
 MDMN.sg                  1.34:  Dens Mud Min 
 MDMX.sg                  1.49:  Dens Mud Max 
 MOIL.                      67:  Run Mud Oil % 
 MOWR.                   67:33:  Run Mud OWR 
 MSND.                    0.12:  Run Mud Sand % 
 MSOL.                      22:  Run Mud Solids% 
 DFV .spqt               81.00:  Mud Viscosity 
 MWOD.in                  6.75:  MWD Tool OD 
 MWSI.                      No:  Serv Intrp, MWD 
 OTIM.hr                231.44:  Time Operating 
 PCON.          Wear / Scratch:  Pad Condition 
 PMAX.psia             3400.00:  Press Op, Max 
 PV  .cP                 55.00:  Mud PV 
 RUN .                     800:  Run Number 
 ROPA.m/hr               12.00:  ROP Avg 
 ROPN.m/hr                5.00:  ROP Min 
 ROPX.m/hr               28.00:  ROP Max 
 RPMA.rpm               120.00:  RPM Surface Avg 
 RPMN.rpm                40.00:  RPM Surface Min 
 RPMX.rpm               130.00:  RPM Surface Max 
 RRUN.                    0800:  Rig Run Number 
 RTIM.hr                 45.00:  Time Reaming 
 SAZI.deg               145.38:  Azm, Start 
 SDEP.m                3219.01:  Start Depth 
 SIDD.                      No:  Serv Intrp, DD 
 SINC.deg                75.11:  Inc, Start 
 SPPA.psig             2400.00:  SPP Avg 
 SPPN.psig             2320.00:  SPP Min 
 SPPX.psig             3200.00:  SPP Max 
 STIM.      15.15.00 17-Feb-20:  Start Time 
 SVCS.                 DD, MWD:  Services 
 SVER.                    9.20:  Sperry Version 
 TDAT.m                 254.00:  Tot Depth Attmp 
 TDDF.                      No:  Trip for DD 
 TDLG.m                 254.00:  Tot Depth Loggd 
 TFF .                      No:  Trip for Fail 
 TQAA.f-kp               13.00:  Torque Abs Avg 
 TQAN.f-kp                7.00:  Torque Abs Min 
 TQAX.f-kp               15.00:  Torque Abs Max 
 TRRT.°/30m               0.21:  Turn Rotating 
 MRT .                  EWR-M5:  Maximum Recorded Temperature 
 TTMX.degC               64.00:  Max Tool Temp 
 VS01.                90586516:  Virtual Str1 SN 
 VS02.                90513691:  Virtual Str2 SN 
 VS03.                90586523:  Virtual Str3 SN 
 VS04.                90586520:  Virtual Str4 SN 
 VS05.                90590507:  Virtual Str5 SN 
 WBMN.klb                12.00:  WOB Min 
 WITN.           Rufat Babayev:  Customer Rep 2 
 WITN.         Alistair Sprott:  Customer Rep 
 WOBA.klb                18.00:  WOB Avg 
 WOBX.klb                30.00:  WOB Max 
 YP  .lhf2               41.00:  Yield Point 
~Curve Information Block
#MNEM.UNIT                 API CODE     Curve Description
#---------               -----------    ---------------------------
 TIME.HHMMSS            00 000 000 000:  GT Time & Date
 GTDEPTH.m              00 000 000 000:  GT Depth
 GTPQH.psia             00 000 000 000:  GT HR Quartz Pressure
 GTTQ.degC              00 000 000 000:  GT Quartz Temperature
 GTTN.NONE              00 000 000 000:  GT Test Number
 GTET.sec               00 000 000 000:  GT Elapsed Test Time
 GTTVD.m                00 000 000 000:  GT True Vertical Depth
#Other Information
#
#WARRANTY: Halliburton will use its best efforts to furnish customers with 
#accurate information and interpretations that are part of, and incident to, the services 
#provided.  However, Halliburton cannot and does not warrant the accuracy 
#or correctness of such information and interpretations.  Under no circumstances should any 
#such information or interpretation be relied upon as the sole basis for any drilling, 
#completion, production, or financial decision or any procedure involving any risk to the 
#safety of any drilling venture, drilling rig or its crew or any other third party.  The 
#Customer has full responsibility for all drilling, completion and production operation.  
#Halliburton makes no representations or warranties, either expressed or 
#implied, including, but not limited to, the implied warranties of merchantability or fitness 
#for a particular purpose, with respect to the services rendered.  In no event will 
#Halliburton be liable for failure to obtain any particular results or for 
#any damages, including, but not limited to, indirect, special or consequential damages, 
#resulting from the use of any information or interpretation provided by Halliburton.
#
~A           TIME           GTDEPTH  GTPQH  GTTQ  GTTN  GTET   GTTVD  
# ...
   02:51:27.439.24-Feb-2020 3375.51 4203.91 55.82 5.00 230.09 2709.14
   02:51:27.640.24-Feb-2020 3375.51 4203.91 55.82 5.00 230.29 2709.14
   02:51:27.840.24-Feb-2020 3375.51 4203.71 55.82 5.00 230.49 2709.14
   02:51:28.040.24-Feb-2020 3375.51 4203.77 55.82 5.00 230.69 2709.14
   02:51:28.240.24-Feb-2020 3375.51 4203.81 55.82 5.00 230.89 2709.14
   02:51:28.440.24-Feb-2020 3375.51 4203.77 55.82 5.00 231.09 2709.14
   02:51:28.640.24-Feb-2020 3375.51 4203.77 55.82 5.00 231.29 2709.14
   02:51:28.840.24-Feb-2020 3375.51 4203.77 55.82 5.00 231.49 2709.14
   02:51:29.040.24-Feb-2020 3375.51 4203.80 55.82 5.00 231.69 2709.14
   02:51:29.240.24-Feb-2020 3375.51 4203.80 55.81 5.00 231.89 2709.14
   02:51:29.440.24-Feb-2020 3375.51 4203.77 55.81 5.00 232.09 2709.14
   02:51:29.640.24-Feb-2020 3375.51 4203.77 55.81 5.00 232.29 2709.14
   02:51:29.840.24-Feb-2020 3375.51 4203.79 55.81 5.00 232.49 2709.14
   02:51:30.040.24-Feb-2020 3375.51 4203.82 55.81 5.00 232.69 2709.14
   02:51:30.241.24-Feb-2020 3375.51 4203.78 55.81 5.00 232.89 2709.14
   02:51:30.441.24-Feb-2020 3375.51 4203.31 55.81 5.00 233.09 2709.14
   02:51:30.641.24-Feb-2020 3375.51 4203.31 55.81 5.00 233.29 2709.14
   02:51:30.841.24-Feb-2020 3375.51 4203.98 55.81 5.00 233.49 2709.14
   02:51:31.041.24-Feb-2020 3375.51 4203.70 55.81 5.00 233.69 2709.14
   02:51:31.241.24-Feb-2020 3375.51 4203.76 55.81 5.00 233.89 2709.14
   02:51:31.441.24-Feb-2020 3375.51 4203.83 55.81 5.00 234.09 2709.14
   02:51:31.641.24-Feb-2020 3375.51 4203.83 55.81 5.00 234.29 2709.14
   02:51:31.841.24-Feb-2020 3375.51 4203.77 55.81 5.00 234.49 2709.14
   02:51:32.041.24-Feb-2020 3375.51 4203.76 55.81 5.00 234.69 2709.14
   02:51:32.241.24-Feb-2020 3375.51 4203.80 55.81 5.00 234.89 2709.14
   02:51:32.441.24-Feb-2020 3375.51 4203.79 55.81 5.00 235.09 2709.14
   02:51:32.642.24-Feb-2020 3375.51 4203.79 55.81 5.00 235.29 2709.14
   02:51:32.842.24-Feb-2020 3375.51 4203.73 55.81 5.00 235.49 2709.14
   02:51:33.042.24-Feb-2020 3375.51 4203.79 55.81 5.00 235.69 2709.14
   02:51:33.242.24-Feb-2020 3375.51 4203.81 55.81 5.00 235.89 2709.14
   02:51:33.442.24-Feb-2020 3375.51 4203.78 55.81 5.00 236.09 2709.14
   02:51:33.642.24-Feb-2020 3375.51 4203.78 55.81 5.00 236.29 2709.14
   02:51:33.842.24-Feb-2020 3375.51 4203.82 55.81 5.00 236.49 2709.14
   02:51:34.042.24-Feb-2020 3375.51 4203.88 55.81 5.00 236.69 2709.14
   02:51:34.242.24-Feb-2020 3375.51 4203.68 55.81 5.00 236.89 2709.14
   02:51:34.442.24-Feb-2020 3375.51 4203.75 55.81 5.00 237.09 2709.14
   02:51:34.642.24-Feb-2020 3375.51 4203.75 55.81 5.00 237.29 2709.14
   02:51:34.842.24-Feb-2020 3375.51 4203.75 55.81 5.00 237.50 2709.14
   02:51:35.042.24-Feb-2020 3375.51 4203.78 55.81 5.00 237.70 2709.14
   02:51:35.243.24-Feb-2020 3375.51 4203.83 55.81 5.00 237.90 2709.14
   02:51:35.443.24-Feb-2020 3375.51 4203.72 55.81 5.00 238.10 2709.14
   02:51:35.643.24-Feb-2020 3375.51 4203.81 55.81 5.00 238.30 2709.14
   02:51:35.843.24-Feb-2020 3375.51 4203.79 55.81 5.00 238.50 2709.14
   02:51:36.043.24-Feb-2020 3375.51 4203.83 55.81 5.00 238.70 2709.14
   02:51:36.243.24-Feb-2020 3375.51 4203.92 55.81 5.00 238.90 2709.14
   02:51:36.443.24-Feb-2020 3375.51 4203.71 55.81 5.00 239.10 2709.14
   02:51:36.643.24-Feb-2020 3375.51 4203.71 55.81 5.00 239.30 2709.14
   02:51:36.843.24-Feb-2020 3375.51 4203.38 55.81 5.00 239.50 2709.14
   02:51:37.043.24-Feb-2020 3375.51 4204.26 55.81 5.00 239.70 2709.14
   02:51:37.243.24-Feb-2020 3375.51 4203.73 55.81 5.00 239.90 2709.14
   02:51:37.443.24-Feb-2020 3375.51 4203.84 55.81 5.00 240.10 2709.14
   02:51:37.644.24-Feb-2020 3375.51 4203.76 55.81 5.00 240.30 2709.14
   02:51:37.844.24-Feb-2020 3375.51 4203.74 55.81 5.00 240.50 2709.14
   02:51:38.044.24-Feb-2020 3375.51 4203.73 55.81 5.00 240.70 2709.14
   02:51:38.244.24-Feb-2020 3375.51 4203.78 55.81 5.00 240.90 2709.14
   02:51:38.444.24-Feb-2020 3375.51 4203.75 55.81 5.00 241.10 2709.14
   02:51:38.644.24-Feb-2020 3375.51 4203.75 55.81 5.00 241.30 2709.14
   02:51:38.844.24-Feb-2020 3375.51 4203.78 55.81 5.00 241.50 2709.14
   02:51:39.044.24-Feb-2020 3375.51 4203.77 55.81 5.00 241.70 2709.14
   02:51:39.244.24-Feb-2020 3375.51 4203.76 55.81 5.00 241.90 2709.14
   02:51:39.444.24-Feb-2020 3375.51 4203.77 55.81 5.00 242.10 2709.14
   02:51:39.644.24-Feb-2020 3375.51 4203.77 55.81 5.00 242.30 2709.14
   02:51:39.844.24-Feb-2020 3375.51 4203.79 55.81 5.00 242.50 2709.14
   02:51:40.044.24-Feb-2020 3375.51 4203.71 55.81 5.00 242.70 2709.14
   02:51:40.245.24-Feb-2020 3375.51 4203.75 55.81 5.00 242.90 2709.14
   02:51:40.445.24-Feb-2020 3375.51 4203.84 55.81 5.00 243.10 2709.14
   02:51:40.645.24-Feb-2020 3375.51 4203.84 55.81 5.00 243.30 2709.14
   02:51:40.845.24-Feb-2020 3375.51 4203.79 55.81 5.00 243.50 2709.14
   02:51:41.045.24-Feb-2020 3375.51 4203.76 55.81 5.00 243.70 2709.14
   02:51:41.245.24-Feb-2020 3375.51 4203.67 55.81 5.00 243.90 2709.14
   02:51:41.445.24-Feb-2020 3375.51 4203.74 55.81 5.00 244.10 2709.14
   02:51:41.645.24-Feb-2020 3375.51 4203.74 55.81 5.00 244.30 2709.14
   02:51:41.845.24-Feb-2020 3375.51 4203.78 55.81 5.00 244.50 2709.14
   02:51:42.045.24-Feb-2020 3375.51 4203.78 55.81 5.00 244.70 2709.14
   02:51:42.245.24-Feb-2020 3375.51 4203.70 55.81 5.00 244.90 2709.14
   02:51:42.445.24-Feb-2020 3375.51 4203.71 55.81 5.00 245.10 2709.14
   02:51:42.646.24-Feb-2020 3375.51 4203.71 55.81 5.00 245.30 2709.14
   02:51:42.846.24-Feb-2020 3375.51 4203.76 55.81 5.00 245.50 2709.14
   02:51:43.046.24-Feb-2020 3375.51 4203.78 55.81 5.00 245.70 2709.14
   02:51:43.246.24-Feb-2020 3375.51 4203.31 55.81 5.00 245.90 2709.14
   02:51:43.446.24-Feb-2020 3375.51 4204.23 55.81 5.00 246.10 2709.14
   02:51:43.646.24-Feb-2020 3375.51 4204.23 55.81 5.00 246.30 2709.14
   02:51:43.846.24-Feb-2020 3375.51 4203.77 55.81 5.00 246.50 2709.14
   02:51:44.046.24-Feb-2020 3375.51 4203.70 55.81 5.00 246.70 2709.14
   02:51:44.246.24-Feb-2020 3375.51 4203.72 55.81 5.00 246.90 2709.14
   02:51:44.446.24-Feb-2020 3375.51 4203.79 55.81 5.00 247.10 2709.14
   02:51:44.646.24-Feb-2020 3375.51 4203.79 55.81 5.00 247.30 2709.14
   02:51:44.846.24-Feb-2020 3375.51 4203.66 55.81 5.00 247.50 2709.14
   02:51:45.046.24-Feb-2020 3375.51 4203.70 55.81 5.00 247.70 2709.14
   02:51:45.247.24-Feb-2020 3375.51 4203.75 55.81 5.00 247.90 2709.14
   02:51:45.447.24-Feb-2020 3375.51 4203.35 55.81 5.00 248.10 2709.14
   02:51:45.647.24-Feb-2020 3375.51 4203.35 55.81 5.00 248.30 2709.14
   02:51:45.847.24-Feb-2020 3375.51 4203.74 55.81 5.00 248.50 2709.14
   02:51:46.047.24-Feb-2020 3375.51 4203.84 55.81 5.00 248.70 2709.14
   02:51:46.247.24-Feb-2020 3375.51 4203.73 55.81 5.00 248.90 2709.14
   02:51:46.447.24-Feb-2020 3375.51 4203.25 55.81 5.00 249.10 2709.14
   02:51:46.647.24-Feb-2020 3375.51 4203.25 55.81 5.00 249.30 2709.14
   02:51:46.847.24-Feb-2020 3375.51 4203.96 55.81 5.00 249.50 2709.14
   02:51:47.047.24-Feb-2020 3375.51 4203.63 55.81 5.00 249.70 2709.14
   02:51:47.247.24-Feb-2020 3375.51 4203.73 55.81 5.00 249.90 2709.14
   02:51:47.447.24-Feb-2020 3375.51 4203.78 55.81 5.00 250.10 2709.14
   02:51:47.648.24-Feb-2020 3375.51 4203.78 55.81 5.00 250.30 2709.14
   02:51:47.848.24-Feb-2020 3375.51 4203.75 55.81 5.00 250.50 2709.14
   02:51:48.048.24-Feb-2020 3375.51 4203.71 55.81 5.00 250.70 2709.14
   02:51:48.248.24-Feb-2020 3375.51 4203.74 55.81 5.00 250.90 2709.14
   02:51:48.448.24-Feb-2020 3375.51 4203.76 55.81 5.00 251.10 2709.14
   02:51:48.648.24-Feb-2020 3375.51 4203.76 55.81 5.00 251.30 2709.14
   02:51:48.848.24-Feb-2020 3375.51 4203.74 55.81 5.00 251.50 2709.14
   02:51:49.048.24-Feb-2020 3375.51 4203.75 55.81 5.00 251.70 2709.14
   02:51:49.248.24-Feb-2020 3375.51 4203.74 55.81 5.00 251.90 2709.14
   02:51:49.448.24-Feb-2020 3375.51 4203.76 55.81 5.00 252.10 2709.14
   02:51:49.648.24-Feb-2020 3375.51 4203.76 55.81 5.00 252.30 2709.14
   02:51:49.848.24-Feb-2020 3375.51 4203.85 55.81 5.00 252.50 2709.14
   02:51:50.048.24-Feb-2020 3375.51 4203.67 55.81 5.00 252.70 2709.14
   02:51:50.249.24-Feb-2020 3375.51 4203.70 55.80 5.00 252.90 2709.14
