~Version Information
 VERS.                  2.0:   CWLS log ASCII Standard -VERSION 2.0
 WRAP.                   NO:   One line per depth step
~Well Information Block
#MNEM.UNIT     VALUE/NAME     DESCRIPTION
#---------     -----------    ---------------------------
 STRT.S             06:21:10 24-Feb-20: START TIME 06:21:10 24-Feb-20
 STOP.S             06:29:09 24-Feb-20: STOP TIME  06:29:09 24-Feb-20
 STEP.S                   0.00: STEP TIME
 NULL.                 -999.25: NULL VALUE
 JOBN.        AZ-XX-0905059384:  JOB TICKET NUMB
 PDAT.          Mean Sea Level:  PERMANENT DATUM
 UNIT.                     N/A:  LOGGING EQUIPMENT ID
 DCON.         Sperry Drilling:  DIRECTNL CONTR
 DOE .                     N/A:  DOE NUMBER
 RIG .             West Chirag:  RIG NAME
 WELL.                     J22:  WELL NAME
 MWDS.                    Baku:  MWD SHOP
 SRVC.     TURAN Drilling & Engineering:  CONTRACTOR
 FLD .                     ACG:  FIELD NAME
 CTRY.              Azerbaijan:  COUNTRY NAME
 PROV.                    Baku:  PROVINCE
 STAT.                    Baku:  STATE NAME
 REGN.                   EESSA:  REGION
 BASE.              Azerbaijan:  LOGGING EQUIPMENT BASE LOCATION
 UWI .                     N/A:  UNIQUE WELL IDENTIFIER
 API .                     N/A:  API NUMBER
 COMP.     BP Exploration (Caspian Sea) Ltd.:  COMPANY
 WTYP.                Deviated:  WELL TYPE
 MDS .        Operator Entered:  MAG DATA SOURCE
 SON .        AZ-XX-0905059384:  JOB NUMBER
 FTOP.          Formation Tops:  FORM TOPS DESC
 ILTD.               Lithology:  INTERP LTH DESC
 SVYD.                  Survey:  SURVEY DESC
 DMOD.             Drill Model:  DRILL MOD DESC
 HPTY.       Minimum Curvature:  HOLE POS TYPE
 NREF.                    Grid:  NORTH REFERENCE
 SPUD.               09-Jan-20:  SPUD DATE
 DATE.      14.04.48 07-Feb-20:  END TIME
 STIM.      07.00.00 09-Jan-20:  START TIME
 DMF .             Drill Floor:  DRILL MEAS FROM
 DFST.                        :  DIST FSL TEXT
 DFWT.                        :  DIST FWL TEXT
 CNTY.                        :  COUNTY
 LOC .                        :  LOCATION
 LMF .             Drill Floor:  LOG MEASURED FROM
 DEP .m                   0.00:  DEPTH
 VSNS.m                  10.28:  VERT SEC N/S
 VSEW.m                  -6.24:  VERT SEC E/W
 AGAP.m                  43.00:  AIR GAP
 APD .m                  43.00:  DEPTH ABOVE PD
 WDMS.m                 169.80:  WD ELEV
 EGL .m                   0.00:  GROUND ELEVATION
 EPD .m                   0.00:  ELEVATION
 AZTC.deg                 6.27:  AZM TOTAL CORR
 GRDC.deg                 0.15:  GRID CORRECTION
 MDEC.deg                 6.42:  MAGNETIC DECL
 MDIP.deg                59.56:  MAGNETIC DIP
 MFLD.nT              50277.00:  MAGNETIC FIELD
 GVFD.g                   1.00:  GRAVITY FIELD
 VSDR.deg               148.53:  VERT SEC DIRECT
 TDD .m                3473.01:  TOTAL DEPTH (DRILLER)
 SDEP.m                 364.00:  START DEPTH
 DFSL.m                   0.00:  DISTANCE FSL
 DFWL.m                   0.00:  DISTANCE FWL
 UTMY.m             4443793.85:  UTM Y
 UTMX.m              519005.06:  UTM X
 WHEW.m                  -6.24:  WELL HEAD E/W
 WHNS.m                  10.28:  WELL HEAD N/S
 LONG.deg                51.22:  LONGITUDE
 LATI.deg                40.13:  LATITUDE
 TVDS.m                  43.00:  TVDSS CORRECTN
 EKB .m                   0.00:  KB ELEVATION
 EDF .m                  43.00:  DF ELEVATION
 TDL .m                 254.00:  TOTAL DEPTH (LOGGER)
 MAGU.                 1850021:  MAGUTM CHECKSUM
 VSC .                       0:  VS TO CLOSURE
~Parameter Information Block
#MNEM.UNIT       Value        Description
#---------     -----------    ---------------------------
 AV  .mps                 0.50:  Ann Velocity 
 AVMX.mps                 1.40:  Max Ann Veloc 
 AZIF.deg               144.94:  Azm, Final 
 BHAT.        Rotary Steerable:  BHA Type 
 BROT.°/30m               0.23:  Build Rotating 
 BS  .in                  8.50:  Bit Size 
 BTPL.psig              264.00:  Bit Press Loss 
 CABU.                     Yes:  Customer Abuse 
 COMM.                     î^:  Run Comments 1 
 TCS .hr                 87.30:  Time Ciculation Ended 
 CV  .mps                 2.45:  Crit Velocity 
 CVMX.mps                 2.74:  Max Crit Veloc 
 DD1 .             Aziz Aliyev:  Direct Drillr 1 
 DDSV.               Geo-Pilot:  DD Service 
 DEFF.%                 100.00:  % Det Eff 
 DLRX.°/30m               1.22:  Dogleg Rot Max 
 DLSO.°/30m               0.52:  Dogleg Oriented 
 DLSX.°/30m               1.22:  Dogleg Str Max 
 DRET.      12.59.00 23-Feb-20:  Drill End Time 
 DRST.      09.44.00 18-Feb-20:  Drill Start Tim 
 DTIM.hr                 23.03:  Time Drilling 
 EDEP.m                3473.01:  End Depth 
 ENG1.         Almaz Almadatov:  Engineer 1 
 ENG2.         Dair Mahammadov:  Engineer 2 
 ENG3.          Nazrin Asgarli:  Engineer 3 
 ETIM.      10.33.36 26-Feb-20:  End Time 
 FLOI.gpm               480.00:  Flow In 
 FLON.gpm               300.00:  Flow In Min 
 FLOS.cptm                1.00:  Fluid Loss 
 FLOX.gpm               550.00:  Flow In Max 
 HFLO.                      No:  High Flow 
 HPRE.                      No:  High Pressure 
 HTEM.                      No:  High Temp 
 HYDO.m                   1.80:  Hydro Offset 
 IFIN.deg                74.42:  Inc, Final 
 IMAX.deg                76.14:  Inc Max 
 IMIN.deg                74.42:  Inc Min 
 IMND.m                3462.72:  Inc Min Depth 
 IMXD.m                3235.69:  Inc Max Depth 
 JARR.                      No:  Jarring 
 LETM.      12.59.00 23-Feb-20:  Log End Time 
 LOST.hr                     0:  Lost Rig Time 
 LSTM.      09.44.00 18-Feb-20:  Log Start Time 
 MDCL.ppm             45000.00:  Mud Chlorides 
 MDES.     Inversion Oil/Synthetic:  Mud Desc 
 DFD .sg                  1.38:  Mud Density 
 MDMN.sg                  1.34:  Dens Mud Min 
 MDMX.sg                  1.49:  Dens Mud Max 
 MOIL.                      67:  Run Mud Oil % 
 MOWR.                   67:33:  Run Mud OWR 
 MSND.                    0.12:  Run Mud Sand % 
 MSOL.                      22:  Run Mud Solids% 
 DFV .spqt               81.00:  Mud Viscosity 
 MWOD.in                  6.75:  MWD Tool OD 
 MWSI.                      No:  Serv Intrp, MWD 
 OTIM.hr                231.44:  Time Operating 
 PCON.          Wear / Scratch:  Pad Condition 
 PMAX.psia             3400.00:  Press Op, Max 
 PV  .cP                 55.00:  Mud PV 
 RUN .                     800:  Run Number 
 ROPA.m/hr               12.00:  ROP Avg 
 ROPN.m/hr                5.00:  ROP Min 
 ROPX.m/hr               28.00:  ROP Max 
 RPMA.rpm               120.00:  RPM Surface Avg 
 RPMN.rpm                40.00:  RPM Surface Min 
 RPMX.rpm               130.00:  RPM Surface Max 
 RRUN.                    0800:  Rig Run Number 
 RTIM.hr                 45.00:  Time Reaming 
 SAZI.deg               145.38:  Azm, Start 
 SDEP.m                3219.01:  Start Depth 
 SIDD.                      No:  Serv Intrp, DD 
 SINC.deg                75.11:  Inc, Start 
 SPPA.psig             2400.00:  SPP Avg 
 SPPN.psig             2320.00:  SPP Min 
 SPPX.psig             3200.00:  SPP Max 
 STIM.      15.15.00 17-Feb-20:  Start Time 
 SVCS.                 DD, MWD:  Services 
 SVER.                    9.20:  Sperry Version 
 TDAT.m                 254.00:  Tot Depth Attmp 
 TDDF.                      No:  Trip for DD 
 TDLG.m                 254.00:  Tot Depth Loggd 
 TFF .                      No:  Trip for Fail 
 TQAA.f-kp               13.00:  Torque Abs Avg 
 TQAN.f-kp                7.00:  Torque Abs Min 
 TQAX.f-kp               15.00:  Torque Abs Max 
 TRRT.°/30m               0.21:  Turn Rotating 
 MRT .                  EWR-M5:  Maximum Recorded Temperature 
 TTMX.degC               64.00:  Max Tool Temp 
 VS01.                90586516:  Virtual Str1 SN 
 VS02.                90513691:  Virtual Str2 SN 
 VS03.                90586523:  Virtual Str3 SN 
 VS04.                90586520:  Virtual Str4 SN 
 VS05.                90590507:  Virtual Str5 SN 
 WBMN.klb                12.00:  WOB Min 
 WITN.           Rufat Babayev:  Customer Rep 2 
 WITN.         Alistair Sprott:  Customer Rep 
 WOBA.klb                18.00:  WOB Avg 
 WOBX.klb                30.00:  WOB Max 
 YP  .lhf2               41.00:  Yield Point 
~Curve Information Block
#MNEM.UNIT                 API CODE     Curve Description
#---------               -----------    ---------------------------
 TIME.HHMMSS            00 000 000 000:  GT Time & Date
 GTDEPTH.m              00 000 000 000:  GT Depth
 GTPQH.psia             00 000 000 000:  GT HR Quartz Pressure
 GTTQ.degC              00 000 000 000:  GT Quartz Temperature
 GTTN.NONE              00 000 000 000:  GT Test Number
 GTET.sec               00 000 000 000:  GT Elapsed Test Time
 GTTVD.m                00 000 000 000:  GT True Vertical Depth
#Other Information
#
#WARRANTY: Halliburton will use its best efforts to furnish customers with 
#accurate information and interpretations that are part of, and incident to, the services 
#provided.  However, Halliburton cannot and does not warrant the accuracy 
#or correctness of such information and interpretations.  Under no circumstances should any 
#such information or interpretation be relied upon as the sole basis for any drilling, 
#completion, production, or financial decision or any procedure involving any risk to the 
#safety of any drilling venture, drilling rig or its crew or any other third party.  The 
#Customer has full responsibility for all drilling, completion and production operation.  
#Halliburton makes no representations or warranties, either expressed or 
#implied, including, but not limited to, the implied warranties of merchantability or fitness 
#for a particular purpose, with respect to the services rendered.  In no event will 
#Halliburton be liable for failure to obtain any particular results or for 
#any damages, including, but not limited to, indirect, special or consequential damages, 
#resulting from the use of any information or interpretation provided by Halliburton.
#
~A           TIME           GTDEPTH  GTPQH  GTTQ  GTTN   GTET   GTTVD  
# ...
   06:25:41.667.24-Feb-2020 3290.51 4402.59 53.93 10.00 271.26 2687.65
   06:25:41.867.24-Feb-2020 3290.51 4402.61 53.93 10.00 271.46 2687.65
   06:25:42.067.24-Feb-2020 3290.51 4402.61 53.93 10.00 271.66 2687.65
   06:25:42.267.24-Feb-2020 3290.51 4402.66 53.93 10.00 271.86 2687.65
   06:25:42.467.24-Feb-2020 3290.51 4402.62 53.93 10.00 272.06 2687.65
   06:25:42.668.24-Feb-2020 3290.51 4402.62 53.93 10.00 272.26 2687.65
   06:25:42.868.24-Feb-2020 3290.51 4402.40 53.93 10.00 272.46 2687.65
   06:25:43.068.24-Feb-2020 3290.51 4402.28 53.93 10.00 272.66 2687.65
   06:25:43.268.24-Feb-2020 3290.51 4402.46 53.93 10.00 272.86 2687.65
   06:25:43.468.24-Feb-2020 3290.51 4402.84 53.93 10.00 273.06 2687.65
   06:25:43.668.24-Feb-2020 3290.51 4402.84 53.93 10.00 273.26 2687.65
   06:25:43.868.24-Feb-2020 3290.51 4403.05 53.93 10.00 273.46 2687.65
   06:25:44.068.24-Feb-2020 3290.51 4403.22 53.93 10.00 273.66 2687.65
   06:25:44.268.24-Feb-2020 3290.51 4402.63 53.93 10.00 273.86 2687.65
   06:25:44.468.24-Feb-2020 3290.51 4403.61 53.93 10.00 274.06 2687.65
   06:25:44.668.24-Feb-2020 3290.51 4403.73 53.93 10.00 274.26 2687.65
   06:25:44.868.24-Feb-2020 3290.51 4402.99 53.93 10.00 274.46 2687.65
   06:25:45.068.24-Feb-2020 3290.51 4403.67 53.93 10.00 274.66 2687.65
   06:25:45.268.24-Feb-2020 3290.51 4403.53 53.93 10.00 274.86 2687.65
   06:25:45.468.24-Feb-2020 3290.51 4403.91 53.93 10.00 275.06 2687.65
   06:25:45.668.24-Feb-2020 3290.51 4403.91 53.93 10.00 275.26 2687.65
   06:25:45.868.24-Feb-2020 3290.51 4403.29 53.93 10.00 275.46 2687.65
   06:25:46.068.24-Feb-2020 3290.51 4403.02 53.93 10.00 275.66 2687.65
   06:25:46.268.24-Feb-2020 3290.51 4402.69 53.93 10.00 275.86 2687.65
   06:25:46.468.24-Feb-2020 3290.51 4403.39 53.93 10.00 276.06 2687.65
   06:25:46.668.24-Feb-2020 3290.51 4403.39 53.93 10.00 276.26 2687.65
   06:25:46.868.24-Feb-2020 3290.51 4403.65 53.93 10.00 276.46 2687.65
   06:25:47.068.24-Feb-2020 3290.51 4403.52 53.93 10.00 276.66 2687.65
   06:25:47.269.24-Feb-2020 3290.51 4403.25 53.93 10.00 276.86 2687.65
   06:25:47.469.24-Feb-2020 3290.51 4403.11 53.93 10.00 277.06 2687.65
   06:25:47.669.24-Feb-2020 3290.51 4403.11 53.93 10.00 277.26 2687.65
   06:25:47.869.24-Feb-2020 3290.51 4402.88 53.93 10.00 277.46 2687.65
   06:25:48.069.24-Feb-2020 3290.51 4402.81 53.93 10.00 277.66 2687.65
   06:25:48.269.24-Feb-2020 3290.51 4402.79 53.93 10.00 277.86 2687.65
   06:25:48.469.24-Feb-2020 3290.51 4402.74 53.93 10.00 278.06 2687.65
   06:25:48.669.24-Feb-2020 3290.51 4402.73 53.93 10.00 278.26 2687.65
   06:25:48.869.24-Feb-2020 3290.51 4402.77 53.93 10.00 278.46 2687.65
   06:25:49.069.24-Feb-2020 3290.51 4402.72 53.93 10.00 278.66 2687.65
   06:25:49.269.24-Feb-2020 3290.51 4402.52 53.93 10.00 278.86 2687.65
   06:25:49.469.24-Feb-2020 3290.51 4402.73 53.93 10.00 279.06 2687.65
   06:25:49.669.24-Feb-2020 3290.51 4402.73 53.93 10.00 279.26 2687.65
   06:25:49.869.24-Feb-2020 3290.51 4403.13 53.93 10.00 279.46 2687.65
   06:25:50.069.24-Feb-2020 3290.51 4403.42 53.93 10.00 279.66 2687.65
   06:25:50.269.24-Feb-2020 3290.51 4402.98 53.93 10.00 279.86 2687.65
   06:25:50.469.24-Feb-2020 3290.51 4402.89 53.93 10.00 280.06 2687.65
   06:25:50.669.24-Feb-2020 3290.51 4402.89 53.93 10.00 280.26 2687.65
   06:25:50.869.24-Feb-2020 3290.51 4402.84 53.93 10.00 280.46 2687.65
   06:25:51.069.24-Feb-2020 3290.51 4402.71 53.93 10.00 280.66 2687.65
   06:25:51.269.24-Feb-2020 3290.51 4402.57 53.93 10.00 280.86 2687.65
   06:25:51.469.24-Feb-2020 3290.51 4402.60 53.93 10.00 281.06 2687.65
   06:25:51.669.24-Feb-2020 3290.51 4402.60 53.93 10.00 281.26 2687.65
   06:25:51.870.24-Feb-2020 3290.51 4402.59 53.93 10.00 281.46 2687.65
   06:25:52.070.24-Feb-2020 3290.51 4402.68 53.93 10.00 281.66 2687.65
   06:25:52.270.24-Feb-2020 3290.51 4402.58 53.93 10.00 281.86 2687.65
   06:25:52.470.24-Feb-2020 3290.51 4402.46 53.93 10.00 282.06 2687.65
   06:25:52.670.24-Feb-2020 3290.51 4402.35 53.93 10.00 282.26 2687.65
   06:25:52.870.24-Feb-2020 3290.51 4402.18 53.93 10.00 282.46 2687.65
   06:25:53.070.24-Feb-2020 3290.51 4402.55 53.93 10.00 282.66 2687.65
   06:25:53.270.24-Feb-2020 3290.51 4402.93 53.93 10.00 282.86 2687.65
   06:25:53.470.24-Feb-2020 3290.51 4403.12 53.93 10.00 283.06 2687.65
   06:25:53.670.24-Feb-2020 3290.51 4403.12 53.93 10.00 283.26 2687.65
   06:25:53.870.24-Feb-2020 3290.51 4403.30 53.93 10.00 283.46 2687.65
   06:25:54.070.24-Feb-2020 3290.51 4403.09 53.93 10.00 283.66 2687.65
   06:25:54.270.24-Feb-2020 3290.51 4403.51 53.93 10.00 283.86 2687.65
   06:25:54.470.24-Feb-2020 3290.51 4403.55 53.93 10.00 284.06 2687.65
   06:25:54.670.24-Feb-2020 3290.51 4403.55 53.93 10.00 284.26 2687.65
   06:25:54.870.24-Feb-2020 3290.51 4402.89 53.93 10.00 284.46 2687.65
   06:25:55.070.24-Feb-2020 3290.51 4403.88 53.93 10.00 284.66 2687.65
   06:25:55.270.24-Feb-2020 3290.51 4403.95 53.93 10.00 284.86 2687.65
   06:25:55.470.24-Feb-2020 3290.51 4403.61 53.93 10.00 285.06 2687.65
   06:25:55.670.24-Feb-2020 3290.51 4403.61 53.93 10.00 285.26 2687.65
   06:25:55.870.24-Feb-2020 3290.51 4403.12 53.93 10.00 285.46 2687.65
   06:25:56.070.24-Feb-2020 3290.51 4403.29 53.93 10.00 285.66 2687.65
   06:25:56.270.24-Feb-2020 3290.51 4402.55 53.93 10.00 285.86 2687.65
   06:25:56.471.24-Feb-2020 3290.51 4403.66 53.93 10.00 286.06 2687.65
   06:25:56.671.24-Feb-2020 3290.51 4403.77 53.93 10.00 286.26 2687.65
   06:25:56.871.24-Feb-2020 3290.51 4403.49 53.93 10.00 286.46 2687.65
   06:25:57.071.24-Feb-2020 3290.51 4403.32 53.93 10.00 286.66 2687.65
   06:25:57.271.24-Feb-2020 3290.51 4403.16 53.93 10.00 286.86 2687.65
   06:25:57.471.24-Feb-2020 3290.51 4403.04 53.93 10.00 287.06 2687.65
   06:25:57.671.24-Feb-2020 3290.51 4403.04 53.93 10.00 287.26 2687.65
   06:25:57.871.24-Feb-2020 3290.51 4402.90 53.93 10.00 287.46 2687.65
   06:25:58.071.24-Feb-2020 3290.51 4402.85 53.93 10.00 287.66 2687.65
   06:25:58.271.24-Feb-2020 3290.51 4402.81 53.93 10.00 287.86 2687.65
   06:25:58.471.24-Feb-2020 3290.51 4402.85 53.93 10.00 288.06 2687.65
   06:25:58.671.24-Feb-2020 3290.51 4402.85 53.93 10.00 288.26 2687.65
   06:25:58.871.24-Feb-2020 3290.51 4402.71 53.93 10.00 288.46 2687.65
   06:25:59.071.24-Feb-2020 3290.51 4402.12 53.93 10.00 288.66 2687.65
   06:25:59.271.24-Feb-2020 3290.51 4402.78 53.93 10.00 288.86 2687.65
   06:25:59.471.24-Feb-2020 3290.51 4402.71 53.93 10.00 289.06 2687.65
   06:25:59.671.24-Feb-2020 3290.51 4402.71 53.93 10.00 289.26 2687.65
   06:25:59.871.24-Feb-2020 3290.51 4403.14 53.93 10.00 289.46 2687.65
   06:26:00.071.24-Feb-2020 3290.51 4402.88 53.93 10.00 289.66 2687.65
   06:26:00.271.24-Feb-2020 3290.51 4402.99 53.93 10.00 289.86 2687.65
   06:26:00.471.24-Feb-2020 3290.51 4402.84 53.93 10.00 290.06 2687.65
   06:26:00.671.24-Feb-2020 3290.51 4402.81 53.93 10.00 290.26 2687.65
   06:26:00.871.24-Feb-2020 3290.51 4402.64 53.93 10.00 290.46 2687.65
   06:26:01.072.24-Feb-2020 3290.51 4402.63 53.93 10.00 290.66 2687.65
   06:26:01.272.24-Feb-2020 3290.51 4402.60 53.93 10.00 290.86 2687.65
   06:26:01.472.24-Feb-2020 3290.51 4402.60 53.93 10.00 291.06 2687.65
   06:26:01.672.24-Feb-2020 3290.51 4402.60 53.93 10.00 291.26 2687.65
   06:26:01.872.24-Feb-2020 3290.51 4402.64 53.93 10.00 291.46 2687.65
   06:26:02.072.24-Feb-2020 3290.51 4402.65 53.93 10.00 291.66 2687.65
   06:26:02.272.24-Feb-2020 3290.51 4402.42 53.93 10.00 291.86 2687.65
   06:26:02.472.24-Feb-2020 3290.51 4402.28 53.93 10.00 292.06 2687.65
   06:26:02.672.24-Feb-2020 3290.51 4402.28 53.93 10.00 292.26 2687.65
   06:26:02.872.24-Feb-2020 3290.51 4402.66 53.93 10.00 292.46 2687.65
   06:26:03.072.24-Feb-2020 3290.51 4403.05 53.93 10.00 292.66 2687.65
   06:26:03.272.24-Feb-2020 3290.51 4403.05 53.93 10.00 292.86 2687.65
   06:26:03.472.24-Feb-2020 3290.51 4403.17 53.93 10.00 293.06 2687.65
   06:26:03.672.24-Feb-2020 3290.51 4403.17 53.93 10.00 293.26 2687.65
   06:26:03.872.24-Feb-2020 3290.51 4403.32 53.93 10.00 293.46 2687.65
   06:26:04.072.24-Feb-2020 3290.51 4403.58 53.93 10.00 293.66 2687.65
