~Version Information
 VERS.                  2.0:   CWLS log ASCII Standard -VERSION 2.0
 WRAP.                   NO:   One line per depth step
~Well Information Block
#MNEM.UNIT     VALUE/NAME     DESCRIPTION
#---------     -----------    ---------------------------
 STRT.S             04:05:13 24-Feb-20: START TIME 04:05:13 24-Feb-20
 STOP.S             04:12:30 24-Feb-20: STOP TIME  04:12:30 24-Feb-20
 STEP.S                   0.00: STEP TIME
 NULL.                 -999.25: NULL VALUE
 JOBN.        AZ-XX-0905059384:  JOB TICKET NUMB
 PDAT.          Mean Sea Level:  PERMANENT DATUM
 UNIT.                     N/A:  LOGGING EQUIPMENT ID
 DCON.         Sperry Drilling:  DIRECTNL CONTR
 DOE .                     N/A:  DOE NUMBER
 RIG .             West Chirag:  RIG NAME
 WELL.                     J22:  WELL NAME
 MWDS.                    Baku:  MWD SHOP
 SRVC.     TURAN Drilling & Engineering:  CONTRACTOR
 FLD .                     ACG:  FIELD NAME
 CTRY.              Azerbaijan:  COUNTRY NAME
 PROV.                    Baku:  PROVINCE
 STAT.                    Baku:  STATE NAME
 REGN.                   EESSA:  REGION
 BASE.              Azerbaijan:  LOGGING EQUIPMENT BASE LOCATION
 UWI .                     N/A:  UNIQUE WELL IDENTIFIER
 API .                     N/A:  API NUMBER
 COMP.     BP Exploration (Caspian Sea) Ltd.:  COMPANY
 WTYP.                Deviated:  WELL TYPE
 MDS .        Operator Entered:  MAG DATA SOURCE
 SON .        AZ-XX-0905059384:  JOB NUMBER
 FTOP.          Formation Tops:  FORM TOPS DESC
 ILTD.               Lithology:  INTERP LTH DESC
 SVYD.                  Survey:  SURVEY DESC
 DMOD.             Drill Model:  DRILL MOD DESC
 HPTY.       Minimum Curvature:  HOLE POS TYPE
 NREF.                    Grid:  NORTH REFERENCE
 SPUD.               09-Jan-20:  SPUD DATE
 DATE.      14.04.48 07-Feb-20:  END TIME
 STIM.      07.00.00 09-Jan-20:  START TIME
 DMF .             Drill Floor:  DRILL MEAS FROM
 DFST.                        :  DIST FSL TEXT
 DFWT.                        :  DIST FWL TEXT
 CNTY.                        :  COUNTY
 LOC .                        :  LOCATION
 LMF .             Drill Floor:  LOG MEASURED FROM
 DEP .m                   0.00:  DEPTH
 VSNS.m                  10.28:  VERT SEC N/S
 VSEW.m                  -6.24:  VERT SEC E/W
 AGAP.m                  43.00:  AIR GAP
 APD .m                  43.00:  DEPTH ABOVE PD
 WDMS.m                 169.80:  WD ELEV
 EGL .m                   0.00:  GROUND ELEVATION
 EPD .m                   0.00:  ELEVATION
 AZTC.deg                 6.27:  AZM TOTAL CORR
 GRDC.deg                 0.15:  GRID CORRECTION
 MDEC.deg                 6.42:  MAGNETIC DECL
 MDIP.deg                59.56:  MAGNETIC DIP
 MFLD.nT              50277.00:  MAGNETIC FIELD
 GVFD.g                   1.00:  GRAVITY FIELD
 VSDR.deg               148.53:  VERT SEC DIRECT
 TDD .m                3473.01:  TOTAL DEPTH (DRILLER)
 SDEP.m                 364.00:  START DEPTH
 DFSL.m                   0.00:  DISTANCE FSL
 DFWL.m                   0.00:  DISTANCE FWL
 UTMY.m             4443793.85:  UTM Y
 UTMX.m              519005.06:  UTM X
 WHEW.m                  -6.24:  WELL HEAD E/W
 WHNS.m                  10.28:  WELL HEAD N/S
 LONG.deg                51.22:  LONGITUDE
 LATI.deg                40.13:  LATITUDE
 TVDS.m                  43.00:  TVDSS CORRECTN
 EKB .m                   0.00:  KB ELEVATION
 EDF .m                  43.00:  DF ELEVATION
 TDL .m                 254.00:  TOTAL DEPTH (LOGGER)
 MAGU.                 1850021:  MAGUTM CHECKSUM
 VSC .                       0:  VS TO CLOSURE
~Parameter Information Block
#MNEM.UNIT       Value        Description
#---------     -----------    ---------------------------
 AV  .mps                 0.50:  Ann Velocity 
 AVMX.mps                 1.40:  Max Ann Veloc 
 AZIF.deg               144.94:  Azm, Final 
 BHAT.        Rotary Steerable:  BHA Type 
 BROT.°/30m               0.23:  Build Rotating 
 BS  .in                  8.50:  Bit Size 
 BTPL.psig              264.00:  Bit Press Loss 
 CABU.                     Yes:  Customer Abuse 
 COMM.                     \ys:  Run Comments 1 
 TCS .hr                 87.30:  Time Ciculation Ended 
 CV  .mps                 2.45:  Crit Velocity 
 CVMX.mps                 2.74:  Max Crit Veloc 
 DD1 .             Aziz Aliyev:  Direct Drillr 1 
 DDSV.               Geo-Pilot:  DD Service 
 DEFF.%                 100.00:  % Det Eff 
 DLRX.°/30m               1.22:  Dogleg Rot Max 
 DLSO.°/30m               0.52:  Dogleg Oriented 
 DLSX.°/30m               1.22:  Dogleg Str Max 
 DRET.      12.59.00 23-Feb-20:  Drill End Time 
 DRST.      09.44.00 18-Feb-20:  Drill Start Tim 
 DTIM.hr                 23.03:  Time Drilling 
 EDEP.m                3473.01:  End Depth 
 ENG1.         Almaz Almadatov:  Engineer 1 
 ENG2.         Dair Mahammadov:  Engineer 2 
 ENG3.          Nazrin Asgarli:  Engineer 3 
 ETIM.      10.33.36 26-Feb-20:  End Time 
 FLOI.gpm               480.00:  Flow In 
 FLON.gpm               300.00:  Flow In Min 
 FLOS.cptm                1.00:  Fluid Loss 
 FLOX.gpm               550.00:  Flow In Max 
 HFLO.                      No:  High Flow 
 HPRE.                      No:  High Pressure 
 HTEM.                      No:  High Temp 
 HYDO.m                   1.80:  Hydro Offset 
 IFIN.deg                74.42:  Inc, Final 
 IMAX.deg                76.14:  Inc Max 
 IMIN.deg                74.42:  Inc Min 
 IMND.m                3462.72:  Inc Min Depth 
 IMXD.m                3235.69:  Inc Max Depth 
 JARR.                      No:  Jarring 
 LETM.      12.59.00 23-Feb-20:  Log End Time 
 LOST.hr                     0:  Lost Rig Time 
 LSTM.      09.44.00 18-Feb-20:  Log Start Time 
 MDCL.ppm             45000.00:  Mud Chlorides 
 MDES.     Inversion Oil/Synthetic:  Mud Desc 
 DFD .sg                  1.38:  Mud Density 
 MDMN.sg                  1.34:  Dens Mud Min 
 MDMX.sg                  1.49:  Dens Mud Max 
 MOIL.                      67:  Run Mud Oil % 
 MOWR.                   67:33:  Run Mud OWR 
 MSND.                    0.12:  Run Mud Sand % 
 MSOL.                      22:  Run Mud Solids% 
 DFV .spqt               81.00:  Mud Viscosity 
 MWOD.in                  6.75:  MWD Tool OD 
 MWSI.                      No:  Serv Intrp, MWD 
 OTIM.hr                231.44:  Time Operating 
 PCON.          Wear / Scratch:  Pad Condition 
 PMAX.psia             3400.00:  Press Op, Max 
 PV  .cP                 55.00:  Mud PV 
 RUN .                     800:  Run Number 
 ROPA.m/hr               12.00:  ROP Avg 
 ROPN.m/hr                5.00:  ROP Min 
 ROPX.m/hr               28.00:  ROP Max 
 RPMA.rpm               120.00:  RPM Surface Avg 
 RPMN.rpm                40.00:  RPM Surface Min 
 RPMX.rpm               130.00:  RPM Surface Max 
 RRUN.                    0800:  Rig Run Number 
 RTIM.hr                 45.00:  Time Reaming 
 SAZI.deg               145.38:  Azm, Start 
 SDEP.m                3219.01:  Start Depth 
 SIDD.                      No:  Serv Intrp, DD 
 SINC.deg                75.11:  Inc, Start 
 SPPA.psig             2400.00:  SPP Avg 
 SPPN.psig             2320.00:  SPP Min 
 SPPX.psig             3200.00:  SPP Max 
 STIM.      15.15.00 17-Feb-20:  Start Time 
 SVCS.                 DD, MWD:  Services 
 SVER.                    9.20:  Sperry Version 
 TDAT.m                 254.00:  Tot Depth Attmp 
 TDDF.                      No:  Trip for DD 
 TDLG.m                 254.00:  Tot Depth Loggd 
 TFF .                      No:  Trip for Fail 
 TQAA.f-kp               13.00:  Torque Abs Avg 
 TQAN.f-kp                7.00:  Torque Abs Min 
 TQAX.f-kp               15.00:  Torque Abs Max 
 TRRT.°/30m               0.21:  Turn Rotating 
 MRT .                  EWR-M5:  Maximum Recorded Temperature 
 TTMX.degC               64.00:  Max Tool Temp 
 VS01.                90586516:  Virtual Str1 SN 
 VS02.                90513691:  Virtual Str2 SN 
 VS03.                90586523:  Virtual Str3 SN 
 VS04.                90586520:  Virtual Str4 SN 
 VS05.                90590507:  Virtual Str5 SN 
 WBMN.klb                12.00:  WOB Min 
 WITN.           Rufat Babayev:  Customer Rep 2 
 WITN.         Alistair Sprott:  Customer Rep 
 WOBA.klb                18.00:  WOB Avg 
 WOBX.klb                30.00:  WOB Max 
 YP  .lhf2               41.00:  Yield Point 
~Curve Information Block
#MNEM.UNIT                 API CODE     Curve Description
#---------               -----------    ---------------------------
 TIME.HHMMSS            00 000 000 000:  GT Time & Date
 GTDEPTH.m              00 000 000 000:  GT Depth
 GTPQH.psia             00 000 000 000:  GT HR Quartz Pressure
 GTTQ.degC              00 000 000 000:  GT Quartz Temperature
 GTTN.NONE              00 000 000 000:  GT Test Number
 GTET.sec               00 000 000 000:  GT Elapsed Test Time
 GTTVD.m                00 000 000 000:  GT True Vertical Depth
#Other Information
#
#WARRANTY: Halliburton will use its best efforts to furnish customers with 
#accurate information and interpretations that are part of, and incident to, the services 
#provided.  However, Halliburton cannot and does not warrant the accuracy 
#or correctness of such information and interpretations.  Under no circumstances should any 
#such information or interpretation be relied upon as the sole basis for any drilling, 
#completion, production, or financial decision or any procedure involving any risk to the 
#safety of any drilling venture, drilling rig or its crew or any other third party.  The 
#Customer has full responsibility for all drilling, completion and production operation.  
#Halliburton makes no representations or warranties, either expressed or 
#implied, including, but not limited to, the implied warranties of merchantability or fitness 
#for a particular purpose, with respect to the services rendered.  In no event will 
#Halliburton be liable for failure to obtain any particular results or for 
#any damages, including, but not limited to, indirect, special or consequential damages, 
#resulting from the use of any information or interpretation provided by Halliburton.
#
~A           TIME           GTDEPTH  GTPQH  GTTQ  GTTN  GTET   GTTVD  
# ...
   04:07:08.000.24-Feb-2020 3356.51 4353.16 55.54 7.00 115.00 2704.30
   04:07:08.200.24-Feb-2020 3356.51 4353.16 55.54 7.00 115.20 2704.30
   04:07:08.400.24-Feb-2020 3356.51 4353.23 55.54 7.00 115.40 2704.30
   04:07:08.600.24-Feb-2020 3356.51 4353.23 55.54 7.00 115.60 2704.30
   04:07:08.800.24-Feb-2020 3356.51 4353.22 55.54 7.00 115.80 2704.30
   04:07:09.000.24-Feb-2020 3356.51 4353.24 55.54 7.00 116.00 2704.30
   04:07:09.200.24-Feb-2020 3356.51 4353.23 55.54 7.00 116.20 2704.30
   04:07:09.400.24-Feb-2020 3356.51 4353.23 55.54 7.00 116.40 2704.30
   04:07:09.600.24-Feb-2020 3356.51 4353.23 55.54 7.00 116.60 2704.30
   04:07:09.800.24-Feb-2020 3356.51 4353.23 55.54 7.00 116.80 2704.30
   04:07:10.000.24-Feb-2020 3356.51 4353.23 55.54 7.00 117.00 2704.30
   04:07:10.200.24-Feb-2020 3356.51 4353.23 55.54 7.00 117.20 2704.30
   04:07:10.400.24-Feb-2020 3356.51 4353.23 55.54 7.00 117.40 2704.30
   04:07:10.600.24-Feb-2020 3356.51 4353.25 55.54 7.00 117.60 2704.30
   04:07:10.800.24-Feb-2020 3356.51 4353.17 55.54 7.00 117.80 2704.30
   04:07:11.000.24-Feb-2020 3356.51 4353.25 55.54 7.00 118.00 2704.30
   04:07:11.200.24-Feb-2020 3356.51 4353.26 55.54 7.00 118.20 2704.30
   04:07:11.400.24-Feb-2020 3356.51 4353.26 55.54 7.00 118.40 2704.30
   04:07:11.600.24-Feb-2020 3356.51 4353.20 55.54 7.00 118.60 2704.30
   04:07:11.800.24-Feb-2020 3356.51 4353.25 55.54 7.00 118.80 2704.30
   04:07:12.000.24-Feb-2020 3356.51 4353.23 55.54 7.00 119.00 2704.30
   04:07:12.200.24-Feb-2020 3356.51 4353.23 55.54 7.00 119.20 2704.30
   04:07:12.400.24-Feb-2020 3356.51 4353.24 55.54 7.00 119.40 2704.30
   04:07:12.600.24-Feb-2020 3356.51 4353.24 55.54 7.00 119.60 2704.30
   04:07:12.800.24-Feb-2020 3356.51 4353.25 55.54 7.00 119.80 2704.30
   04:07:13.000.24-Feb-2020 3356.51 4353.22 55.54 7.00 120.00 2704.30
   04:07:13.200.24-Feb-2020 3356.51 4353.22 55.54 7.00 120.20 2704.30
   04:07:13.400.24-Feb-2020 3356.51 4353.23 55.54 7.00 120.40 2704.30
   04:07:13.600.24-Feb-2020 3356.51 4353.24 55.54 7.00 120.60 2704.30
   04:07:13.800.24-Feb-2020 3356.51 4353.22 55.54 7.00 120.80 2704.30
   04:07:14.000.24-Feb-2020 3356.51 4353.22 55.54 7.00 121.00 2704.30
   04:07:14.200.24-Feb-2020 3356.51 4353.22 55.54 7.00 121.20 2704.30
   04:07:14.400.24-Feb-2020 3356.51 4353.20 55.54 7.00 121.40 2704.30
   04:07:14.600.24-Feb-2020 3356.51 4353.37 55.54 7.00 121.60 2704.30
   04:07:14.800.24-Feb-2020 3356.51 4353.05 55.54 7.00 121.80 2704.30
   04:07:15.000.24-Feb-2020 3356.51 4353.26 55.54 7.00 122.00 2704.30
   04:07:15.200.24-Feb-2020 3356.51 4353.25 55.54 7.00 122.20 2704.30
   04:07:15.400.24-Feb-2020 3356.51 4353.25 55.54 7.00 122.40 2704.30
   04:07:15.600.24-Feb-2020 3356.51 4353.21 55.54 7.00 122.60 2704.30
   04:07:15.800.24-Feb-2020 3356.51 4353.25 55.54 7.00 122.80 2704.30
   04:07:16.000.24-Feb-2020 3356.51 4353.26 55.54 7.00 123.00 2704.30
   04:07:16.200.24-Feb-2020 3356.51 4353.26 55.54 7.00 123.20 2704.30
   04:07:16.400.24-Feb-2020 3356.51 4353.32 55.54 7.00 123.40 2704.30
   04:07:16.600.24-Feb-2020 3356.51 4353.22 55.54 7.00 123.60 2704.30
   04:07:16.800.24-Feb-2020 3356.51 4353.23 55.54 7.00 123.80 2704.30
   04:07:17.000.24-Feb-2020 3356.51 4353.23 55.54 7.00 124.00 2704.30
   04:07:17.200.24-Feb-2020 3356.51 4353.23 55.54 7.00 124.20 2704.30
   04:07:17.400.24-Feb-2020 3356.51 4353.25 55.54 7.00 124.40 2704.30
   04:07:17.600.24-Feb-2020 3356.51 4353.24 55.54 7.00 124.60 2704.30
   04:07:17.800.24-Feb-2020 3356.51 4353.25 55.54 7.00 124.80 2704.30
   04:07:18.000.24-Feb-2020 3356.51 4353.25 55.54 7.00 125.00 2704.30
   04:07:18.200.24-Feb-2020 3356.51 4353.25 55.54 7.00 125.20 2704.30
   04:07:18.400.24-Feb-2020 3356.51 4353.25 55.54 7.00 125.40 2704.30
   04:07:18.600.24-Feb-2020 3356.51 4353.25 55.54 7.00 125.60 2704.30
   04:07:18.800.24-Feb-2020 3356.51 4353.25 55.54 7.00 125.80 2704.30
   04:07:19.000.24-Feb-2020 3356.51 4353.25 55.54 7.00 126.00 2704.30
   04:07:19.200.24-Feb-2020 3356.51 4353.37 55.54 7.00 126.20 2704.30
   04:07:19.400.24-Feb-2020 3356.51 4353.07 55.54 7.00 126.40 2704.30
   04:07:19.600.24-Feb-2020 3356.51 4353.27 55.54 7.00 126.60 2704.30
   04:07:19.800.24-Feb-2020 3356.51 4353.27 55.54 7.00 126.80 2704.30
   04:07:20.000.24-Feb-2020 3356.51 4353.25 55.54 7.00 127.00 2704.30
   04:07:20.200.24-Feb-2020 3356.51 4353.25 55.54 7.00 127.20 2704.30
   04:07:20.400.24-Feb-2020 3356.51 4353.25 55.54 7.00 127.40 2704.30
   04:07:20.600.24-Feb-2020 3356.51 4353.25 55.54 7.00 127.60 2704.30
   04:07:20.800.24-Feb-2020 3356.51 4353.23 55.54 7.00 127.80 2704.30
   04:07:21.000.24-Feb-2020 3356.51 4353.24 55.54 7.00 128.00 2704.30
   04:07:21.200.24-Feb-2020 3356.51 4353.24 55.54 7.00 128.20 2704.30
   04:07:21.400.24-Feb-2020 3356.51 4353.25 55.54 7.00 128.40 2704.30
   04:07:21.600.24-Feb-2020 3356.51 4353.23 55.54 7.00 128.60 2704.30
   04:07:21.800.24-Feb-2020 3356.51 4353.25 55.54 7.00 128.80 2704.30
   04:07:22.000.24-Feb-2020 3356.51 4353.25 55.54 7.00 129.00 2704.30
   04:07:22.200.24-Feb-2020 3356.51 4353.25 55.54 7.00 129.20 2704.30
   04:07:22.400.24-Feb-2020 3356.51 4353.22 55.54 7.00 129.40 2704.30
   04:07:22.600.24-Feb-2020 3356.51 4353.27 55.54 7.00 129.60 2704.30
   04:07:22.800.24-Feb-2020 3356.51 4353.18 55.54 7.00 129.80 2704.30
   04:07:23.000.24-Feb-2020 3356.51 4353.25 55.54 7.00 130.00 2704.30
   04:07:23.200.24-Feb-2020 3356.51 4353.38 55.54 7.00 130.20 2704.30
   04:07:23.400.24-Feb-2020 3356.51 4353.11 55.54 7.00 130.40 2704.30
   04:07:23.600.24-Feb-2020 3356.51 4353.35 55.54 7.00 130.60 2704.30
   04:07:23.800.24-Feb-2020 3356.51 4353.19 55.54 7.00 130.80 2704.30
   04:07:24.000.24-Feb-2020 3356.51 4353.39 55.54 7.00 131.00 2704.30
   04:07:24.200.24-Feb-2020 3356.51 4353.39 55.54 7.00 131.20 2704.30
   04:07:24.400.24-Feb-2020 3356.51 4353.27 55.54 7.00 131.40 2704.30
   04:07:24.600.24-Feb-2020 3356.51 4353.26 55.54 7.00 131.60 2704.30
   04:07:24.800.24-Feb-2020 3356.51 4353.28 55.54 7.00 131.80 2704.30
   04:07:25.000.24-Feb-2020 3356.51 4353.22 55.54 7.00 132.00 2704.30
   04:07:25.200.24-Feb-2020 3356.51 4353.22 55.54 7.00 132.20 2704.30
   04:07:25.400.24-Feb-2020 3356.51 4353.27 55.54 7.00 132.40 2704.30
   04:07:25.600.24-Feb-2020 3356.51 4353.25 55.54 7.00 132.60 2704.30
   04:07:25.800.24-Feb-2020 3356.51 4353.23 55.54 7.00 132.80 2704.30
   04:07:26.000.24-Feb-2020 3356.51 4353.25 55.54 7.00 133.00 2704.30
   04:07:26.200.24-Feb-2020 3356.51 4353.25 55.54 7.00 133.20 2704.30
   04:07:26.400.24-Feb-2020 3356.51 4353.25 55.54 7.00 133.40 2704.30
   04:07:26.600.24-Feb-2020 3356.51 4353.24 55.54 7.00 133.60 2704.30
   04:07:26.800.24-Feb-2020 3356.51 4353.25 55.54 7.00 133.80 2704.30
   04:07:27.000.24-Feb-2020 3356.51 4353.25 55.54 7.00 134.00 2704.30
   04:07:27.200.24-Feb-2020 3356.51 4353.24 55.54 7.00 134.20 2704.30
   04:07:27.400.24-Feb-2020 3356.51 4353.25 55.54 7.00 134.40 2704.30
   04:07:27.600.24-Feb-2020 3356.51 4353.25 55.54 7.00 134.60 2704.30
   04:07:27.800.24-Feb-2020 3356.51 4353.35 55.54 7.00 134.80 2704.30
   04:07:28.000.24-Feb-2020 3356.51 4353.09 55.54 7.00 135.00 2704.30
   04:07:28.200.24-Feb-2020 3356.51 4353.09 55.54 7.00 135.20 2704.30
   04:07:28.400.24-Feb-2020 3356.51 4353.18 55.54 7.00 135.40 2704.30
   04:07:28.600.24-Feb-2020 3356.51 4353.27 55.54 7.00 135.60 2704.30
   04:07:28.800.24-Feb-2020 3356.51 4353.24 55.54 7.00 135.80 2704.30
   04:07:29.000.24-Feb-2020 3356.51 4353.24 55.54 7.00 136.00 2704.30
   04:07:29.200.24-Feb-2020 3356.51 4353.24 55.54 7.00 136.20 2704.30
   04:07:29.400.24-Feb-2020 3356.51 4353.25 55.54 7.00 136.40 2704.30
   04:07:29.600.24-Feb-2020 3356.51 4353.23 55.54 7.00 136.60 2704.30
   04:07:29.800.24-Feb-2020 3356.51 4353.25 55.54 7.00 136.80 2704.30
   04:07:30.000.24-Feb-2020 3356.51 4353.26 55.54 7.00 137.00 2704.30
   04:07:30.200.24-Feb-2020 3356.51 4353.26 55.54 7.00 137.20 2704.30
   04:07:30.400.24-Feb-2020 3356.51 4353.25 55.54 7.00 137.40 2704.30
   04:07:30.600.24-Feb-2020 3356.51 4353.26 55.54 7.00 137.60 2704.30
   04:07:30.800.24-Feb-2020 3356.51 4353.25 55.54 7.00 137.80 2704.30
