~Version Information
 VERS.                  2.0:   CWLS log ASCII Standard -VERSION 2.0
 WRAP.                   NO:   One line per depth step
~Well Information Block
#MNEM.UNIT     VALUE/NAME     DESCRIPTION
#---------     -----------    ---------------------------
 STRT.S             04:05:13 24-Feb-20: START TIME 04:05:13 24-Feb-20
 STOP.S             04:12:30 24-Feb-20: STOP TIME  04:12:30 24-Feb-20
 STEP.S                   0.00: STEP TIME
 NULL.                 -999.25: NULL VALUE
 JOBN.        AZ-XX-0905059384:  JOB TICKET NUMB
 PDAT.          Mean Sea Level:  PERMANENT DATUM
 UNIT.                     N/A:  LOGGING EQUIPMENT ID
 DCON.         Sperry Drilling:  DIRECTNL CONTR
 DOE .                     N/A:  DOE NUMBER
 RIG .             West Chirag:  RIG NAME
 WELL.                     J22:  WELL NAME
 MWDS.                    Baku:  MWD SHOP
 SRVC.     TURAN Drilling & Engineering:  CONTRACTOR
 FLD .                     ACG:  FIELD NAME
 CTRY.              Azerbaijan:  COUNTRY NAME
 PROV.                    Baku:  PROVINCE
 STAT.                    Baku:  STATE NAME
 REGN.                   EESSA:  REGION
 BASE.              Azerbaijan:  LOGGING EQUIPMENT BASE LOCATION
 UWI .                     N/A:  UNIQUE WELL IDENTIFIER
 API .                     N/A:  API NUMBER
 COMP.     BP Exploration (Caspian Sea) Ltd.:  COMPANY
 WTYP.                Deviated:  WELL TYPE
 MDS .        Operator Entered:  MAG DATA SOURCE
 SON .        AZ-XX-0905059384:  JOB NUMBER
 FTOP.          Formation Tops:  FORM TOPS DESC
 ILTD.               Lithology:  INTERP LTH DESC
 SVYD.                  Survey:  SURVEY DESC
 DMOD.             Drill Model:  DRILL MOD DESC
 HPTY.       Minimum Curvature:  HOLE POS TYPE
 NREF.                    Grid:  NORTH REFERENCE
 SPUD.               09-Jan-20:  SPUD DATE
 DATE.      14.04.48 07-Feb-20:  END TIME
 STIM.      07.00.00 09-Jan-20:  START TIME
 DMF .             Drill Floor:  DRILL MEAS FROM
 DFST.                        :  DIST FSL TEXT
 DFWT.                        :  DIST FWL TEXT
 CNTY.                        :  COUNTY
 LOC .                        :  LOCATION
 LMF .             Drill Floor:  LOG MEASURED FROM
 DEP .m                   0.00:  DEPTH
 VSNS.m                  10.28:  VERT SEC N/S
 VSEW.m                  -6.24:  VERT SEC E/W
 AGAP.m                  43.00:  AIR GAP
 APD .m                  43.00:  DEPTH ABOVE PD
 WDMS.m                 169.80:  WD ELEV
 EGL .m                   0.00:  GROUND ELEVATION
 EPD .m                   0.00:  ELEVATION
 AZTC.deg                 6.27:  AZM TOTAL CORR
 GRDC.deg                 0.15:  GRID CORRECTION
 MDEC.deg                 6.42:  MAGNETIC DECL
 MDIP.deg                59.56:  MAGNETIC DIP
 MFLD.nT              50277.00:  MAGNETIC FIELD
 GVFD.g                   1.00:  GRAVITY FIELD
 VSDR.deg               148.53:  VERT SEC DIRECT
 TDD .m                3473.01:  TOTAL DEPTH (DRILLER)
 SDEP.m                 364.00:  START DEPTH
 DFSL.m                   0.00:  DISTANCE FSL
 DFWL.m                   0.00:  DISTANCE FWL
 UTMY.m             4443793.85:  UTM Y
 UTMX.m              519005.06:  UTM X
 WHEW.m                  -6.24:  WELL HEAD E/W
 WHNS.m                  10.28:  WELL HEAD N/S
 LONG.deg                51.22:  LONGITUDE
 LATI.deg                40.13:  LATITUDE
 TVDS.m                  43.00:  TVDSS CORRECTN
 EKB .m                   0.00:  KB ELEVATION
 EDF .m                  43.00:  DF ELEVATION
 TDL .m                 254.00:  TOTAL DEPTH (LOGGER)
 MAGU.                 1850021:  MAGUTM CHECKSUM
 VSC .                       0:  VS TO CLOSURE
~Parameter Information Block
#MNEM.UNIT       Value        Description
#---------     -----------    ---------------------------
 AV  .mps                 0.50:  Ann Velocity 
 AVMX.mps                 1.40:  Max Ann Veloc 
 AZIF.deg               144.94:  Azm, Final 
 BHAT.        Rotary Steerable:  BHA Type 
 BROT.°/30m               0.23:  Build Rotating 
 BS  .in                  8.50:  Bit Size 
 BTPL.psig              264.00:  Bit Press Loss 
 CABU.                     Yes:  Customer Abuse 
 COMM.                     \ys:  Run Comments 1 
 TCS .hr                 87.30:  Time Ciculation Ended 
 CV  .mps                 2.45:  Crit Velocity 
 CVMX.mps                 2.74:  Max Crit Veloc 
 DD1 .             Aziz Aliyev:  Direct Drillr 1 
 DDSV.               Geo-Pilot:  DD Service 
 DEFF.%                 100.00:  % Det Eff 
 DLRX.°/30m               1.22:  Dogleg Rot Max 
 DLSO.°/30m               0.52:  Dogleg Oriented 
 DLSX.°/30m               1.22:  Dogleg Str Max 
 DRET.      12.59.00 23-Feb-20:  Drill End Time 
 DRST.      09.44.00 18-Feb-20:  Drill Start Tim 
 DTIM.hr                 23.03:  Time Drilling 
 EDEP.m                3473.01:  End Depth 
 ENG1.         Almaz Almadatov:  Engineer 1 
 ENG2.         Dair Mahammadov:  Engineer 2 
 ENG3.          Nazrin Asgarli:  Engineer 3 
 ETIM.      10.33.36 26-Feb-20:  End Time 
 FLOI.gpm               480.00:  Flow In 
 FLON.gpm               300.00:  Flow In Min 
 FLOS.cptm                1.00:  Fluid Loss 
 FLOX.gpm               550.00:  Flow In Max 
 HFLO.                      No:  High Flow 
 HPRE.                      No:  High Pressure 
 HTEM.                      No:  High Temp 
 HYDO.m                   1.80:  Hydro Offset 
 IFIN.deg                74.42:  Inc, Final 
 IMAX.deg                76.14:  Inc Max 
 IMIN.deg                74.42:  Inc Min 
 IMND.m                3462.72:  Inc Min Depth 
 IMXD.m                3235.69:  Inc Max Depth 
 JARR.                      No:  Jarring 
 LETM.      12.59.00 23-Feb-20:  Log End Time 
 LOST.hr                     0:  Lost Rig Time 
 LSTM.      09.44.00 18-Feb-20:  Log Start Time 
 MDCL.ppm             45000.00:  Mud Chlorides 
 MDES.     Inversion Oil/Synthetic:  Mud Desc 
 DFD .sg                  1.38:  Mud Density 
 MDMN.sg                  1.34:  Dens Mud Min 
 MDMX.sg                  1.49:  Dens Mud Max 
 MOIL.                      67:  Run Mud Oil % 
 MOWR.                   67:33:  Run Mud OWR 
 MSND.                    0.12:  Run Mud Sand % 
 MSOL.                      22:  Run Mud Solids% 
 DFV .spqt               81.00:  Mud Viscosity 
 MWOD.in                  6.75:  MWD Tool OD 
 MWSI.                      No:  Serv Intrp, MWD 
 OTIM.hr                231.44:  Time Operating 
 PCON.          Wear / Scratch:  Pad Condition 
 PMAX.psia             3400.00:  Press Op, Max 
 PV  .cP                 55.00:  Mud PV 
 RUN .                     800:  Run Number 
 ROPA.m/hr               12.00:  ROP Avg 
 ROPN.m/hr                5.00:  ROP Min 
 ROPX.m/hr               28.00:  ROP Max 
 RPMA.rpm               120.00:  RPM Surface Avg 
 RPMN.rpm                40.00:  RPM Surface Min 
 RPMX.rpm               130.00:  RPM Surface Max 
 RRUN.                    0800:  Rig Run Number 
 RTIM.hr                 45.00:  Time Reaming 
 SAZI.deg               145.38:  Azm, Start 
 SDEP.m                3219.01:  Start Depth 
 SIDD.                      No:  Serv Intrp, DD 
 SINC.deg                75.11:  Inc, Start 
 SPPA.psig             2400.00:  SPP Avg 
 SPPN.psig             2320.00:  SPP Min 
 SPPX.psig             3200.00:  SPP Max 
 STIM.      15.15.00 17-Feb-20:  Start Time 
 SVCS.                 DD, MWD:  Services 
 SVER.                    9.20:  Sperry Version 
 TDAT.m                 254.00:  Tot Depth Attmp 
 TDDF.                      No:  Trip for DD 
 TDLG.m                 254.00:  Tot Depth Loggd 
 TFF .                      No:  Trip for Fail 
 TQAA.f-kp               13.00:  Torque Abs Avg 
 TQAN.f-kp                7.00:  Torque Abs Min 
 TQAX.f-kp               15.00:  Torque Abs Max 
 TRRT.°/30m               0.21:  Turn Rotating 
 MRT .                  EWR-M5:  Maximum Recorded Temperature 
 TTMX.degC               64.00:  Max Tool Temp 
 VS01.                90586516:  Virtual Str1 SN 
 VS02.                90513691:  Virtual Str2 SN 
 VS03.                90586523:  Virtual Str3 SN 
 VS04.                90586520:  Virtual Str4 SN 
 VS05.                90590507:  Virtual Str5 SN 
 WBMN.klb                12.00:  WOB Min 
 WITN.           Rufat Babayev:  Customer Rep 2 
 WITN.         Alistair Sprott:  Customer Rep 
 WOBA.klb                18.00:  WOB Avg 
 WOBX.klb                30.00:  WOB Max 
 YP  .lhf2               41.00:  Yield Point 
~Curve Information Block
#MNEM.UNIT                 API CODE     Curve Description
#---------               -----------    ---------------------------
 TIME.HHMMSS            00 000 000 000:  GT Time & Date
 GTDEPTH.m              00 000 000 000:  GT Depth
 GTPQH.psia             00 000 000 000:  GT HR Quartz Pressure
 GTTQ.degC              00 000 000 000:  GT Quartz Temperature
 GTTN.NONE              00 000 000 000:  GT Test Number
 GTET.sec               00 000 000 000:  GT Elapsed Test Time
 GTTVD.m                00 000 000 000:  GT True Vertical Depth
#Other Information
#
#WARRANTY: Halliburton will use its best efforts to furnish customers with 
#accurate information and interpretations that are part of, and incident to, the services 
#provided.  However, Halliburton cannot and does not warrant the accuracy 
#or correctness of such information and interpretations.  Under no circumstances should any 
#such information or interpretation be relied upon as the sole basis for any drilling, 
#completion, production, or financial decision or any procedure involving any risk to the 
#safety of any drilling venture, drilling rig or its crew or any other third party.  The 
#Customer has full responsibility for all drilling, completion and production operation.  
#Halliburton makes no representations or warranties, either expressed or 
#implied, including, but not limited to, the implied warranties of merchantability or fitness 
#for a particular purpose, with respect to the services rendered.  In no event will 
#Halliburton be liable for failure to obtain any particular results or for 
#any damages, including, but not limited to, indirect, special or consequential damages, 
#resulting from the use of any information or interpretation provided by Halliburton.
#
~A           TIME           GTDEPTH  GTPQH  GTTQ  GTTN  GTET   GTTVD  
# ...
   04:11:44.000.24-Feb-2020 3356.51 5707.10 55.49 7.00 391.00 2704.30
   04:11:44.200.24-Feb-2020 3356.51 5707.10 55.49 7.00 391.20 2704.30
   04:11:44.400.24-Feb-2020 3356.51 5706.89 55.49 7.00 391.40 2704.30
   04:11:44.600.24-Feb-2020 3356.51 5707.05 55.49 7.00 391.60 2704.30
   04:11:44.800.24-Feb-2020 3356.51 5707.34 55.49 7.00 391.80 2704.30
   04:11:45.000.24-Feb-2020 3356.51 5707.29 55.49 7.00 392.00 2704.30
   04:11:45.200.24-Feb-2020 3356.51 5707.29 55.49 7.00 392.20 2704.30
   04:11:45.400.24-Feb-2020 3356.51 5703.85 55.49 7.00 392.40 2704.30
   04:11:45.600.24-Feb-2020 3356.51 5708.07 55.49 7.00 392.60 2704.30
   04:11:45.800.24-Feb-2020 3356.51 5706.96 55.49 7.00 392.80 2704.30
   04:11:46.000.24-Feb-2020 3356.51 5711.29 55.49 7.00 393.00 2704.30
   04:11:46.200.24-Feb-2020 3356.51 5711.29 55.49 7.00 393.20 2704.30
   04:11:46.400.24-Feb-2020 3356.51 5708.35 55.49 7.00 393.40 2704.30
   04:11:46.600.24-Feb-2020 3356.51 5707.15 55.49 7.00 393.60 2704.30
   04:11:46.800.24-Feb-2020 3356.51 5711.46 55.49 7.00 393.80 2704.30
   04:11:47.000.24-Feb-2020 3356.51 5704.35 55.50 7.00 394.00 2704.30
   04:11:47.200.24-Feb-2020 3356.51 5704.35 55.50 7.00 394.20 2704.30
   04:11:47.400.24-Feb-2020 3356.51 5707.36 55.49 7.00 394.40 2704.30
   04:11:47.600.24-Feb-2020 3356.51 5707.73 55.50 7.00 394.60 2704.30
   04:11:47.800.24-Feb-2020 3356.51 5707.80 55.49 7.00 394.80 2704.30
   04:11:48.000.24-Feb-2020 3356.51 5708.29 55.49 7.00 395.00 2704.30
   04:11:48.200.24-Feb-2020 3356.51 5708.29 55.49 7.00 395.20 2704.30
   04:11:48.400.24-Feb-2020 3356.51 5702.83 55.49 7.00 395.40 2704.30
   04:11:48.600.24-Feb-2020 3356.51 5708.31 55.49 7.00 395.60 2704.30
   04:11:48.800.24-Feb-2020 3356.51 5706.64 55.49 7.00 395.80 2704.30
   04:11:49.000.24-Feb-2020 3356.51 5707.19 55.49 7.00 396.00 2704.30
   04:11:49.200.24-Feb-2020 3356.51 5707.19 55.49 7.00 396.20 2704.30
   04:11:49.400.24-Feb-2020 3356.51 5707.47 55.49 7.00 396.40 2704.30
   04:11:49.600.24-Feb-2020 3356.51 5707.33 55.49 7.00 396.60 2704.30
   04:11:49.800.24-Feb-2020 3356.51 5707.27 55.49 7.00 396.80 2704.30
   04:11:50.000.24-Feb-2020 3356.51 5707.44 55.49 7.00 397.00 2704.30
   04:11:50.200.24-Feb-2020 3356.51 5707.44 55.49 7.00 397.20 2704.30
   04:11:50.400.24-Feb-2020 3356.51 5707.44 55.49 7.00 397.40 2704.30
   04:11:50.600.24-Feb-2020 3356.51 5707.47 55.49 7.00 397.60 2704.30
   04:11:50.800.24-Feb-2020 3356.51 5707.48 55.49 7.00 397.80 2704.30
   04:11:51.000.24-Feb-2020 3356.51 5707.85 55.49 7.00 398.00 2704.30
   04:11:51.200.24-Feb-2020 3356.51 5707.85 55.49 7.00 398.20 2704.30
   04:11:51.400.24-Feb-2020 3356.51 5711.94 55.49 7.00 398.40 2704.30
   04:11:51.600.24-Feb-2020 3356.51 5704.07 55.49 7.00 398.60 2704.30
   04:11:51.800.24-Feb-2020 3356.51 5708.04 55.49 7.00 398.80 2704.30
   04:11:52.000.24-Feb-2020 3356.51 5707.29 55.49 7.00 399.00 2704.30
   04:11:52.200.24-Feb-2020 3356.51 5707.29 55.49 7.00 399.20 2704.30
   04:11:52.400.24-Feb-2020 3356.51 5706.46 55.49 7.00 399.40 2704.30
   04:11:52.600.24-Feb-2020 3356.51 5706.74 55.49 7.00 399.60 2704.30
   04:11:52.800.24-Feb-2020 3356.51 5706.77 55.49 7.00 399.80 2704.30
   04:11:53.000.24-Feb-2020 3356.51 5707.25 55.49 7.00 400.00 2704.30
   04:11:53.200.24-Feb-2020 3356.51 5707.25 55.49 7.00 400.20 2704.30
   04:11:53.400.24-Feb-2020 3356.51 5706.06 55.49 7.00 400.40 2704.30
   04:11:53.600.24-Feb-2020 3356.51 5706.13 55.49 7.00 400.60 2704.30
   04:11:53.800.24-Feb-2020 3356.51 5706.63 55.49 7.00 400.80 2704.30
   04:11:54.000.24-Feb-2020 3356.51 5707.26 55.49 7.00 401.00 2704.30
   04:11:54.200.24-Feb-2020 3356.51 5707.26 55.49 7.00 401.20 2704.30
   04:11:54.400.24-Feb-2020 3356.51 5707.99 55.49 7.00 401.40 2704.30
   04:11:54.600.24-Feb-2020 3356.51 5707.07 55.49 7.00 401.60 2704.30
   04:11:54.800.24-Feb-2020 3356.51 5710.91 55.49 7.00 401.80 2704.30
   04:11:55.000.24-Feb-2020 3356.51 5703.98 55.49 7.00 402.00 2704.30
   04:11:55.200.24-Feb-2020 3356.51 5703.98 55.49 7.00 402.20 2704.30
   04:11:55.400.24-Feb-2020 3356.51 5707.15 55.49 7.00 402.40 2704.30
   04:11:55.600.24-Feb-2020 3356.51 5713.51 55.49 7.00 402.60 2704.30
   04:11:55.800.24-Feb-2020 3356.51 5702.71 55.49 7.00 402.80 2704.30
   04:11:56.000.24-Feb-2020 3356.51 5708.55 55.49 7.00 403.00 2704.30
   04:11:56.200.24-Feb-2020 3356.51 5708.55 55.49 7.00 403.20 2704.30
   04:11:56.400.24-Feb-2020 3356.51 5707.15 55.49 7.00 403.40 2704.30
   04:11:56.600.24-Feb-2020 3356.51 5707.19 55.49 7.00 403.60 2704.30
   04:11:56.800.24-Feb-2020 3356.51 5711.42 55.49 7.00 403.80 2704.30
   04:11:57.000.24-Feb-2020 3356.51 5704.35 55.49 7.00 404.00 2704.30
   04:11:57.200.24-Feb-2020 3356.51 5704.35 55.49 7.00 404.20 2704.30
   04:11:57.400.24-Feb-2020 3356.51 5707.83 55.49 7.00 404.40 2704.30
   04:11:57.600.24-Feb-2020 3356.51 5711.28 55.49 7.00 404.60 2704.30
   04:11:57.800.24-Feb-2020 3356.51 5706.42 55.49 7.00 404.80 2704.30
   04:11:58.000.24-Feb-2020 3356.51 5708.41 55.49 7.00 405.00 2704.30
   04:11:58.200.24-Feb-2020 3356.51 5708.41 55.49 7.00 405.20 2704.30
   04:11:58.400.24-Feb-2020 3356.51 5707.15 55.49 7.00 405.40 2704.30
   04:11:58.600.24-Feb-2020 3356.51 5707.18 55.49 7.00 405.60 2704.30
   04:11:58.800.24-Feb-2020 3356.51 5707.21 55.49 7.00 405.80 2704.30
   04:11:59.000.24-Feb-2020 3356.51 5707.17 55.49 7.00 406.00 2704.30
   04:11:59.200.24-Feb-2020 3356.51 5707.17 55.49 7.00 406.20 2704.30
   04:11:59.400.24-Feb-2020 3356.51 5707.30 55.49 7.00 406.40 2704.30
   04:11:59.600.24-Feb-2020 3356.51 5707.32 55.49 7.00 406.60 2704.30
   04:11:59.800.24-Feb-2020 3356.51 5707.21 55.49 7.00 406.80 2704.30
   04:12:00.000.24-Feb-2020 3356.51 5707.33 55.49 7.00 407.00 2704.30
   04:12:00.200.24-Feb-2020 3356.51 5707.33 55.49 7.00 407.20 2704.30
   04:12:00.400.24-Feb-2020 3356.51 5707.44 55.49 7.00 407.40 2704.30
   04:12:00.600.24-Feb-2020 3356.51 5707.89 55.49 7.00 407.60 2704.30
   04:12:00.800.24-Feb-2020 3356.51 5714.16 55.49 7.00 407.80 2704.30
   04:12:01.000.24-Feb-2020 3356.51 5703.10 55.49 7.00 408.00 2704.30
   04:12:01.200.24-Feb-2020 3356.51 5703.10 55.49 7.00 408.20 2704.30
   04:12:01.400.24-Feb-2020 3356.51 5706.39 55.49 7.00 408.40 2704.30
   04:12:01.600.24-Feb-2020 3356.51 5707.05 55.49 7.00 408.60 2704.30
   04:12:01.800.24-Feb-2020 3356.51 5707.48 55.49 7.00 408.80 2704.30
   04:12:02.000.24-Feb-2020 3356.51 5706.97 55.49 7.00 409.00 2704.30
   04:12:02.200.24-Feb-2020 3356.51 5706.97 55.49 7.00 409.20 2704.30
   04:12:02.400.24-Feb-2020 3356.51 5706.13 55.49 7.00 409.40 2704.30
   04:12:02.600.24-Feb-2020 3356.51 5706.89 55.49 7.00 409.60 2704.30
   04:12:02.800.24-Feb-2020 3356.51 5707.35 55.49 7.00 409.80 2704.30
   04:12:03.000.24-Feb-2020 3356.51 5707.62 55.49 7.00 410.00 2704.30
   04:12:03.200.24-Feb-2020 3356.51 5707.62 55.49 7.00 410.20 2704.30
   04:12:03.400.24-Feb-2020 3356.51 5706.44 55.48 7.00 410.40 2704.30
   04:12:03.600.24-Feb-2020 3356.51 5707.20 55.48 7.00 410.60 2704.30
   04:12:03.800.24-Feb-2020 3356.51 5707.80 55.48 7.00 410.80 2704.30
   04:12:04.000.24-Feb-2020 3356.51 5707.37 55.48 7.00 411.00 2704.30
   04:12:04.200.24-Feb-2020 3356.51 5707.37 55.48 7.00 411.20 2704.30
   04:12:04.400.24-Feb-2020 3356.51 5702.49 55.48 7.00 411.40 2704.30
   04:12:04.600.24-Feb-2020 3356.51 5708.17 55.48 7.00 411.60 2704.30
   04:12:04.800.24-Feb-2020 3356.51 5706.37 55.48 7.00 411.80 2704.30
   04:12:05.000.24-Feb-2020 3356.51 5710.67 55.48 7.00 412.00 2704.30
   04:12:05.200.24-Feb-2020 3356.51 5710.67 55.48 7.00 412.20 2704.30
   04:12:05.400.24-Feb-2020 3356.51 5708.57 55.48 7.00 412.40 2704.30
   04:12:05.600.24-Feb-2020 3356.51 5706.48 55.48 7.00 412.60 2704.30
   04:12:05.800.24-Feb-2020 3356.51 5707.31 55.48 7.00 412.80 2704.30
   04:12:06.000.24-Feb-2020 3356.51 5707.36 55.48 7.00 413.00 2704.30
   04:12:06.200.24-Feb-2020 3356.51 5707.36 55.48 7.00 413.20 2704.30
   04:12:06.400.24-Feb-2020 3356.51 5704.56 55.48 7.00 413.40 2704.30
   04:12:06.600.24-Feb-2020 3356.51 5708.78 55.48 7.00 413.60 2704.30
   04:12:06.800.24-Feb-2020 3356.51 5708.01 55.48 7.00 413.80 2704.30
