~Version Information
 VERS.                  2.0:   CWLS log ASCII Standard -VERSION 2.0
 WRAP.                   NO:   One line per depth step
~Well Information Block
#MNEM.UNIT     VALUE/NAME     DESCRIPTION
#---------     -----------    ---------------------------
 STRT.S             05:02:14 24-Feb-20: START TIME 05:02:14 24-Feb-20
 STOP.S             05:09:32 24-Feb-20: STOP TIME  05:09:32 24-Feb-20
 STEP.S                   0.00: STEP TIME
 NULL.                 -999.25: NULL VALUE
 JOBN.        AZ-XX-0905059384:  JOB TICKET NUMB
 PDAT.          Mean Sea Level:  PERMANENT DATUM
 UNIT.                     N/A:  LOGGING EQUIPMENT ID
 DCON.         Sperry Drilling:  DIRECTNL CONTR
 DOE .                     N/A:  DOE NUMBER
 RIG .             West Chirag:  RIG NAME
 WELL.                     J22:  WELL NAME
 MWDS.                    Baku:  MWD SHOP
 SRVC.     TURAN Drilling & Engineering:  CONTRACTOR
 FLD .                     ACG:  FIELD NAME
 CTRY.              Azerbaijan:  COUNTRY NAME
 PROV.                    Baku:  PROVINCE
 STAT.                    Baku:  STATE NAME
 REGN.                   EESSA:  REGION
 BASE.              Azerbaijan:  LOGGING EQUIPMENT BASE LOCATION
 UWI .                     N/A:  UNIQUE WELL IDENTIFIER
 API .                     N/A:  API NUMBER
 COMP.     BP Exploration (Caspian Sea) Ltd.:  COMPANY
 WTYP.                Deviated:  WELL TYPE
 MDS .        Operator Entered:  MAG DATA SOURCE
 SON .        AZ-XX-0905059384:  JOB NUMBER
 FTOP.          Formation Tops:  FORM TOPS DESC
 ILTD.               Lithology:  INTERP LTH DESC
 SVYD.                  Survey:  SURVEY DESC
 DMOD.             Drill Model:  DRILL MOD DESC
 HPTY.       Minimum Curvature:  HOLE POS TYPE
 NREF.                    Grid:  NORTH REFERENCE
 SPUD.               09-Jan-20:  SPUD DATE
 DATE.      14.04.48 07-Feb-20:  END TIME
 STIM.      07.00.00 09-Jan-20:  START TIME
 DMF .             Drill Floor:  DRILL MEAS FROM
 DFST.                        :  DIST FSL TEXT
 DFWT.                        :  DIST FWL TEXT
 CNTY.                        :  COUNTY
 LOC .                        :  LOCATION
 LMF .             Drill Floor:  LOG MEASURED FROM
 DEP .m                   0.00:  DEPTH
 VSNS.m                  10.28:  VERT SEC N/S
 VSEW.m                  -6.24:  VERT SEC E/W
 AGAP.m                  43.00:  AIR GAP
 APD .m                  43.00:  DEPTH ABOVE PD
 WDMS.m                 169.80:  WD ELEV
 EGL .m                   0.00:  GROUND ELEVATION
 EPD .m                   0.00:  ELEVATION
 AZTC.deg                 6.27:  AZM TOTAL CORR
 GRDC.deg                 0.15:  GRID CORRECTION
 MDEC.deg                 6.42:  MAGNETIC DECL
 MDIP.deg                59.56:  MAGNETIC DIP
 MFLD.nT              50277.00:  MAGNETIC FIELD
 GVFD.g                   1.00:  GRAVITY FIELD
 VSDR.deg               148.53:  VERT SEC DIRECT
 TDD .m                3473.01:  TOTAL DEPTH (DRILLER)
 SDEP.m                 364.00:  START DEPTH
 DFSL.m                   0.00:  DISTANCE FSL
 DFWL.m                   0.00:  DISTANCE FWL
 UTMY.m             4443793.85:  UTM Y
 UTMX.m              519005.06:  UTM X
 WHEW.m                  -6.24:  WELL HEAD E/W
 WHNS.m                  10.28:  WELL HEAD N/S
 LONG.deg                51.22:  LONGITUDE
 LATI.deg                40.13:  LATITUDE
 TVDS.m                  43.00:  TVDSS CORRECTN
 EKB .m                   0.00:  KB ELEVATION
 EDF .m                  43.00:  DF ELEVATION
 TDL .m                 254.00:  TOTAL DEPTH (LOGGER)
 MAGU.                 1850021:  MAGUTM CHECKSUM
 VSC .                       0:  VS TO CLOSURE
~Parameter Information Block
#MNEM.UNIT       Value        Description
#---------     -----------    ---------------------------
 AV  .mps                 0.50:  Ann Velocity 
 AVMX.mps                 1.40:  Max Ann Veloc 
 AZIF.deg               144.94:  Azm, Final 
 BHAT.        Rotary Steerable:  BHA Type 
 BROT.°/30m               0.23:  Build Rotating 
 BS  .in                  8.50:  Bit Size 
 BTPL.psig              264.00:  Bit Press Loss 
 CABU.                     Yes:  Customer Abuse 
 TCS .hr                 87.30:  Time Ciculation Ended 
 CV  .mps                 2.45:  Crit Velocity 
 CVMX.mps                 2.74:  Max Crit Veloc 
 DD1 .             Aziz Aliyev:  Direct Drillr 1 
 DDSV.               Geo-Pilot:  DD Service 
 DEFF.%                 100.00:  % Det Eff 
 DLRX.°/30m               1.22:  Dogleg Rot Max 
 DLSO.°/30m               0.52:  Dogleg Oriented 
 DLSX.°/30m               1.22:  Dogleg Str Max 
 DRET.      12.59.00 23-Feb-20:  Drill End Time 
 DRST.      09.44.00 18-Feb-20:  Drill Start Tim 
 DTIM.hr                 23.03:  Time Drilling 
 EDEP.m                3473.01:  End Depth 
 ENG1.         Almaz Almadatov:  Engineer 1 
 ENG2.         Dair Mahammadov:  Engineer 2 
 ENG3.          Nazrin Asgarli:  Engineer 3 
 ETIM.      10.33.36 26-Feb-20:  End Time 
 FLOI.gpm               480.00:  Flow In 
 FLON.gpm               300.00:  Flow In Min 
 FLOS.cptm                1.00:  Fluid Loss 
 FLOX.gpm               550.00:  Flow In Max 
 HFLO.                      No:  High Flow 
 HPRE.                      No:  High Pressure 
 HTEM.                      No:  High Temp 
 HYDO.m                   1.80:  Hydro Offset 
 IFIN.deg                74.42:  Inc, Final 
 IMAX.deg                76.14:  Inc Max 
 IMIN.deg                74.42:  Inc Min 
 IMND.m                3462.72:  Inc Min Depth 
 IMXD.m                3235.69:  Inc Max Depth 
 JARR.                      No:  Jarring 
 LETM.      12.59.00 23-Feb-20:  Log End Time 
 LOST.hr                     0:  Lost Rig Time 
 LSTM.      09.44.00 18-Feb-20:  Log Start Time 
 MDCL.ppm             45000.00:  Mud Chlorides 
 MDES.     Inversion Oil/Synthetic:  Mud Desc 
 DFD .sg                  1.38:  Mud Density 
 MDMN.sg                  1.34:  Dens Mud Min 
 MDMX.sg                  1.49:  Dens Mud Max 
 MOIL.                      67:  Run Mud Oil % 
 MOWR.                   67:33:  Run Mud OWR 
 MSND.                    0.12:  Run Mud Sand % 
 MSOL.                      22:  Run Mud Solids% 
 DFV .spqt               81.00:  Mud Viscosity 
 MWOD.in                  6.75:  MWD Tool OD 
 MWSI.                      No:  Serv Intrp, MWD 
 OTIM.hr                231.44:  Time Operating 
 PCON.          Wear / Scratch:  Pad Condition 
 PMAX.psia             3400.00:  Press Op, Max 
 PV  .cP                 55.00:  Mud PV 
 RUN .                     800:  Run Number 
 ROPA.m/hr               12.00:  ROP Avg 
 ROPN.m/hr                5.00:  ROP Min 
 ROPX.m/hr               28.00:  ROP Max 
 RPMA.rpm               120.00:  RPM Surface Avg 
 RPMN.rpm                40.00:  RPM Surface Min 
 RPMX.rpm               130.00:  RPM Surface Max 
 RRUN.                    0800:  Rig Run Number 
 RTIM.hr                 45.00:  Time Reaming 
 SAZI.deg               145.38:  Azm, Start 
 SDEP.m                3219.01:  Start Depth 
 SIDD.                      No:  Serv Intrp, DD 
 SINC.deg                75.11:  Inc, Start 
 SPPA.psig             2400.00:  SPP Avg 
 SPPN.psig             2320.00:  SPP Min 
 SPPX.psig             3200.00:  SPP Max 
 STIM.      15.15.00 17-Feb-20:  Start Time 
 SVCS.                 DD, MWD:  Services 
 SVER.                    9.20:  Sperry Version 
 TDAT.m                 254.00:  Tot Depth Attmp 
 TDDF.                      No:  Trip for DD 
 TDLG.m                 254.00:  Tot Depth Loggd 
 TFF .                      No:  Trip for Fail 
 TQAA.f-kp               13.00:  Torque Abs Avg 
 TQAN.f-kp                7.00:  Torque Abs Min 
 TQAX.f-kp               15.00:  Torque Abs Max 
 TRRT.°/30m               0.21:  Turn Rotating 
 MRT .                  EWR-M5:  Maximum Recorded Temperature 
 TTMX.degC               64.00:  Max Tool Temp 
 VS01.                90586516:  Virtual Str1 SN 
 VS02.                90513691:  Virtual Str2 SN 
 VS03.                90586523:  Virtual Str3 SN 
 VS04.                90586520:  Virtual Str4 SN 
 VS05.                90590507:  Virtual Str5 SN 
 WBMN.klb                12.00:  WOB Min 
 WITN.           Rufat Babayev:  Customer Rep 2 
 WITN.         Alistair Sprott:  Customer Rep 
 WOBA.klb                18.00:  WOB Avg 
 WOBX.klb                30.00:  WOB Max 
 YP  .lhf2               41.00:  Yield Point 
~Curve Information Block
#MNEM.UNIT                 API CODE     Curve Description
#---------               -----------    ---------------------------
 TIME.HHMMSS            00 000 000 000:  GT Time & Date
 GTDEPTH.m              00 000 000 000:  GT Depth
 GTPQH.psia             00 000 000 000:  GT HR Quartz Pressure
 GTTQ.degC              00 000 000 000:  GT Quartz Temperature
 GTTN.NONE              00 000 000 000:  GT Test Number
 GTET.sec               00 000 000 000:  GT Elapsed Test Time
 GTTVD.m                00 000 000 000:  GT True Vertical Depth
#Other Information
#
#WARRANTY: Halliburton will use its best efforts to furnish customers with 
#accurate information and interpretations that are part of, and incident to, the services 
#provided.  However, Halliburton cannot and does not warrant the accuracy 
#or correctness of such information and interpretations.  Under no circumstances should any 
#such information or interpretation be relied upon as the sole basis for any drilling, 
#completion, production, or financial decision or any procedure involving any risk to the 
#safety of any drilling venture, drilling rig or its crew or any other third party.  The 
#Customer has full responsibility for all drilling, completion and production operation.  
#Halliburton makes no representations or warranties, either expressed or 
#implied, including, but not limited to, the implied warranties of merchantability or fitness 
#for a particular purpose, with respect to the services rendered.  In no event will 
#Halliburton be liable for failure to obtain any particular results or for 
#any damages, including, but not limited to, indirect, special or consequential damages, 
#resulting from the use of any information or interpretation provided by Halliburton.
#
~A           TIME           GTDEPTH  GTPQH  GTTQ  GTTN  GTET   GTTVD  
# ...
   05:06:27.768.24-Feb-2020 3303.51 4420.74 55.40 8.00 252.93 2690.98
   05:06:27.968.24-Feb-2020 3303.51 4420.74 55.40 8.00 253.13 2690.98
   05:06:28.168.24-Feb-2020 3303.51 4421.11 55.40 8.00 253.33 2690.98
   05:06:28.368.24-Feb-2020 3303.51 4421.02 55.40 8.00 253.53 2690.98
   05:06:28.568.24-Feb-2020 3303.51 4421.02 55.40 8.00 253.73 2690.98
   05:06:28.768.24-Feb-2020 3303.51 4421.30 55.40 8.00 253.93 2690.98
   05:06:28.968.24-Feb-2020 3303.51 4420.70 55.40 8.00 254.13 2690.98
   05:06:29.168.24-Feb-2020 3303.51 4421.25 55.40 8.00 254.33 2690.98
   05:06:29.368.24-Feb-2020 3303.51 4421.03 55.40 8.00 254.53 2690.98
   05:06:29.568.24-Feb-2020 3303.51 4421.07 55.40 8.00 254.73 2690.98
   05:06:29.768.24-Feb-2020 3303.51 4421.10 55.40 8.00 254.93 2690.98
   05:06:29.968.24-Feb-2020 3303.51 4421.10 55.40 8.00 255.12 2690.98
   05:06:30.168.24-Feb-2020 3303.51 4420.90 55.40 8.00 255.32 2690.98
   05:06:30.368.24-Feb-2020 3303.51 4421.04 55.40 8.00 255.52 2690.98
   05:06:30.568.24-Feb-2020 3303.51 4420.97 55.40 8.00 255.72 2690.98
   05:06:30.768.24-Feb-2020 3303.51 4421.05 55.40 8.00 255.92 2690.98
   05:06:30.967.24-Feb-2020 3303.51 4421.05 55.40 8.00 256.12 2690.98
   05:06:31.167.24-Feb-2020 3303.51 4421.02 55.40 8.00 256.32 2690.98
   05:06:31.367.24-Feb-2020 3303.51 4421.04 55.40 8.00 256.52 2690.98
   05:06:31.567.24-Feb-2020 3303.51 4421.04 55.40 8.00 256.72 2690.98
   05:06:31.767.24-Feb-2020 3303.51 4421.03 55.40 8.00 256.92 2690.98
   05:06:31.967.24-Feb-2020 3303.51 4421.03 55.40 8.00 257.12 2690.98
   05:06:32.167.24-Feb-2020 3303.51 4421.03 55.40 8.00 257.32 2690.98
   05:06:32.367.24-Feb-2020 3303.51 4421.04 55.40 8.00 257.52 2690.98
   05:06:32.567.24-Feb-2020 3303.51 4421.06 55.40 8.00 257.72 2690.98
   05:06:32.767.24-Feb-2020 3303.51 4421.33 55.40 8.00 257.92 2690.98
   05:06:32.967.24-Feb-2020 3303.51 4420.71 55.40 8.00 258.12 2690.98
   05:06:33.167.24-Feb-2020 3303.51 4421.20 55.40 8.00 258.32 2690.98
   05:06:33.367.24-Feb-2020 3303.51 4421.01 55.40 8.00 258.52 2690.98
   05:06:33.567.24-Feb-2020 3303.51 4421.04 55.40 8.00 258.72 2690.98
   05:06:33.767.24-Feb-2020 3303.51 4420.99 55.40 8.00 258.92 2690.98
   05:06:33.967.24-Feb-2020 3303.51 4420.99 55.40 8.00 259.12 2690.98
   05:06:34.167.24-Feb-2020 3303.51 4421.00 55.40 8.00 259.32 2690.98
   05:06:34.366.24-Feb-2020 3303.51 4421.02 55.40 8.00 259.52 2690.98
   05:06:34.566.24-Feb-2020 3303.51 4421.05 55.40 8.00 259.72 2690.98
   05:06:34.766.24-Feb-2020 3303.51 4421.05 55.40 8.00 259.92 2690.98
   05:06:34.966.24-Feb-2020 3303.51 4421.05 55.40 8.00 260.12 2690.98
   05:06:35.166.24-Feb-2020 3303.51 4421.01 55.40 8.00 260.32 2690.98
   05:06:35.366.24-Feb-2020 3303.51 4421.02 55.40 8.00 260.52 2690.98
   05:06:35.566.24-Feb-2020 3303.51 4421.05 55.40 8.00 260.72 2690.98
   05:06:35.766.24-Feb-2020 3303.51 4421.07 55.40 8.00 260.92 2690.98
   05:06:35.966.24-Feb-2020 3303.51 4421.07 55.40 8.00 261.12 2690.98
   05:06:36.166.24-Feb-2020 3303.51 4421.44 55.40 8.00 261.32 2690.98
   05:06:36.366.24-Feb-2020 3303.51 4420.71 55.40 8.00 261.52 2690.98
   05:06:36.566.24-Feb-2020 3303.51 4420.94 55.40 8.00 261.72 2690.98
   05:06:36.766.24-Feb-2020 3303.51 4421.09 55.40 8.00 261.92 2690.98
   05:06:36.966.24-Feb-2020 3303.51 4420.93 55.40 8.00 262.12 2690.98
   05:06:37.166.24-Feb-2020 3303.51 4421.23 55.40 8.00 262.32 2690.98
   05:06:37.366.24-Feb-2020 3303.51 4421.05 55.40 8.00 262.52 2690.98
   05:06:37.566.24-Feb-2020 3303.51 4420.97 55.40 8.00 262.72 2690.98
   05:06:37.765.24-Feb-2020 3303.51 4421.05 55.40 8.00 262.92 2690.98
   05:06:37.965.24-Feb-2020 3303.51 4421.05 55.40 8.00 263.12 2690.98
   05:06:38.165.24-Feb-2020 3303.51 4421.17 55.40 8.00 263.32 2690.98
   05:06:38.365.24-Feb-2020 3303.51 4421.09 55.40 8.00 263.52 2690.98
   05:06:38.565.24-Feb-2020 3303.51 4420.94 55.40 8.00 263.72 2690.98
   05:06:38.765.24-Feb-2020 3303.51 4421.09 55.39 8.00 263.92 2690.98
   05:06:38.965.24-Feb-2020 3303.51 4421.09 55.39 8.00 264.12 2690.98
   05:06:39.165.24-Feb-2020 3303.51 4420.69 55.39 8.00 264.32 2690.98
   05:06:39.365.24-Feb-2020 3303.51 4421.17 55.39 8.00 264.52 2690.98
   05:06:39.565.24-Feb-2020 3303.51 4420.97 55.39 8.00 264.72 2690.98
   05:06:39.765.24-Feb-2020 3303.51 4421.03 55.39 8.00 264.92 2690.98
   05:06:39.965.24-Feb-2020 3303.51 4421.03 55.39 8.00 265.12 2690.98
   05:06:40.165.24-Feb-2020 3303.51 4421.02 55.39 8.00 265.32 2690.98
   05:06:40.365.24-Feb-2020 3303.51 4421.03 55.39 8.00 265.52 2690.98
   05:06:40.565.24-Feb-2020 3303.51 4421.03 55.39 8.00 265.72 2690.98
   05:06:40.765.24-Feb-2020 3303.51 4421.03 55.39 8.00 265.92 2690.98
   05:06:40.965.24-Feb-2020 3303.51 4421.03 55.39 8.00 266.12 2690.98
   05:06:41.164.24-Feb-2020 3303.51 4421.04 55.39 8.00 266.32 2690.98
   05:06:41.364.24-Feb-2020 3303.51 4421.03 55.39 8.00 266.52 2690.98
   05:06:41.564.24-Feb-2020 3303.51 4421.05 55.39 8.00 266.72 2690.98
   05:06:41.764.24-Feb-2020 3303.51 4421.04 55.39 8.00 266.92 2690.98
   05:06:41.964.24-Feb-2020 3303.51 4421.05 55.39 8.00 267.12 2690.98
   05:06:42.164.24-Feb-2020 3303.51 4421.16 55.39 8.00 267.32 2690.98
   05:06:42.364.24-Feb-2020 3303.51 4421.07 55.39 8.00 267.52 2690.98
   05:06:42.564.24-Feb-2020 3303.51 4420.91 55.39 8.00 267.72 2690.98
   05:06:42.764.24-Feb-2020 3303.51 4421.04 55.39 8.00 267.92 2690.98
   05:06:42.964.24-Feb-2020 3303.51 4421.04 55.39 8.00 268.12 2690.98
   05:06:43.164.24-Feb-2020 3303.51 4421.01 55.39 8.00 268.32 2690.98
   05:06:43.364.24-Feb-2020 3303.51 4420.99 55.39 8.00 268.52 2690.98
   05:06:43.564.24-Feb-2020 3303.51 4421.00 55.39 8.00 268.72 2690.98
   05:06:43.764.24-Feb-2020 3303.51 4421.01 55.39 8.00 268.92 2690.98
   05:06:43.964.24-Feb-2020 3303.51 4421.01 55.39 8.00 269.12 2690.98
   05:06:44.164.24-Feb-2020 3303.51 4421.05 55.39 8.00 269.32 2690.98
   05:06:44.364.24-Feb-2020 3303.51 4421.01 55.39 8.00 269.52 2690.98
   05:06:44.563.24-Feb-2020 3303.51 4421.02 55.39 8.00 269.72 2690.98
   05:06:44.763.24-Feb-2020 3303.51 4421.03 55.39 8.00 269.92 2690.98
   05:06:44.963.24-Feb-2020 3303.51 4421.03 55.39 8.00 270.12 2690.98
   05:06:45.163.24-Feb-2020 3303.51 4421.05 55.39 8.00 270.32 2690.98
   05:06:45.363.24-Feb-2020 3303.51 4421.01 55.39 8.00 270.52 2690.98
   05:06:45.563.24-Feb-2020 3303.51 4420.91 55.39 8.00 270.72 2690.98
   05:06:45.763.24-Feb-2020 3303.51 4421.22 55.39 8.00 270.92 2690.98
   05:06:45.963.24-Feb-2020 3303.51 4421.22 55.39 8.00 271.12 2690.98
   05:06:46.163.24-Feb-2020 3303.51 4421.37 55.39 8.00 271.32 2690.98
   05:06:46.363.24-Feb-2020 3303.51 4420.74 55.39 8.00 271.52 2690.98
   05:06:46.563.24-Feb-2020 3303.51 4420.93 55.39 8.00 271.72 2690.98
   05:06:46.763.24-Feb-2020 3303.51 4421.10 55.39 8.00 271.92 2690.98
   05:06:46.963.24-Feb-2020 3303.51 4421.10 55.39 8.00 272.12 2690.98
   05:06:47.163.24-Feb-2020 3303.51 4421.02 55.39 8.00 272.32 2690.98
   05:06:47.363.24-Feb-2020 3303.51 4421.29 55.39 8.00 272.52 2690.98
   05:06:47.563.24-Feb-2020 3303.51 4420.68 55.39 8.00 272.72 2690.98
   05:06:47.763.24-Feb-2020 3303.51 4421.26 55.39 8.00 272.92 2690.98
   05:06:47.962.24-Feb-2020 3303.51 4421.26 55.39 8.00 273.12 2690.98
   05:06:48.162.24-Feb-2020 3303.51 4421.06 55.39 8.00 273.32 2690.98
   05:06:48.362.24-Feb-2020 3303.51 4421.09 55.39 8.00 273.52 2690.98
   05:06:48.562.24-Feb-2020 3303.51 4421.07 55.39 8.00 273.72 2690.98
   05:06:48.762.24-Feb-2020 3303.51 4420.88 55.39 8.00 273.92 2690.98
   05:06:48.962.24-Feb-2020 3303.51 4421.08 55.39 8.00 274.12 2690.98
   05:06:49.162.24-Feb-2020 3303.51 4420.97 55.39 8.00 274.32 2690.98
   05:06:49.362.24-Feb-2020 3303.51 4421.05 55.39 8.00 274.52 2690.98
   05:06:49.562.24-Feb-2020 3303.51 4413.47 55.39 8.00 274.72 2690.98
   05:06:49.762.24-Feb-2020 3303.51 4409.90 55.39 8.00 274.92 2690.98
   05:06:49.962.24-Feb-2020 3303.51 4409.90 55.39 8.00 275.12 2690.98
   05:06:50.162.24-Feb-2020 3303.51 4408.68 55.39 8.00 275.32 2690.98
   05:06:50.362.24-Feb-2020 3303.51 4408.95 55.39 8.00 275.52 2690.98
   05:06:50.562.24-Feb-2020 3303.51 4409.57 55.39 8.00 275.72 2690.98
