~Version Information
 VERS.                  2.0:   CWLS log ASCII Standard -VERSION 2.0
 WRAP.                   NO:   One line per depth step
~Well Information Block
#MNEM.UNIT     VALUE/NAME     DESCRIPTION
#---------     -----------    ---------------------------
 STRT.S             02:47:37 24-Feb-20: START TIME 02:47:37 24-Feb-20
 STOP.S             02:54:57 24-Feb-20: STOP TIME  02:54:57 24-Feb-20
 STEP.S                   0.00: STEP TIME
 NULL.                 -999.25: NULL VALUE
 JOBN.        AZ-XX-0905059384:  JOB TICKET NUMB
 PDAT.          Mean Sea Level:  PERMANENT DATUM
 UNIT.                     N/A:  LOGGING EQUIPMENT ID
 DCON.         Sperry Drilling:  DIRECTNL CONTR
 DOE .                     N/A:  DOE NUMBER
 RIG .             West Chirag:  RIG NAME
 WELL.                     J22:  WELL NAME
 MWDS.                    Baku:  MWD SHOP
 SRVC.     TURAN Drilling & Engineering:  CONTRACTOR
 FLD .                     ACG:  FIELD NAME
 CTRY.              Azerbaijan:  COUNTRY NAME
 PROV.                    Baku:  PROVINCE
 STAT.                    Baku:  STATE NAME
 REGN.                   EESSA:  REGION
 BASE.              Azerbaijan:  LOGGING EQUIPMENT BASE LOCATION
 UWI .                     N/A:  UNIQUE WELL IDENTIFIER
 API .                     N/A:  API NUMBER
 COMP.     BP Exploration (Caspian Sea) Ltd.:  COMPANY
 WTYP.                Deviated:  WELL TYPE
 MDS .        Operator Entered:  MAG DATA SOURCE
 SON .        AZ-XX-0905059384:  JOB NUMBER
 FTOP.          Formation Tops:  FORM TOPS DESC
 ILTD.               Lithology:  INTERP LTH DESC
 SVYD.                  Survey:  SURVEY DESC
 DMOD.             Drill Model:  DRILL MOD DESC
 HPTY.       Minimum Curvature:  HOLE POS TYPE
 NREF.                    Grid:  NORTH REFERENCE
 SPUD.               09-Jan-20:  SPUD DATE
 DATE.      14.04.48 07-Feb-20:  END TIME
 STIM.      07.00.00 09-Jan-20:  START TIME
 DMF .             Drill Floor:  DRILL MEAS FROM
 DFST.                        :  DIST FSL TEXT
 DFWT.                        :  DIST FWL TEXT
 CNTY.                        :  COUNTY
 LOC .                        :  LOCATION
 LMF .             Drill Floor:  LOG MEASURED FROM
 DEP .m                   0.00:  DEPTH
 VSNS.m                  10.28:  VERT SEC N/S
 VSEW.m                  -6.24:  VERT SEC E/W
 AGAP.m                  43.00:  AIR GAP
 APD .m                  43.00:  DEPTH ABOVE PD
 WDMS.m                 169.80:  WD ELEV
 EGL .m                   0.00:  GROUND ELEVATION
 EPD .m                   0.00:  ELEVATION
 AZTC.deg                 6.27:  AZM TOTAL CORR
 GRDC.deg                 0.15:  GRID CORRECTION
 MDEC.deg                 6.42:  MAGNETIC DECL
 MDIP.deg                59.56:  MAGNETIC DIP
 MFLD.nT              50277.00:  MAGNETIC FIELD
 GVFD.g                   1.00:  GRAVITY FIELD
 VSDR.deg               148.53:  VERT SEC DIRECT
 TDD .m                3473.01:  TOTAL DEPTH (DRILLER)
 SDEP.m                 364.00:  START DEPTH
 DFSL.m                   0.00:  DISTANCE FSL
 DFWL.m                   0.00:  DISTANCE FWL
 UTMY.m             4443793.85:  UTM Y
 UTMX.m              519005.06:  UTM X
 WHEW.m                  -6.24:  WELL HEAD E/W
 WHNS.m                  10.28:  WELL HEAD N/S
 LONG.deg                51.22:  LONGITUDE
 LATI.deg                40.13:  LATITUDE
 TVDS.m                  43.00:  TVDSS CORRECTN
 EKB .m                   0.00:  KB ELEVATION
 EDF .m                  43.00:  DF ELEVATION
 TDL .m                 254.00:  TOTAL DEPTH (LOGGER)
 MAGU.                 1850021:  MAGUTM CHECKSUM
 VSC .                       0:  VS TO CLOSURE
~Parameter Information Block
#MNEM.UNIT       Value        Description
#---------     -----------    ---------------------------
 AV  .mps                 0.50:  Ann Velocity 
 AVMX.mps                 1.40:  Max Ann Veloc 
 AZIF.deg               144.94:  Azm, Final 
 BHAT.        Rotary Steerable:  BHA Type 
 BROT.°/30m               0.23:  Build Rotating 
 BS  .in                  8.50:  Bit Size 
 BTPL.psig              264.00:  Bit Press Loss 
 CABU.                     Yes:  Customer Abuse 
 COMM.                     D
_:  Run Comments 1 
 TCS .hr                 87.30:  Time Ciculation Ended 
 CV  .mps                 2.45:  Crit Velocity 
 CVMX.mps                 2.74:  Max Crit Veloc 
 DD1 .             Aziz Aliyev:  Direct Drillr 1 
 DDSV.               Geo-Pilot:  DD Service 
 DEFF.%                 100.00:  % Det Eff 
 DLRX.°/30m               1.22:  Dogleg Rot Max 
 DLSO.°/30m               0.52:  Dogleg Oriented 
 DLSX.°/30m               1.22:  Dogleg Str Max 
 DRET.      12.59.00 23-Feb-20:  Drill End Time 
 DRST.      09.44.00 18-Feb-20:  Drill Start Tim 
 DTIM.hr                 23.03:  Time Drilling 
 EDEP.m                3473.01:  End Depth 
 ENG1.         Almaz Almadatov:  Engineer 1 
 ENG2.         Dair Mahammadov:  Engineer 2 
 ENG3.          Nazrin Asgarli:  Engineer 3 
 ETIM.      10.33.36 26-Feb-20:  End Time 
 FLOI.gpm               480.00:  Flow In 
 FLON.gpm               300.00:  Flow In Min 
 FLOS.cptm                1.00:  Fluid Loss 
 FLOX.gpm               550.00:  Flow In Max 
 HFLO.                      No:  High Flow 
 HPRE.                      No:  High Pressure 
 HTEM.                      No:  High Temp 
 HYDO.m                   1.80:  Hydro Offset 
 IFIN.deg                74.42:  Inc, Final 
 IMAX.deg                76.14:  Inc Max 
 IMIN.deg                74.42:  Inc Min 
 IMND.m                3462.72:  Inc Min Depth 
 IMXD.m                3235.69:  Inc Max Depth 
 JARR.                      No:  Jarring 
 LETM.      12.59.00 23-Feb-20:  Log End Time 
 LOST.hr                     0:  Lost Rig Time 
 LSTM.      09.44.00 18-Feb-20:  Log Start Time 
 MDCL.ppm             45000.00:  Mud Chlorides 
 MDES.     Inversion Oil/Synthetic:  Mud Desc 
 DFD .sg                  1.38:  Mud Density 
 MDMN.sg                  1.34:  Dens Mud Min 
 MDMX.sg                  1.49:  Dens Mud Max 
 MOIL.                      67:  Run Mud Oil % 
 MOWR.                   67:33:  Run Mud OWR 
 MSND.                    0.12:  Run Mud Sand % 
 MSOL.                      22:  Run Mud Solids% 
 DFV .spqt               81.00:  Mud Viscosity 
 MWOD.in                  6.75:  MWD Tool OD 
 MWSI.                      No:  Serv Intrp, MWD 
 OTIM.hr                231.44:  Time Operating 
 PCON.          Wear / Scratch:  Pad Condition 
 PMAX.psia             3400.00:  Press Op, Max 
 PV  .cP                 55.00:  Mud PV 
 RUN .                     800:  Run Number 
 ROPA.m/hr               12.00:  ROP Avg 
 ROPN.m/hr                5.00:  ROP Min 
 ROPX.m/hr               28.00:  ROP Max 
 RPMA.rpm               120.00:  RPM Surface Avg 
 RPMN.rpm                40.00:  RPM Surface Min 
 RPMX.rpm               130.00:  RPM Surface Max 
 RRUN.                    0800:  Rig Run Number 
 RTIM.hr                 45.00:  Time Reaming 
 SAZI.deg               145.38:  Azm, Start 
 SDEP.m                3219.01:  Start Depth 
 SIDD.                      No:  Serv Intrp, DD 
 SINC.deg                75.11:  Inc, Start 
 SPPA.psig             2400.00:  SPP Avg 
 SPPN.psig             2320.00:  SPP Min 
 SPPX.psig             3200.00:  SPP Max 
 STIM.      15.15.00 17-Feb-20:  Start Time 
 SVCS.                 DD, MWD:  Services 
 SVER.                    9.20:  Sperry Version 
 TDAT.m                 254.00:  Tot Depth Attmp 
 TDDF.                      No:  Trip for DD 
 TDLG.m                 254.00:  Tot Depth Loggd 
 TFF .                      No:  Trip for Fail 
 TQAA.f-kp               13.00:  Torque Abs Avg 
 TQAN.f-kp                7.00:  Torque Abs Min 
 TQAX.f-kp               15.00:  Torque Abs Max 
 TRRT.°/30m               0.21:  Turn Rotating 
 MRT .                  EWR-M5:  Maximum Recorded Temperature 
 TTMX.degC               64.00:  Max Tool Temp 
 VS01.                90586516:  Virtual Str1 SN 
 VS02.                90513691:  Virtual Str2 SN 
 VS03.                90586523:  Virtual Str3 SN 
 VS04.                90586520:  Virtual Str4 SN 
 VS05.                90590507:  Virtual Str5 SN 
 WBMN.klb                12.00:  WOB Min 
 WITN.           Rufat Babayev:  Customer Rep 2 
 WITN.         Alistair Sprott:  Customer Rep 
 WOBA.klb                18.00:  WOB Avg 
 WOBX.klb                30.00:  WOB Max 
 YP  .lhf2               41.00:  Yield Point 
~Curve Information Block
#MNEM.UNIT                 API CODE     Curve Description
#---------               -----------    ---------------------------
 TIME.HHMMSS            00 000 000 000:  GT Time & Date
 GTDEPTH.m              00 000 000 000:  GT Depth
 GTPQH.psia             00 000 000 000:  GT HR Quartz Pressure
 GTTQ.degC              00 000 000 000:  GT Quartz Temperature
 GTTN.NONE              00 000 000 000:  GT Test Number
 GTET.sec               00 000 000 000:  GT Elapsed Test Time
 GTTVD.m                00 000 000 000:  GT True Vertical Depth
#Other Information
#
#WARRANTY: Halliburton will use its best efforts to furnish customers with 
#accurate information and interpretations that are part of, and incident to, the services 
#provided.  However, Halliburton cannot and does not warrant the accuracy 
#or correctness of such information and interpretations.  Under no circumstances should any 
#such information or interpretation be relied upon as the sole basis for any drilling, 
#completion, production, or financial decision or any procedure involving any risk to the 
#safety of any drilling venture, drilling rig or its crew or any other third party.  The 
#Customer has full responsibility for all drilling, completion and production operation.  
#Halliburton makes no representations or warranties, either expressed or 
#implied, including, but not limited to, the implied warranties of merchantability or fitness 
#for a particular purpose, with respect to the services rendered.  In no event will 
#Halliburton be liable for failure to obtain any particular results or for 
#any damages, including, but not limited to, indirect, special or consequential damages, 
#resulting from the use of any information or interpretation provided by Halliburton.
#
~A           TIME           GTDEPTH  GTPQH  GTTQ  GTTN  GTET   GTTVD  
# ...
   02:50:41.421.24-Feb-2020 3375.51 4203.77 55.83 5.00 184.07 2709.14
   02:50:41.621.24-Feb-2020 3375.51 4203.77 55.83 5.00 184.27 2709.14
   02:50:41.821.24-Feb-2020 3375.51 4203.79 55.83 5.00 184.47 2709.14
   02:50:42.021.24-Feb-2020 3375.51 4203.79 55.83 5.00 184.67 2709.14
   02:50:42.221.24-Feb-2020 3375.51 4203.82 55.83 5.00 184.87 2709.14
   02:50:42.421.24-Feb-2020 3375.51 4203.79 55.83 5.00 185.07 2709.14
   02:50:42.622.24-Feb-2020 3375.51 4203.79 55.83 5.00 185.27 2709.14
   02:50:42.822.24-Feb-2020 3375.51 4203.74 55.83 5.00 185.47 2709.14
   02:50:43.022.24-Feb-2020 3375.51 4203.85 55.83 5.00 185.67 2709.14
   02:50:43.222.24-Feb-2020 3375.51 4203.89 55.83 5.00 185.87 2709.14
   02:50:43.422.24-Feb-2020 3375.51 4203.76 55.83 5.00 186.07 2709.14
   02:50:43.622.24-Feb-2020 3375.51 4203.86 55.83 5.00 186.27 2709.14
   02:50:43.822.24-Feb-2020 3375.51 4203.78 55.83 5.00 186.47 2709.14
   02:50:44.022.24-Feb-2020 3375.51 4203.77 55.83 5.00 186.67 2709.14
   02:50:44.222.24-Feb-2020 3375.51 4203.81 55.83 5.00 186.87 2709.14
   02:50:44.422.24-Feb-2020 3375.51 4203.84 55.83 5.00 187.07 2709.14
   02:50:44.622.24-Feb-2020 3375.51 4203.84 55.83 5.00 187.27 2709.14
   02:50:44.822.24-Feb-2020 3375.51 4203.80 55.83 5.00 187.48 2709.14
   02:50:45.022.24-Feb-2020 3375.51 4203.77 55.83 5.00 187.68 2709.14
   02:50:45.223.24-Feb-2020 3375.51 4203.83 55.83 5.00 187.88 2709.14
   02:50:45.423.24-Feb-2020 3375.51 4203.86 55.83 5.00 188.08 2709.14
   02:50:45.623.24-Feb-2020 3375.51 4203.86 55.83 5.00 188.28 2709.14
   02:50:45.823.24-Feb-2020 3375.51 4203.77 55.83 5.00 188.48 2709.14
   02:50:46.023.24-Feb-2020 3375.51 4203.31 55.83 5.00 188.68 2709.14
   02:50:46.223.24-Feb-2020 3375.51 4204.29 55.83 5.00 188.88 2709.14
   02:50:46.423.24-Feb-2020 3375.51 4204.01 55.83 5.00 189.08 2709.14
   02:50:46.623.24-Feb-2020 3375.51 4203.72 55.83 5.00 189.28 2709.14
   02:50:46.823.24-Feb-2020 3375.51 4203.84 55.83 5.00 189.48 2709.14
   02:50:47.023.24-Feb-2020 3375.51 4203.84 55.83 5.00 189.68 2709.14
   02:50:47.223.24-Feb-2020 3375.51 4203.81 55.83 5.00 189.88 2709.14
   02:50:47.423.24-Feb-2020 3375.51 4203.81 55.83 5.00 190.08 2709.14
   02:50:47.624.24-Feb-2020 3375.51 4203.87 55.83 5.00 190.28 2709.14
   02:50:47.824.24-Feb-2020 3375.51 4203.91 55.83 5.00 190.48 2709.14
   02:50:48.024.24-Feb-2020 3375.51 4203.80 55.83 5.00 190.68 2709.14
   02:50:48.224.24-Feb-2020 3375.51 4203.97 55.83 5.00 190.88 2709.14
   02:50:48.424.24-Feb-2020 3375.51 4203.98 55.83 5.00 191.08 2709.14
   02:50:48.624.24-Feb-2020 3375.51 4203.98 55.83 5.00 191.28 2709.14
   02:50:48.824.24-Feb-2020 3375.51 4203.83 55.83 5.00 191.48 2709.14
   02:50:49.024.24-Feb-2020 3375.51 4203.84 55.83 5.00 191.68 2709.14
   02:50:49.224.24-Feb-2020 3375.51 4203.92 55.83 5.00 191.88 2709.14
   02:50:49.424.24-Feb-2020 3375.51 4203.96 55.83 5.00 192.08 2709.14
   02:50:49.624.24-Feb-2020 3375.51 4203.96 55.83 5.00 192.28 2709.14
   02:50:49.824.24-Feb-2020 3375.51 4203.83 55.83 5.00 192.48 2709.14
   02:50:50.024.24-Feb-2020 3375.51 4203.86 55.83 5.00 192.68 2709.14
   02:50:50.225.24-Feb-2020 3375.51 4203.83 55.83 5.00 192.88 2709.14
   02:50:50.425.24-Feb-2020 3375.51 4203.83 55.83 5.00 193.08 2709.14
   02:50:50.625.24-Feb-2020 3375.51 4203.83 55.83 5.00 193.28 2709.14
   02:50:50.825.24-Feb-2020 3375.51 4203.83 55.83 5.00 193.48 2709.14
   02:50:51.025.24-Feb-2020 3375.51 4203.83 55.83 5.00 193.68 2709.14
   02:50:51.225.24-Feb-2020 3375.51 4203.83 55.83 5.00 193.88 2709.14
   02:50:51.425.24-Feb-2020 3375.51 4203.85 55.83 5.00 194.08 2709.14
   02:50:51.625.24-Feb-2020 3375.51 4203.85 55.83 5.00 194.28 2709.14
   02:50:51.825.24-Feb-2020 3375.51 4203.87 55.83 5.00 194.48 2709.14
   02:50:52.025.24-Feb-2020 3375.51 4203.83 55.83 5.00 194.68 2709.14
   02:50:52.225.24-Feb-2020 3375.51 4203.37 55.83 5.00 194.88 2709.14
   02:50:52.425.24-Feb-2020 3375.51 4204.22 55.83 5.00 195.08 2709.14
   02:50:52.626.24-Feb-2020 3375.51 4204.22 55.83 5.00 195.28 2709.14
   02:50:52.826.24-Feb-2020 3375.51 4203.75 55.83 5.00 195.48 2709.14
   02:50:53.026.24-Feb-2020 3375.51 4203.81 55.83 5.00 195.68 2709.14
   02:50:53.226.24-Feb-2020 3375.51 4203.90 55.83 5.00 195.88 2709.14
   02:50:53.426.24-Feb-2020 3375.51 4203.84 55.83 5.00 196.08 2709.14
   02:50:53.626.24-Feb-2020 3375.51 4203.84 55.83 5.00 196.28 2709.14
   02:50:53.826.24-Feb-2020 3375.51 4203.80 55.83 5.00 196.48 2709.14
   02:50:54.026.24-Feb-2020 3375.51 4203.86 55.83 5.00 196.68 2709.14
   02:50:54.226.24-Feb-2020 3375.51 4203.87 55.83 5.00 196.88 2709.14
   02:50:54.426.24-Feb-2020 3375.51 4203.78 55.83 5.00 197.08 2709.14
   02:50:54.626.24-Feb-2020 3375.51 4203.78 55.83 5.00 197.28 2709.14
   02:50:54.826.24-Feb-2020 3375.51 4203.84 55.83 5.00 197.48 2709.14
   02:50:55.026.24-Feb-2020 3375.51 4203.87 55.83 5.00 197.68 2709.14
   02:50:55.227.24-Feb-2020 3375.51 4203.85 55.83 5.00 197.88 2709.14
   02:50:55.427.24-Feb-2020 3375.51 4203.80 55.83 5.00 198.08 2709.14
   02:50:55.627.24-Feb-2020 3375.51 4203.80 55.83 5.00 198.28 2709.14
   02:50:55.827.24-Feb-2020 3375.51 4203.94 55.83 5.00 198.48 2709.14
   02:50:56.027.24-Feb-2020 3375.51 4203.73 55.83 5.00 198.68 2709.14
   02:50:56.227.24-Feb-2020 3375.51 4203.81 55.83 5.00 198.88 2709.14
   02:50:56.427.24-Feb-2020 3375.51 4203.84 55.83 5.00 199.08 2709.14
   02:50:56.627.24-Feb-2020 3375.51 4203.84 55.83 5.00 199.28 2709.14
   02:50:56.827.24-Feb-2020 3375.51 4203.85 55.83 5.00 199.48 2709.14
   02:50:57.027.24-Feb-2020 3375.51 4203.88 55.83 5.00 199.68 2709.14
   02:50:57.227.24-Feb-2020 3375.51 4203.80 55.83 5.00 199.88 2709.14
   02:50:57.427.24-Feb-2020 3375.51 4203.87 55.83 5.00 200.08 2709.14
   02:50:57.628.24-Feb-2020 3375.51 4203.87 55.83 5.00 200.28 2709.14
   02:50:57.828.24-Feb-2020 3375.51 4203.90 55.83 5.00 200.48 2709.14
   02:50:58.028.24-Feb-2020 3375.51 4203.99 55.83 5.00 200.68 2709.14
   02:50:58.228.24-Feb-2020 3375.51 4203.78 55.83 5.00 200.88 2709.14
   02:50:58.428.24-Feb-2020 3375.51 4203.84 55.83 5.00 201.08 2709.14
   02:50:58.628.24-Feb-2020 3375.51 4203.84 55.83 5.00 201.28 2709.14
   02:50:58.828.24-Feb-2020 3375.51 4204.32 55.83 5.00 201.48 2709.14
   02:50:59.028.24-Feb-2020 3375.51 4203.80 55.83 5.00 201.68 2709.14
   02:50:59.228.24-Feb-2020 3375.51 4203.87 55.83 5.00 201.88 2709.14
   02:50:59.428.24-Feb-2020 3375.51 4203.84 55.83 5.00 202.08 2709.14
   02:50:59.628.24-Feb-2020 3375.51 4203.84 55.83 5.00 202.28 2709.14
   02:50:59.828.24-Feb-2020 3375.51 4203.82 55.83 5.00 202.48 2709.14
   02:51:00.028.24-Feb-2020 3375.51 4203.86 55.83 5.00 202.68 2709.14
   02:51:00.229.24-Feb-2020 3375.51 4203.81 55.83 5.00 202.88 2709.14
   02:51:00.429.24-Feb-2020 3375.51 4203.84 55.83 5.00 203.08 2709.14
   02:51:00.629.24-Feb-2020 3375.51 4203.84 55.83 5.00 203.28 2709.14
   02:51:00.829.24-Feb-2020 3375.51 4203.83 55.83 5.00 203.48 2709.14
   02:51:01.029.24-Feb-2020 3375.51 4203.82 55.83 5.00 203.68 2709.14
   02:51:01.229.24-Feb-2020 3375.51 4203.85 55.83 5.00 203.88 2709.14
   02:51:01.429.24-Feb-2020 3375.51 4203.85 55.83 5.00 204.08 2709.14
   02:51:01.629.24-Feb-2020 3375.51 4203.85 55.83 5.00 204.28 2709.14
   02:51:01.829.24-Feb-2020 3375.51 4203.77 55.83 5.00 204.48 2709.14
   02:51:02.029.24-Feb-2020 3375.51 4203.87 55.83 5.00 204.68 2709.14
   02:51:02.229.24-Feb-2020 3375.51 4203.91 55.83 5.00 204.88 2709.14
   02:51:02.429.24-Feb-2020 3375.51 4203.82 55.83 5.00 205.08 2709.14
   02:51:02.630.24-Feb-2020 3375.51 4203.82 55.83 5.00 205.28 2709.14
   02:51:02.830.24-Feb-2020 3375.51 4203.83 55.83 5.00 205.48 2709.14
   02:51:03.030.24-Feb-2020 3375.51 4203.77 55.83 5.00 205.68 2709.14
   02:51:03.230.24-Feb-2020 3375.51 4203.81 55.83 5.00 205.88 2709.14
   02:51:03.430.24-Feb-2020 3375.51 4203.84 55.83 5.00 206.08 2709.14
   02:51:03.630.24-Feb-2020 3375.51 4203.84 55.83 5.00 206.28 2709.14
   02:51:03.830.24-Feb-2020 3375.51 4203.85 55.83 5.00 206.48 2709.14
   02:51:04.030.24-Feb-2020 3375.51 4203.77 55.83 5.00 206.68 2709.14
   02:51:04.230.24-Feb-2020 3375.51 4203.79 55.83 5.00 206.88 2709.14
