~Version Information
 VERS.                  2.0:   CWLS log ASCII Standard -VERSION 2.0
 WRAP.                   NO:   One line per depth step
~Well Information Block
#MNEM.UNIT     VALUE/NAME     DESCRIPTION
#---------     -----------    ---------------------------
 STRT.S             01:26:08 24-Feb-20: START TIME 01:26:08 24-Feb-20
 STOP.S             01:33:25 24-Feb-20: STOP TIME  01:33:25 24-Feb-20
 STEP.S                   0.00: STEP TIME
 NULL.                 -999.25: NULL VALUE
 JOBN.        AZ-XX-0905059384:  JOB TICKET NUMB
 PDAT.          Mean Sea Level:  PERMANENT DATUM
 UNIT.                     N/A:  LOGGING EQUIPMENT ID
 DCON.         Sperry Drilling:  DIRECTNL CONTR
 DOE .                     N/A:  DOE NUMBER
 RIG .             West Chirag:  RIG NAME
 WELL.                     J22:  WELL NAME
 MWDS.                    Baku:  MWD SHOP
 SRVC.     TURAN Drilling & Engineering:  CONTRACTOR
 FLD .                     ACG:  FIELD NAME
 CTRY.              Azerbaijan:  COUNTRY NAME
 PROV.                    Baku:  PROVINCE
 STAT.                    Baku:  STATE NAME
 REGN.                   EESSA:  REGION
 BASE.              Azerbaijan:  LOGGING EQUIPMENT BASE LOCATION
 UWI .                     N/A:  UNIQUE WELL IDENTIFIER
 API .                     N/A:  API NUMBER
 COMP.     BP Exploration (Caspian Sea) Ltd.:  COMPANY
 WTYP.                Deviated:  WELL TYPE
 MDS .        Operator Entered:  MAG DATA SOURCE
 SON .        AZ-XX-0905059384:  JOB NUMBER
 FTOP.          Formation Tops:  FORM TOPS DESC
 ILTD.               Lithology:  INTERP LTH DESC
 SVYD.                  Survey:  SURVEY DESC
 DMOD.             Drill Model:  DRILL MOD DESC
 HPTY.       Minimum Curvature:  HOLE POS TYPE
 NREF.                    Grid:  NORTH REFERENCE
 SPUD.               09-Jan-20:  SPUD DATE
 DATE.      14.04.48 07-Feb-20:  END TIME
 STIM.      07.00.00 09-Jan-20:  START TIME
 DMF .             Drill Floor:  DRILL MEAS FROM
 DFST.                        :  DIST FSL TEXT
 DFWT.                        :  DIST FWL TEXT
 CNTY.                        :  COUNTY
 LOC .                        :  LOCATION
 LMF .             Drill Floor:  LOG MEASURED FROM
 DEP .m                   0.00:  DEPTH
 VSNS.m                  10.28:  VERT SEC N/S
 VSEW.m                  -6.24:  VERT SEC E/W
 AGAP.m                  43.00:  AIR GAP
 APD .m                  43.00:  DEPTH ABOVE PD
 WDMS.m                 169.80:  WD ELEV
 EGL .m                   0.00:  GROUND ELEVATION
 EPD .m                   0.00:  ELEVATION
 AZTC.deg                 6.27:  AZM TOTAL CORR
 GRDC.deg                 0.15:  GRID CORRECTION
 MDEC.deg                 6.42:  MAGNETIC DECL
 MDIP.deg                59.56:  MAGNETIC DIP
 MFLD.nT              50277.00:  MAGNETIC FIELD
 GVFD.g                   1.00:  GRAVITY FIELD
 VSDR.deg               148.53:  VERT SEC DIRECT
 TDD .m                3473.01:  TOTAL DEPTH (DRILLER)
 SDEP.m                 364.00:  START DEPTH
 DFSL.m                   0.00:  DISTANCE FSL
 DFWL.m                   0.00:  DISTANCE FWL
 UTMY.m             4443793.85:  UTM Y
 UTMX.m              519005.06:  UTM X
 WHEW.m                  -6.24:  WELL HEAD E/W
 WHNS.m                  10.28:  WELL HEAD N/S
 LONG.deg                51.22:  LONGITUDE
 LATI.deg                40.13:  LATITUDE
 TVDS.m                  43.00:  TVDSS CORRECTN
 EKB .m                   0.00:  KB ELEVATION
 EDF .m                  43.00:  DF ELEVATION
 TDL .m                 254.00:  TOTAL DEPTH (LOGGER)
 MAGU.                 1850021:  MAGUTM CHECKSUM
 VSC .                       0:  VS TO CLOSURE
~Parameter Information Block
#MNEM.UNIT       Value        Description
#---------     -----------    ---------------------------
 AV  .mps                 0.50:  Ann Velocity 
 AVMX.mps                 1.40:  Max Ann Veloc 
 AZIF.deg               144.94:  Azm, Final 
 BHAT.        Rotary Steerable:  BHA Type 
 BROT.°/30m               0.23:  Build Rotating 
 BS  .in                  8.50:  Bit Size 
 BTPL.psig              264.00:  Bit Press Loss 
 CABU.                     Yes:  Customer Abuse 
 TCS .hr                 87.30:  Time Ciculation Ended 
 CV  .mps                 2.45:  Crit Velocity 
 CVMX.mps                 2.74:  Max Crit Veloc 
 DD1 .             Aziz Aliyev:  Direct Drillr 1 
 DDSV.               Geo-Pilot:  DD Service 
 DEFF.%                 100.00:  % Det Eff 
 DLRX.°/30m               1.22:  Dogleg Rot Max 
 DLSO.°/30m               0.52:  Dogleg Oriented 
 DLSX.°/30m               1.22:  Dogleg Str Max 
 DRET.      12.59.00 23-Feb-20:  Drill End Time 
 DRST.      09.44.00 18-Feb-20:  Drill Start Tim 
 DTIM.hr                 23.03:  Time Drilling 
 EDEP.m                3473.01:  End Depth 
 ENG1.         Almaz Almadatov:  Engineer 1 
 ENG2.         Dair Mahammadov:  Engineer 2 
 ENG3.          Nazrin Asgarli:  Engineer 3 
 ETIM.      10.33.36 26-Feb-20:  End Time 
 FLOI.gpm               480.00:  Flow In 
 FLON.gpm               300.00:  Flow In Min 
 FLOS.cptm                1.00:  Fluid Loss 
 FLOX.gpm               550.00:  Flow In Max 
 HFLO.                      No:  High Flow 
 HPRE.                      No:  High Pressure 
 HTEM.                      No:  High Temp 
 HYDO.m                   1.80:  Hydro Offset 
 IFIN.deg                74.42:  Inc, Final 
 IMAX.deg                76.14:  Inc Max 
 IMIN.deg                74.42:  Inc Min 
 IMND.m                3462.72:  Inc Min Depth 
 IMXD.m                3235.69:  Inc Max Depth 
 JARR.                      No:  Jarring 
 LETM.      12.59.00 23-Feb-20:  Log End Time 
 LOST.hr                     0:  Lost Rig Time 
 LSTM.      09.44.00 18-Feb-20:  Log Start Time 
 MDCL.ppm             45000.00:  Mud Chlorides 
 MDES.     Inversion Oil/Synthetic:  Mud Desc 
 DFD .sg                  1.38:  Mud Density 
 MDMN.sg                  1.34:  Dens Mud Min 
 MDMX.sg                  1.49:  Dens Mud Max 
 MOIL.                      67:  Run Mud Oil % 
 MOWR.                   67:33:  Run Mud OWR 
 MSND.                    0.12:  Run Mud Sand % 
 MSOL.                      22:  Run Mud Solids% 
 DFV .spqt               81.00:  Mud Viscosity 
 MWOD.in                  6.75:  MWD Tool OD 
 MWSI.                      No:  Serv Intrp, MWD 
 OTIM.hr                231.44:  Time Operating 
 PCON.          Wear / Scratch:  Pad Condition 
 PMAX.psia             3400.00:  Press Op, Max 
 PV  .cP                 55.00:  Mud PV 
 RUN .                     800:  Run Number 
 ROPA.m/hr               12.00:  ROP Avg 
 ROPN.m/hr                5.00:  ROP Min 
 ROPX.m/hr               28.00:  ROP Max 
 RPMA.rpm               120.00:  RPM Surface Avg 
 RPMN.rpm                40.00:  RPM Surface Min 
 RPMX.rpm               130.00:  RPM Surface Max 
 RRUN.                    0800:  Rig Run Number 
 RTIM.hr                 45.00:  Time Reaming 
 SAZI.deg               145.38:  Azm, Start 
 SDEP.m                3219.01:  Start Depth 
 SIDD.                      No:  Serv Intrp, DD 
 SINC.deg                75.11:  Inc, Start 
 SPPA.psig             2400.00:  SPP Avg 
 SPPN.psig             2320.00:  SPP Min 
 SPPX.psig             3200.00:  SPP Max 
 STIM.      15.15.00 17-Feb-20:  Start Time 
 SVCS.                 DD, MWD:  Services 
 SVER.                    9.20:  Sperry Version 
 TDAT.m                 254.00:  Tot Depth Attmp 
 TDDF.                      No:  Trip for DD 
 TDLG.m                 254.00:  Tot Depth Loggd 
 TFF .                      No:  Trip for Fail 
 TQAA.f-kp               13.00:  Torque Abs Avg 
 TQAN.f-kp                7.00:  Torque Abs Min 
 TQAX.f-kp               15.00:  Torque Abs Max 
 TRRT.°/30m               0.21:  Turn Rotating 
 MRT .                  EWR-M5:  Maximum Recorded Temperature 
 TTMX.degC               64.00:  Max Tool Temp 
 VS01.                90586516:  Virtual Str1 SN 
 VS02.                90513691:  Virtual Str2 SN 
 VS03.                90586523:  Virtual Str3 SN 
 VS04.                90586520:  Virtual Str4 SN 
 VS05.                90590507:  Virtual Str5 SN 
 WBMN.klb                12.00:  WOB Min 
 WITN.           Rufat Babayev:  Customer Rep 2 
 WITN.         Alistair Sprott:  Customer Rep 
 WOBA.klb                18.00:  WOB Avg 
 WOBX.klb                30.00:  WOB Max 
 YP  .lhf2               41.00:  Yield Point 
~Curve Information Block
#MNEM.UNIT                 API CODE     Curve Description
#---------               -----------    ---------------------------
 TIME.HHMMSS            00 000 000 000:  GT Time & Date
 GTDEPTH.m              00 000 000 000:  GT Depth
 GTPQH.psia             00 000 000 000:  GT HR Quartz Pressure
 GTTQ.degC              00 000 000 000:  GT Quartz Temperature
 GTTN.NONE              00 000 000 000:  GT Test Number
 GTET.sec               00 000 000 000:  GT Elapsed Test Time
 GTTVD.m                00 000 000 000:  GT True Vertical Depth
#Other Information
#
#WARRANTY: Halliburton will use its best efforts to furnish customers with 
#accurate information and interpretations that are part of, and incident to, the services 
#provided.  However, Halliburton cannot and does not warrant the accuracy 
#or correctness of such information and interpretations.  Under no circumstances should any 
#such information or interpretation be relied upon as the sole basis for any drilling, 
#completion, production, or financial decision or any procedure involving any risk to the 
#safety of any drilling venture, drilling rig or its crew or any other third party.  The 
#Customer has full responsibility for all drilling, completion and production operation.  
#Halliburton makes no representations or warranties, either expressed or 
#implied, including, but not limited to, the implied warranties of merchantability or fitness 
#for a particular purpose, with respect to the services rendered.  In no event will 
#Halliburton be liable for failure to obtain any particular results or for 
#any damages, including, but not limited to, indirect, special or consequential damages, 
#resulting from the use of any information or interpretation provided by Halliburton.
#
~A           TIME           GTDEPTH  GTPQH  GTTQ  GTTN  GTET   GTTVD  
# ...
   01:28:49.195.24-Feb-2020 3405.01 4215.12 56.89 3.00 161.03 2716.73
   01:28:49.395.24-Feb-2020 3405.01 4215.12 56.89 3.00 161.23 2716.73
   01:28:49.595.24-Feb-2020 3405.01 4215.24 56.89 3.00 161.43 2716.73
   01:28:49.795.24-Feb-2020 3405.01 4215.18 56.89 3.00 161.63 2716.73
   01:28:49.995.24-Feb-2020 3405.01 4215.19 56.89 3.00 161.83 2716.73
   01:28:50.195.24-Feb-2020 3405.01 4215.19 56.89 3.00 162.03 2716.73
   01:28:50.395.24-Feb-2020 3405.01 4215.19 56.89 3.00 162.23 2716.73
   01:28:50.595.24-Feb-2020 3405.01 4215.19 56.89 3.00 162.43 2716.73
   01:28:50.795.24-Feb-2020 3405.01 4215.19 56.89 3.00 162.63 2716.73
   01:28:50.995.24-Feb-2020 3405.01 4215.20 56.89 3.00 162.83 2716.73
   01:28:51.195.24-Feb-2020 3405.01 4215.19 56.89 3.00 163.03 2716.73
   01:28:51.395.24-Feb-2020 3405.01 4215.20 56.89 3.00 163.23 2716.73
   01:28:51.595.24-Feb-2020 3405.01 4215.19 56.89 3.00 163.43 2716.73
   01:28:51.795.24-Feb-2020 3405.01 4215.15 56.89 3.00 163.63 2716.73
   01:28:51.995.24-Feb-2020 3405.01 4215.03 56.89 3.00 163.83 2716.73
   01:28:52.196.24-Feb-2020 3405.01 4215.43 56.89 3.00 164.03 2716.73
   01:28:52.396.24-Feb-2020 3405.01 4215.43 56.89 3.00 164.23 2716.73
   01:28:52.596.24-Feb-2020 3405.01 4215.12 56.89 3.00 164.43 2716.73
   01:28:52.796.24-Feb-2020 3405.01 4215.19 56.89 3.00 164.63 2716.73
   01:28:52.996.24-Feb-2020 3405.01 4215.17 56.89 3.00 164.83 2716.73
   01:28:53.196.24-Feb-2020 3405.01 4215.20 56.89 3.00 165.03 2716.73
   01:28:53.396.24-Feb-2020 3405.01 4215.20 56.89 3.00 165.23 2716.73
   01:28:53.596.24-Feb-2020 3405.01 4215.19 56.89 3.00 165.43 2716.73
   01:28:53.796.24-Feb-2020 3405.01 4215.20 56.89 3.00 165.63 2716.73
   01:28:53.996.24-Feb-2020 3405.01 4214.76 56.89 3.00 165.83 2716.73
   01:28:54.196.24-Feb-2020 3405.01 4196.54 56.89 3.00 166.03 2716.73
   01:28:54.396.24-Feb-2020 3405.01 4194.06 56.89 3.00 166.23 2716.73
   01:28:54.596.24-Feb-2020 3405.01 4193.32 56.89 3.00 166.43 2716.73
   01:28:54.796.24-Feb-2020 3405.01 4193.56 56.89 3.00 166.63 2716.73
   01:28:54.996.24-Feb-2020 3405.01 4193.33 56.89 3.00 166.83 2716.73
   01:28:55.196.24-Feb-2020 3405.01 4193.24 56.89 3.00 167.03 2716.73
   01:28:55.396.24-Feb-2020 3405.01 4193.20 56.89 3.00 167.23 2716.73
   01:28:55.596.24-Feb-2020 3405.01 4192.99 56.89 3.00 167.43 2716.73
   01:28:55.796.24-Feb-2020 3405.01 4193.15 56.89 3.00 167.63 2716.73
   01:28:55.996.24-Feb-2020 3405.01 4193.46 56.89 3.00 167.83 2716.73
   01:28:56.196.24-Feb-2020 3405.01 4192.87 56.89 3.00 168.04 2716.73
   01:28:56.396.24-Feb-2020 3405.01 4192.87 56.89 3.00 168.24 2716.73
   01:28:56.596.24-Feb-2020 3405.01 4193.16 56.89 3.00 168.44 2716.73
   01:28:56.796.24-Feb-2020 3405.01 4193.22 56.89 3.00 168.64 2716.73
   01:28:56.997.24-Feb-2020 3405.01 4193.10 56.89 3.00 168.84 2716.73
   01:28:57.197.24-Feb-2020 3405.01 4193.04 56.89 3.00 169.04 2716.73
   01:28:57.397.24-Feb-2020 3405.01 4193.04 56.89 3.00 169.24 2716.73
   01:28:57.597.24-Feb-2020 3405.01 4193.39 56.89 3.00 169.44 2716.73
   01:28:57.797.24-Feb-2020 3405.01 4193.38 56.89 3.00 169.64 2716.73
   01:28:57.997.24-Feb-2020 3405.01 4193.36 56.89 3.00 169.84 2716.73
   01:28:58.197.24-Feb-2020 3405.01 4194.05 56.89 3.00 170.04 2716.73
   01:28:58.397.24-Feb-2020 3405.01 4194.05 56.89 3.00 170.24 2716.73
   01:28:58.597.24-Feb-2020 3405.01 4193.86 56.89 3.00 170.44 2716.73
   01:28:58.797.24-Feb-2020 3405.01 4193.99 56.89 3.00 170.64 2716.73
   01:28:58.997.24-Feb-2020 3405.01 4194.01 56.89 3.00 170.84 2716.73
   01:28:59.197.24-Feb-2020 3405.01 4194.06 56.89 3.00 171.04 2716.73
   01:28:59.397.24-Feb-2020 3405.01 4193.98 56.89 3.00 171.24 2716.73
   01:28:59.597.24-Feb-2020 3405.01 4193.80 56.89 3.00 171.44 2716.73
   01:28:59.797.24-Feb-2020 3405.01 4194.01 56.89 3.00 171.64 2716.73
   01:28:59.997.24-Feb-2020 3405.01 4193.81 56.89 3.00 171.84 2716.73
   01:29:00.197.24-Feb-2020 3405.01 4193.90 56.89 3.00 172.04 2716.73
   01:29:00.397.24-Feb-2020 3405.01 4193.90 56.89 3.00 172.24 2716.73
   01:29:00.597.24-Feb-2020 3405.01 4193.96 56.89 3.00 172.44 2716.73
   01:29:00.797.24-Feb-2020 3405.01 4193.97 56.89 3.00 172.64 2716.73
   01:29:00.997.24-Feb-2020 3405.01 4193.89 56.89 3.00 172.84 2716.73
   01:29:01.197.24-Feb-2020 3405.01 4194.16 56.89 3.00 173.04 2716.73
   01:29:01.397.24-Feb-2020 3405.01 4194.16 56.89 3.00 173.24 2716.73
   01:29:01.597.24-Feb-2020 3405.01 4194.99 56.89 3.00 173.44 2716.73
   01:29:01.798.24-Feb-2020 3405.01 4194.33 56.89 3.00 173.64 2716.73
   01:29:01.998.24-Feb-2020 3405.01 4193.82 56.89 3.00 173.84 2716.73
   01:29:02.198.24-Feb-2020 3405.01 4194.20 56.89 3.00 174.04 2716.73
   01:29:02.398.24-Feb-2020 3405.01 4194.20 56.89 3.00 174.24 2716.73
   01:29:02.598.24-Feb-2020 3405.01 4194.15 56.89 3.00 174.44 2716.73
   01:29:02.798.24-Feb-2020 3405.01 4194.08 56.89 3.00 174.64 2716.73
   01:29:02.998.24-Feb-2020 3405.01 4193.94 56.89 3.00 174.84 2716.73
   01:29:03.198.24-Feb-2020 3405.01 4194.31 56.89 3.00 175.04 2716.73
   01:29:03.398.24-Feb-2020 3405.01 4194.29 56.88 3.00 175.24 2716.73
   01:29:03.598.24-Feb-2020 3405.01 4194.25 56.89 3.00 175.44 2716.73
   01:29:03.798.24-Feb-2020 3405.01 4194.31 56.88 3.00 175.64 2716.73
   01:29:03.998.24-Feb-2020 3405.01 4194.38 56.88 3.00 175.84 2716.73
   01:29:04.198.24-Feb-2020 3405.01 4201.97 56.88 3.00 176.04 2716.73
   01:29:04.398.24-Feb-2020 3405.01 4201.97 56.88 3.00 176.24 2716.73
   01:29:04.598.24-Feb-2020 3405.01 4215.32 56.88 3.00 176.44 2716.73
   01:29:04.798.24-Feb-2020 3405.01 4215.23 56.88 3.00 176.64 2716.73
   01:29:04.998.24-Feb-2020 3405.01 4215.12 56.88 3.00 176.84 2716.73
   01:29:05.198.24-Feb-2020 3405.01 4215.21 56.88 3.00 177.04 2716.73
   01:29:05.398.24-Feb-2020 3405.01 4215.21 56.88 3.00 177.24 2716.73
   01:29:05.598.24-Feb-2020 3405.01 4215.27 56.88 3.00 177.44 2716.73
   01:29:05.798.24-Feb-2020 3405.01 4215.23 56.88 3.00 177.64 2716.73
   01:29:05.998.24-Feb-2020 3405.01 4215.49 56.88 3.00 177.84 2716.73
   01:29:06.198.24-Feb-2020 3405.01 4215.24 56.88 3.00 178.04 2716.73
   01:29:06.398.24-Feb-2020 3405.01 4215.24 56.88 3.00 178.24 2716.73
   01:29:06.599.24-Feb-2020 3405.01 4215.19 56.88 3.00 178.44 2716.73
   01:29:06.799.24-Feb-2020 3405.01 4215.22 56.88 3.00 178.64 2716.73
   01:29:06.999.24-Feb-2020 3405.01 4215.59 56.88 3.00 178.84 2716.73
   01:29:07.199.24-Feb-2020 3405.01 4215.42 56.88 3.00 179.04 2716.73
   01:29:07.399.24-Feb-2020 3405.01 4215.19 56.88 3.00 179.24 2716.73
   01:29:07.599.24-Feb-2020 3405.01 4215.29 56.88 3.00 179.44 2716.73
   01:29:07.799.24-Feb-2020 3405.01 4215.37 56.88 3.00 179.64 2716.73
   01:29:07.999.24-Feb-2020 3405.01 4215.30 56.88 3.00 179.84 2716.73
   01:29:08.199.24-Feb-2020 3405.01 4215.46 56.88 3.00 180.04 2716.73
   01:29:08.399.24-Feb-2020 3405.01 4215.46 56.88 3.00 180.24 2716.73
   01:29:08.599.24-Feb-2020 3405.01 4215.22 56.88 3.00 180.44 2716.73
   01:29:08.799.24-Feb-2020 3405.01 4215.26 56.88 3.00 180.64 2716.73
   01:29:08.999.24-Feb-2020 3405.01 4215.29 56.88 3.00 180.84 2716.73
   01:29:09.199.24-Feb-2020 3405.01 4215.31 56.88 3.00 181.04 2716.73
   01:29:09.399.24-Feb-2020 3405.01 4215.31 56.88 3.00 181.24 2716.73
   01:29:09.599.24-Feb-2020 3405.01 4215.29 56.88 3.00 181.44 2716.73
   01:29:09.799.24-Feb-2020 3405.01 4215.30 56.88 3.00 181.64 2716.73
   01:29:09.999.24-Feb-2020 3405.01 4215.28 56.88 3.00 181.84 2716.73
   01:29:10.199.24-Feb-2020 3405.01 4215.27 56.88 3.00 182.04 2716.73
   01:29:10.399.24-Feb-2020 3405.01 4215.27 56.88 3.00 182.24 2716.73
   01:29:10.599.24-Feb-2020 3405.01 4215.27 56.88 3.00 182.44 2716.73
   01:29:10.799.24-Feb-2020 3405.01 4215.30 56.88 3.00 182.64 2716.73
   01:29:10.999.24-Feb-2020 3405.01 4215.69 56.88 3.00 182.84 2716.73
   01:29:11.200.24-Feb-2020 3405.01 4215.22 56.88 3.00 183.04 2716.73
   01:29:11.400.24-Feb-2020 3405.01 4215.18 56.88 3.00 183.24 2716.73
   01:29:11.600.24-Feb-2020 3405.01 4215.20 56.88 3.00 183.44 2716.73
   01:29:11.800.24-Feb-2020 3405.01 4215.24 56.88 3.00 183.64 2716.73
   01:29:12.000.24-Feb-2020 3405.01 4215.19 56.88 3.00 183.84 2716.73
