~Version Information
 VERS.                  2.0:   CWLS log ASCII Standard -VERSION 2.0
 WRAP.                   NO:   One line per depth step
~Well Information Block
#MNEM.UNIT     VALUE/NAME     DESCRIPTION
#---------     -----------    ---------------------------
 STRT.S             04:05:13 24-Feb-20: START TIME 04:05:13 24-Feb-20
 STOP.S             04:12:30 24-Feb-20: STOP TIME  04:12:30 24-Feb-20
 STEP.S                   0.00: STEP TIME
 NULL.                 -999.25: NULL VALUE
 JOBN.        AZ-XX-0905059384:  JOB TICKET NUMB
 PDAT.          Mean Sea Level:  PERMANENT DATUM
 UNIT.                     N/A:  LOGGING EQUIPMENT ID
 DCON.         Sperry Drilling:  DIRECTNL CONTR
 DOE .                     N/A:  DOE NUMBER
 RIG .             West Chirag:  RIG NAME
 WELL.                     J22:  WELL NAME
 MWDS.                    Baku:  MWD SHOP
 SRVC.     TURAN Drilling & Engineering:  CONTRACTOR
 FLD .                     ACG:  FIELD NAME
 CTRY.              Azerbaijan:  COUNTRY NAME
 PROV.                    Baku:  PROVINCE
 STAT.                    Baku:  STATE NAME
 REGN.                   EESSA:  REGION
 BASE.              Azerbaijan:  LOGGING EQUIPMENT BASE LOCATION
 UWI .                     N/A:  UNIQUE WELL IDENTIFIER
 API .                     N/A:  API NUMBER
 COMP.     BP Exploration (Caspian Sea) Ltd.:  COMPANY
 WTYP.                Deviated:  WELL TYPE
 MDS .        Operator Entered:  MAG DATA SOURCE
 SON .        AZ-XX-0905059384:  JOB NUMBER
 FTOP.          Formation Tops:  FORM TOPS DESC
 ILTD.               Lithology:  INTERP LTH DESC
 SVYD.                  Survey:  SURVEY DESC
 DMOD.             Drill Model:  DRILL MOD DESC
 HPTY.       Minimum Curvature:  HOLE POS TYPE
 NREF.                    Grid:  NORTH REFERENCE
 SPUD.               09-Jan-20:  SPUD DATE
 DATE.      14.04.48 07-Feb-20:  END TIME
 STIM.      07.00.00 09-Jan-20:  START TIME
 DMF .             Drill Floor:  DRILL MEAS FROM
 DFST.                        :  DIST FSL TEXT
 DFWT.                        :  DIST FWL TEXT
 CNTY.                        :  COUNTY
 LOC .                        :  LOCATION
 LMF .             Drill Floor:  LOG MEASURED FROM
 DEP .m                   0.00:  DEPTH
 VSNS.m                  10.28:  VERT SEC N/S
 VSEW.m                  -6.24:  VERT SEC E/W
 AGAP.m                  43.00:  AIR GAP
 APD .m                  43.00:  DEPTH ABOVE PD
 WDMS.m                 169.80:  WD ELEV
 EGL .m                   0.00:  GROUND ELEVATION
 EPD .m                   0.00:  ELEVATION
 AZTC.deg                 6.27:  AZM TOTAL CORR
 GRDC.deg                 0.15:  GRID CORRECTION
 MDEC.deg                 6.42:  MAGNETIC DECL
 MDIP.deg                59.56:  MAGNETIC DIP
 MFLD.nT              50277.00:  MAGNETIC FIELD
 GVFD.g                   1.00:  GRAVITY FIELD
 VSDR.deg               148.53:  VERT SEC DIRECT
 TDD .m                3473.01:  TOTAL DEPTH (DRILLER)
 SDEP.m                 364.00:  START DEPTH
 DFSL.m                   0.00:  DISTANCE FSL
 DFWL.m                   0.00:  DISTANCE FWL
 UTMY.m             4443793.85:  UTM Y
 UTMX.m              519005.06:  UTM X
 WHEW.m                  -6.24:  WELL HEAD E/W
 WHNS.m                  10.28:  WELL HEAD N/S
 LONG.deg                51.22:  LONGITUDE
 LATI.deg                40.13:  LATITUDE
 TVDS.m                  43.00:  TVDSS CORRECTN
 EKB .m                   0.00:  KB ELEVATION
 EDF .m                  43.00:  DF ELEVATION
 TDL .m                 254.00:  TOTAL DEPTH (LOGGER)
 MAGU.                 1850021:  MAGUTM CHECKSUM
 VSC .                       0:  VS TO CLOSURE
~Parameter Information Block
#MNEM.UNIT       Value        Description
#---------     -----------    ---------------------------
 AV  .mps                 0.50:  Ann Velocity 
 AVMX.mps                 1.40:  Max Ann Veloc 
 AZIF.deg               144.94:  Azm, Final 
 BHAT.        Rotary Steerable:  BHA Type 
 BROT.°/30m               0.23:  Build Rotating 
 BS  .in                  8.50:  Bit Size 
 BTPL.psig              264.00:  Bit Press Loss 
 CABU.                     Yes:  Customer Abuse 
 COMM.                     \ys:  Run Comments 1 
 TCS .hr                 87.30:  Time Ciculation Ended 
 CV  .mps                 2.45:  Crit Velocity 
 CVMX.mps                 2.74:  Max Crit Veloc 
 DD1 .             Aziz Aliyev:  Direct Drillr 1 
 DDSV.               Geo-Pilot:  DD Service 
 DEFF.%                 100.00:  % Det Eff 
 DLRX.°/30m               1.22:  Dogleg Rot Max 
 DLSO.°/30m               0.52:  Dogleg Oriented 
 DLSX.°/30m               1.22:  Dogleg Str Max 
 DRET.      12.59.00 23-Feb-20:  Drill End Time 
 DRST.      09.44.00 18-Feb-20:  Drill Start Tim 
 DTIM.hr                 23.03:  Time Drilling 
 EDEP.m                3473.01:  End Depth 
 ENG1.         Almaz Almadatov:  Engineer 1 
 ENG2.         Dair Mahammadov:  Engineer 2 
 ENG3.          Nazrin Asgarli:  Engineer 3 
 ETIM.      10.33.36 26-Feb-20:  End Time 
 FLOI.gpm               480.00:  Flow In 
 FLON.gpm               300.00:  Flow In Min 
 FLOS.cptm                1.00:  Fluid Loss 
 FLOX.gpm               550.00:  Flow In Max 
 HFLO.                      No:  High Flow 
 HPRE.                      No:  High Pressure 
 HTEM.                      No:  High Temp 
 HYDO.m                   1.80:  Hydro Offset 
 IFIN.deg                74.42:  Inc, Final 
 IMAX.deg                76.14:  Inc Max 
 IMIN.deg                74.42:  Inc Min 
 IMND.m                3462.72:  Inc Min Depth 
 IMXD.m                3235.69:  Inc Max Depth 
 JARR.                      No:  Jarring 
 LETM.      12.59.00 23-Feb-20:  Log End Time 
 LOST.hr                     0:  Lost Rig Time 
 LSTM.      09.44.00 18-Feb-20:  Log Start Time 
 MDCL.ppm             45000.00:  Mud Chlorides 
 MDES.     Inversion Oil/Synthetic:  Mud Desc 
 DFD .sg                  1.38:  Mud Density 
 MDMN.sg                  1.34:  Dens Mud Min 
 MDMX.sg                  1.49:  Dens Mud Max 
 MOIL.                      67:  Run Mud Oil % 
 MOWR.                   67:33:  Run Mud OWR 
 MSND.                    0.12:  Run Mud Sand % 
 MSOL.                      22:  Run Mud Solids% 
 DFV .spqt               81.00:  Mud Viscosity 
 MWOD.in                  6.75:  MWD Tool OD 
 MWSI.                      No:  Serv Intrp, MWD 
 OTIM.hr                231.44:  Time Operating 
 PCON.          Wear / Scratch:  Pad Condition 
 PMAX.psia             3400.00:  Press Op, Max 
 PV  .cP                 55.00:  Mud PV 
 RUN .                     800:  Run Number 
 ROPA.m/hr               12.00:  ROP Avg 
 ROPN.m/hr                5.00:  ROP Min 
 ROPX.m/hr               28.00:  ROP Max 
 RPMA.rpm               120.00:  RPM Surface Avg 
 RPMN.rpm                40.00:  RPM Surface Min 
 RPMX.rpm               130.00:  RPM Surface Max 
 RRUN.                    0800:  Rig Run Number 
 RTIM.hr                 45.00:  Time Reaming 
 SAZI.deg               145.38:  Azm, Start 
 SDEP.m                3219.01:  Start Depth 
 SIDD.                      No:  Serv Intrp, DD 
 SINC.deg                75.11:  Inc, Start 
 SPPA.psig             2400.00:  SPP Avg 
 SPPN.psig             2320.00:  SPP Min 
 SPPX.psig             3200.00:  SPP Max 
 STIM.      15.15.00 17-Feb-20:  Start Time 
 SVCS.                 DD, MWD:  Services 
 SVER.                    9.20:  Sperry Version 
 TDAT.m                 254.00:  Tot Depth Attmp 
 TDDF.                      No:  Trip for DD 
 TDLG.m                 254.00:  Tot Depth Loggd 
 TFF .                      No:  Trip for Fail 
 TQAA.f-kp               13.00:  Torque Abs Avg 
 TQAN.f-kp                7.00:  Torque Abs Min 
 TQAX.f-kp               15.00:  Torque Abs Max 
 TRRT.°/30m               0.21:  Turn Rotating 
 MRT .                  EWR-M5:  Maximum Recorded Temperature 
 TTMX.degC               64.00:  Max Tool Temp 
 VS01.                90586516:  Virtual Str1 SN 
 VS02.                90513691:  Virtual Str2 SN 
 VS03.                90586523:  Virtual Str3 SN 
 VS04.                90586520:  Virtual Str4 SN 
 VS05.                90590507:  Virtual Str5 SN 
 WBMN.klb                12.00:  WOB Min 
 WITN.           Rufat Babayev:  Customer Rep 2 
 WITN.         Alistair Sprott:  Customer Rep 
 WOBA.klb                18.00:  WOB Avg 
 WOBX.klb                30.00:  WOB Max 
 YP  .lhf2               41.00:  Yield Point 
~Curve Information Block
#MNEM.UNIT                 API CODE     Curve Description
#---------               -----------    ---------------------------
 TIME.HHMMSS            00 000 000 000:  GT Time & Date
 GTDEPTH.m              00 000 000 000:  GT Depth
 GTPQH.psia             00 000 000 000:  GT HR Quartz Pressure
 GTTQ.degC              00 000 000 000:  GT Quartz Temperature
 GTTN.NONE              00 000 000 000:  GT Test Number
 GTET.sec               00 000 000 000:  GT Elapsed Test Time
 GTTVD.m                00 000 000 000:  GT True Vertical Depth
#Other Information
#
#WARRANTY: Halliburton will use its best efforts to furnish customers with 
#accurate information and interpretations that are part of, and incident to, the services 
#provided.  However, Halliburton cannot and does not warrant the accuracy 
#or correctness of such information and interpretations.  Under no circumstances should any 
#such information or interpretation be relied upon as the sole basis for any drilling, 
#completion, production, or financial decision or any procedure involving any risk to the 
#safety of any drilling venture, drilling rig or its crew or any other third party.  The 
#Customer has full responsibility for all drilling, completion and production operation.  
#Halliburton makes no representations or warranties, either expressed or 
#implied, including, but not limited to, the implied warranties of merchantability or fitness 
#for a particular purpose, with respect to the services rendered.  In no event will 
#Halliburton be liable for failure to obtain any particular results or for 
#any damages, including, but not limited to, indirect, special or consequential damages, 
#resulting from the use of any information or interpretation provided by Halliburton.
#
~A           TIME           GTDEPTH  GTPQH  GTTQ  GTTN  GTET   GTTVD  
# ...
   04:05:59.000.24-Feb-2020 3356.51 5487.57 55.59 7.00  46.00 2704.30
   04:05:59.200.24-Feb-2020 3356.51 5471.63 55.59 7.00  46.20 2704.30
   04:05:59.400.24-Feb-2020 3356.51 5464.90 55.58 7.00  46.40 2704.30
   04:05:59.600.24-Feb-2020 3356.51 5456.76 55.58 7.00  46.60 2704.30
   04:05:59.800.24-Feb-2020 3356.51 5450.58 55.58 7.00  46.80 2704.30
   04:06:00.000.24-Feb-2020 3356.51 5446.14 55.58 7.00  47.00 2704.30
   04:06:00.200.24-Feb-2020 3356.51 5446.14 55.58 7.00  47.20 2704.30
   04:06:00.400.24-Feb-2020 3356.51 5434.48 55.58 7.00  47.40 2704.30
   04:06:00.600.24-Feb-2020 3356.51 5435.45 55.58 7.00  47.60 2704.30
   04:06:00.800.24-Feb-2020 3356.51 5435.89 55.58 7.00  47.80 2704.30
   04:06:01.000.24-Feb-2020 3356.51 5433.64 55.58 7.00  48.00 2704.30
   04:06:01.200.24-Feb-2020 3356.51 5433.64 55.58 7.00  48.20 2704.30
   04:06:01.400.24-Feb-2020 3356.51 5425.31 55.58 7.00  48.40 2704.30
   04:06:01.600.24-Feb-2020 3356.51 5424.06 55.58 7.00  48.60 2704.30
   04:06:01.800.24-Feb-2020 3356.51 5417.57 55.58 7.00  48.80 2704.30
   04:06:02.000.24-Feb-2020 3356.51 5413.50 55.58 7.00  49.00 2704.30
   04:06:02.200.24-Feb-2020 3356.51 5413.50 55.58 7.00  49.20 2704.30
   04:06:02.400.24-Feb-2020 3356.51 5412.55 55.58 7.00  49.40 2704.30
   04:06:02.600.24-Feb-2020 3356.51 5404.19 55.58 7.00  49.60 2704.30
   04:06:02.800.24-Feb-2020 3356.51 5403.17 55.58 7.00  49.80 2704.30
   04:06:03.000.24-Feb-2020 3356.51 5402.70 55.58 7.00  50.00 2704.30
   04:06:03.200.24-Feb-2020 3356.51 5402.82 55.58 7.00  50.20 2704.30
   04:06:03.400.24-Feb-2020 3356.51 5402.53 55.58 7.00  50.40 2704.30
   04:06:03.600.24-Feb-2020 3356.51 5396.93 55.58 7.00  50.60 2704.30
   04:06:03.800.24-Feb-2020 3356.51 5390.48 55.58 7.00  50.80 2704.30
   04:06:04.000.24-Feb-2020 3356.51 5389.33 55.58 7.00  51.00 2704.30
   04:06:04.200.24-Feb-2020 3356.51 5389.33 55.58 7.00  51.20 2704.30
   04:06:04.400.24-Feb-2020 3356.51 5388.09 55.58 7.00  51.40 2704.30
   04:06:04.600.24-Feb-2020 3356.51 5386.76 55.58 7.00  51.60 2704.30
   04:06:04.800.24-Feb-2020 3356.51 5384.80 55.58 7.00  51.80 2704.30
   04:06:05.000.24-Feb-2020 3356.51 5381.51 55.58 7.00  52.00 2704.30
   04:06:05.200.24-Feb-2020 3356.51 5381.51 55.58 7.00  52.20 2704.30
   04:06:05.400.24-Feb-2020 3356.51 5376.16 55.58 7.00  52.40 2704.30
   04:06:05.600.24-Feb-2020 3356.51 5373.10 55.58 7.00  52.60 2704.30
   04:06:05.800.24-Feb-2020 3356.51 5370.27 55.58 7.00  52.80 2704.30
   04:06:06.000.24-Feb-2020 3356.51 5367.59 55.58 7.00  53.00 2704.30
   04:06:06.200.24-Feb-2020 3356.51 5367.59 55.58 7.00  53.20 2704.30
   04:06:06.400.24-Feb-2020 3356.51 5360.85 55.58 7.00  53.40 2704.30
   04:06:06.600.24-Feb-2020 3356.51 5356.82 55.58 7.00  53.60 2704.30
   04:06:06.800.24-Feb-2020 3356.51 5349.70 55.58 7.00  53.80 2704.30
   04:06:07.000.24-Feb-2020 3356.51 5345.18 55.58 7.00  54.00 2704.30
   04:06:07.200.24-Feb-2020 3356.51 5342.75 55.58 7.00  54.20 2704.30
   04:06:07.400.24-Feb-2020 3356.51 5341.03 55.58 7.00  54.40 2704.30
   04:06:07.600.24-Feb-2020 3356.51 5339.96 55.58 7.00  54.60 2704.30
   04:06:07.800.24-Feb-2020 3356.51 5337.63 55.58 7.00  54.80 2704.30
   04:06:08.000.24-Feb-2020 3356.51 5334.56 55.58 7.00  55.00 2704.30
   04:06:08.200.24-Feb-2020 3356.51 5334.56 55.58 7.00  55.20 2704.30
   04:06:08.400.24-Feb-2020 3356.51 5323.89 55.58 7.00  55.40 2704.30
   04:06:08.600.24-Feb-2020 3356.51 5317.60 55.58 7.00  55.60 2704.30
   04:06:08.800.24-Feb-2020 3356.51 5307.28 55.58 7.00  55.80 2704.30
   04:06:09.000.24-Feb-2020 3356.51 5287.88 55.58 7.00  56.00 2704.30
   04:06:09.200.24-Feb-2020 3356.51 5287.88 55.58 7.00  56.20 2704.30
   04:06:09.400.24-Feb-2020 3356.51 5252.09 55.58 7.00  56.40 2704.30
   04:06:09.600.24-Feb-2020 3356.51 5236.41 55.58 7.00  56.60 2704.30
   04:06:09.800.24-Feb-2020 3356.51 5220.47 55.57 7.00  56.80 2704.30
   04:06:10.000.24-Feb-2020 3356.51 5204.17 55.57 7.00  57.00 2704.30
   04:06:10.200.24-Feb-2020 3356.51 5204.17 55.57 7.00  57.20 2704.30
   04:06:10.400.24-Feb-2020 3356.51 5176.84 55.57 7.00  57.40 2704.30
   04:06:10.600.24-Feb-2020 3356.51 5162.41 55.57 7.00  57.60 2704.30
   04:06:10.800.24-Feb-2020 3356.51 5150.71 55.57 7.00  57.80 2704.30
   04:06:11.000.24-Feb-2020 3356.51 5171.08 55.57 7.00  58.00 2704.30
   04:06:11.200.24-Feb-2020 3356.51 5199.35 55.57 7.00  58.20 2704.30
   04:06:11.400.24-Feb-2020 3356.51 5220.34 55.57 7.00  58.40 2704.30
   04:06:11.600.24-Feb-2020 3356.51 5238.91 55.57 7.00  58.60 2704.30
   04:06:11.800.24-Feb-2020 3356.51 5250.73 55.57 7.00  58.80 2704.30
   04:06:12.000.24-Feb-2020 3356.51 5259.66 55.57 7.00  59.00 2704.30
   04:06:12.200.24-Feb-2020 3356.51 5259.66 55.57 7.00  59.20 2704.30
   04:06:12.400.24-Feb-2020 3356.51 5273.72 55.57 7.00  59.40 2704.30
   04:06:12.600.24-Feb-2020 3356.51 5278.49 55.57 7.00  59.60 2704.30
   04:06:12.800.24-Feb-2020 3356.51 5282.57 55.57 7.00  59.80 2704.30
   04:06:13.000.24-Feb-2020 3356.51 5285.07 55.57 7.00  60.00 2704.30
   04:06:13.200.24-Feb-2020 3356.51 5285.07 55.57 7.00  60.20 2704.30
   04:06:13.400.24-Feb-2020 3356.51 5292.21 55.57 7.00  60.40 2704.30
   04:06:13.600.24-Feb-2020 3356.51 5294.46 55.57 7.00  60.60 2704.30
   04:06:13.800.24-Feb-2020 3356.51 5296.87 55.57 7.00  60.80 2704.30
   04:06:14.000.24-Feb-2020 3356.51 5298.90 55.57 7.00  61.00 2704.30
   04:06:14.200.24-Feb-2020 3356.51 5298.90 55.57 7.00  61.20 2704.30
   04:06:14.400.24-Feb-2020 3356.51 5302.61 55.57 7.00  61.40 2704.30
   04:06:14.600.24-Feb-2020 3356.51 5304.41 55.57 7.00  61.60 2704.30
   04:06:14.800.24-Feb-2020 3356.51 5306.06 55.57 7.00  61.80 2704.30
   04:06:15.000.24-Feb-2020 3356.51 5307.64 55.57 7.00  62.00 2704.30
   04:06:15.200.24-Feb-2020 3356.51 5210.25 55.57 7.00  62.20 2704.30
   04:06:15.400.24-Feb-2020 3356.51 4610.69 55.57 7.00  62.40 2704.30
   04:06:15.600.24-Feb-2020 3356.51 4302.81 55.57 7.00  62.60 2704.30
   04:06:15.800.24-Feb-2020 3356.51 4304.15 55.57 7.00  62.80 2704.30
   04:06:16.000.24-Feb-2020 3356.51 4310.39 55.57 7.00  63.00 2704.30
   04:06:16.200.24-Feb-2020 3356.51 4310.39 55.57 7.00  63.20 2704.30
   04:06:16.400.24-Feb-2020 3356.51 4314.09 55.57 7.00  63.40 2704.30
   04:06:16.600.24-Feb-2020 3356.51 4315.47 55.57 7.00  63.60 2704.30
   04:06:16.800.24-Feb-2020 3356.51 4317.05 55.57 7.00  63.80 2704.30
   04:06:17.000.24-Feb-2020 3356.51 4319.42 55.57 7.00  64.00 2704.30
   04:06:17.200.24-Feb-2020 3356.51 4319.42 55.57 7.00  64.20 2704.30
   04:06:17.400.24-Feb-2020 3356.51 4320.69 55.57 7.00  64.40 2704.30
   04:06:17.600.24-Feb-2020 3356.51 4321.12 55.57 7.00  64.60 2704.30
   04:06:17.800.24-Feb-2020 3356.51 4320.78 55.56 7.00  64.80 2704.30
   04:06:18.000.24-Feb-2020 3356.51 4320.91 55.56 7.00  65.00 2704.30
   04:06:18.200.24-Feb-2020 3356.51 4320.91 55.56 7.00  65.20 2704.30
   04:06:18.400.24-Feb-2020 3356.51 4320.37 55.56 7.00  65.40 2704.30
   04:06:18.600.24-Feb-2020 3356.51 4320.68 55.56 7.00  65.60 2704.30
   04:06:18.800.24-Feb-2020 3356.51 4320.39 55.56 7.00  65.80 2704.30
   04:06:19.000.24-Feb-2020 3356.51 4320.71 55.56 7.00  66.00 2704.30
   04:06:19.200.24-Feb-2020 3356.51 4320.64 55.56 7.00  66.20 2704.30
   04:06:19.400.24-Feb-2020 3356.51 4320.31 55.56 7.00  66.40 2704.30
   04:06:19.600.24-Feb-2020 3356.51 4320.86 55.56 7.00  66.60 2704.30
   04:06:19.800.24-Feb-2020 3356.51 4320.86 55.56 7.00  66.80 2704.30
   04:06:20.000.24-Feb-2020 3356.51 4320.51 55.56 7.00  67.00 2704.30
   04:06:20.200.24-Feb-2020 3356.51 4320.51 55.56 7.00  67.20 2704.30
   04:06:20.400.24-Feb-2020 3356.51 4321.33 55.56 7.00  67.40 2704.30
   04:06:20.600.24-Feb-2020 3356.51 4321.15 55.56 7.00  67.60 2704.30
   04:06:20.800.24-Feb-2020 3356.51 4322.12 55.56 7.00  67.80 2704.30
   04:06:21.000.24-Feb-2020 3356.51 4321.65 55.55 7.00  68.00 2704.30
   04:06:21.200.24-Feb-2020 3356.51 4321.65 55.55 7.00  68.20 2704.30
   04:06:21.400.24-Feb-2020 3356.51 4321.68 55.55 7.00  68.40 2704.30
   04:06:21.600.24-Feb-2020 3356.51 4321.54 55.55 7.00  68.60 2704.30
   04:06:21.800.24-Feb-2020 3356.51 4321.76 55.55 7.00  68.80 2704.30
