~Version Information
 VERS.                  2.0:   CWLS log ASCII Standard -VERSION 2.0
 WRAP.                   NO:   One line per depth step
~Well Information Block
#MNEM.UNIT     VALUE/NAME     DESCRIPTION
#---------     -----------    ---------------------------
 STRT.S             06:21:10 24-Feb-20: START TIME 06:21:10 24-Feb-20
 STOP.S             06:29:09 24-Feb-20: STOP TIME  06:29:09 24-Feb-20
 STEP.S                   0.00: STEP TIME
 NULL.                 -999.25: NULL VALUE
 JOBN.        AZ-XX-0905059384:  JOB TICKET NUMB
 PDAT.          Mean Sea Level:  PERMANENT DATUM
 UNIT.                     N/A:  LOGGING EQUIPMENT ID
 DCON.         Sperry Drilling:  DIRECTNL CONTR
 DOE .                     N/A:  DOE NUMBER
 RIG .             West Chirag:  RIG NAME
 WELL.                     J22:  WELL NAME
 MWDS.                    Baku:  MWD SHOP
 SRVC.     TURAN Drilling & Engineering:  CONTRACTOR
 FLD .                     ACG:  FIELD NAME
 CTRY.              Azerbaijan:  COUNTRY NAME
 PROV.                    Baku:  PROVINCE
 STAT.                    Baku:  STATE NAME
 REGN.                   EESSA:  REGION
 BASE.              Azerbaijan:  LOGGING EQUIPMENT BASE LOCATION
 UWI .                     N/A:  UNIQUE WELL IDENTIFIER
 API .                     N/A:  API NUMBER
 COMP.     BP Exploration (Caspian Sea) Ltd.:  COMPANY
 WTYP.                Deviated:  WELL TYPE
 MDS .        Operator Entered:  MAG DATA SOURCE
 SON .        AZ-XX-0905059384:  JOB NUMBER
 FTOP.          Formation Tops:  FORM TOPS DESC
 ILTD.               Lithology:  INTERP LTH DESC
 SVYD.                  Survey:  SURVEY DESC
 DMOD.             Drill Model:  DRILL MOD DESC
 HPTY.       Minimum Curvature:  HOLE POS TYPE
 NREF.                    Grid:  NORTH REFERENCE
 SPUD.               09-Jan-20:  SPUD DATE
 DATE.      14.04.48 07-Feb-20:  END TIME
 STIM.      07.00.00 09-Jan-20:  START TIME
 DMF .             Drill Floor:  DRILL MEAS FROM
 DFST.                        :  DIST FSL TEXT
 DFWT.                        :  DIST FWL TEXT
 CNTY.                        :  COUNTY
 LOC .                        :  LOCATION
 LMF .             Drill Floor:  LOG MEASURED FROM
 DEP .m                   0.00:  DEPTH
 VSNS.m                  10.28:  VERT SEC N/S
 VSEW.m                  -6.24:  VERT SEC E/W
 AGAP.m                  43.00:  AIR GAP
 APD .m                  43.00:  DEPTH ABOVE PD
 WDMS.m                 169.80:  WD ELEV
 EGL .m                   0.00:  GROUND ELEVATION
 EPD .m                   0.00:  ELEVATION
 AZTC.deg                 6.27:  AZM TOTAL CORR
 GRDC.deg                 0.15:  GRID CORRECTION
 MDEC.deg                 6.42:  MAGNETIC DECL
 MDIP.deg                59.56:  MAGNETIC DIP
 MFLD.nT              50277.00:  MAGNETIC FIELD
 GVFD.g                   1.00:  GRAVITY FIELD
 VSDR.deg               148.53:  VERT SEC DIRECT
 TDD .m                3473.01:  TOTAL DEPTH (DRILLER)
 SDEP.m                 364.00:  START DEPTH
 DFSL.m                   0.00:  DISTANCE FSL
 DFWL.m                   0.00:  DISTANCE FWL
 UTMY.m             4443793.85:  UTM Y
 UTMX.m              519005.06:  UTM X
 WHEW.m                  -6.24:  WELL HEAD E/W
 WHNS.m                  10.28:  WELL HEAD N/S
 LONG.deg                51.22:  LONGITUDE
 LATI.deg                40.13:  LATITUDE
 TVDS.m                  43.00:  TVDSS CORRECTN
 EKB .m                   0.00:  KB ELEVATION
 EDF .m                  43.00:  DF ELEVATION
 TDL .m                 254.00:  TOTAL DEPTH (LOGGER)
 MAGU.                 1850021:  MAGUTM CHECKSUM
 VSC .                       0:  VS TO CLOSURE
~Parameter Information Block
#MNEM.UNIT       Value        Description
#---------     -----------    ---------------------------
 AV  .mps                 0.50:  Ann Velocity 
 AVMX.mps                 1.40:  Max Ann Veloc 
 AZIF.deg               144.94:  Azm, Final 
 BHAT.        Rotary Steerable:  BHA Type 
 BROT.°/30m               0.23:  Build Rotating 
 BS  .in                  8.50:  Bit Size 
 BTPL.psig              264.00:  Bit Press Loss 
 CABU.                     Yes:  Customer Abuse 
 COMM.                     î^:  Run Comments 1 
 TCS .hr                 87.30:  Time Ciculation Ended 
 CV  .mps                 2.45:  Crit Velocity 
 CVMX.mps                 2.74:  Max Crit Veloc 
 DD1 .             Aziz Aliyev:  Direct Drillr 1 
 DDSV.               Geo-Pilot:  DD Service 
 DEFF.%                 100.00:  % Det Eff 
 DLRX.°/30m               1.22:  Dogleg Rot Max 
 DLSO.°/30m               0.52:  Dogleg Oriented 
 DLSX.°/30m               1.22:  Dogleg Str Max 
 DRET.      12.59.00 23-Feb-20:  Drill End Time 
 DRST.      09.44.00 18-Feb-20:  Drill Start Tim 
 DTIM.hr                 23.03:  Time Drilling 
 EDEP.m                3473.01:  End Depth 
 ENG1.         Almaz Almadatov:  Engineer 1 
 ENG2.         Dair Mahammadov:  Engineer 2 
 ENG3.          Nazrin Asgarli:  Engineer 3 
 ETIM.      10.33.36 26-Feb-20:  End Time 
 FLOI.gpm               480.00:  Flow In 
 FLON.gpm               300.00:  Flow In Min 
 FLOS.cptm                1.00:  Fluid Loss 
 FLOX.gpm               550.00:  Flow In Max 
 HFLO.                      No:  High Flow 
 HPRE.                      No:  High Pressure 
 HTEM.                      No:  High Temp 
 HYDO.m                   1.80:  Hydro Offset 
 IFIN.deg                74.42:  Inc, Final 
 IMAX.deg                76.14:  Inc Max 
 IMIN.deg                74.42:  Inc Min 
 IMND.m                3462.72:  Inc Min Depth 
 IMXD.m                3235.69:  Inc Max Depth 
 JARR.                      No:  Jarring 
 LETM.      12.59.00 23-Feb-20:  Log End Time 
 LOST.hr                     0:  Lost Rig Time 
 LSTM.      09.44.00 18-Feb-20:  Log Start Time 
 MDCL.ppm             45000.00:  Mud Chlorides 
 MDES.     Inversion Oil/Synthetic:  Mud Desc 
 DFD .sg                  1.38:  Mud Density 
 MDMN.sg                  1.34:  Dens Mud Min 
 MDMX.sg                  1.49:  Dens Mud Max 
 MOIL.                      67:  Run Mud Oil % 
 MOWR.                   67:33:  Run Mud OWR 
 MSND.                    0.12:  Run Mud Sand % 
 MSOL.                      22:  Run Mud Solids% 
 DFV .spqt               81.00:  Mud Viscosity 
 MWOD.in                  6.75:  MWD Tool OD 
 MWSI.                      No:  Serv Intrp, MWD 
 OTIM.hr                231.44:  Time Operating 
 PCON.          Wear / Scratch:  Pad Condition 
 PMAX.psia             3400.00:  Press Op, Max 
 PV  .cP                 55.00:  Mud PV 
 RUN .                     800:  Run Number 
 ROPA.m/hr               12.00:  ROP Avg 
 ROPN.m/hr                5.00:  ROP Min 
 ROPX.m/hr               28.00:  ROP Max 
 RPMA.rpm               120.00:  RPM Surface Avg 
 RPMN.rpm                40.00:  RPM Surface Min 
 RPMX.rpm               130.00:  RPM Surface Max 
 RRUN.                    0800:  Rig Run Number 
 RTIM.hr                 45.00:  Time Reaming 
 SAZI.deg               145.38:  Azm, Start 
 SDEP.m                3219.01:  Start Depth 
 SIDD.                      No:  Serv Intrp, DD 
 SINC.deg                75.11:  Inc, Start 
 SPPA.psig             2400.00:  SPP Avg 
 SPPN.psig             2320.00:  SPP Min 
 SPPX.psig             3200.00:  SPP Max 
 STIM.      15.15.00 17-Feb-20:  Start Time 
 SVCS.                 DD, MWD:  Services 
 SVER.                    9.20:  Sperry Version 
 TDAT.m                 254.00:  Tot Depth Attmp 
 TDDF.                      No:  Trip for DD 
 TDLG.m                 254.00:  Tot Depth Loggd 
 TFF .                      No:  Trip for Fail 
 TQAA.f-kp               13.00:  Torque Abs Avg 
 TQAN.f-kp                7.00:  Torque Abs Min 
 TQAX.f-kp               15.00:  Torque Abs Max 
 TRRT.°/30m               0.21:  Turn Rotating 
 MRT .                  EWR-M5:  Maximum Recorded Temperature 
 TTMX.degC               64.00:  Max Tool Temp 
 VS01.                90586516:  Virtual Str1 SN 
 VS02.                90513691:  Virtual Str2 SN 
 VS03.                90586523:  Virtual Str3 SN 
 VS04.                90586520:  Virtual Str4 SN 
 VS05.                90590507:  Virtual Str5 SN 
 WBMN.klb                12.00:  WOB Min 
 WITN.           Rufat Babayev:  Customer Rep 2 
 WITN.         Alistair Sprott:  Customer Rep 
 WOBA.klb                18.00:  WOB Avg 
 WOBX.klb                30.00:  WOB Max 
 YP  .lhf2               41.00:  Yield Point 
~Curve Information Block
#MNEM.UNIT                 API CODE     Curve Description
#---------               -----------    ---------------------------
 TIME.HHMMSS            00 000 000 000:  GT Time & Date
 GTDEPTH.m              00 000 000 000:  GT Depth
 GTPQH.psia             00 000 000 000:  GT HR Quartz Pressure
 GTTQ.degC              00 000 000 000:  GT Quartz Temperature
 GTTN.NONE              00 000 000 000:  GT Test Number
 GTET.sec               00 000 000 000:  GT Elapsed Test Time
 GTTVD.m                00 000 000 000:  GT True Vertical Depth
#Other Information
#
#WARRANTY: Halliburton will use its best efforts to furnish customers with 
#accurate information and interpretations that are part of, and incident to, the services 
#provided.  However, Halliburton cannot and does not warrant the accuracy 
#or correctness of such information and interpretations.  Under no circumstances should any 
#such information or interpretation be relied upon as the sole basis for any drilling, 
#completion, production, or financial decision or any procedure involving any risk to the 
#safety of any drilling venture, drilling rig or its crew or any other third party.  The 
#Customer has full responsibility for all drilling, completion and production operation.  
#Halliburton makes no representations or warranties, either expressed or 
#implied, including, but not limited to, the implied warranties of merchantability or fitness 
#for a particular purpose, with respect to the services rendered.  In no event will 
#Halliburton be liable for failure to obtain any particular results or for 
#any damages, including, but not limited to, indirect, special or consequential damages, 
#resulting from the use of any information or interpretation provided by Halliburton.
#
~A           TIME           GTDEPTH  GTPQH  GTTQ  GTTN   GTET   GTTVD  
# ...
   06:27:34.692.24-Feb-2020 3290.51 5677.78 53.93 10.00 384.28 2687.65
   06:27:34.892.24-Feb-2020 3290.51 5678.86 53.93 10.00 384.48 2687.65
   06:27:35.092.24-Feb-2020 3290.51 5679.16 53.93 10.00 384.68 2687.65
   06:27:35.292.24-Feb-2020 3290.51 5678.06 53.93 10.00 384.88 2687.65
   06:27:35.492.24-Feb-2020 3290.51 5685.94 53.93 10.00 385.08 2687.65
   06:27:35.692.24-Feb-2020 3290.51 5685.94 53.93 10.00 385.28 2687.65
   06:27:35.892.24-Feb-2020 3290.51 5676.58 53.93 10.00 385.48 2687.65
   06:27:36.092.24-Feb-2020 3290.51 5679.68 53.93 10.00 385.68 2687.65
   06:27:36.292.24-Feb-2020 3290.51 5677.38 53.93 10.00 385.88 2687.65
   06:27:36.492.24-Feb-2020 3290.51 5676.57 53.93 10.00 386.08 2687.65
   06:27:36.692.24-Feb-2020 3290.51 5676.52 53.93 10.00 386.28 2687.65
   06:27:36.892.24-Feb-2020 3290.51 5676.84 53.93 10.00 386.48 2687.65
   06:27:37.093.24-Feb-2020 3290.51 5677.42 53.93 10.00 386.68 2687.65
   06:27:37.293.24-Feb-2020 3290.51 5678.03 53.93 10.00 386.88 2687.65
   06:27:37.493.24-Feb-2020 3290.51 5677.15 53.93 10.00 387.08 2687.65
   06:27:37.693.24-Feb-2020 3290.51 5677.15 53.93 10.00 387.28 2687.65
   06:27:37.893.24-Feb-2020 3290.51 5676.19 53.93 10.00 387.48 2687.65
   06:27:38.093.24-Feb-2020 3290.51 5677.17 53.93 10.00 387.68 2687.65
   06:27:38.293.24-Feb-2020 3290.51 5677.64 53.93 10.00 387.88 2687.65
   06:27:38.493.24-Feb-2020 3290.51 5678.15 53.93 10.00 388.08 2687.65
   06:27:38.693.24-Feb-2020 3290.51 5678.15 53.93 10.00 388.28 2687.65
   06:27:38.893.24-Feb-2020 3290.51 5684.74 53.93 10.00 388.48 2687.65
   06:27:39.093.24-Feb-2020 3290.51 5674.35 53.93 10.00 388.68 2687.65
   06:27:39.293.24-Feb-2020 3290.51 5675.82 53.93 10.00 388.89 2687.65
   06:27:39.493.24-Feb-2020 3290.51 5678.30 53.93 10.00 389.09 2687.65
   06:27:39.693.24-Feb-2020 3290.51 5678.30 53.93 10.00 389.29 2687.65
   06:27:39.893.24-Feb-2020 3290.51 5685.62 53.93 10.00 389.49 2687.65
   06:27:40.093.24-Feb-2020 3290.51 5675.48 53.93 10.00 389.69 2687.65
   06:27:40.293.24-Feb-2020 3290.51 5676.11 53.93 10.00 389.89 2687.65
   06:27:40.493.24-Feb-2020 3290.51 5678.78 53.93 10.00 390.09 2687.65
   06:27:40.693.24-Feb-2020 3290.51 5686.70 53.93 10.00 390.29 2687.65
   06:27:40.893.24-Feb-2020 3290.51 5675.99 53.93 10.00 390.49 2687.65
   06:27:41.093.24-Feb-2020 3290.51 5677.08 53.93 10.00 390.69 2687.65
   06:27:41.293.24-Feb-2020 3290.51 5679.93 53.93 10.00 390.89 2687.65
   06:27:41.493.24-Feb-2020 3290.51 5679.38 53.93 10.00 391.09 2687.65
   06:27:41.694.24-Feb-2020 3290.51 5679.38 53.93 10.00 391.29 2687.65
   06:27:41.894.24-Feb-2020 3290.51 5676.24 53.93 10.00 391.49 2687.65
   06:27:42.094.24-Feb-2020 3290.51 5676.35 53.93 10.00 391.69 2687.65
   06:27:42.294.24-Feb-2020 3290.51 5678.60 53.93 10.00 391.89 2687.65
   06:27:42.494.24-Feb-2020 3290.51 5678.04 53.93 10.00 392.09 2687.65
   06:27:42.694.24-Feb-2020 3290.51 5678.04 53.93 10.00 392.29 2687.65
   06:27:42.894.24-Feb-2020 3290.51 5677.12 53.93 10.00 392.49 2687.65
   06:27:43.094.24-Feb-2020 3290.51 5677.14 53.93 10.00 392.69 2687.65
   06:27:43.294.24-Feb-2020 3290.51 5677.26 53.93 10.00 392.89 2687.65
   06:27:43.494.24-Feb-2020 3290.51 5677.33 53.93 10.00 393.09 2687.65
   06:27:43.694.24-Feb-2020 3290.51 5677.33 53.93 10.00 393.29 2687.65
   06:27:43.894.24-Feb-2020 3290.51 5677.62 53.93 10.00 393.49 2687.65
   06:27:44.094.24-Feb-2020 3290.51 5677.50 53.93 10.00 393.69 2687.65
   06:27:44.294.24-Feb-2020 3290.51 5677.80 53.93 10.00 393.89 2687.65
   06:27:44.494.24-Feb-2020 3290.51 5678.05 53.93 10.00 394.09 2687.65
   06:27:44.694.24-Feb-2020 3290.51 5678.05 53.93 10.00 394.29 2687.65
   06:27:44.894.24-Feb-2020 3290.51 5688.24 53.93 10.00 394.49 2687.65
   06:27:45.094.24-Feb-2020 3290.51 5675.00 53.93 10.00 394.69 2687.65
   06:27:45.294.24-Feb-2020 3290.51 5675.99 53.93 10.00 394.89 2687.65
   06:27:45.494.24-Feb-2020 3290.51 5678.92 53.93 10.00 395.09 2687.65
   06:27:45.694.24-Feb-2020 3290.51 5678.92 53.93 10.00 395.29 2687.65
   06:27:45.894.24-Feb-2020 3290.51 5677.88 53.93 10.00 395.49 2687.65
   06:27:46.094.24-Feb-2020 3290.51 5677.49 53.93 10.00 395.69 2687.65
   06:27:46.295.24-Feb-2020 3290.51 5676.55 53.93 10.00 395.89 2687.65
   06:27:46.495.24-Feb-2020 3290.51 5676.67 53.93 10.00 396.09 2687.65
   06:27:46.695.24-Feb-2020 3290.51 5676.67 53.93 10.00 396.29 2687.65
   06:27:46.895.24-Feb-2020 3290.51 5676.78 53.93 10.00 396.49 2687.65
   06:27:47.095.24-Feb-2020 3290.51 5675.91 53.93 10.00 396.69 2687.65
   06:27:47.295.24-Feb-2020 3290.51 5675.70 53.93 10.00 396.89 2687.65
   06:27:47.495.24-Feb-2020 3290.51 5676.72 53.93 10.00 397.09 2687.65
   06:27:47.695.24-Feb-2020 3290.51 5676.72 53.93 10.00 397.29 2687.65
   06:27:47.895.24-Feb-2020 3290.51 5677.23 53.93 10.00 397.49 2687.65
   06:27:48.095.24-Feb-2020 3290.51 5676.40 53.93 10.00 397.69 2687.65
   06:27:48.295.24-Feb-2020 3290.51 5684.73 53.93 10.00 397.89 2687.65
   06:27:48.495.24-Feb-2020 3290.51 5673.36 53.93 10.00 398.09 2687.65
   06:27:48.695.24-Feb-2020 3290.51 5676.15 53.93 10.00 398.29 2687.65
   06:27:48.895.24-Feb-2020 3290.51 5678.60 53.93 10.00 398.49 2687.65
   06:27:49.095.24-Feb-2020 3290.51 5677.17 53.93 10.00 398.69 2687.65
   06:27:49.295.24-Feb-2020 3290.51 5685.94 53.93 10.00 398.89 2687.65
   06:27:49.495.24-Feb-2020 3290.51 5674.26 53.93 10.00 399.09 2687.65
   06:27:49.695.24-Feb-2020 3290.51 5674.26 53.93 10.00 399.29 2687.65
   06:27:49.895.24-Feb-2020 3290.51 5679.20 53.93 10.00 399.49 2687.65
   06:27:50.095.24-Feb-2020 3290.51 5686.40 53.93 10.00 399.69 2687.65
   06:27:50.295.24-Feb-2020 3290.51 5675.77 53.93 10.00 399.89 2687.65
   06:27:50.495.24-Feb-2020 3290.51 5676.92 53.93 10.00 400.09 2687.65
   06:27:50.695.24-Feb-2020 3290.51 5676.92 53.93 10.00 400.29 2687.65
   06:27:50.896.24-Feb-2020 3290.51 5679.52 53.93 10.00 400.49 2687.65
   06:27:51.096.24-Feb-2020 3290.51 5683.89 53.92 10.00 400.69 2687.65
   06:27:51.296.24-Feb-2020 3290.51 5677.68 53.92 10.00 400.89 2687.65
   06:27:51.496.24-Feb-2020 3290.51 5677.76 53.92 10.00 401.09 2687.65
   06:27:51.696.24-Feb-2020 3290.51 5677.76 53.92 10.00 401.29 2687.65
   06:27:51.896.24-Feb-2020 3290.51 5677.77 53.92 10.00 401.49 2687.65
   06:27:52.096.24-Feb-2020 3290.51 5677.42 53.92 10.00 401.69 2687.65
   06:27:52.296.24-Feb-2020 3290.51 5677.13 53.92 10.00 401.89 2687.65
   06:27:52.496.24-Feb-2020 3290.51 5677.06 53.92 10.00 402.09 2687.65
   06:27:52.696.24-Feb-2020 3290.51 5677.17 53.92 10.00 402.29 2687.65
   06:27:52.896.24-Feb-2020 3290.51 5677.24 53.92 10.00 402.49 2687.65
   06:27:53.096.24-Feb-2020 3290.51 5677.40 53.92 10.00 402.69 2687.65
   06:27:53.296.24-Feb-2020 3290.51 5677.46 53.92 10.00 402.89 2687.65
   06:27:53.496.24-Feb-2020 3290.51 5677.42 53.92 10.00 403.09 2687.65
   06:27:53.696.24-Feb-2020 3290.51 5677.42 53.92 10.00 403.29 2687.65
   06:27:53.896.24-Feb-2020 3290.51 5677.91 53.92 10.00 403.49 2687.65
   06:27:54.096.24-Feb-2020 3290.51 5680.86 53.92 10.00 403.69 2687.65
   06:27:54.296.24-Feb-2020 3290.51 5682.50 53.92 10.00 403.89 2687.65
   06:27:54.496.24-Feb-2020 3290.51 5676.97 53.92 10.00 404.09 2687.65
   06:27:54.696.24-Feb-2020 3290.51 5676.97 53.92 10.00 404.29 2687.65
   06:27:54.896.24-Feb-2020 3290.51 5678.18 53.92 10.00 404.49 2687.65
   06:27:55.096.24-Feb-2020 3290.51 5677.41 53.92 10.00 404.69 2687.65
   06:27:55.297.24-Feb-2020 3290.51 5678.13 53.92 10.00 404.89 2687.65
   06:27:55.497.24-Feb-2020 3290.51 5676.89 53.92 10.00 405.09 2687.65
   06:27:55.697.24-Feb-2020 3290.51 5676.89 53.92 10.00 405.29 2687.65
   06:27:55.897.24-Feb-2020 3290.51 5676.54 53.92 10.00 405.49 2687.65
   06:27:56.097.24-Feb-2020 3290.51 5677.00 53.92 10.00 405.69 2687.65
   06:27:56.297.24-Feb-2020 3290.51 5677.02 53.92 10.00 405.89 2687.65
   06:27:56.497.24-Feb-2020 3290.51 5676.14 53.92 10.00 406.09 2687.65
   06:27:56.697.24-Feb-2020 3290.51 5676.21 53.92 10.00 406.29 2687.65
   06:27:56.897.24-Feb-2020 3290.51 5676.62 53.92 10.00 406.49 2687.65
   06:27:57.097.24-Feb-2020 3290.51 5677.76 53.92 10.00 406.69 2687.65
