~Version Information
 VERS.                  2.0:   CWLS log ASCII Standard -VERSION 2.0
 WRAP.                   NO:   One line per depth step
~Well Information Block
#MNEM.UNIT     VALUE/NAME     DESCRIPTION
#---------     -----------    ---------------------------
 STRT.S             03:19:12 24-Feb-20: START TIME 03:19:12 24-Feb-20
 STOP.S             03:27:48 24-Feb-20: STOP TIME  03:27:48 24-Feb-20
 STEP.S                   0.00: STEP TIME
 NULL.                 -999.25: NULL VALUE
 JOBN.        AZ-XX-0905059384:  JOB TICKET NUMB
 PDAT.          Mean Sea Level:  PERMANENT DATUM
 UNIT.                     N/A:  LOGGING EQUIPMENT ID
 DCON.         Sperry Drilling:  DIRECTNL CONTR
 DOE .                     N/A:  DOE NUMBER
 RIG .             West Chirag:  RIG NAME
 WELL.                     J22:  WELL NAME
 MWDS.                    Baku:  MWD SHOP
 SRVC.     TURAN Drilling & Engineering:  CONTRACTOR
 FLD .                     ACG:  FIELD NAME
 CTRY.              Azerbaijan:  COUNTRY NAME
 PROV.                    Baku:  PROVINCE
 STAT.                    Baku:  STATE NAME
 REGN.                   EESSA:  REGION
 BASE.              Azerbaijan:  LOGGING EQUIPMENT BASE LOCATION
 UWI .                     N/A:  UNIQUE WELL IDENTIFIER
 API .                     N/A:  API NUMBER
 COMP.     BP Exploration (Caspian Sea) Ltd.:  COMPANY
 WTYP.                Deviated:  WELL TYPE
 MDS .        Operator Entered:  MAG DATA SOURCE
 SON .        AZ-XX-0905059384:  JOB NUMBER
 FTOP.          Formation Tops:  FORM TOPS DESC
 ILTD.               Lithology:  INTERP LTH DESC
 SVYD.                  Survey:  SURVEY DESC
 DMOD.             Drill Model:  DRILL MOD DESC
 HPTY.       Minimum Curvature:  HOLE POS TYPE
 NREF.                    Grid:  NORTH REFERENCE
 SPUD.               09-Jan-20:  SPUD DATE
 DATE.      14.04.48 07-Feb-20:  END TIME
 STIM.      07.00.00 09-Jan-20:  START TIME
 DMF .             Drill Floor:  DRILL MEAS FROM
 DFST.                        :  DIST FSL TEXT
 DFWT.                        :  DIST FWL TEXT
 CNTY.                        :  COUNTY
 LOC .                        :  LOCATION
 LMF .             Drill Floor:  LOG MEASURED FROM
 DEP .m                   0.00:  DEPTH
 VSNS.m                  10.28:  VERT SEC N/S
 VSEW.m                  -6.24:  VERT SEC E/W
 AGAP.m                  43.00:  AIR GAP
 APD .m                  43.00:  DEPTH ABOVE PD
 WDMS.m                 169.80:  WD ELEV
 EGL .m                   0.00:  GROUND ELEVATION
 EPD .m                   0.00:  ELEVATION
 AZTC.deg                 6.27:  AZM TOTAL CORR
 GRDC.deg                 0.15:  GRID CORRECTION
 MDEC.deg                 6.42:  MAGNETIC DECL
 MDIP.deg                59.56:  MAGNETIC DIP
 MFLD.nT              50277.00:  MAGNETIC FIELD
 GVFD.g                   1.00:  GRAVITY FIELD
 VSDR.deg               148.53:  VERT SEC DIRECT
 TDD .m                3473.01:  TOTAL DEPTH (DRILLER)
 SDEP.m                 364.00:  START DEPTH
 DFSL.m                   0.00:  DISTANCE FSL
 DFWL.m                   0.00:  DISTANCE FWL
 UTMY.m             4443793.85:  UTM Y
 UTMX.m              519005.06:  UTM X
 WHEW.m                  -6.24:  WELL HEAD E/W
 WHNS.m                  10.28:  WELL HEAD N/S
 LONG.deg                51.22:  LONGITUDE
 LATI.deg                40.13:  LATITUDE
 TVDS.m                  43.00:  TVDSS CORRECTN
 EKB .m                   0.00:  KB ELEVATION
 EDF .m                  43.00:  DF ELEVATION
 TDL .m                 254.00:  TOTAL DEPTH (LOGGER)
 MAGU.                 1850021:  MAGUTM CHECKSUM
 VSC .                       0:  VS TO CLOSURE
~Parameter Information Block
#MNEM.UNIT       Value        Description
#---------     -----------    ---------------------------
 AV  .mps                 0.50:  Ann Velocity 
 AVMX.mps                 1.40:  Max Ann Veloc 
 AZIF.deg               144.94:  Azm, Final 
 BHAT.        Rotary Steerable:  BHA Type 
 BROT.°/30m               0.23:  Build Rotating 
 BS  .in                  8.50:  Bit Size 
 BTPL.psig              264.00:  Bit Press Loss 
 CABU.                     Yes:  Customer Abuse 
 COMM.                     ´á{:  Run Comments 1 
 TCS .hr                 87.30:  Time Ciculation Ended 
 CV  .mps                 2.45:  Crit Velocity 
 CVMX.mps                 2.74:  Max Crit Veloc 
 DD1 .             Aziz Aliyev:  Direct Drillr 1 
 DDSV.               Geo-Pilot:  DD Service 
 DEFF.%                 100.00:  % Det Eff 
 DLRX.°/30m               1.22:  Dogleg Rot Max 
 DLSO.°/30m               0.52:  Dogleg Oriented 
 DLSX.°/30m               1.22:  Dogleg Str Max 
 DRET.      12.59.00 23-Feb-20:  Drill End Time 
 DRST.      09.44.00 18-Feb-20:  Drill Start Tim 
 DTIM.hr                 23.03:  Time Drilling 
 EDEP.m                3473.01:  End Depth 
 ENG1.         Almaz Almadatov:  Engineer 1 
 ENG2.         Dair Mahammadov:  Engineer 2 
 ENG3.          Nazrin Asgarli:  Engineer 3 
 ETIM.      10.33.36 26-Feb-20:  End Time 
 FLOI.gpm               480.00:  Flow In 
 FLON.gpm               300.00:  Flow In Min 
 FLOS.cptm                1.00:  Fluid Loss 
 FLOX.gpm               550.00:  Flow In Max 
 HFLO.                      No:  High Flow 
 HPRE.                      No:  High Pressure 
 HTEM.                      No:  High Temp 
 HYDO.m                   1.80:  Hydro Offset 
 IFIN.deg                74.42:  Inc, Final 
 IMAX.deg                76.14:  Inc Max 
 IMIN.deg                74.42:  Inc Min 
 IMND.m                3462.72:  Inc Min Depth 
 IMXD.m                3235.69:  Inc Max Depth 
 JARR.                      No:  Jarring 
 LETM.      12.59.00 23-Feb-20:  Log End Time 
 LOST.hr                     0:  Lost Rig Time 
 LSTM.      09.44.00 18-Feb-20:  Log Start Time 
 MDCL.ppm             45000.00:  Mud Chlorides 
 MDES.     Inversion Oil/Synthetic:  Mud Desc 
 DFD .sg                  1.38:  Mud Density 
 MDMN.sg                  1.34:  Dens Mud Min 
 MDMX.sg                  1.49:  Dens Mud Max 
 MOIL.                      67:  Run Mud Oil % 
 MOWR.                   67:33:  Run Mud OWR 
 MSND.                    0.12:  Run Mud Sand % 
 MSOL.                      22:  Run Mud Solids% 
 DFV .spqt               81.00:  Mud Viscosity 
 MWOD.in                  6.75:  MWD Tool OD 
 MWSI.                      No:  Serv Intrp, MWD 
 OTIM.hr                231.44:  Time Operating 
 PCON.          Wear / Scratch:  Pad Condition 
 PMAX.psia             3400.00:  Press Op, Max 
 PV  .cP                 55.00:  Mud PV 
 RUN .                     800:  Run Number 
 ROPA.m/hr               12.00:  ROP Avg 
 ROPN.m/hr                5.00:  ROP Min 
 ROPX.m/hr               28.00:  ROP Max 
 RPMA.rpm               120.00:  RPM Surface Avg 
 RPMN.rpm                40.00:  RPM Surface Min 
 RPMX.rpm               130.00:  RPM Surface Max 
 RRUN.                    0800:  Rig Run Number 
 RTIM.hr                 45.00:  Time Reaming 
 SAZI.deg               145.38:  Azm, Start 
 SDEP.m                3219.01:  Start Depth 
 SIDD.                      No:  Serv Intrp, DD 
 SINC.deg                75.11:  Inc, Start 
 SPPA.psig             2400.00:  SPP Avg 
 SPPN.psig             2320.00:  SPP Min 
 SPPX.psig             3200.00:  SPP Max 
 STIM.      15.15.00 17-Feb-20:  Start Time 
 SVCS.                 DD, MWD:  Services 
 SVER.                    9.20:  Sperry Version 
 TDAT.m                 254.00:  Tot Depth Attmp 
 TDDF.                      No:  Trip for DD 
 TDLG.m                 254.00:  Tot Depth Loggd 
 TFF .                      No:  Trip for Fail 
 TQAA.f-kp               13.00:  Torque Abs Avg 
 TQAN.f-kp                7.00:  Torque Abs Min 
 TQAX.f-kp               15.00:  Torque Abs Max 
 TRRT.°/30m               0.21:  Turn Rotating 
 MRT .                  EWR-M5:  Maximum Recorded Temperature 
 TTMX.degC               64.00:  Max Tool Temp 
 VS01.                90586516:  Virtual Str1 SN 
 VS02.                90513691:  Virtual Str2 SN 
 VS03.                90586523:  Virtual Str3 SN 
 VS04.                90586520:  Virtual Str4 SN 
 VS05.                90590507:  Virtual Str5 SN 
 WBMN.klb                12.00:  WOB Min 
 WITN.           Rufat Babayev:  Customer Rep 2 
 WITN.         Alistair Sprott:  Customer Rep 
 WOBA.klb                18.00:  WOB Avg 
 WOBX.klb                30.00:  WOB Max 
 YP  .lhf2               41.00:  Yield Point 
~Curve Information Block
#MNEM.UNIT                 API CODE     Curve Description
#---------               -----------    ---------------------------
 TIME.HHMMSS            00 000 000 000:  GT Time & Date
 GTDEPTH.m              00 000 000 000:  GT Depth
 GTPQH.psia             00 000 000 000:  GT HR Quartz Pressure
 GTTQ.degC              00 000 000 000:  GT Quartz Temperature
 GTTN.NONE              00 000 000 000:  GT Test Number
 GTET.sec               00 000 000 000:  GT Elapsed Test Time
 GTTVD.m                00 000 000 000:  GT True Vertical Depth
#Other Information
#
#WARRANTY: Halliburton will use its best efforts to furnish customers with 
#accurate information and interpretations that are part of, and incident to, the services 
#provided.  However, Halliburton cannot and does not warrant the accuracy 
#or correctness of such information and interpretations.  Under no circumstances should any 
#such information or interpretation be relied upon as the sole basis for any drilling, 
#completion, production, or financial decision or any procedure involving any risk to the 
#safety of any drilling venture, drilling rig or its crew or any other third party.  The 
#Customer has full responsibility for all drilling, completion and production operation.  
#Halliburton makes no representations or warranties, either expressed or 
#implied, including, but not limited to, the implied warranties of merchantability or fitness 
#for a particular purpose, with respect to the services rendered.  In no event will 
#Halliburton be liable for failure to obtain any particular results or for 
#any damages, including, but not limited to, indirect, special or consequential damages, 
#resulting from the use of any information or interpretation provided by Halliburton.
#
~A           TIME           GTDEPTH  GTPQH  GTTQ  GTTN  GTET   GTTVD  
# ...
   03:25:43.262.24-Feb-2020 3366.71 4428.37 55.04 6.00 391.16 2706.89
   03:25:43.462.24-Feb-2020 3366.71 4428.37 55.04 6.00 391.36 2706.89
   03:25:43.662.24-Feb-2020 3366.71 4428.30 55.04 6.00 391.56 2706.89
   03:25:43.862.24-Feb-2020 3366.71 4428.28 55.04 6.00 391.76 2706.89
   03:25:44.062.24-Feb-2020 3366.71 4428.22 55.04 6.00 391.96 2706.89
   03:25:44.263.24-Feb-2020 3366.71 4428.24 55.04 6.00 392.16 2706.89
   03:25:44.463.24-Feb-2020 3366.71 4428.24 55.04 6.00 392.36 2706.89
   03:25:44.663.24-Feb-2020 3366.71 4428.31 55.04 6.00 392.56 2706.89
   03:25:44.863.24-Feb-2020 3366.71 4428.38 55.04 6.00 392.76 2706.89
   03:25:45.063.24-Feb-2020 3366.71 4428.41 55.04 6.00 392.96 2706.89
   03:25:45.263.24-Feb-2020 3366.71 4427.93 55.04 6.00 393.16 2706.89
   03:25:45.463.24-Feb-2020 3366.71 4427.93 55.04 6.00 393.36 2706.89
   03:25:45.663.24-Feb-2020 3366.71 4429.39 55.04 6.00 393.56 2706.89
   03:25:45.863.24-Feb-2020 3366.71 4429.80 55.04 6.00 393.76 2706.89
   03:25:46.063.24-Feb-2020 3366.71 4429.46 55.04 6.00 393.96 2706.89
   03:25:46.263.24-Feb-2020 3366.71 4429.23 55.04 6.00 394.16 2706.89
   03:25:46.463.24-Feb-2020 3366.71 4429.23 55.04 6.00 394.36 2706.89
   03:25:46.663.24-Feb-2020 3366.71 4428.95 55.04 6.00 394.56 2706.89
   03:25:46.864.24-Feb-2020 3366.71 4428.92 55.04 6.00 394.76 2706.89
   03:25:47.064.24-Feb-2020 3366.71 4428.86 55.04 6.00 394.96 2706.89
   03:25:47.264.24-Feb-2020 3366.71 4428.62 55.04 6.00 395.16 2706.89
   03:25:47.464.24-Feb-2020 3366.71 4428.62 55.04 6.00 395.36 2706.89
   03:25:47.664.24-Feb-2020 3366.71 4428.61 55.04 6.00 395.56 2706.89
   03:25:47.864.24-Feb-2020 3366.71 4428.56 55.04 6.00 395.76 2706.89
   03:25:48.064.24-Feb-2020 3366.71 4428.66 55.04 6.00 395.96 2706.89
   03:25:48.264.24-Feb-2020 3366.71 4428.68 55.04 6.00 396.16 2706.89
   03:25:48.464.24-Feb-2020 3366.71 4428.68 55.04 6.00 396.36 2706.89
   03:25:48.664.24-Feb-2020 3366.71 4427.53 55.04 6.00 396.56 2706.89
   03:25:48.864.24-Feb-2020 3366.71 4428.78 55.04 6.00 396.76 2706.89
   03:25:49.064.24-Feb-2020 3366.71 4429.10 55.04 6.00 396.96 2706.89
   03:25:49.265.24-Feb-2020 3366.71 4428.66 55.04 6.00 397.16 2706.89
   03:25:49.465.24-Feb-2020 3366.71 4428.66 55.04 6.00 397.36 2706.89
   03:25:49.665.24-Feb-2020 3366.71 4428.61 55.04 6.00 397.56 2706.89
   03:25:49.865.24-Feb-2020 3366.71 4428.88 55.04 6.00 397.76 2706.89
   03:25:50.065.24-Feb-2020 3366.71 4428.79 55.04 6.00 397.96 2706.89
   03:25:50.265.24-Feb-2020 3366.71 4428.70 55.04 6.00 398.16 2706.89
   03:25:50.465.24-Feb-2020 3366.71 4428.70 55.04 6.00 398.36 2706.89
   03:25:50.665.24-Feb-2020 3366.71 4427.75 55.04 6.00 398.56 2706.89
   03:25:50.865.24-Feb-2020 3366.71 4428.97 55.04 6.00 398.76 2706.89
   03:25:51.065.24-Feb-2020 3366.71 4429.37 55.04 6.00 398.96 2706.89
   03:25:51.265.24-Feb-2020 3366.71 4429.04 55.04 6.00 399.16 2706.89
   03:25:51.465.24-Feb-2020 3366.71 4429.04 55.04 6.00 399.36 2706.89
   03:25:51.665.24-Feb-2020 3366.71 4428.85 55.04 6.00 399.56 2706.89
   03:25:51.866.24-Feb-2020 3366.71 4428.78 55.04 6.00 399.76 2706.89
   03:25:52.066.24-Feb-2020 3366.71 4428.33 55.04 6.00 399.96 2706.89
   03:25:52.266.24-Feb-2020 3366.71 4429.07 55.04 6.00 400.16 2706.89
   03:25:52.466.24-Feb-2020 3366.71 4429.07 55.04 6.00 400.36 2706.89
   03:25:52.666.24-Feb-2020 3366.71 4428.98 55.04 6.00 400.56 2706.89
   03:25:52.866.24-Feb-2020 3366.71 4428.89 55.04 6.00 400.76 2706.89
   03:25:53.066.24-Feb-2020 3366.71 4428.76 55.04 6.00 400.96 2706.89
   03:25:53.266.24-Feb-2020 3366.71 4428.78 55.04 6.00 401.16 2706.89
   03:25:53.466.24-Feb-2020 3366.71 4428.78 55.04 6.00 401.36 2706.89
   03:25:53.666.24-Feb-2020 3366.71 4428.68 55.04 6.00 401.56 2706.89
   03:25:53.866.24-Feb-2020 3366.71 4428.70 55.04 6.00 401.76 2706.89
   03:25:54.066.24-Feb-2020 3366.71 4428.66 55.04 6.00 401.96 2706.89
   03:25:54.267.24-Feb-2020 3366.71 4428.68 55.04 6.00 402.16 2706.89
   03:25:54.467.24-Feb-2020 3366.71 4428.68 55.04 6.00 402.36 2706.89
   03:25:54.667.24-Feb-2020 3366.71 4428.78 55.04 6.00 402.56 2706.89
   03:25:54.867.24-Feb-2020 3366.71 4428.81 55.04 6.00 402.76 2706.89
   03:25:55.067.24-Feb-2020 3366.71 4427.74 55.04 6.00 402.96 2706.89
   03:25:55.267.24-Feb-2020 3366.71 4429.01 55.04 6.00 403.16 2706.89
   03:25:55.467.24-Feb-2020 3366.71 4429.01 55.04 6.00 403.36 2706.89
   03:25:55.667.24-Feb-2020 3366.71 4429.01 55.04 6.00 403.56 2706.89
   03:25:55.867.24-Feb-2020 3366.71 4428.81 55.04 6.00 403.76 2706.89
   03:25:56.067.24-Feb-2020 3366.71 4428.78 55.04 6.00 403.96 2706.89
   03:25:56.267.24-Feb-2020 3366.71 4428.79 55.04 6.00 404.16 2706.89
   03:25:56.467.24-Feb-2020 3366.71 4428.79 55.04 6.00 404.36 2706.89
   03:25:56.667.24-Feb-2020 3366.71 4428.75 55.04 6.00 404.56 2706.89
   03:25:56.868.24-Feb-2020 3366.71 4428.77 55.04 6.00 404.76 2706.89
   03:25:57.068.24-Feb-2020 3366.71 4428.60 55.04 6.00 404.96 2706.89
   03:25:57.268.24-Feb-2020 3366.71 4428.58 55.04 6.00 405.16 2706.89
   03:25:57.468.24-Feb-2020 3366.71 4428.58 55.04 6.00 405.36 2706.89
   03:25:57.668.24-Feb-2020 3366.71 4428.67 55.04 6.00 405.56 2706.89
   03:25:57.868.24-Feb-2020 3366.71 4428.76 55.04 6.00 405.76 2706.89
   03:25:58.068.24-Feb-2020 3366.71 4428.79 55.04 6.00 405.96 2706.89
   03:25:58.268.24-Feb-2020 3366.71 4428.73 55.04 6.00 406.16 2706.89
   03:25:58.468.24-Feb-2020 3366.71 4428.73 55.04 6.00 406.36 2706.89
   03:25:58.668.24-Feb-2020 3366.71 4428.92 55.04 6.00 406.56 2706.89
   03:25:58.868.24-Feb-2020 3366.71 4429.19 55.04 6.00 406.76 2706.89
   03:25:59.068.24-Feb-2020 3366.71 4428.92 55.04 6.00 406.96 2706.89
   03:25:59.269.24-Feb-2020 3366.71 4428.04 55.04 6.00 407.16 2706.89
   03:25:59.469.24-Feb-2020 3366.71 4428.04 55.04 6.00 407.36 2706.89
   03:25:59.669.24-Feb-2020 3366.71 4429.32 55.04 6.00 407.56 2706.89
   03:25:59.869.24-Feb-2020 3366.71 4429.08 55.04 6.00 407.76 2706.89
   03:26:00.069.24-Feb-2020 3366.71 4429.01 55.04 6.00 407.96 2706.89
   03:26:00.269.24-Feb-2020 3366.71 4428.91 55.04 6.00 408.16 2706.89
   03:26:00.469.24-Feb-2020 3366.71 4428.91 55.04 6.00 408.36 2706.89
   03:26:00.669.24-Feb-2020 3366.71 4429.22 55.04 6.00 408.56 2706.89
   03:26:00.869.24-Feb-2020 3366.71 4429.49 55.04 6.00 408.76 2706.89
   03:26:01.069.24-Feb-2020 3366.71 4429.21 55.04 6.00 408.96 2706.89
   03:26:01.269.24-Feb-2020 3366.71 4429.26 55.04 6.00 409.16 2706.89
   03:26:01.469.24-Feb-2020 3366.71 4429.26 55.04 6.00 409.36 2706.89
   03:26:01.669.24-Feb-2020 3366.71 4429.01 55.04 6.00 409.56 2706.89
   03:26:01.870.24-Feb-2020 3366.71 4428.17 55.04 6.00 409.76 2706.89
   03:26:02.070.24-Feb-2020 3366.71 4429.21 55.04 6.00 409.96 2706.89
   03:26:02.270.24-Feb-2020 3366.71 4429.41 55.04 6.00 410.16 2706.89
   03:26:02.470.24-Feb-2020 3366.71 4429.41 55.04 6.00 410.36 2706.89
   03:26:02.670.24-Feb-2020 3366.71 4429.14 55.04 6.00 410.56 2706.89
   03:26:02.870.24-Feb-2020 3366.71 4429.04 55.04 6.00 410.76 2706.89
   03:26:03.070.24-Feb-2020 3366.71 4429.00 55.04 6.00 410.96 2706.89
   03:26:03.270.24-Feb-2020 3366.71 4428.99 55.04 6.00 411.16 2706.89
   03:26:03.470.24-Feb-2020 3366.71 4428.99 55.04 6.00 411.36 2706.89
   03:26:03.670.24-Feb-2020 3366.71 4428.88 55.04 6.00 411.56 2706.89
   03:26:03.870.24-Feb-2020 3366.71 4428.93 55.04 6.00 411.76 2706.89
   03:26:04.070.24-Feb-2020 3366.71 4428.92 55.04 6.00 411.96 2706.89
   03:26:04.271.24-Feb-2020 3366.71 4428.99 55.04 6.00 412.16 2706.89
   03:26:04.471.24-Feb-2020 3366.71 4428.99 55.04 6.00 412.37 2706.89
   03:26:04.671.24-Feb-2020 3366.71 4428.96 55.04 6.00 412.57 2706.89
   03:26:04.871.24-Feb-2020 3366.71 4428.51 55.04 6.00 412.77 2706.89
   03:26:05.071.24-Feb-2020 3366.71 4429.03 55.04 6.00 412.97 2706.89
   03:26:05.271.24-Feb-2020 3366.71 4429.33 55.04 6.00 413.17 2706.89
   03:26:05.471.24-Feb-2020 3366.71 4429.33 55.04 6.00 413.37 2706.89
   03:26:05.671.24-Feb-2020 3366.71 4429.03 55.04 6.00 413.57 2706.89
   03:26:05.871.24-Feb-2020 3366.71 4429.07 55.04 6.00 413.77 2706.89
   03:26:06.071.24-Feb-2020 3366.71 4428.98 55.04 6.00 413.97 2706.89
