~Version Information
 VERS.                  2.0:   CWLS log ASCII Standard -VERSION 2.0
 WRAP.                   NO:   One line per depth step
~Well Information Block
#MNEM.UNIT     VALUE/NAME     DESCRIPTION
#---------     -----------    ---------------------------
 STRT.S             03:19:12 24-Feb-20: START TIME 03:19:12 24-Feb-20
 STOP.S             03:27:48 24-Feb-20: STOP TIME  03:27:48 24-Feb-20
 STEP.S                   0.00: STEP TIME
 NULL.                 -999.25: NULL VALUE
 JOBN.        AZ-XX-0905059384:  JOB TICKET NUMB
 PDAT.          Mean Sea Level:  PERMANENT DATUM
 UNIT.                     N/A:  LOGGING EQUIPMENT ID
 DCON.         Sperry Drilling:  DIRECTNL CONTR
 DOE .                     N/A:  DOE NUMBER
 RIG .             West Chirag:  RIG NAME
 WELL.                     J22:  WELL NAME
 MWDS.                    Baku:  MWD SHOP
 SRVC.     TURAN Drilling & Engineering:  CONTRACTOR
 FLD .                     ACG:  FIELD NAME
 CTRY.              Azerbaijan:  COUNTRY NAME
 PROV.                    Baku:  PROVINCE
 STAT.                    Baku:  STATE NAME
 REGN.                   EESSA:  REGION
 BASE.              Azerbaijan:  LOGGING EQUIPMENT BASE LOCATION
 UWI .                     N/A:  UNIQUE WELL IDENTIFIER
 API .                     N/A:  API NUMBER
 COMP.     BP Exploration (Caspian Sea) Ltd.:  COMPANY
 WTYP.                Deviated:  WELL TYPE
 MDS .        Operator Entered:  MAG DATA SOURCE
 SON .        AZ-XX-0905059384:  JOB NUMBER
 FTOP.          Formation Tops:  FORM TOPS DESC
 ILTD.               Lithology:  INTERP LTH DESC
 SVYD.                  Survey:  SURVEY DESC
 DMOD.             Drill Model:  DRILL MOD DESC
 HPTY.       Minimum Curvature:  HOLE POS TYPE
 NREF.                    Grid:  NORTH REFERENCE
 SPUD.               09-Jan-20:  SPUD DATE
 DATE.      14.04.48 07-Feb-20:  END TIME
 STIM.      07.00.00 09-Jan-20:  START TIME
 DMF .             Drill Floor:  DRILL MEAS FROM
 DFST.                        :  DIST FSL TEXT
 DFWT.                        :  DIST FWL TEXT
 CNTY.                        :  COUNTY
 LOC .                        :  LOCATION
 LMF .             Drill Floor:  LOG MEASURED FROM
 DEP .m                   0.00:  DEPTH
 VSNS.m                  10.28:  VERT SEC N/S
 VSEW.m                  -6.24:  VERT SEC E/W
 AGAP.m                  43.00:  AIR GAP
 APD .m                  43.00:  DEPTH ABOVE PD
 WDMS.m                 169.80:  WD ELEV
 EGL .m                   0.00:  GROUND ELEVATION
 EPD .m                   0.00:  ELEVATION
 AZTC.deg                 6.27:  AZM TOTAL CORR
 GRDC.deg                 0.15:  GRID CORRECTION
 MDEC.deg                 6.42:  MAGNETIC DECL
 MDIP.deg                59.56:  MAGNETIC DIP
 MFLD.nT              50277.00:  MAGNETIC FIELD
 GVFD.g                   1.00:  GRAVITY FIELD
 VSDR.deg               148.53:  VERT SEC DIRECT
 TDD .m                3473.01:  TOTAL DEPTH (DRILLER)
 SDEP.m                 364.00:  START DEPTH
 DFSL.m                   0.00:  DISTANCE FSL
 DFWL.m                   0.00:  DISTANCE FWL
 UTMY.m             4443793.85:  UTM Y
 UTMX.m              519005.06:  UTM X
 WHEW.m                  -6.24:  WELL HEAD E/W
 WHNS.m                  10.28:  WELL HEAD N/S
 LONG.deg                51.22:  LONGITUDE
 LATI.deg                40.13:  LATITUDE
 TVDS.m                  43.00:  TVDSS CORRECTN
 EKB .m                   0.00:  KB ELEVATION
 EDF .m                  43.00:  DF ELEVATION
 TDL .m                 254.00:  TOTAL DEPTH (LOGGER)
 MAGU.                 1850021:  MAGUTM CHECKSUM
 VSC .                       0:  VS TO CLOSURE
~Parameter Information Block
#MNEM.UNIT       Value        Description
#---------     -----------    ---------------------------
 AV  .mps                 0.50:  Ann Velocity 
 AVMX.mps                 1.40:  Max Ann Veloc 
 AZIF.deg               144.94:  Azm, Final 
 BHAT.        Rotary Steerable:  BHA Type 
 BROT.°/30m               0.23:  Build Rotating 
 BS  .in                  8.50:  Bit Size 
 BTPL.psig              264.00:  Bit Press Loss 
 CABU.                     Yes:  Customer Abuse 
 COMM.                     ´á{:  Run Comments 1 
 TCS .hr                 87.30:  Time Ciculation Ended 
 CV  .mps                 2.45:  Crit Velocity 
 CVMX.mps                 2.74:  Max Crit Veloc 
 DD1 .             Aziz Aliyev:  Direct Drillr 1 
 DDSV.               Geo-Pilot:  DD Service 
 DEFF.%                 100.00:  % Det Eff 
 DLRX.°/30m               1.22:  Dogleg Rot Max 
 DLSO.°/30m               0.52:  Dogleg Oriented 
 DLSX.°/30m               1.22:  Dogleg Str Max 
 DRET.      12.59.00 23-Feb-20:  Drill End Time 
 DRST.      09.44.00 18-Feb-20:  Drill Start Tim 
 DTIM.hr                 23.03:  Time Drilling 
 EDEP.m                3473.01:  End Depth 
 ENG1.         Almaz Almadatov:  Engineer 1 
 ENG2.         Dair Mahammadov:  Engineer 2 
 ENG3.          Nazrin Asgarli:  Engineer 3 
 ETIM.      10.33.36 26-Feb-20:  End Time 
 FLOI.gpm               480.00:  Flow In 
 FLON.gpm               300.00:  Flow In Min 
 FLOS.cptm                1.00:  Fluid Loss 
 FLOX.gpm               550.00:  Flow In Max 
 HFLO.                      No:  High Flow 
 HPRE.                      No:  High Pressure 
 HTEM.                      No:  High Temp 
 HYDO.m                   1.80:  Hydro Offset 
 IFIN.deg                74.42:  Inc, Final 
 IMAX.deg                76.14:  Inc Max 
 IMIN.deg                74.42:  Inc Min 
 IMND.m                3462.72:  Inc Min Depth 
 IMXD.m                3235.69:  Inc Max Depth 
 JARR.                      No:  Jarring 
 LETM.      12.59.00 23-Feb-20:  Log End Time 
 LOST.hr                     0:  Lost Rig Time 
 LSTM.      09.44.00 18-Feb-20:  Log Start Time 
 MDCL.ppm             45000.00:  Mud Chlorides 
 MDES.     Inversion Oil/Synthetic:  Mud Desc 
 DFD .sg                  1.38:  Mud Density 
 MDMN.sg                  1.34:  Dens Mud Min 
 MDMX.sg                  1.49:  Dens Mud Max 
 MOIL.                      67:  Run Mud Oil % 
 MOWR.                   67:33:  Run Mud OWR 
 MSND.                    0.12:  Run Mud Sand % 
 MSOL.                      22:  Run Mud Solids% 
 DFV .spqt               81.00:  Mud Viscosity 
 MWOD.in                  6.75:  MWD Tool OD 
 MWSI.                      No:  Serv Intrp, MWD 
 OTIM.hr                231.44:  Time Operating 
 PCON.          Wear / Scratch:  Pad Condition 
 PMAX.psia             3400.00:  Press Op, Max 
 PV  .cP                 55.00:  Mud PV 
 RUN .                     800:  Run Number 
 ROPA.m/hr               12.00:  ROP Avg 
 ROPN.m/hr                5.00:  ROP Min 
 ROPX.m/hr               28.00:  ROP Max 
 RPMA.rpm               120.00:  RPM Surface Avg 
 RPMN.rpm                40.00:  RPM Surface Min 
 RPMX.rpm               130.00:  RPM Surface Max 
 RRUN.                    0800:  Rig Run Number 
 RTIM.hr                 45.00:  Time Reaming 
 SAZI.deg               145.38:  Azm, Start 
 SDEP.m                3219.01:  Start Depth 
 SIDD.                      No:  Serv Intrp, DD 
 SINC.deg                75.11:  Inc, Start 
 SPPA.psig             2400.00:  SPP Avg 
 SPPN.psig             2320.00:  SPP Min 
 SPPX.psig             3200.00:  SPP Max 
 STIM.      15.15.00 17-Feb-20:  Start Time 
 SVCS.                 DD, MWD:  Services 
 SVER.                    9.20:  Sperry Version 
 TDAT.m                 254.00:  Tot Depth Attmp 
 TDDF.                      No:  Trip for DD 
 TDLG.m                 254.00:  Tot Depth Loggd 
 TFF .                      No:  Trip for Fail 
 TQAA.f-kp               13.00:  Torque Abs Avg 
 TQAN.f-kp                7.00:  Torque Abs Min 
 TQAX.f-kp               15.00:  Torque Abs Max 
 TRRT.°/30m               0.21:  Turn Rotating 
 MRT .                  EWR-M5:  Maximum Recorded Temperature 
 TTMX.degC               64.00:  Max Tool Temp 
 VS01.                90586516:  Virtual Str1 SN 
 VS02.                90513691:  Virtual Str2 SN 
 VS03.                90586523:  Virtual Str3 SN 
 VS04.                90586520:  Virtual Str4 SN 
 VS05.                90590507:  Virtual Str5 SN 
 WBMN.klb                12.00:  WOB Min 
 WITN.           Rufat Babayev:  Customer Rep 2 
 WITN.         Alistair Sprott:  Customer Rep 
 WOBA.klb                18.00:  WOB Avg 
 WOBX.klb                30.00:  WOB Max 
 YP  .lhf2               41.00:  Yield Point 
~Curve Information Block
#MNEM.UNIT                 API CODE     Curve Description
#---------               -----------    ---------------------------
 TIME.HHMMSS            00 000 000 000:  GT Time & Date
 GTDEPTH.m              00 000 000 000:  GT Depth
 GTPQH.psia             00 000 000 000:  GT HR Quartz Pressure
 GTTQ.degC              00 000 000 000:  GT Quartz Temperature
 GTTN.NONE              00 000 000 000:  GT Test Number
 GTET.sec               00 000 000 000:  GT Elapsed Test Time
 GTTVD.m                00 000 000 000:  GT True Vertical Depth
#Other Information
#
#WARRANTY: Halliburton will use its best efforts to furnish customers with 
#accurate information and interpretations that are part of, and incident to, the services 
#provided.  However, Halliburton cannot and does not warrant the accuracy 
#or correctness of such information and interpretations.  Under no circumstances should any 
#such information or interpretation be relied upon as the sole basis for any drilling, 
#completion, production, or financial decision or any procedure involving any risk to the 
#safety of any drilling venture, drilling rig or its crew or any other third party.  The 
#Customer has full responsibility for all drilling, completion and production operation.  
#Halliburton makes no representations or warranties, either expressed or 
#implied, including, but not limited to, the implied warranties of merchantability or fitness 
#for a particular purpose, with respect to the services rendered.  In no event will 
#Halliburton be liable for failure to obtain any particular results or for 
#any damages, including, but not limited to, indirect, special or consequential damages, 
#resulting from the use of any information or interpretation provided by Halliburton.
#
~A           TIME           GTDEPTH  GTPQH  GTTQ  GTTN  GTET   GTTVD  
# ...
   03:26:52.290.24-Feb-2020 3366.71 4429.65 55.03 6.00 460.18 2706.89
   03:26:52.490.24-Feb-2020 3366.71 4429.65 55.03 6.00 460.38 2706.89
   03:26:52.690.24-Feb-2020 3366.71 4429.61 55.03 6.00 460.58 2706.89
   03:26:52.890.24-Feb-2020 3366.71 4429.63 55.03 6.00 460.78 2706.89
   03:26:53.090.24-Feb-2020 3366.71 4429.61 55.03 6.00 460.98 2706.89
   03:26:53.290.24-Feb-2020 3366.71 4429.68 55.03 6.00 461.18 2706.89
   03:26:53.490.24-Feb-2020 3366.71 4429.68 55.03 6.00 461.38 2706.89
   03:26:53.690.24-Feb-2020 3366.71 4429.72 55.03 6.00 461.58 2706.89
   03:26:53.890.24-Feb-2020 3366.71 4429.61 55.03 6.00 461.78 2706.89
   03:26:54.090.24-Feb-2020 3366.71 4429.25 55.03 6.00 461.98 2706.89
   03:26:54.291.24-Feb-2020 3366.71 4430.02 55.03 6.00 462.18 2706.89
   03:26:54.491.24-Feb-2020 3366.71 4430.02 55.03 6.00 462.39 2706.89
   03:26:54.691.24-Feb-2020 3366.71 4429.86 55.03 6.00 462.59 2706.89
   03:26:54.891.24-Feb-2020 3366.71 4429.77 55.03 6.00 462.79 2706.89
   03:26:55.091.24-Feb-2020 3366.71 4429.64 55.03 6.00 462.99 2706.89
   03:26:55.291.24-Feb-2020 3366.71 4429.65 55.03 6.00 463.19 2706.89
   03:26:55.491.24-Feb-2020 3366.71 4429.65 55.03 6.00 463.39 2706.89
   03:26:55.691.24-Feb-2020 3366.71 4429.67 55.03 6.00 463.59 2706.89
   03:26:55.891.24-Feb-2020 3366.71 4429.59 55.03 6.00 463.79 2706.89
   03:26:56.091.24-Feb-2020 3366.71 4429.46 55.03 6.00 463.99 2706.89
   03:26:56.291.24-Feb-2020 3366.71 4429.53 55.03 6.00 464.19 2706.89
   03:26:56.491.24-Feb-2020 3366.71 4429.53 55.03 6.00 464.39 2706.89
   03:26:56.691.24-Feb-2020 3366.71 4429.60 55.03 6.00 464.59 2706.89
   03:26:56.892.24-Feb-2020 3366.71 4429.64 55.03 6.00 464.79 2706.89
   03:26:57.092.24-Feb-2020 3366.71 4429.70 55.03 6.00 464.99 2706.89
   03:26:57.292.24-Feb-2020 3366.71 4429.17 55.03 6.00 465.19 2706.89
   03:26:57.492.24-Feb-2020 3366.71 4429.17 55.03 6.00 465.39 2706.89
   03:26:57.692.24-Feb-2020 3366.71 4429.90 55.03 6.00 465.59 2706.89
   03:26:57.892.24-Feb-2020 3366.71 4429.74 55.03 6.00 465.79 2706.89
   03:26:58.092.24-Feb-2020 3366.71 4429.31 55.03 6.00 465.99 2706.89
   03:26:58.292.24-Feb-2020 3366.71 4429.77 55.03 6.00 466.19 2706.89
   03:26:58.492.24-Feb-2020 3366.71 4429.77 55.03 6.00 466.39 2706.89
   03:26:58.692.24-Feb-2020 3366.71 4429.79 55.03 6.00 466.59 2706.89
   03:26:58.892.24-Feb-2020 3366.71 4429.73 55.03 6.00 466.79 2706.89
   03:26:59.092.24-Feb-2020 3366.71 4429.81 55.03 6.00 466.99 2706.89
   03:26:59.293.24-Feb-2020 3366.71 4429.74 55.03 6.00 467.19 2706.89
   03:26:59.493.24-Feb-2020 3366.71 4429.74 55.03 6.00 467.39 2706.89
   03:26:59.693.24-Feb-2020 3366.71 4430.03 55.03 6.00 467.59 2706.89
   03:26:59.893.24-Feb-2020 3366.71 4429.94 55.03 6.00 467.79 2706.89
   03:27:00.093.24-Feb-2020 3366.71 4430.11 55.03 6.00 467.99 2706.89
   03:27:00.293.24-Feb-2020 3366.71 4430.02 55.03 6.00 468.19 2706.89
   03:27:00.493.24-Feb-2020 3366.71 4430.02 55.03 6.00 468.39 2706.89
   03:27:00.693.24-Feb-2020 3366.71 4428.92 55.03 6.00 468.59 2706.89
   03:27:00.893.24-Feb-2020 3366.71 4430.09 55.03 6.00 468.79 2706.89
   03:27:01.093.24-Feb-2020 3366.71 4430.47 55.03 6.00 468.99 2706.89
   03:27:01.293.24-Feb-2020 3366.71 4429.98 55.03 6.00 469.19 2706.89
   03:27:01.493.24-Feb-2020 3366.71 4429.98 55.03 6.00 469.39 2706.89
   03:27:01.693.24-Feb-2020 3366.71 4429.92 55.03 6.00 469.59 2706.89
   03:27:01.894.24-Feb-2020 3366.71 4429.84 55.03 6.00 469.79 2706.89
   03:27:02.094.24-Feb-2020 3366.71 4429.77 55.03 6.00 469.99 2706.89
   03:27:02.294.24-Feb-2020 3366.71 4429.72 55.03 6.00 470.19 2706.89
   03:27:02.494.24-Feb-2020 3366.71 4429.72 55.03 6.00 470.39 2706.89
   03:27:02.694.24-Feb-2020 3366.71 4378.85 55.03 6.00 470.59 2706.89
   03:27:02.894.24-Feb-2020 3366.71 4479.08 55.03 6.00 470.79 2706.89
   03:27:03.094.24-Feb-2020 3366.71 4640.23 55.03 6.00 470.99 2706.89
   03:27:03.294.24-Feb-2020 3366.71 5285.95 55.03 6.00 471.19 2706.89
   03:27:03.494.24-Feb-2020 3366.71 5285.95 55.03 6.00 471.39 2706.89
   03:27:03.694.24-Feb-2020 3366.71 5705.41 55.03 6.00 471.59 2706.89
   03:27:03.894.24-Feb-2020 3366.71 5707.19 55.03 6.00 471.79 2706.89
   03:27:04.094.24-Feb-2020 3366.71 5704.91 55.03 6.00 471.99 2706.89
   03:27:04.295.24-Feb-2020 3366.71 5707.47 55.03 6.00 472.19 2706.89
   03:27:04.495.24-Feb-2020 3366.71 5707.47 55.03 6.00 472.39 2706.89
   03:27:04.695.24-Feb-2020 3366.71 5705.82 55.03 6.00 472.59 2706.89
   03:27:04.895.24-Feb-2020 3366.71 5705.48 55.03 6.00 472.79 2706.89
   03:27:05.095.24-Feb-2020 3366.71 5705.44 55.03 6.00 472.99 2706.89
   03:27:05.295.24-Feb-2020 3366.71 5706.18 55.03 6.00 473.19 2706.89
   03:27:05.495.24-Feb-2020 3366.71 5706.18 55.03 6.00 473.39 2706.89
   03:27:05.695.24-Feb-2020 3366.71 5707.05 55.03 6.00 473.59 2706.89
   03:27:05.895.24-Feb-2020 3366.71 5706.14 55.03 6.00 473.79 2706.89
   03:27:06.095.24-Feb-2020 3366.71 5705.96 55.03 6.00 473.99 2706.89
   03:27:06.295.24-Feb-2020 3366.71 5706.19 55.04 6.00 474.19 2706.89
   03:27:06.495.24-Feb-2020 3366.71 5706.19 55.04 6.00 474.39 2706.89
   03:27:06.695.24-Feb-2020 3366.71 5707.68 55.04 6.00 474.59 2706.89
   03:27:06.896.24-Feb-2020 3366.71 5708.00 55.04 6.00 474.79 2706.89
   03:27:07.096.24-Feb-2020 3366.71 5708.62 55.04 6.00 474.99 2706.89
   03:27:07.296.24-Feb-2020 3366.71 5708.47 55.04 6.00 475.19 2706.89
   03:27:07.496.24-Feb-2020 3366.71 5708.47 55.04 6.00 475.39 2706.89
   03:27:07.696.24-Feb-2020 3366.71 5708.54 55.04 6.00 475.59 2706.89
   03:27:07.896.24-Feb-2020 3366.71 5708.32 55.04 6.00 475.79 2706.89
   03:27:08.096.24-Feb-2020 3366.71 5708.93 55.04 6.00 475.99 2706.89
   03:27:08.296.24-Feb-2020 3366.71 5707.83 55.04 6.00 476.19 2706.89
   03:27:08.496.24-Feb-2020 3366.71 5709.00 55.04 6.00 476.39 2706.89
   03:27:08.696.24-Feb-2020 3366.71 5707.62 55.04 6.00 476.59 2706.89
   03:27:08.896.24-Feb-2020 3366.71 5707.88 55.04 6.00 476.79 2706.89
   03:27:09.096.24-Feb-2020 3366.71 5707.58 55.05 6.00 476.99 2706.89
   03:27:09.297.24-Feb-2020 3366.71 5710.06 55.05 6.00 477.19 2706.89
   03:27:09.497.24-Feb-2020 3366.71 5707.56 55.05 6.00 477.39 2706.89
   03:27:09.697.24-Feb-2020 3366.71 5709.98 55.05 6.00 477.59 2706.89
   03:27:09.897.24-Feb-2020 3366.71 5708.70 55.05 6.00 477.79 2706.89
   03:27:10.097.24-Feb-2020 3366.71 5709.03 55.05 6.00 477.99 2706.89
   03:27:10.297.24-Feb-2020 3366.71 5708.16 55.05 6.00 478.19 2706.89
   03:27:10.497.24-Feb-2020 3366.71 5708.16 55.05 6.00 478.39 2706.89
   03:27:10.697.24-Feb-2020 3366.71 5707.34 55.05 6.00 478.59 2706.89
   03:27:10.897.24-Feb-2020 3366.71 5708.89 55.05 6.00 478.79 2706.89
   03:27:11.097.24-Feb-2020 3366.71 5708.62 55.05 6.00 478.99 2706.89
   03:27:11.297.24-Feb-2020 3366.71 5707.45 55.05 6.00 479.19 2706.89
   03:27:11.497.24-Feb-2020 3366.71 5708.04 55.05 6.00 479.39 2706.89
   03:27:11.697.24-Feb-2020 3366.71 5707.46 55.05 6.00 479.59 2706.89
   03:27:11.898.24-Feb-2020 3366.71 5707.67 55.05 6.00 479.79 2706.89
   03:27:12.098.24-Feb-2020 3366.71 5707.49 55.05 6.00 479.99 2706.89
   03:27:12.298.24-Feb-2020 3366.71 5707.66 55.05 6.00 480.19 2706.89
   03:27:12.498.24-Feb-2020 3366.71 5707.66 55.05 6.00 480.39 2706.89
   03:27:12.698.24-Feb-2020 3366.71 5707.36 55.05 6.00 480.59 2706.89
   03:27:12.898.24-Feb-2020 3366.71 5707.85 55.05 6.00 480.79 2706.89
   03:27:13.098.24-Feb-2020 3366.71 5708.51 55.05 6.00 480.99 2706.89
   03:27:13.298.24-Feb-2020 3366.71 5708.87 55.05 6.00 481.19 2706.89
   03:27:13.498.24-Feb-2020 3366.71 5708.87 55.05 6.00 481.39 2706.89
   03:27:13.698.24-Feb-2020 3366.71 5710.65 55.05 6.00 481.59 2706.89
   03:27:13.898.24-Feb-2020 3366.71 5707.09 55.05 6.00 481.79 2706.89
   03:27:14.098.24-Feb-2020 3366.71 5707.09 55.05 6.00 481.99 2706.89
   03:27:14.299.24-Feb-2020 3366.71 5708.55 55.05 6.00 482.19 2706.89
   03:27:14.499.24-Feb-2020 3366.71 5707.62 55.05 6.00 482.39 2706.89
   03:27:14.699.24-Feb-2020 3366.71 5707.35 55.05 6.00 482.59 2706.89
   03:27:14.899.24-Feb-2020 3366.71 5707.02 55.05 6.00 482.79 2706.89
   03:27:15.099.24-Feb-2020 3366.71 5707.35 55.05 6.00 482.99 2706.89
