~Version Information
 VERS.                  2.0:   CWLS log ASCII Standard -VERSION 2.0
 WRAP.                   NO:   One line per depth step
~Well Information Block
#MNEM.UNIT     VALUE/NAME     DESCRIPTION
#---------     -----------    ---------------------------
 STRT.S             01:46:16 24-Feb-20: START TIME 01:46:16 24-Feb-20
 STOP.S             01:53:27 24-Feb-20: STOP TIME  01:53:27 24-Feb-20
 STEP.S                   0.00: STEP TIME
 NULL.                 -999.25: NULL VALUE
 JOBN.        AZ-XX-0905059384:  JOB TICKET NUMB
 PDAT.          Mean Sea Level:  PERMANENT DATUM
 UNIT.                     N/A:  LOGGING EQUIPMENT ID
 DCON.         Sperry Drilling:  DIRECTNL CONTR
 DOE .                     N/A:  DOE NUMBER
 RIG .             West Chirag:  RIG NAME
 WELL.                     J22:  WELL NAME
 MWDS.                    Baku:  MWD SHOP
 SRVC.     TURAN Drilling & Engineering:  CONTRACTOR
 FLD .                     ACG:  FIELD NAME
 CTRY.              Azerbaijan:  COUNTRY NAME
 PROV.                    Baku:  PROVINCE
 STAT.                    Baku:  STATE NAME
 REGN.                   EESSA:  REGION
 BASE.              Azerbaijan:  LOGGING EQUIPMENT BASE LOCATION
 UWI .                     N/A:  UNIQUE WELL IDENTIFIER
 API .                     N/A:  API NUMBER
 COMP.     BP Exploration (Caspian Sea) Ltd.:  COMPANY
 WTYP.                Deviated:  WELL TYPE
 MDS .        Operator Entered:  MAG DATA SOURCE
 SON .        AZ-XX-0905059384:  JOB NUMBER
 FTOP.          Formation Tops:  FORM TOPS DESC
 ILTD.               Lithology:  INTERP LTH DESC
 SVYD.                  Survey:  SURVEY DESC
 DMOD.             Drill Model:  DRILL MOD DESC
 HPTY.       Minimum Curvature:  HOLE POS TYPE
 NREF.                    Grid:  NORTH REFERENCE
 SPUD.               09-Jan-20:  SPUD DATE
 DATE.      14.04.48 07-Feb-20:  END TIME
 STIM.      07.00.00 09-Jan-20:  START TIME
 DMF .             Drill Floor:  DRILL MEAS FROM
 DFST.                        :  DIST FSL TEXT
 DFWT.                        :  DIST FWL TEXT
 CNTY.                        :  COUNTY
 LOC .                        :  LOCATION
 LMF .             Drill Floor:  LOG MEASURED FROM
 DEP .m                   0.00:  DEPTH
 VSNS.m                  10.28:  VERT SEC N/S
 VSEW.m                  -6.24:  VERT SEC E/W
 AGAP.m                  43.00:  AIR GAP
 APD .m                  43.00:  DEPTH ABOVE PD
 WDMS.m                 169.80:  WD ELEV
 EGL .m                   0.00:  GROUND ELEVATION
 EPD .m                   0.00:  ELEVATION
 AZTC.deg                 6.27:  AZM TOTAL CORR
 GRDC.deg                 0.15:  GRID CORRECTION
 MDEC.deg                 6.42:  MAGNETIC DECL
 MDIP.deg                59.56:  MAGNETIC DIP
 MFLD.nT              50277.00:  MAGNETIC FIELD
 GVFD.g                   1.00:  GRAVITY FIELD
 VSDR.deg               148.53:  VERT SEC DIRECT
 TDD .m                3473.01:  TOTAL DEPTH (DRILLER)
 SDEP.m                 364.00:  START DEPTH
 DFSL.m                   0.00:  DISTANCE FSL
 DFWL.m                   0.00:  DISTANCE FWL
 UTMY.m             4443793.85:  UTM Y
 UTMX.m              519005.06:  UTM X
 WHEW.m                  -6.24:  WELL HEAD E/W
 WHNS.m                  10.28:  WELL HEAD N/S
 LONG.deg                51.22:  LONGITUDE
 LATI.deg                40.13:  LATITUDE
 TVDS.m                  43.00:  TVDSS CORRECTN
 EKB .m                   0.00:  KB ELEVATION
 EDF .m                  43.00:  DF ELEVATION
 TDL .m                 254.00:  TOTAL DEPTH (LOGGER)
 MAGU.                 1850021:  MAGUTM CHECKSUM
 VSC .                       0:  VS TO CLOSURE
~Parameter Information Block
#MNEM.UNIT       Value        Description
#---------     -----------    ---------------------------
 AV  .mps                 0.50:  Ann Velocity 
 AVMX.mps                 1.40:  Max Ann Veloc 
 AZIF.deg               144.94:  Azm, Final 
 BHAT.        Rotary Steerable:  BHA Type 
 BROT.°/30m               0.23:  Build Rotating 
 BS  .in                  8.50:  Bit Size 
 BTPL.psig              264.00:  Bit Press Loss 
 CABU.                     Yes:  Customer Abuse 
 COMM.                     $æx:  Run Comments 1 
 TCS .hr                 87.30:  Time Ciculation Ended 
 CV  .mps                 2.45:  Crit Velocity 
 CVMX.mps                 2.74:  Max Crit Veloc 
 DD1 .             Aziz Aliyev:  Direct Drillr 1 
 DDSV.               Geo-Pilot:  DD Service 
 DEFF.%                 100.00:  % Det Eff 
 DLRX.°/30m               1.22:  Dogleg Rot Max 
 DLSO.°/30m               0.52:  Dogleg Oriented 
 DLSX.°/30m               1.22:  Dogleg Str Max 
 DRET.      12.59.00 23-Feb-20:  Drill End Time 
 DRST.      09.44.00 18-Feb-20:  Drill Start Tim 
 DTIM.hr                 23.03:  Time Drilling 
 EDEP.m                3473.01:  End Depth 
 ENG1.         Almaz Almadatov:  Engineer 1 
 ENG2.         Dair Mahammadov:  Engineer 2 
 ENG3.          Nazrin Asgarli:  Engineer 3 
 ETIM.      10.33.36 26-Feb-20:  End Time 
 FLOI.gpm               480.00:  Flow In 
 FLON.gpm               300.00:  Flow In Min 
 FLOS.cptm                1.00:  Fluid Loss 
 FLOX.gpm               550.00:  Flow In Max 
 HFLO.                      No:  High Flow 
 HPRE.                      No:  High Pressure 
 HTEM.                      No:  High Temp 
 HYDO.m                   1.80:  Hydro Offset 
 IFIN.deg                74.42:  Inc, Final 
 IMAX.deg                76.14:  Inc Max 
 IMIN.deg                74.42:  Inc Min 
 IMND.m                3462.72:  Inc Min Depth 
 IMXD.m                3235.69:  Inc Max Depth 
 JARR.                      No:  Jarring 
 LETM.      12.59.00 23-Feb-20:  Log End Time 
 LOST.hr                     0:  Lost Rig Time 
 LSTM.      09.44.00 18-Feb-20:  Log Start Time 
 MDCL.ppm             45000.00:  Mud Chlorides 
 MDES.     Inversion Oil/Synthetic:  Mud Desc 
 DFD .sg                  1.38:  Mud Density 
 MDMN.sg                  1.34:  Dens Mud Min 
 MDMX.sg                  1.49:  Dens Mud Max 
 MOIL.                      67:  Run Mud Oil % 
 MOWR.                   67:33:  Run Mud OWR 
 MSND.                    0.12:  Run Mud Sand % 
 MSOL.                      22:  Run Mud Solids% 
 DFV .spqt               81.00:  Mud Viscosity 
 MWOD.in                  6.75:  MWD Tool OD 
 MWSI.                      No:  Serv Intrp, MWD 
 OTIM.hr                231.44:  Time Operating 
 PCON.          Wear / Scratch:  Pad Condition 
 PMAX.psia             3400.00:  Press Op, Max 
 PV  .cP                 55.00:  Mud PV 
 RUN .                     800:  Run Number 
 ROPA.m/hr               12.00:  ROP Avg 
 ROPN.m/hr                5.00:  ROP Min 
 ROPX.m/hr               28.00:  ROP Max 
 RPMA.rpm               120.00:  RPM Surface Avg 
 RPMN.rpm                40.00:  RPM Surface Min 
 RPMX.rpm               130.00:  RPM Surface Max 
 RRUN.                    0800:  Rig Run Number 
 RTIM.hr                 45.00:  Time Reaming 
 SAZI.deg               145.38:  Azm, Start 
 SDEP.m                3219.01:  Start Depth 
 SIDD.                      No:  Serv Intrp, DD 
 SINC.deg                75.11:  Inc, Start 
 SPPA.psig             2400.00:  SPP Avg 
 SPPN.psig             2320.00:  SPP Min 
 SPPX.psig             3200.00:  SPP Max 
 STIM.      15.15.00 17-Feb-20:  Start Time 
 SVCS.                 DD, MWD:  Services 
 SVER.                    9.20:  Sperry Version 
 TDAT.m                 254.00:  Tot Depth Attmp 
 TDDF.                      No:  Trip for DD 
 TDLG.m                 254.00:  Tot Depth Loggd 
 TFF .                      No:  Trip for Fail 
 TQAA.f-kp               13.00:  Torque Abs Avg 
 TQAN.f-kp                7.00:  Torque Abs Min 
 TQAX.f-kp               15.00:  Torque Abs Max 
 TRRT.°/30m               0.21:  Turn Rotating 
 MRT .                  EWR-M5:  Maximum Recorded Temperature 
 TTMX.degC               64.00:  Max Tool Temp 
 VS01.                90586516:  Virtual Str1 SN 
 VS02.                90513691:  Virtual Str2 SN 
 VS03.                90586523:  Virtual Str3 SN 
 VS04.                90586520:  Virtual Str4 SN 
 VS05.                90590507:  Virtual Str5 SN 
 WBMN.klb                12.00:  WOB Min 
 WITN.           Rufat Babayev:  Customer Rep 2 
 WITN.         Alistair Sprott:  Customer Rep 
 WOBA.klb                18.00:  WOB Avg 
 WOBX.klb                30.00:  WOB Max 
 YP  .lhf2               41.00:  Yield Point 
~Curve Information Block
#MNEM.UNIT                 API CODE     Curve Description
#---------               -----------    ---------------------------
 TIME.HHMMSS            00 000 000 000:  GT Time & Date
 GTDEPTH.m              00 000 000 000:  GT Depth
 GTPQH.psia             00 000 000 000:  GT HR Quartz Pressure
 GTTQ.degC              00 000 000 000:  GT Quartz Temperature
 GTTN.NONE              00 000 000 000:  GT Test Number
 GTET.sec               00 000 000 000:  GT Elapsed Test Time
 GTTVD.m                00 000 000 000:  GT True Vertical Depth
#Other Information
#
#WARRANTY: Halliburton will use its best efforts to furnish customers with 
#accurate information and interpretations that are part of, and incident to, the services 
#provided.  However, Halliburton cannot and does not warrant the accuracy 
#or correctness of such information and interpretations.  Under no circumstances should any 
#such information or interpretation be relied upon as the sole basis for any drilling, 
#completion, production, or financial decision or any procedure involving any risk to the 
#safety of any drilling venture, drilling rig or its crew or any other third party.  The 
#Customer has full responsibility for all drilling, completion and production operation.  
#Halliburton makes no representations or warranties, either expressed or 
#implied, including, but not limited to, the implied warranties of merchantability or fitness 
#for a particular purpose, with respect to the services rendered.  In no event will 
#Halliburton be liable for failure to obtain any particular results or for 
#any damages, including, but not limited to, indirect, special or consequential damages, 
#resulting from the use of any information or interpretation provided by Halliburton.
#
~A           TIME           GTDEPTH  GTPQH  GTTQ  GTTN  GTET   GTTVD  
# ...
   01:48:57.447.24-Feb-2020 3392.01 4202.36 55.92 4.00 161.03 2713.39
   01:48:57.647.24-Feb-2020 3392.01 4202.36 55.92 4.00 161.23 2713.39
   01:48:57.847.24-Feb-2020 3392.01 4202.54 55.92 4.00 161.43 2713.39
   01:48:58.047.24-Feb-2020 3392.01 4202.79 55.92 4.00 161.63 2713.39
   01:48:58.247.24-Feb-2020 3392.01 4206.37 55.92 4.00 161.83 2713.39
   01:48:58.447.24-Feb-2020 3392.01 4207.16 55.92 4.00 162.03 2713.39
   01:48:58.647.24-Feb-2020 3392.01 4207.16 55.92 4.00 162.23 2713.39
   01:48:58.847.24-Feb-2020 3392.01 4204.62 55.92 4.00 162.43 2713.39
   01:48:59.047.24-Feb-2020 3392.01 4203.27 55.92 4.00 162.63 2713.39
   01:48:59.247.24-Feb-2020 3392.01 4203.18 55.92 4.00 162.83 2713.39
   01:48:59.447.24-Feb-2020 3392.01 4203.04 55.92 4.00 163.03 2713.39
   01:48:59.647.24-Feb-2020 3392.01 4203.04 55.92 4.00 163.23 2713.39
   01:48:59.847.24-Feb-2020 3392.01 4203.08 55.92 4.00 163.43 2713.39
   01:49:00.047.24-Feb-2020 3392.01 4203.11 55.92 4.00 163.63 2713.39
   01:49:00.247.24-Feb-2020 3392.01 4203.11 55.92 4.00 163.83 2713.39
   01:49:00.447.24-Feb-2020 3392.01 4203.09 55.92 4.00 164.03 2713.39
   01:49:00.648.24-Feb-2020 3392.01 4203.09 55.92 4.00 164.23 2713.39
   01:49:00.848.24-Feb-2020 3392.01 4203.16 55.92 4.00 164.43 2713.39
   01:49:01.048.24-Feb-2020 3392.01 4203.20 55.92 4.00 164.63 2713.39
   01:49:01.248.24-Feb-2020 3392.01 4203.19 55.92 4.00 164.83 2713.39
   01:49:01.448.24-Feb-2020 3392.01 4203.23 55.92 4.00 165.03 2713.39
   01:49:01.648.24-Feb-2020 3392.01 4203.23 55.92 4.00 165.23 2713.39
   01:49:01.848.24-Feb-2020 3392.01 4203.43 55.92 4.00 165.43 2713.39
   01:49:02.048.24-Feb-2020 3392.01 4203.28 55.92 4.00 165.63 2713.39
   01:49:02.248.24-Feb-2020 3392.01 4203.28 55.92 4.00 165.83 2713.39
   01:49:02.448.24-Feb-2020 3392.01 4203.46 55.92 4.00 166.03 2713.39
   01:49:02.648.24-Feb-2020 3392.01 4203.51 55.92 4.00 166.23 2713.39
   01:49:02.848.24-Feb-2020 3392.01 4203.17 55.92 4.00 166.43 2713.39
   01:49:03.048.24-Feb-2020 3392.01 4203.51 55.92 4.00 166.63 2713.39
   01:49:03.248.24-Feb-2020 3392.01 4203.50 55.92 4.00 166.83 2713.39
   01:49:03.448.24-Feb-2020 3392.01 4203.43 55.92 4.00 167.03 2713.39
   01:49:03.648.24-Feb-2020 3392.01 4203.43 55.92 4.00 167.23 2713.39
   01:49:03.848.24-Feb-2020 3392.01 4203.51 55.92 4.00 167.43 2713.39
   01:49:04.048.24-Feb-2020 3392.01 4203.45 55.92 4.00 167.63 2713.39
   01:49:04.248.24-Feb-2020 3392.01 4203.53 55.92 4.00 167.83 2713.39
   01:49:04.448.24-Feb-2020 3392.01 4203.73 55.92 4.00 168.04 2713.39
   01:49:04.648.24-Feb-2020 3392.01 4203.59 55.92 4.00 168.24 2713.39
   01:49:04.848.24-Feb-2020 3392.01 4203.59 55.92 4.00 168.44 2713.39
   01:49:05.048.24-Feb-2020 3392.01 4203.46 55.92 4.00 168.64 2713.39
   01:49:05.248.24-Feb-2020 3392.01 4203.89 55.92 4.00 168.84 2713.39
   01:49:05.449.24-Feb-2020 3392.01 4203.69 55.92 4.00 169.04 2713.39
   01:49:05.649.24-Feb-2020 3392.01 4203.71 55.92 4.00 169.24 2713.39
   01:49:05.849.24-Feb-2020 3392.01 4203.76 55.92 4.00 169.44 2713.39
   01:49:06.049.24-Feb-2020 3392.01 4203.79 55.92 4.00 169.64 2713.39
   01:49:06.249.24-Feb-2020 3392.01 4207.14 55.92 4.00 169.84 2713.39
   01:49:06.449.24-Feb-2020 3392.01 4211.54 55.92 4.00 170.04 2713.39
   01:49:06.649.24-Feb-2020 3392.01 4211.59 55.92 4.00 170.24 2713.39
   01:49:06.849.24-Feb-2020 3392.01 4211.60 55.92 4.00 170.44 2713.39
   01:49:07.049.24-Feb-2020 3392.01 4211.60 55.92 4.00 170.64 2713.39
   01:49:07.249.24-Feb-2020 3392.01 4211.60 55.92 4.00 170.84 2713.39
   01:49:07.449.24-Feb-2020 3392.01 4211.60 55.92 4.00 171.04 2713.39
   01:49:07.649.24-Feb-2020 3392.01 4211.63 55.92 4.00 171.24 2713.39
   01:49:07.849.24-Feb-2020 3392.01 4211.63 55.92 4.00 171.44 2713.39
   01:49:08.049.24-Feb-2020 3392.01 4211.71 55.92 4.00 171.64 2713.39
   01:49:08.249.24-Feb-2020 3392.01 4211.53 55.92 4.00 171.84 2713.39
   01:49:08.449.24-Feb-2020 3392.01 4211.69 55.92 4.00 172.04 2713.39
   01:49:08.649.24-Feb-2020 3392.01 4211.69 55.92 4.00 172.24 2713.39
   01:49:08.849.24-Feb-2020 3392.01 4211.62 55.92 4.00 172.44 2713.39
   01:49:09.049.24-Feb-2020 3392.01 4211.64 55.92 4.00 172.64 2713.39
   01:49:09.249.24-Feb-2020 3392.01 4211.62 55.92 4.00 172.84 2713.39
   01:49:09.449.24-Feb-2020 3392.01 4211.63 55.92 4.00 173.04 2713.39
   01:49:09.649.24-Feb-2020 3392.01 4211.64 55.92 4.00 173.24 2713.39
   01:49:09.849.24-Feb-2020 3392.01 4211.64 55.91 4.00 173.44 2713.39
   01:49:10.049.24-Feb-2020 3392.01 4211.65 55.92 4.00 173.64 2713.39
   01:49:10.250.24-Feb-2020 3392.01 4211.65 55.91 4.00 173.84 2713.39
   01:49:10.450.24-Feb-2020 3392.01 4211.63 55.91 4.00 174.04 2713.39
   01:49:10.650.24-Feb-2020 3392.01 4211.63 55.91 4.00 174.24 2713.39
   01:49:10.850.24-Feb-2020 3392.01 4211.66 55.91 4.00 174.44 2713.39
   01:49:11.050.24-Feb-2020 3392.01 4211.64 55.91 4.00 174.64 2713.39
   01:49:11.250.24-Feb-2020 3392.01 4211.65 55.91 4.00 174.84 2713.39
   01:49:11.450.24-Feb-2020 3392.01 4211.59 55.91 4.00 175.04 2713.39
   01:49:11.650.24-Feb-2020 3392.01 4211.59 55.91 4.00 175.24 2713.39
   01:49:11.850.24-Feb-2020 3392.01 4211.62 55.91 4.00 175.44 2713.39
   01:49:12.050.24-Feb-2020 3392.01 4211.61 55.91 4.00 175.64 2713.39
   01:49:12.250.24-Feb-2020 3392.01 4211.66 55.91 4.00 175.84 2713.39
   01:49:12.450.24-Feb-2020 3392.01 4211.63 55.91 4.00 176.04 2713.39
   01:49:12.650.24-Feb-2020 3392.01 4211.63 55.91 4.00 176.24 2713.39
   01:49:12.850.24-Feb-2020 3392.01 4211.69 55.91 4.00 176.44 2713.39
   01:49:13.050.24-Feb-2020 3392.01 4211.62 55.91 4.00 176.64 2713.39
   01:49:13.250.24-Feb-2020 3392.01 4211.66 55.91 4.00 176.84 2713.39
   01:49:13.450.24-Feb-2020 3392.01 4211.66 55.91 4.00 177.04 2713.39
   01:49:13.650.24-Feb-2020 3392.01 4211.66 55.91 4.00 177.24 2713.39
   01:49:13.850.24-Feb-2020 3392.01 4211.77 55.91 4.00 177.44 2713.39
   01:49:14.050.24-Feb-2020 3392.01 4211.63 55.91 4.00 177.64 2713.39
   01:49:14.250.24-Feb-2020 3392.01 4211.62 55.91 4.00 177.84 2713.39
   01:49:14.450.24-Feb-2020 3392.01 4211.64 55.91 4.00 178.04 2713.39
   01:49:14.650.24-Feb-2020 3392.01 4211.64 55.91 4.00 178.24 2713.39
   01:49:14.850.24-Feb-2020 3392.01 4211.57 55.91 4.00 178.44 2713.39
   01:49:15.051.24-Feb-2020 3392.01 4211.65 55.91 4.00 178.64 2713.39
   01:49:15.251.24-Feb-2020 3392.01 4211.66 55.91 4.00 178.84 2713.39
   01:49:15.451.24-Feb-2020 3392.01 4211.65 55.91 4.00 179.04 2713.39
   01:49:15.651.24-Feb-2020 3392.01 4211.65 55.91 4.00 179.24 2713.39
   01:49:15.851.24-Feb-2020 3392.01 4211.64 55.91 4.00 179.44 2713.39
   01:49:16.051.24-Feb-2020 3392.01 4211.64 55.91 4.00 179.64 2713.39
   01:49:16.251.24-Feb-2020 3392.01 4211.65 55.91 4.00 179.84 2713.39
   01:49:16.451.24-Feb-2020 3392.01 4211.64 55.91 4.00 180.04 2713.39
   01:49:16.651.24-Feb-2020 3392.01 4211.64 55.91 4.00 180.24 2713.39
   01:49:16.851.24-Feb-2020 3392.01 4211.64 55.91 4.00 180.44 2713.39
   01:49:17.051.24-Feb-2020 3392.01 4211.64 55.91 4.00 180.64 2713.39
   01:49:17.251.24-Feb-2020 3392.01 4211.65 55.91 4.00 180.84 2713.39
   01:49:17.451.24-Feb-2020 3392.01 4211.65 55.91 4.00 181.04 2713.39
   01:49:17.651.24-Feb-2020 3392.01 4211.65 55.91 4.00 181.24 2713.39
   01:49:17.851.24-Feb-2020 3392.01 4211.65 55.91 4.00 181.44 2713.39
   01:49:18.051.24-Feb-2020 3392.01 4211.68 55.91 4.00 181.64 2713.39
   01:49:18.251.24-Feb-2020 3392.01 4211.63 55.91 4.00 181.84 2713.39
   01:49:18.451.24-Feb-2020 3392.01 4211.65 55.91 4.00 182.04 2713.39
   01:49:18.651.24-Feb-2020 3392.01 4211.65 55.91 4.00 182.24 2713.39
   01:49:18.851.24-Feb-2020 3392.01 4211.63 55.91 4.00 182.44 2713.39
   01:49:19.051.24-Feb-2020 3392.01 4211.64 55.91 4.00 182.64 2713.39
   01:49:19.251.24-Feb-2020 3392.01 4211.64 55.91 4.00 182.84 2713.39
   01:49:19.451.24-Feb-2020 3392.01 4211.65 55.91 4.00 183.04 2713.39
   01:49:19.651.24-Feb-2020 3392.01 4211.65 55.91 4.00 183.24 2713.39
   01:49:19.852.24-Feb-2020 3392.01 4211.65 55.91 4.00 183.44 2713.39
   01:49:20.052.24-Feb-2020 3392.01 4211.63 55.91 4.00 183.64 2713.39
   01:49:20.252.24-Feb-2020 3392.01 4211.64 55.91 4.00 183.84 2713.39
