~Version Information
 VERS.                  2.0:   CWLS log ASCII Standard -VERSION 2.0
 WRAP.                   NO:   One line per depth step
~Well Information Block
#MNEM.UNIT     VALUE/NAME     DESCRIPTION
#---------     -----------    ---------------------------
 STRT.S             05:02:14 24-Feb-20: START TIME 05:02:14 24-Feb-20
 STOP.S             05:09:32 24-Feb-20: STOP TIME  05:09:32 24-Feb-20
 STEP.S                   0.00: STEP TIME
 NULL.                 -999.25: NULL VALUE
 JOBN.        AZ-XX-0905059384:  JOB TICKET NUMB
 PDAT.          Mean Sea Level:  PERMANENT DATUM
 UNIT.                     N/A:  LOGGING EQUIPMENT ID
 DCON.         Sperry Drilling:  DIRECTNL CONTR
 DOE .                     N/A:  DOE NUMBER
 RIG .             West Chirag:  RIG NAME
 WELL.                     J22:  WELL NAME
 MWDS.                    Baku:  MWD SHOP
 SRVC.     TURAN Drilling & Engineering:  CONTRACTOR
 FLD .                     ACG:  FIELD NAME
 CTRY.              Azerbaijan:  COUNTRY NAME
 PROV.                    Baku:  PROVINCE
 STAT.                    Baku:  STATE NAME
 REGN.                   EESSA:  REGION
 BASE.              Azerbaijan:  LOGGING EQUIPMENT BASE LOCATION
 UWI .                     N/A:  UNIQUE WELL IDENTIFIER
 API .                     N/A:  API NUMBER
 COMP.     BP Exploration (Caspian Sea) Ltd.:  COMPANY
 WTYP.                Deviated:  WELL TYPE
 MDS .        Operator Entered:  MAG DATA SOURCE
 SON .        AZ-XX-0905059384:  JOB NUMBER
 FTOP.          Formation Tops:  FORM TOPS DESC
 ILTD.               Lithology:  INTERP LTH DESC
 SVYD.                  Survey:  SURVEY DESC
 DMOD.             Drill Model:  DRILL MOD DESC
 HPTY.       Minimum Curvature:  HOLE POS TYPE
 NREF.                    Grid:  NORTH REFERENCE
 SPUD.               09-Jan-20:  SPUD DATE
 DATE.      14.04.48 07-Feb-20:  END TIME
 STIM.      07.00.00 09-Jan-20:  START TIME
 DMF .             Drill Floor:  DRILL MEAS FROM
 DFST.                        :  DIST FSL TEXT
 DFWT.                        :  DIST FWL TEXT
 CNTY.                        :  COUNTY
 LOC .                        :  LOCATION
 LMF .             Drill Floor:  LOG MEASURED FROM
 DEP .m                   0.00:  DEPTH
 VSNS.m                  10.28:  VERT SEC N/S
 VSEW.m                  -6.24:  VERT SEC E/W
 AGAP.m                  43.00:  AIR GAP
 APD .m                  43.00:  DEPTH ABOVE PD
 WDMS.m                 169.80:  WD ELEV
 EGL .m                   0.00:  GROUND ELEVATION
 EPD .m                   0.00:  ELEVATION
 AZTC.deg                 6.27:  AZM TOTAL CORR
 GRDC.deg                 0.15:  GRID CORRECTION
 MDEC.deg                 6.42:  MAGNETIC DECL
 MDIP.deg                59.56:  MAGNETIC DIP
 MFLD.nT              50277.00:  MAGNETIC FIELD
 GVFD.g                   1.00:  GRAVITY FIELD
 VSDR.deg               148.53:  VERT SEC DIRECT
 TDD .m                3473.01:  TOTAL DEPTH (DRILLER)
 SDEP.m                 364.00:  START DEPTH
 DFSL.m                   0.00:  DISTANCE FSL
 DFWL.m                   0.00:  DISTANCE FWL
 UTMY.m             4443793.85:  UTM Y
 UTMX.m              519005.06:  UTM X
 WHEW.m                  -6.24:  WELL HEAD E/W
 WHNS.m                  10.28:  WELL HEAD N/S
 LONG.deg                51.22:  LONGITUDE
 LATI.deg                40.13:  LATITUDE
 TVDS.m                  43.00:  TVDSS CORRECTN
 EKB .m                   0.00:  KB ELEVATION
 EDF .m                  43.00:  DF ELEVATION
 TDL .m                 254.00:  TOTAL DEPTH (LOGGER)
 MAGU.                 1850021:  MAGUTM CHECKSUM
 VSC .                       0:  VS TO CLOSURE
~Parameter Information Block
#MNEM.UNIT       Value        Description
#---------     -----------    ---------------------------
 AV  .mps                 0.50:  Ann Velocity 
 AVMX.mps                 1.40:  Max Ann Veloc 
 AZIF.deg               144.94:  Azm, Final 
 BHAT.        Rotary Steerable:  BHA Type 
 BROT.°/30m               0.23:  Build Rotating 
 BS  .in                  8.50:  Bit Size 
 BTPL.psig              264.00:  Bit Press Loss 
 CABU.                     Yes:  Customer Abuse 
 TCS .hr                 87.30:  Time Ciculation Ended 
 CV  .mps                 2.45:  Crit Velocity 
 CVMX.mps                 2.74:  Max Crit Veloc 
 DD1 .             Aziz Aliyev:  Direct Drillr 1 
 DDSV.               Geo-Pilot:  DD Service 
 DEFF.%                 100.00:  % Det Eff 
 DLRX.°/30m               1.22:  Dogleg Rot Max 
 DLSO.°/30m               0.52:  Dogleg Oriented 
 DLSX.°/30m               1.22:  Dogleg Str Max 
 DRET.      12.59.00 23-Feb-20:  Drill End Time 
 DRST.      09.44.00 18-Feb-20:  Drill Start Tim 
 DTIM.hr                 23.03:  Time Drilling 
 EDEP.m                3473.01:  End Depth 
 ENG1.         Almaz Almadatov:  Engineer 1 
 ENG2.         Dair Mahammadov:  Engineer 2 
 ENG3.          Nazrin Asgarli:  Engineer 3 
 ETIM.      10.33.36 26-Feb-20:  End Time 
 FLOI.gpm               480.00:  Flow In 
 FLON.gpm               300.00:  Flow In Min 
 FLOS.cptm                1.00:  Fluid Loss 
 FLOX.gpm               550.00:  Flow In Max 
 HFLO.                      No:  High Flow 
 HPRE.                      No:  High Pressure 
 HTEM.                      No:  High Temp 
 HYDO.m                   1.80:  Hydro Offset 
 IFIN.deg                74.42:  Inc, Final 
 IMAX.deg                76.14:  Inc Max 
 IMIN.deg                74.42:  Inc Min 
 IMND.m                3462.72:  Inc Min Depth 
 IMXD.m                3235.69:  Inc Max Depth 
 JARR.                      No:  Jarring 
 LETM.      12.59.00 23-Feb-20:  Log End Time 
 LOST.hr                     0:  Lost Rig Time 
 LSTM.      09.44.00 18-Feb-20:  Log Start Time 
 MDCL.ppm             45000.00:  Mud Chlorides 
 MDES.     Inversion Oil/Synthetic:  Mud Desc 
 DFD .sg                  1.38:  Mud Density 
 MDMN.sg                  1.34:  Dens Mud Min 
 MDMX.sg                  1.49:  Dens Mud Max 
 MOIL.                      67:  Run Mud Oil % 
 MOWR.                   67:33:  Run Mud OWR 
 MSND.                    0.12:  Run Mud Sand % 
 MSOL.                      22:  Run Mud Solids% 
 DFV .spqt               81.00:  Mud Viscosity 
 MWOD.in                  6.75:  MWD Tool OD 
 MWSI.                      No:  Serv Intrp, MWD 
 OTIM.hr                231.44:  Time Operating 
 PCON.          Wear / Scratch:  Pad Condition 
 PMAX.psia             3400.00:  Press Op, Max 
 PV  .cP                 55.00:  Mud PV 
 RUN .                     800:  Run Number 
 ROPA.m/hr               12.00:  ROP Avg 
 ROPN.m/hr                5.00:  ROP Min 
 ROPX.m/hr               28.00:  ROP Max 
 RPMA.rpm               120.00:  RPM Surface Avg 
 RPMN.rpm                40.00:  RPM Surface Min 
 RPMX.rpm               130.00:  RPM Surface Max 
 RRUN.                    0800:  Rig Run Number 
 RTIM.hr                 45.00:  Time Reaming 
 SAZI.deg               145.38:  Azm, Start 
 SDEP.m                3219.01:  Start Depth 
 SIDD.                      No:  Serv Intrp, DD 
 SINC.deg                75.11:  Inc, Start 
 SPPA.psig             2400.00:  SPP Avg 
 SPPN.psig             2320.00:  SPP Min 
 SPPX.psig             3200.00:  SPP Max 
 STIM.      15.15.00 17-Feb-20:  Start Time 
 SVCS.                 DD, MWD:  Services 
 SVER.                    9.20:  Sperry Version 
 TDAT.m                 254.00:  Tot Depth Attmp 
 TDDF.                      No:  Trip for DD 
 TDLG.m                 254.00:  Tot Depth Loggd 
 TFF .                      No:  Trip for Fail 
 TQAA.f-kp               13.00:  Torque Abs Avg 
 TQAN.f-kp                7.00:  Torque Abs Min 
 TQAX.f-kp               15.00:  Torque Abs Max 
 TRRT.°/30m               0.21:  Turn Rotating 
 MRT .                  EWR-M5:  Maximum Recorded Temperature 
 TTMX.degC               64.00:  Max Tool Temp 
 VS01.                90586516:  Virtual Str1 SN 
 VS02.                90513691:  Virtual Str2 SN 
 VS03.                90586523:  Virtual Str3 SN 
 VS04.                90586520:  Virtual Str4 SN 
 VS05.                90590507:  Virtual Str5 SN 
 WBMN.klb                12.00:  WOB Min 
 WITN.           Rufat Babayev:  Customer Rep 2 
 WITN.         Alistair Sprott:  Customer Rep 
 WOBA.klb                18.00:  WOB Avg 
 WOBX.klb                30.00:  WOB Max 
 YP  .lhf2               41.00:  Yield Point 
~Curve Information Block
#MNEM.UNIT                 API CODE     Curve Description
#---------               -----------    ---------------------------
 TIME.HHMMSS            00 000 000 000:  GT Time & Date
 GTDEPTH.m              00 000 000 000:  GT Depth
 GTPQH.psia             00 000 000 000:  GT HR Quartz Pressure
 GTTQ.degC              00 000 000 000:  GT Quartz Temperature
 GTTN.NONE              00 000 000 000:  GT Test Number
 GTET.sec               00 000 000 000:  GT Elapsed Test Time
 GTTVD.m                00 000 000 000:  GT True Vertical Depth
#Other Information
#
#WARRANTY: Halliburton will use its best efforts to furnish customers with 
#accurate information and interpretations that are part of, and incident to, the services 
#provided.  However, Halliburton cannot and does not warrant the accuracy 
#or correctness of such information and interpretations.  Under no circumstances should any 
#such information or interpretation be relied upon as the sole basis for any drilling, 
#completion, production, or financial decision or any procedure involving any risk to the 
#safety of any drilling venture, drilling rig or its crew or any other third party.  The 
#Customer has full responsibility for all drilling, completion and production operation.  
#Halliburton makes no representations or warranties, either expressed or 
#implied, including, but not limited to, the implied warranties of merchantability or fitness 
#for a particular purpose, with respect to the services rendered.  In no event will 
#Halliburton be liable for failure to obtain any particular results or for 
#any damages, including, but not limited to, indirect, special or consequential damages, 
#resulting from the use of any information or interpretation provided by Halliburton.
#
~A           TIME           GTDEPTH  GTPQH  GTTQ  GTTN  GTET   GTTVD  
# ...
   05:09:08.721.24-Feb-2020 3303.51 5692.24 55.32 8.00 413.88 2690.98
   05:09:08.921.24-Feb-2020 3303.51 5690.91 55.32 8.00 414.08 2690.98
   05:09:09.121.24-Feb-2020 3303.51 5689.49 55.32 8.00 414.28 2690.98
   05:09:09.321.24-Feb-2020 3303.51 5689.88 55.32 8.00 414.48 2690.98
   05:09:09.521.24-Feb-2020 3303.51 5688.31 55.32 8.00 414.68 2690.98
   05:09:09.721.24-Feb-2020 3303.51 5687.78 55.32 8.00 414.88 2690.98
   05:09:09.921.24-Feb-2020 3303.51 5687.78 55.32 8.00 415.08 2690.98
   05:09:10.121.24-Feb-2020 3303.51 5686.86 55.32 8.00 415.28 2690.98
   05:09:10.321.24-Feb-2020 3303.51 5686.84 55.32 8.00 415.48 2690.98
   05:09:10.521.24-Feb-2020 3303.51 5687.12 55.32 8.00 415.68 2690.98
   05:09:10.720.24-Feb-2020 3303.51 5687.32 55.32 8.00 415.88 2690.98
   05:09:10.920.24-Feb-2020 3303.51 5687.32 55.32 8.00 416.08 2690.98
   05:09:11.120.24-Feb-2020 3303.51 5687.99 55.32 8.00 416.28 2690.98
   05:09:11.320.24-Feb-2020 3303.51 5688.44 55.32 8.00 416.48 2690.98
   05:09:11.520.24-Feb-2020 3303.51 5689.30 55.32 8.00 416.68 2690.98
   05:09:11.720.24-Feb-2020 3303.51 5699.81 55.32 8.00 416.88 2690.98
   05:09:11.920.24-Feb-2020 3303.51 5699.81 55.32 8.00 417.08 2690.98
   05:09:12.120.24-Feb-2020 3303.51 5691.64 55.32 8.00 417.28 2690.98
   05:09:12.320.24-Feb-2020 3303.51 5688.49 55.32 8.00 417.48 2690.98
   05:09:12.520.24-Feb-2020 3303.51 5689.42 55.32 8.00 417.68 2690.98
   05:09:12.720.24-Feb-2020 3303.51 5689.52 55.32 8.00 417.88 2690.98
   05:09:12.920.24-Feb-2020 3303.51 5687.74 55.32 8.00 418.08 2690.98
   05:09:13.120.24-Feb-2020 3303.51 5687.14 55.32 8.00 418.28 2690.98
   05:09:13.320.24-Feb-2020 3303.51 5686.27 55.32 8.00 418.48 2690.98
   05:09:13.520.24-Feb-2020 3303.51 5687.10 55.32 8.00 418.68 2690.98
   05:09:13.720.24-Feb-2020 3303.51 5688.20 55.32 8.00 418.88 2690.98
   05:09:13.920.24-Feb-2020 3303.51 5688.20 55.32 8.00 419.08 2690.98
   05:09:14.119.24-Feb-2020 3303.51 5686.70 55.32 8.00 419.28 2690.98
   05:09:14.319.24-Feb-2020 3303.51 5686.47 55.32 8.00 419.48 2690.98
   05:09:14.519.24-Feb-2020 3303.51 5686.96 55.32 8.00 419.68 2690.98
   05:09:14.719.24-Feb-2020 3303.51 5687.84 55.32 8.00 419.88 2690.98
   05:09:14.919.24-Feb-2020 3303.51 5687.84 55.32 8.00 420.08 2690.98
   05:09:15.119.24-Feb-2020 3303.51 5695.76 55.32 8.00 420.28 2690.98
   05:09:15.319.24-Feb-2020 3303.51 5682.95 55.32 8.00 420.48 2690.98
   05:09:15.519.24-Feb-2020 3303.51 5688.80 55.32 8.00 420.68 2690.98
   05:09:15.719.24-Feb-2020 3303.51 5686.27 55.32 8.00 420.88 2690.98
   05:09:15.919.24-Feb-2020 3303.51 5686.27 55.32 8.00 421.08 2690.98
   05:09:16.119.24-Feb-2020 3303.51 5695.05 55.32 8.00 421.28 2690.98
   05:09:16.319.24-Feb-2020 3303.51 5687.24 55.32 8.00 421.48 2690.98
   05:09:16.519.24-Feb-2020 3303.51 5688.85 55.32 8.00 421.68 2690.98
   05:09:16.719.24-Feb-2020 3303.51 5689.50 55.32 8.00 421.88 2690.98
   05:09:16.919.24-Feb-2020 3303.51 5687.88 55.32 8.00 422.08 2690.98
   05:09:17.119.24-Feb-2020 3303.51 5697.12 55.32 8.00 422.28 2690.98
   05:09:17.319.24-Feb-2020 3303.51 5689.34 55.31 8.00 422.48 2690.98
   05:09:17.518.24-Feb-2020 3303.51 5691.32 55.31 8.00 422.68 2690.98
   05:09:17.718.24-Feb-2020 3303.51 5692.02 55.31 8.00 422.88 2690.98
   05:09:17.918.24-Feb-2020 3303.51 5692.02 55.31 8.00 423.08 2690.98
   05:09:18.118.24-Feb-2020 3303.51 5690.64 55.31 8.00 423.28 2690.98
   05:09:18.318.24-Feb-2020 3303.51 5690.12 55.31 8.00 423.48 2690.98
   05:09:18.518.24-Feb-2020 3303.51 5689.83 55.31 8.00 423.68 2690.98
   05:09:18.718.24-Feb-2020 3303.51 5688.06 55.31 8.00 423.88 2690.98
   05:09:18.918.24-Feb-2020 3303.51 5688.06 55.31 8.00 424.08 2690.98
   05:09:19.118.24-Feb-2020 3303.51 5687.67 55.31 8.00 424.28 2690.98
   05:09:19.318.24-Feb-2020 3303.51 5687.50 55.31 8.00 424.48 2690.98
   05:09:19.518.24-Feb-2020 3303.51 5687.47 55.31 8.00 424.68 2690.98
   05:09:19.718.24-Feb-2020 3303.51 5687.46 55.31 8.00 424.88 2690.98
   05:09:19.918.24-Feb-2020 3303.51 5687.46 55.31 8.00 425.07 2690.98
   05:09:20.118.24-Feb-2020 3303.51 5688.20 55.31 8.00 425.27 2690.98
   05:09:20.318.24-Feb-2020 3303.51 5688.24 55.31 8.00 425.47 2690.98
   05:09:20.518.24-Feb-2020 3303.51 5688.60 55.31 8.00 425.67 2690.98
   05:09:20.718.24-Feb-2020 3303.51 5688.93 55.31 8.00 425.87 2690.98
   05:09:20.917.24-Feb-2020 3303.51 5689.61 55.31 8.00 426.07 2690.98
   05:09:21.117.24-Feb-2020 3303.51 5696.79 55.31 8.00 426.27 2690.98
   05:09:21.317.24-Feb-2020 3303.51 5691.79 55.31 8.00 426.47 2690.98
   05:09:21.517.24-Feb-2020 3303.51 5690.82 55.31 8.00 426.67 2690.98
   05:09:21.717.24-Feb-2020 3303.51 5689.67 55.31 8.00 426.87 2690.98
   05:09:21.917.24-Feb-2020 3303.51 5689.67 55.31 8.00 427.07 2690.98
   05:09:22.117.24-Feb-2020 3303.51 5688.56 55.31 8.00 427.27 2690.98
   05:09:22.317.24-Feb-2020 3303.51 5687.96 55.31 8.00 427.47 2690.98
   05:09:22.517.24-Feb-2020 3303.51 5686.80 55.31 8.00 427.67 2690.98
   05:09:22.717.24-Feb-2020 3303.51 5686.11 55.31 8.00 427.87 2690.98
   05:09:22.917.24-Feb-2020 3303.51 5686.11 55.31 8.00 428.07 2690.98
   05:09:23.117.24-Feb-2020 3303.51 5687.89 55.31 8.00 428.27 2690.98
   05:09:23.317.24-Feb-2020 3303.51 5687.55 55.31 8.00 428.47 2690.98
   05:09:23.517.24-Feb-2020 3303.51 5686.71 55.31 8.00 428.67 2690.98
   05:09:23.717.24-Feb-2020 3303.51 5686.76 55.31 8.00 428.87 2690.98
   05:09:23.917.24-Feb-2020 3303.51 5686.76 55.31 8.00 429.07 2690.98
   05:09:24.117.24-Feb-2020 3303.51 5687.20 55.31 8.00 429.27 2690.98
   05:09:24.316.24-Feb-2020 3303.51 5686.27 55.31 8.00 429.47 2690.98
   05:09:24.516.24-Feb-2020 3303.51 5692.16 55.31 8.00 429.67 2690.98
   05:09:24.716.24-Feb-2020 3303.51 5687.11 55.31 8.00 429.87 2690.98
   05:09:24.916.24-Feb-2020 3303.51 5688.08 55.31 8.00 430.07 2690.98
   05:09:25.116.24-Feb-2020 3303.51 5687.73 55.31 8.00 430.27 2690.98
   05:09:25.316.24-Feb-2020 3303.51 5689.97 55.31 8.00 430.47 2690.98
   05:09:25.516.24-Feb-2020 3303.51 5688.75 55.31 8.00 430.67 2690.98
   05:09:25.716.24-Feb-2020 3303.51 5688.93 55.31 8.00 430.87 2690.98
   05:09:25.916.24-Feb-2020 3303.51 5688.93 55.31 8.00 431.07 2690.98
   05:09:26.116.24-Feb-2020 3303.51 5688.63 55.31 8.00 431.27 2690.98
   05:09:26.316.24-Feb-2020 3303.51 5687.59 55.31 8.00 431.47 2690.98
   05:09:26.516.24-Feb-2020 3303.51 5694.34 55.31 8.00 431.67 2690.98
   05:09:26.716.24-Feb-2020 3303.51 5689.98 55.31 8.00 431.87 2690.98
   05:09:26.916.24-Feb-2020 3303.51 5689.98 55.31 8.00 432.07 2690.98
   05:09:27.116.24-Feb-2020 3303.51 5701.69 55.31 8.00 432.27 2690.98
   05:09:27.316.24-Feb-2020 3303.51 5686.69 55.31 8.00 432.47 2690.98
   05:09:27.516.24-Feb-2020 3303.51 5691.77 55.30 8.00 432.67 2690.98
   05:09:27.715.24-Feb-2020 3303.51 5688.23 55.30 8.00 432.87 2690.98
   05:09:27.915.24-Feb-2020 3303.51 5688.23 55.30 8.00 433.07 2690.98
   05:09:28.115.24-Feb-2020 3303.51 5687.89 55.30 8.00 433.27 2690.98
   05:09:28.315.24-Feb-2020 3303.51 5687.31 55.30 8.00 433.47 2690.98
   05:09:28.515.24-Feb-2020 3303.51 5687.18 55.30 8.00 433.67 2690.98
   05:09:28.715.24-Feb-2020 3303.51 5687.07 55.30 8.00 433.87 2690.98
   05:09:28.915.24-Feb-2020 3303.51 5687.02 55.30 8.00 434.07 2690.98
   05:09:29.115.24-Feb-2020 3303.51 5687.16 55.30 8.00 434.27 2690.98
   05:09:29.315.24-Feb-2020 3303.51 5687.50 55.30 8.00 434.47 2690.98
   05:09:29.515.24-Feb-2020 3303.51 5687.72 55.30 8.00 434.67 2690.98
   05:09:29.715.24-Feb-2020 3303.51 5687.80 55.30 8.00 434.87 2690.98
   05:09:29.915.24-Feb-2020 3303.51 5687.80 55.30 8.00 435.07 2690.98
   05:09:30.115.24-Feb-2020 3303.51 5688.57 55.30 8.00 435.27 2690.98
   05:09:30.315.24-Feb-2020 3303.51 5697.48 55.30 8.00 435.47 2690.98
   05:09:30.515.24-Feb-2020 3303.51 5690.26 55.30 8.00 435.67 2690.98
   05:09:30.715.24-Feb-2020 3303.51 5690.13 55.30 8.00 435.87 2690.98
   05:09:30.915.24-Feb-2020 3303.51 5689.54 55.30 8.00 436.07 2690.98
   05:09:31.114.24-Feb-2020 3303.51 5687.18 55.30 8.00 436.27 2690.98
   05:09:31.314.24-Feb-2020 3303.51 5687.83 55.30 8.00 436.47 2690.98
   05:09:31.514.24-Feb-2020 3303.51 5688.28 55.30 8.00 436.67 2690.98
