~Version Information
 VERS.                  2.0:   CWLS log ASCII Standard -VERSION 2.0
 WRAP.                   NO:   One line per depth step
~Well Information Block
#MNEM.UNIT     VALUE/NAME     DESCRIPTION
#---------     -----------    ---------------------------
 STRT.S             00:23:32 24-Feb-20: START TIME 00:23:32 24-Feb-20
 STOP.S             00:30:40 24-Feb-20: STOP TIME  00:30:40 24-Feb-20
 STEP.S                   0.00: STEP TIME
 NULL.                 -999.25: NULL VALUE
 JOBN.        AZ-XX-0905059384:  JOB TICKET NUMB
 PDAT.          Mean Sea Level:  PERMANENT DATUM
 UNIT.                     N/A:  LOGGING EQUIPMENT ID
 DCON.         Sperry Drilling:  DIRECTNL CONTR
 DOE .                     N/A:  DOE NUMBER
 RIG .             West Chirag:  RIG NAME
 WELL.                     J22:  WELL NAME
 MWDS.                    Baku:  MWD SHOP
 SRVC.     TURAN Drilling & Engineering:  CONTRACTOR
 FLD .                     ACG:  FIELD NAME
 CTRY.              Azerbaijan:  COUNTRY NAME
 PROV.                    Baku:  PROVINCE
 STAT.                    Baku:  STATE NAME
 REGN.                   EESSA:  REGION
 BASE.              Azerbaijan:  LOGGING EQUIPMENT BASE LOCATION
 UWI .                     N/A:  UNIQUE WELL IDENTIFIER
 API .                     N/A:  API NUMBER
 COMP.     BP Exploration (Caspian Sea) Ltd.:  COMPANY
 WTYP.                Deviated:  WELL TYPE
 MDS .        Operator Entered:  MAG DATA SOURCE
 SON .        AZ-XX-0905059384:  JOB NUMBER
 FTOP.          Formation Tops:  FORM TOPS DESC
 ILTD.               Lithology:  INTERP LTH DESC
 SVYD.                  Survey:  SURVEY DESC
 DMOD.             Drill Model:  DRILL MOD DESC
 HPTY.       Minimum Curvature:  HOLE POS TYPE
 NREF.                    Grid:  NORTH REFERENCE
 SPUD.               09-Jan-20:  SPUD DATE
 DATE.      14.04.48 07-Feb-20:  END TIME
 STIM.      07.00.00 09-Jan-20:  START TIME
 DMF .             Drill Floor:  DRILL MEAS FROM
 DFST.                        :  DIST FSL TEXT
 DFWT.                        :  DIST FWL TEXT
 CNTY.                        :  COUNTY
 LOC .                        :  LOCATION
 LMF .             Drill Floor:  LOG MEASURED FROM
 DEP .m                   0.00:  DEPTH
 VSNS.m                  10.28:  VERT SEC N/S
 VSEW.m                  -6.24:  VERT SEC E/W
 AGAP.m                  43.00:  AIR GAP
 APD .m                  43.00:  DEPTH ABOVE PD
 WDMS.m                 169.80:  WD ELEV
 EGL .m                   0.00:  GROUND ELEVATION
 EPD .m                   0.00:  ELEVATION
 AZTC.deg                 6.27:  AZM TOTAL CORR
 GRDC.deg                 0.15:  GRID CORRECTION
 MDEC.deg                 6.42:  MAGNETIC DECL
 MDIP.deg                59.56:  MAGNETIC DIP
 MFLD.nT              50277.00:  MAGNETIC FIELD
 GVFD.g                   1.00:  GRAVITY FIELD
 VSDR.deg               148.53:  VERT SEC DIRECT
 TDD .m                3473.01:  TOTAL DEPTH (DRILLER)
 SDEP.m                 364.00:  START DEPTH
 DFSL.m                   0.00:  DISTANCE FSL
 DFWL.m                   0.00:  DISTANCE FWL
 UTMY.m             4443793.85:  UTM Y
 UTMX.m              519005.06:  UTM X
 WHEW.m                  -6.24:  WELL HEAD E/W
 WHNS.m                  10.28:  WELL HEAD N/S
 LONG.deg                51.22:  LONGITUDE
 LATI.deg                40.13:  LATITUDE
 TVDS.m                  43.00:  TVDSS CORRECTN
 EKB .m                   0.00:  KB ELEVATION
 EDF .m                  43.00:  DF ELEVATION
 TDL .m                 254.00:  TOTAL DEPTH (LOGGER)
 MAGU.                 1850021:  MAGUTM CHECKSUM
 VSC .                       0:  VS TO CLOSURE
~Parameter Information Block
#MNEM.UNIT       Value        Description
#---------     -----------    ---------------------------
 AV  .mps                 0.50:  Ann Velocity 
 AVMX.mps                 1.40:  Max Ann Veloc 
 AZIF.deg               144.94:  Azm, Final 
 BHAT.        Rotary Steerable:  BHA Type 
 BROT.∞/30m               0.23:  Build Rotating 
 BS  .in                  8.50:  Bit Size 
 BTPL.psig              264.00:  Bit Press Loss 
 CABU.                     Yes:  Customer Abuse 
 COMM.                     ÙP`:  Run Comments 1 
 TCS .hr                 87.30:  Time Ciculation Ended 
 CV  .mps                 2.45:  Crit Velocity 
 CVMX.mps                 2.74:  Max Crit Veloc 
 DD1 .             Aziz Aliyev:  Direct Drillr 1 
 DDSV.               Geo-Pilot:  DD Service 
 DEFF.%                 100.00:  % Det Eff 
 DLRX.∞/30m               1.22:  Dogleg Rot Max 
 DLSO.∞/30m               0.52:  Dogleg Oriented 
 DLSX.∞/30m               1.22:  Dogleg Str Max 
 DRET.      12.59.00 23-Feb-20:  Drill End Time 
 DRST.      09.44.00 18-Feb-20:  Drill Start Tim 
 DTIM.hr                 23.03:  Time Drilling 
 EDEP.m                3473.01:  End Depth 
 ENG1.         Almaz Almadatov:  Engineer 1 
 ENG2.         Dair Mahammadov:  Engineer 2 
 ENG3.          Nazrin Asgarli:  Engineer 3 
 ETIM.      10.33.36 26-Feb-20:  End Time 
 FLOI.gpm               480.00:  Flow In 
 FLON.gpm               300.00:  Flow In Min 
 FLOS.cptm                1.00:  Fluid Loss 
 FLOX.gpm               550.00:  Flow In Max 
 HFLO.                      No:  High Flow 
 HPRE.                      No:  High Pressure 
 HTEM.                      No:  High Temp 
 HYDO.m                   1.80:  Hydro Offset 
 IFIN.deg                74.42:  Inc, Final 
 IMAX.deg                76.14:  Inc Max 
 IMIN.deg                74.42:  Inc Min 
 IMND.m                3462.72:  Inc Min Depth 
 IMXD.m                3235.69:  Inc Max Depth 
 JARR.                      No:  Jarring 
 LETM.      12.59.00 23-Feb-20:  Log End Time 
 LOST.hr                     0:  Lost Rig Time 
 LSTM.      09.44.00 18-Feb-20:  Log Start Time 
 MDCL.ppm             45000.00:  Mud Chlorides 
 MDES.     Inversion Oil/Synthetic:  Mud Desc 
 DFD .sg                  1.38:  Mud Density 
 MDMN.sg                  1.34:  Dens Mud Min 
 MDMX.sg                  1.49:  Dens Mud Max 
 MOIL.                      67:  Run Mud Oil % 
 MOWR.                   67:33:  Run Mud OWR 
 MSND.                    0.12:  Run Mud Sand % 
 MSOL.                      22:  Run Mud Solids% 
 DFV .spqt               81.00:  Mud Viscosity 
 MWOD.in                  6.75:  MWD Tool OD 
 MWSI.                      No:  Serv Intrp, MWD 
 OTIM.hr                231.44:  Time Operating 
 PCON.          Wear / Scratch:  Pad Condition 
 PMAX.psia             3400.00:  Press Op, Max 
 PV  .cP                 55.00:  Mud PV 
 RUN .                     800:  Run Number 
 ROPA.m/hr               12.00:  ROP Avg 
 ROPN.m/hr                5.00:  ROP Min 
 ROPX.m/hr               28.00:  ROP Max 
 RPMA.rpm               120.00:  RPM Surface Avg 
 RPMN.rpm                40.00:  RPM Surface Min 
 RPMX.rpm               130.00:  RPM Surface Max 
 RRUN.                    0800:  Rig Run Number 
 RTIM.hr                 45.00:  Time Reaming 
 SAZI.deg               145.38:  Azm, Start 
 SDEP.m                3219.01:  Start Depth 
 SIDD.                      No:  Serv Intrp, DD 
 SINC.deg                75.11:  Inc, Start 
 SPPA.psig             2400.00:  SPP Avg 
 SPPN.psig             2320.00:  SPP Min 
 SPPX.psig             3200.00:  SPP Max 
 STIM.      15.15.00 17-Feb-20:  Start Time 
 SVCS.                 DD, MWD:  Services 
 SVER.                    9.20:  Sperry Version 
 TDAT.m                 254.00:  Tot Depth Attmp 
 TDDF.                      No:  Trip for DD 
 TDLG.m                 254.00:  Tot Depth Loggd 
 TFF .                      No:  Trip for Fail 
 TQAA.f-kp               13.00:  Torque Abs Avg 
 TQAN.f-kp                7.00:  Torque Abs Min 
 TQAX.f-kp               15.00:  Torque Abs Max 
 TRRT.∞/30m               0.21:  Turn Rotating 
 MRT .                  EWR-M5:  Maximum Recorded Temperature 
 TTMX.degC               64.00:  Max Tool Temp 
 VS01.                90586516:  Virtual Str1 SN 
 VS02.                90513691:  Virtual Str2 SN 
 VS03.                90586523:  Virtual Str3 SN 
 VS04.                90586520:  Virtual Str4 SN 
 VS05.                90590507:  Virtual Str5 SN 
 WBMN.klb                12.00:  WOB Min 
 WITN.           Rufat Babayev:  Customer Rep 2 
 WITN.         Alistair Sprott:  Customer Rep 
 WOBA.klb                18.00:  WOB Avg 
 WOBX.klb                30.00:  WOB Max 
 YP  .lhf2               41.00:  Yield Point 
~Curve Information Block
#MNEM.UNIT                 API CODE     Curve Description
#---------               -----------    ---------------------------
 TIME.HHMMSS            00 000 000 000:  GT Time & Date
 GTDEPTH.m              00 000 000 000:  GT Depth
 GTPQH.psia             00 000 000 000:  GT HR Quartz Pressure
 GTTQ.degC              00 000 000 000:  GT Quartz Temperature
 GTTN.NONE              00 000 000 000:  GT Test Number
 GTET.sec               00 000 000 000:  GT Elapsed Test Time
 GTTVD.m                00 000 000 000:  GT True Vertical Depth
#Other Information
#
#WARRANTY: Halliburton will use its best efforts to furnish customers with 
#accurate information and interpretations that are part of, and incident to, the services 
#provided.  However, Halliburton cannot and does not warrant the accuracy 
#or correctness of such information and interpretations.  Under no circumstances should any 
#such information or interpretation be relied upon as the sole basis for any drilling, 
#completion, production, or financial decision or any procedure involving any risk to the 
#safety of any drilling venture, drilling rig or its crew or any other third party.  The 
#Customer has full responsibility for all drilling, completion and production operation.  
#Halliburton makes no representations or warranties, either expressed or 
#implied, including, but not limited to, the implied warranties of merchantability or fitness 
#for a particular purpose, with respect to the services rendered.  In no event will 
#Halliburton be liable for failure to obtain any particular results or for 
#any damages, including, but not limited to, indirect, special or consequential damages, 
#resulting from the use of any information or interpretation provided by Halliburton.
#
~A           TIME           GTDEPTH  GTPQH  GTTQ  GTTN  GTET   GTTVD  
# ...
   00:30:26.704.24-Feb-2020 3430.51 5723.63 56.41 2.00 414.05 2723.35
   00:30:26.904.24-Feb-2020 3430.51 5723.63 56.41 2.00 414.25 2723.35
   00:30:27.104.24-Feb-2020 3430.51 5724.14 56.41 2.00 414.45 2723.35
   00:30:27.304.24-Feb-2020 3430.51 5724.92 56.41 2.00 414.65 2723.35
   00:30:27.504.24-Feb-2020 3430.51 5723.60 56.41 2.00 414.85 2723.35
   00:30:27.704.24-Feb-2020 3430.51 5723.47 56.41 2.00 415.05 2723.35
   00:30:27.904.24-Feb-2020 3430.51 5723.47 56.41 2.00 415.25 2723.35
   00:30:28.104.24-Feb-2020 3430.51 5717.05 56.41 2.00 415.45 2723.35
   00:30:28.305.24-Feb-2020 3430.51 5721.72 56.41 2.00 415.65 2723.35
   00:30:28.505.24-Feb-2020 3430.51 5724.59 56.41 2.00 415.85 2723.35
   00:30:28.705.24-Feb-2020 3430.51 5718.98 56.41 2.00 416.05 2723.35
   00:30:28.905.24-Feb-2020 3430.51 5718.98 56.41 2.00 416.25 2723.35
   00:30:29.105.24-Feb-2020 3430.51 5721.99 56.41 2.00 416.45 2723.35
   00:30:29.305.24-Feb-2020 3430.51 5723.05 56.41 2.00 416.65 2723.35
   00:30:29.505.24-Feb-2020 3430.51 5724.39 56.41 2.00 416.85 2723.35
   00:30:29.705.24-Feb-2020 3430.51 5723.77 56.41 2.00 417.05 2723.35
   00:30:29.905.24-Feb-2020 3430.51 5723.77 56.41 2.00 417.25 2723.35
   00:30:30.105.24-Feb-2020 3430.51 5722.30 56.41 2.00 417.45 2723.35
   00:30:30.305.24-Feb-2020 3430.51 5723.75 56.41 2.00 417.65 2723.35
   00:30:30.505.24-Feb-2020 3430.51 5723.02 56.41 2.00 417.85 2723.35
   00:30:30.705.24-Feb-2020 3430.51 5724.13 56.41 2.00 418.05 2723.35
   00:30:30.905.24-Feb-2020 3430.51 5724.13 56.41 2.00 418.25 2723.35
   00:30:31.105.24-Feb-2020 3430.51 5724.06 56.41 2.00 418.45 2723.35
   00:30:31.305.24-Feb-2020 3430.51 5733.85 56.41 2.00 418.65 2723.35
   00:30:31.505.24-Feb-2020 3430.51 5715.83 56.41 2.00 418.85 2723.35
   00:30:31.705.24-Feb-2020 3430.51 5722.57 56.41 2.00 419.05 2723.35
   00:30:31.905.24-Feb-2020 3430.51 5722.57 56.41 2.00 419.25 2723.35
   00:30:32.105.24-Feb-2020 3430.51 5732.18 56.41 2.00 419.45 2723.35
   00:30:32.305.24-Feb-2020 3430.51 5716.89 56.41 2.00 419.65 2723.35
   00:30:32.505.24-Feb-2020 3430.51 5721.22 56.41 2.00 419.85 2723.35
   00:30:32.705.24-Feb-2020 3430.51 5724.62 56.41 2.00 420.05 2723.35
   00:30:32.905.24-Feb-2020 3430.51 5724.62 56.41 2.00 420.25 2723.35
   00:30:33.105.24-Feb-2020 3430.51 5723.87 56.41 2.00 420.45 2723.35
   00:30:33.305.24-Feb-2020 3430.51 5722.73 56.41 2.00 420.65 2723.35
   00:30:33.505.24-Feb-2020 3430.51 5732.50 56.41 2.00 420.85 2723.35
   00:30:33.705.24-Feb-2020 3430.51 5714.01 56.41 2.00 421.05 2723.35
   00:30:33.905.24-Feb-2020 3430.51 5714.01 56.41 2.00 421.25 2723.35
   00:30:34.105.24-Feb-2020 3430.51 5723.68 56.41 2.00 421.45 2723.35
   00:30:34.305.24-Feb-2020 3430.51 5722.55 56.41 2.00 421.65 2723.35
   00:30:34.505.24-Feb-2020 3430.51 5728.62 56.41 2.00 421.85 2723.35
   00:30:34.705.24-Feb-2020 3430.51 5719.68 56.41 2.00 422.05 2723.35
   00:30:34.905.24-Feb-2020 3430.51 5719.68 56.41 2.00 422.25 2723.35
   00:30:35.105.24-Feb-2020 3430.51 5727.98 56.41 2.00 422.45 2723.35
   00:30:35.305.24-Feb-2020 3430.51 5721.37 56.41 2.00 422.65 2723.35
   00:30:35.505.24-Feb-2020 3430.51 5724.53 56.41 2.00 422.85 2723.35
   00:30:35.705.24-Feb-2020 3430.51 5722.95 56.41 2.00 423.05 2723.35
   00:30:35.905.24-Feb-2020 3430.51 5722.95 56.41 2.00 423.25 2723.35
   00:30:36.105.24-Feb-2020 3430.51 5723.83 56.41 2.00 423.45 2723.35
   00:30:36.305.24-Feb-2020 3430.51 5723.35 56.41 2.00 423.65 2723.35
   00:30:36.505.24-Feb-2020 3430.51 5723.97 56.41 2.00 423.85 2723.35
   00:30:36.705.24-Feb-2020 3430.51 5723.78 56.41 2.00 424.05 2723.35
   00:30:36.905.24-Feb-2020 3430.51 5723.78 56.41 2.00 424.25 2723.35
   00:30:37.106.24-Feb-2020 3430.51 5723.86 56.41 2.00 424.45 2723.35
   00:30:37.306.24-Feb-2020 3430.51 5725.08 56.41 2.00 424.65 2723.35
   00:30:37.506.24-Feb-2020 3430.51 5724.01 56.41 2.00 424.85 2723.35
   00:30:37.706.24-Feb-2020 3430.51 5735.76 56.41 2.00 425.05 2723.35
   00:30:37.906.24-Feb-2020 3430.51 5735.76 56.41 2.00 425.25 2723.35
   00:30:38.106.24-Feb-2020 3430.51 5722.75 56.41 2.00 425.45 2723.35
   00:30:38.306.24-Feb-2020 3430.51 5724.98 56.41 2.00 425.65 2723.35
   00:30:38.506.24-Feb-2020 3430.51 5720.18 56.41 2.00 425.85 2723.35
   00:30:38.706.24-Feb-2020 3430.51 5722.97 56.41 2.00 426.05 2723.35
   00:30:38.906.24-Feb-2020 3430.51 5722.97 56.41 2.00 426.25 2723.35
   00:30:39.106.24-Feb-2020 3430.51 5722.50 56.41 2.00 426.45 2723.35
   00:30:39.306.24-Feb-2020 3430.51 5722.57 56.41 2.00 426.65 2723.35
   00:30:39.506.24-Feb-2020 3430.51 5723.96 56.41 2.00 426.85 2723.35
   00:30:39.706.24-Feb-2020 3430.51 5723.83 56.41 2.00 427.05 2723.35
   00:30:39.906.24-Feb-2020 3430.51 5723.83 56.41 2.00 427.25 2723.35
   00:30:40.106.24-Feb-2020 3430.51 5721.45 56.41 2.00 427.45 2723.35
   00:30:40.306.24-Feb-2020 3430.51 5723.42 56.41 2.00 427.65 2723.35
   00:30:40.506.24-Feb-2020 3430.51 5723.40 56.41 2.00 427.85 2723.35
