~Version Information
 VERS.                  2.0:   CWLS log ASCII Standard -VERSION 2.0
 WRAP.                   NO:   One line per depth step
~Well Information Block
#MNEM.UNIT     VALUE/NAME     DESCRIPTION
#---------     -----------    ---------------------------
 STRT.S             03:19:12 24-Feb-20: START TIME 03:19:12 24-Feb-20
 STOP.S             03:27:48 24-Feb-20: STOP TIME  03:27:48 24-Feb-20
 STEP.S                   0.00: STEP TIME
 NULL.                 -999.25: NULL VALUE
 JOBN.        AZ-XX-0905059384:  JOB TICKET NUMB
 PDAT.          Mean Sea Level:  PERMANENT DATUM
 UNIT.                     N/A:  LOGGING EQUIPMENT ID
 DCON.         Sperry Drilling:  DIRECTNL CONTR
 DOE .                     N/A:  DOE NUMBER
 RIG .             West Chirag:  RIG NAME
 WELL.                     J22:  WELL NAME
 MWDS.                    Baku:  MWD SHOP
 SRVC.     TURAN Drilling & Engineering:  CONTRACTOR
 FLD .                     ACG:  FIELD NAME
 CTRY.              Azerbaijan:  COUNTRY NAME
 PROV.                    Baku:  PROVINCE
 STAT.                    Baku:  STATE NAME
 REGN.                   EESSA:  REGION
 BASE.              Azerbaijan:  LOGGING EQUIPMENT BASE LOCATION
 UWI .                     N/A:  UNIQUE WELL IDENTIFIER
 API .                     N/A:  API NUMBER
 COMP.     BP Exploration (Caspian Sea) Ltd.:  COMPANY
 WTYP.                Deviated:  WELL TYPE
 MDS .        Operator Entered:  MAG DATA SOURCE
 SON .        AZ-XX-0905059384:  JOB NUMBER
 FTOP.          Formation Tops:  FORM TOPS DESC
 ILTD.               Lithology:  INTERP LTH DESC
 SVYD.                  Survey:  SURVEY DESC
 DMOD.             Drill Model:  DRILL MOD DESC
 HPTY.       Minimum Curvature:  HOLE POS TYPE
 NREF.                    Grid:  NORTH REFERENCE
 SPUD.               09-Jan-20:  SPUD DATE
 DATE.      14.04.48 07-Feb-20:  END TIME
 STIM.      07.00.00 09-Jan-20:  START TIME
 DMF .             Drill Floor:  DRILL MEAS FROM
 DFST.                        :  DIST FSL TEXT
 DFWT.                        :  DIST FWL TEXT
 CNTY.                        :  COUNTY
 LOC .                        :  LOCATION
 LMF .             Drill Floor:  LOG MEASURED FROM
 DEP .m                   0.00:  DEPTH
 VSNS.m                  10.28:  VERT SEC N/S
 VSEW.m                  -6.24:  VERT SEC E/W
 AGAP.m                  43.00:  AIR GAP
 APD .m                  43.00:  DEPTH ABOVE PD
 WDMS.m                 169.80:  WD ELEV
 EGL .m                   0.00:  GROUND ELEVATION
 EPD .m                   0.00:  ELEVATION
 AZTC.deg                 6.27:  AZM TOTAL CORR
 GRDC.deg                 0.15:  GRID CORRECTION
 MDEC.deg                 6.42:  MAGNETIC DECL
 MDIP.deg                59.56:  MAGNETIC DIP
 MFLD.nT              50277.00:  MAGNETIC FIELD
 GVFD.g                   1.00:  GRAVITY FIELD
 VSDR.deg               148.53:  VERT SEC DIRECT
 TDD .m                3473.01:  TOTAL DEPTH (DRILLER)
 SDEP.m                 364.00:  START DEPTH
 DFSL.m                   0.00:  DISTANCE FSL
 DFWL.m                   0.00:  DISTANCE FWL
 UTMY.m             4443793.85:  UTM Y
 UTMX.m              519005.06:  UTM X
 WHEW.m                  -6.24:  WELL HEAD E/W
 WHNS.m                  10.28:  WELL HEAD N/S
 LONG.deg                51.22:  LONGITUDE
 LATI.deg                40.13:  LATITUDE
 TVDS.m                  43.00:  TVDSS CORRECTN
 EKB .m                   0.00:  KB ELEVATION
 EDF .m                  43.00:  DF ELEVATION
 TDL .m                 254.00:  TOTAL DEPTH (LOGGER)
 MAGU.                 1850021:  MAGUTM CHECKSUM
 VSC .                       0:  VS TO CLOSURE
~Parameter Information Block
#MNEM.UNIT       Value        Description
#---------     -----------    ---------------------------
 AV  .mps                 0.50:  Ann Velocity 
 AVMX.mps                 1.40:  Max Ann Veloc 
 AZIF.deg               144.94:  Azm, Final 
 BHAT.        Rotary Steerable:  BHA Type 
 BROT.°/30m               0.23:  Build Rotating 
 BS  .in                  8.50:  Bit Size 
 BTPL.psig              264.00:  Bit Press Loss 
 CABU.                     Yes:  Customer Abuse 
 COMM.                     ´á{:  Run Comments 1 
 TCS .hr                 87.30:  Time Ciculation Ended 
 CV  .mps                 2.45:  Crit Velocity 
 CVMX.mps                 2.74:  Max Crit Veloc 
 DD1 .             Aziz Aliyev:  Direct Drillr 1 
 DDSV.               Geo-Pilot:  DD Service 
 DEFF.%                 100.00:  % Det Eff 
 DLRX.°/30m               1.22:  Dogleg Rot Max 
 DLSO.°/30m               0.52:  Dogleg Oriented 
 DLSX.°/30m               1.22:  Dogleg Str Max 
 DRET.      12.59.00 23-Feb-20:  Drill End Time 
 DRST.      09.44.00 18-Feb-20:  Drill Start Tim 
 DTIM.hr                 23.03:  Time Drilling 
 EDEP.m                3473.01:  End Depth 
 ENG1.         Almaz Almadatov:  Engineer 1 
 ENG2.         Dair Mahammadov:  Engineer 2 
 ENG3.          Nazrin Asgarli:  Engineer 3 
 ETIM.      10.33.36 26-Feb-20:  End Time 
 FLOI.gpm               480.00:  Flow In 
 FLON.gpm               300.00:  Flow In Min 
 FLOS.cptm                1.00:  Fluid Loss 
 FLOX.gpm               550.00:  Flow In Max 
 HFLO.                      No:  High Flow 
 HPRE.                      No:  High Pressure 
 HTEM.                      No:  High Temp 
 HYDO.m                   1.80:  Hydro Offset 
 IFIN.deg                74.42:  Inc, Final 
 IMAX.deg                76.14:  Inc Max 
 IMIN.deg                74.42:  Inc Min 
 IMND.m                3462.72:  Inc Min Depth 
 IMXD.m                3235.69:  Inc Max Depth 
 JARR.                      No:  Jarring 
 LETM.      12.59.00 23-Feb-20:  Log End Time 
 LOST.hr                     0:  Lost Rig Time 
 LSTM.      09.44.00 18-Feb-20:  Log Start Time 
 MDCL.ppm             45000.00:  Mud Chlorides 
 MDES.     Inversion Oil/Synthetic:  Mud Desc 
 DFD .sg                  1.38:  Mud Density 
 MDMN.sg                  1.34:  Dens Mud Min 
 MDMX.sg                  1.49:  Dens Mud Max 
 MOIL.                      67:  Run Mud Oil % 
 MOWR.                   67:33:  Run Mud OWR 
 MSND.                    0.12:  Run Mud Sand % 
 MSOL.                      22:  Run Mud Solids% 
 DFV .spqt               81.00:  Mud Viscosity 
 MWOD.in                  6.75:  MWD Tool OD 
 MWSI.                      No:  Serv Intrp, MWD 
 OTIM.hr                231.44:  Time Operating 
 PCON.          Wear / Scratch:  Pad Condition 
 PMAX.psia             3400.00:  Press Op, Max 
 PV  .cP                 55.00:  Mud PV 
 RUN .                     800:  Run Number 
 ROPA.m/hr               12.00:  ROP Avg 
 ROPN.m/hr                5.00:  ROP Min 
 ROPX.m/hr               28.00:  ROP Max 
 RPMA.rpm               120.00:  RPM Surface Avg 
 RPMN.rpm                40.00:  RPM Surface Min 
 RPMX.rpm               130.00:  RPM Surface Max 
 RRUN.                    0800:  Rig Run Number 
 RTIM.hr                 45.00:  Time Reaming 
 SAZI.deg               145.38:  Azm, Start 
 SDEP.m                3219.01:  Start Depth 
 SIDD.                      No:  Serv Intrp, DD 
 SINC.deg                75.11:  Inc, Start 
 SPPA.psig             2400.00:  SPP Avg 
 SPPN.psig             2320.00:  SPP Min 
 SPPX.psig             3200.00:  SPP Max 
 STIM.      15.15.00 17-Feb-20:  Start Time 
 SVCS.                 DD, MWD:  Services 
 SVER.                    9.20:  Sperry Version 
 TDAT.m                 254.00:  Tot Depth Attmp 
 TDDF.                      No:  Trip for DD 
 TDLG.m                 254.00:  Tot Depth Loggd 
 TFF .                      No:  Trip for Fail 
 TQAA.f-kp               13.00:  Torque Abs Avg 
 TQAN.f-kp                7.00:  Torque Abs Min 
 TQAX.f-kp               15.00:  Torque Abs Max 
 TRRT.°/30m               0.21:  Turn Rotating 
 MRT .                  EWR-M5:  Maximum Recorded Temperature 
 TTMX.degC               64.00:  Max Tool Temp 
 VS01.                90586516:  Virtual Str1 SN 
 VS02.                90513691:  Virtual Str2 SN 
 VS03.                90586523:  Virtual Str3 SN 
 VS04.                90586520:  Virtual Str4 SN 
 VS05.                90590507:  Virtual Str5 SN 
 WBMN.klb                12.00:  WOB Min 
 WITN.           Rufat Babayev:  Customer Rep 2 
 WITN.         Alistair Sprott:  Customer Rep 
 WOBA.klb                18.00:  WOB Avg 
 WOBX.klb                30.00:  WOB Max 
 YP  .lhf2               41.00:  Yield Point 
~Curve Information Block
#MNEM.UNIT                 API CODE     Curve Description
#---------               -----------    ---------------------------
 TIME.HHMMSS            00 000 000 000:  GT Time & Date
 GTDEPTH.m              00 000 000 000:  GT Depth
 GTPQH.psia             00 000 000 000:  GT HR Quartz Pressure
 GTTQ.degC              00 000 000 000:  GT Quartz Temperature
 GTTN.NONE              00 000 000 000:  GT Test Number
 GTET.sec               00 000 000 000:  GT Elapsed Test Time
 GTTVD.m                00 000 000 000:  GT True Vertical Depth
#Other Information
#
#WARRANTY: Halliburton will use its best efforts to furnish customers with 
#accurate information and interpretations that are part of, and incident to, the services 
#provided.  However, Halliburton cannot and does not warrant the accuracy 
#or correctness of such information and interpretations.  Under no circumstances should any 
#such information or interpretation be relied upon as the sole basis for any drilling, 
#completion, production, or financial decision or any procedure involving any risk to the 
#safety of any drilling venture, drilling rig or its crew or any other third party.  The 
#Customer has full responsibility for all drilling, completion and production operation.  
#Halliburton makes no representations or warranties, either expressed or 
#implied, including, but not limited to, the implied warranties of merchantability or fitness 
#for a particular purpose, with respect to the services rendered.  In no event will 
#Halliburton be liable for failure to obtain any particular results or for 
#any damages, including, but not limited to, indirect, special or consequential damages, 
#resulting from the use of any information or interpretation provided by Halliburton.
#
~A           TIME           GTDEPTH  GTPQH  GTTQ  GTTN  GTET   GTTVD  
# ...
   03:21:30.161.24-Feb-2020 3366.71 4427.39 55.06 6.00 138.06 2706.89
   03:21:30.361.24-Feb-2020 3366.71 4427.39 55.06 6.00 138.26 2706.89
   03:21:30.561.24-Feb-2020 3366.71 4428.06 55.06 6.00 138.46 2706.89
   03:21:30.761.24-Feb-2020 3366.71 4428.22 55.06 6.00 138.66 2706.89
   03:21:30.961.24-Feb-2020 3366.71 4428.11 55.06 6.00 138.86 2706.89
   03:21:31.161.24-Feb-2020 3366.71 4427.85 55.06 6.00 139.06 2706.89
   03:21:31.361.24-Feb-2020 3366.71 4427.85 55.06 6.00 139.26 2706.89
   03:21:31.561.24-Feb-2020 3366.71 4427.75 55.06 6.00 139.46 2706.89
   03:21:31.761.24-Feb-2020 3366.71 4427.65 55.06 6.00 139.66 2706.89
   03:21:31.962.24-Feb-2020 3366.71 4427.62 55.06 6.00 139.86 2706.89
   03:21:32.162.24-Feb-2020 3366.71 4427.54 55.06 6.00 140.06 2706.89
   03:21:32.362.24-Feb-2020 3366.71 4427.54 55.06 6.00 140.26 2706.89
   03:21:32.562.24-Feb-2020 3366.71 4427.69 55.06 6.00 140.46 2706.89
   03:21:32.762.24-Feb-2020 3366.71 4427.67 55.06 6.00 140.66 2706.89
   03:21:32.962.24-Feb-2020 3366.71 4427.69 55.06 6.00 140.86 2706.89
   03:21:33.162.24-Feb-2020 3366.71 4426.48 55.06 6.00 141.06 2706.89
   03:21:33.362.24-Feb-2020 3366.71 4426.48 55.06 6.00 141.26 2706.89
   03:21:33.562.24-Feb-2020 3366.71 4428.80 55.06 6.00 141.46 2706.89
   03:21:33.762.24-Feb-2020 3366.71 4428.16 55.06 6.00 141.66 2706.89
   03:21:33.962.24-Feb-2020 3366.71 4427.85 55.06 6.00 141.86 2706.89
   03:21:34.162.24-Feb-2020 3366.71 4427.82 55.06 6.00 142.06 2706.89
   03:21:34.363.24-Feb-2020 3366.71 4427.82 55.06 6.00 142.26 2706.89
   03:21:34.563.24-Feb-2020 3366.71 4427.72 55.06 6.00 142.46 2706.89
   03:21:34.763.24-Feb-2020 3366.71 4427.68 55.06 6.00 142.66 2706.89
   03:21:34.963.24-Feb-2020 3366.71 4427.68 55.06 6.00 142.86 2706.89
   03:21:35.163.24-Feb-2020 3366.71 4427.49 55.06 6.00 143.06 2706.89
   03:21:35.363.24-Feb-2020 3366.71 4427.49 55.06 6.00 143.26 2706.89
   03:21:35.563.24-Feb-2020 3366.71 4427.52 55.06 6.00 143.46 2706.89
   03:21:35.763.24-Feb-2020 3366.71 4427.53 55.06 6.00 143.66 2706.89
   03:21:35.963.24-Feb-2020 3366.71 4427.62 55.06 6.00 143.86 2706.89
   03:21:36.163.24-Feb-2020 3366.71 4427.65 55.06 6.00 144.06 2706.89
   03:21:36.363.24-Feb-2020 3366.71 4427.65 55.06 6.00 144.26 2706.89
   03:21:36.563.24-Feb-2020 3366.71 4426.61 55.06 6.00 144.46 2706.89
   03:21:36.763.24-Feb-2020 3366.71 4427.96 55.06 6.00 144.66 2706.89
   03:21:36.964.24-Feb-2020 3366.71 4428.43 55.06 6.00 144.86 2706.89
   03:21:37.164.24-Feb-2020 3366.71 4428.08 55.06 6.00 145.06 2706.89
   03:21:37.364.24-Feb-2020 3366.71 4428.08 55.06 6.00 145.26 2706.89
   03:21:37.564.24-Feb-2020 3366.71 4428.25 55.06 6.00 145.46 2706.89
   03:21:37.764.24-Feb-2020 3366.71 4428.96 55.06 6.00 145.66 2706.89
   03:21:37.964.24-Feb-2020 3366.71 4428.31 55.06 6.00 145.86 2706.89
   03:21:38.164.24-Feb-2020 3366.71 4428.09 55.06 6.00 146.06 2706.89
   03:21:38.364.24-Feb-2020 3366.71 4428.09 55.06 6.00 146.26 2706.89
   03:21:38.564.24-Feb-2020 3366.71 4427.19 55.06 6.00 146.46 2706.89
   03:21:38.764.24-Feb-2020 3366.71 4428.33 55.06 6.00 146.66 2706.89
   03:21:38.964.24-Feb-2020 3366.71 4428.89 55.06 6.00 146.86 2706.89
   03:21:39.164.24-Feb-2020 3366.71 4428.57 55.06 6.00 147.06 2706.89
   03:21:39.365.24-Feb-2020 3366.71 4428.57 55.06 6.00 147.26 2706.89
   03:21:39.565.24-Feb-2020 3366.71 4428.15 55.06 6.00 147.46 2706.89
   03:21:39.765.24-Feb-2020 3366.71 4427.66 55.06 6.00 147.66 2706.89
   03:21:39.965.24-Feb-2020 3366.71 4428.29 55.06 6.00 147.86 2706.89
   03:21:40.165.24-Feb-2020 3366.71 4428.58 55.06 6.00 148.06 2706.89
   03:21:40.365.24-Feb-2020 3366.71 4428.58 55.06 6.00 148.26 2706.89
   03:21:40.565.24-Feb-2020 3366.71 4428.32 55.06 6.00 148.46 2706.89
   03:21:40.765.24-Feb-2020 3366.71 4428.25 55.06 6.00 148.66 2706.89
   03:21:40.965.24-Feb-2020 3366.71 4428.14 55.06 6.00 148.86 2706.89
   03:21:41.165.24-Feb-2020 3366.71 4428.04 55.06 6.00 149.06 2706.89
   03:21:41.365.24-Feb-2020 3366.71 4428.04 55.06 6.00 149.26 2706.89
   03:21:41.565.24-Feb-2020 3366.71 4427.91 55.06 6.00 149.46 2706.89
   03:21:41.765.24-Feb-2020 3366.71 4427.87 55.06 6.00 149.66 2706.89
   03:21:41.966.24-Feb-2020 3366.71 4427.87 55.06 6.00 149.86 2706.89
   03:21:42.166.24-Feb-2020 3366.71 4427.86 55.06 6.00 150.06 2706.89
   03:21:42.366.24-Feb-2020 3366.71 4427.86 55.06 6.00 150.26 2706.89
   03:21:42.566.24-Feb-2020 3366.71 4427.96 55.06 6.00 150.46 2706.89
   03:21:42.766.24-Feb-2020 3366.71 4427.90 55.06 6.00 150.66 2706.89
   03:21:42.966.24-Feb-2020 3366.71 4426.95 55.06 6.00 150.86 2706.89
   03:21:43.166.24-Feb-2020 3366.71 4428.32 55.06 6.00 151.06 2706.89
   03:21:43.366.24-Feb-2020 3366.71 4428.32 55.06 6.00 151.26 2706.89
   03:21:43.566.24-Feb-2020 3366.71 4428.39 55.06 6.00 151.46 2706.89
   03:21:43.766.24-Feb-2020 3366.71 4428.10 55.06 6.00 151.66 2706.89
   03:21:43.966.24-Feb-2020 3366.71 4427.99 55.06 6.00 151.86 2706.89
   03:21:44.166.24-Feb-2020 3366.71 4427.97 55.06 6.00 152.06 2706.89
   03:21:44.367.24-Feb-2020 3366.71 4428.01 55.06 6.00 152.26 2706.89
   03:21:44.567.24-Feb-2020 3366.71 4427.92 55.06 6.00 152.46 2706.89
   03:21:44.767.24-Feb-2020 3366.71 4427.83 55.06 6.00 152.66 2706.89
   03:21:44.967.24-Feb-2020 3366.71 4427.69 55.06 6.00 152.86 2706.89
   03:21:45.167.24-Feb-2020 3366.71 4427.75 55.06 6.00 153.06 2706.89
   03:21:45.367.24-Feb-2020 3366.71 4427.75 55.06 6.00 153.26 2706.89
   03:21:45.567.24-Feb-2020 3366.71 4427.77 55.06 6.00 153.46 2706.89
   03:21:45.767.24-Feb-2020 3366.71 4427.89 55.06 6.00 153.66 2706.89
   03:21:45.967.24-Feb-2020 3366.71 4427.87 55.06 6.00 153.86 2706.89
   03:21:46.167.24-Feb-2020 3366.71 4427.71 55.06 6.00 154.06 2706.89
   03:21:46.367.24-Feb-2020 3366.71 4427.71 55.06 6.00 154.26 2706.89
   03:21:46.567.24-Feb-2020 3366.71 4428.33 55.06 6.00 154.46 2706.89
   03:21:46.767.24-Feb-2020 3366.71 4428.06 55.06 6.00 154.66 2706.89
   03:21:46.968.24-Feb-2020 3366.71 4428.28 55.06 6.00 154.86 2706.89
   03:21:47.168.24-Feb-2020 3366.71 4427.34 55.06 6.00 155.06 2706.89
   03:21:47.368.24-Feb-2020 3366.71 4427.34 55.06 6.00 155.26 2706.89
   03:21:47.568.24-Feb-2020 3366.71 4428.84 55.06 6.00 155.46 2706.89
   03:21:47.768.24-Feb-2020 3366.71 4428.52 55.06 6.00 155.66 2706.89
   03:21:47.968.24-Feb-2020 3366.71 4428.30 55.06 6.00 155.86 2706.89
   03:21:48.168.24-Feb-2020 3366.71 4428.20 55.06 6.00 156.06 2706.89
   03:21:48.368.24-Feb-2020 3366.71 4428.20 55.06 6.00 156.26 2706.89
   03:21:48.568.24-Feb-2020 3366.71 4429.05 55.06 6.00 156.46 2706.89
   03:21:48.768.24-Feb-2020 3366.71 4428.78 55.06 6.00 156.66 2706.89
   03:21:48.968.24-Feb-2020 3366.71 4428.87 55.06 6.00 156.86 2706.89
   03:21:49.168.24-Feb-2020 3366.71 4428.71 55.06 6.00 157.06 2706.89
   03:21:49.369.24-Feb-2020 3366.71 4428.71 55.06 6.00 157.26 2706.89
   03:21:49.569.24-Feb-2020 3366.71 4427.28 55.06 6.00 157.46 2706.89
   03:21:49.769.24-Feb-2020 3366.71 4428.67 55.06 6.00 157.66 2706.89
   03:21:49.969.24-Feb-2020 3366.71 4429.24 55.06 6.00 157.86 2706.89
   03:21:50.169.24-Feb-2020 3366.71 4428.61 55.06 6.00 158.06 2706.89
   03:21:50.369.24-Feb-2020 3366.71 4428.61 55.06 6.00 158.26 2706.89
   03:21:50.569.24-Feb-2020 3366.71 4428.43 55.06 6.00 158.46 2706.89
   03:21:50.769.24-Feb-2020 3366.71 4428.32 55.06 6.00 158.66 2706.89
   03:21:50.969.24-Feb-2020 3366.71 4428.17 55.06 6.00 158.86 2706.89
   03:21:51.169.24-Feb-2020 3366.71 4428.14 55.06 6.00 159.06 2706.89
   03:21:51.369.24-Feb-2020 3366.71 4428.14 55.06 6.00 159.26 2706.89
   03:21:51.569.24-Feb-2020 3366.71 4428.07 55.06 6.00 159.46 2706.89
   03:21:51.769.24-Feb-2020 3366.71 4428.05 55.06 6.00 159.66 2706.89
   03:21:51.970.24-Feb-2020 3366.71 4428.10 55.06 6.00 159.86 2706.89
   03:21:52.170.24-Feb-2020 3366.71 4428.16 55.06 6.00 160.06 2706.89
   03:21:52.370.24-Feb-2020 3366.71 4428.16 55.06 6.00 160.26 2706.89
   03:21:52.570.24-Feb-2020 3366.71 4428.05 55.06 6.00 160.46 2706.89
   03:21:52.770.24-Feb-2020 3366.71 4427.52 55.06 6.00 160.66 2706.89
   03:21:52.970.24-Feb-2020 3366.71 4428.73 55.06 6.00 160.86 2706.89
