~Version Information
 VERS.                  2.0:   CWLS log ASCII Standard -VERSION 2.0
 WRAP.                   NO:   One line per depth step
~Well Information Block
#MNEM.UNIT     VALUE/NAME     DESCRIPTION
#---------     -----------    ---------------------------
 STRT.S             23:48:42 23-Feb-20: START TIME 23:48:42 23-Feb-20
 STOP.S             23:55:42 23-Feb-20: STOP TIME  23:55:42 23-Feb-20
 STEP.S                   0.00: STEP TIME
 NULL.                 -999.25: NULL VALUE
 JOBN.        AZ-XX-0905059384:  JOB TICKET NUMB
 PDAT.          Mean Sea Level:  PERMANENT DATUM
 UNIT.                     N/A:  LOGGING EQUIPMENT ID
 DCON.         Sperry Drilling:  DIRECTNL CONTR
 DOE .                     N/A:  DOE NUMBER
 RIG .             West Chirag:  RIG NAME
 WELL.                     J22:  WELL NAME
 MWDS.                    Baku:  MWD SHOP
 SRVC.     TURAN Drilling & Engineering:  CONTRACTOR
 FLD .                     ACG:  FIELD NAME
 CTRY.              Azerbaijan:  COUNTRY NAME
 PROV.                    Baku:  PROVINCE
 STAT.                    Baku:  STATE NAME
 REGN.                   EESSA:  REGION
 BASE.              Azerbaijan:  LOGGING EQUIPMENT BASE LOCATION
 UWI .                     N/A:  UNIQUE WELL IDENTIFIER
 API .                     N/A:  API NUMBER
 COMP.     BP Exploration (Caspian Sea) Ltd.:  COMPANY
 WTYP.                Deviated:  WELL TYPE
 MDS .        Operator Entered:  MAG DATA SOURCE
 SON .        AZ-XX-0905059384:  JOB NUMBER
 FTOP.          Formation Tops:  FORM TOPS DESC
 ILTD.               Lithology:  INTERP LTH DESC
 SVYD.                  Survey:  SURVEY DESC
 DMOD.             Drill Model:  DRILL MOD DESC
 HPTY.       Minimum Curvature:  HOLE POS TYPE
 NREF.                    Grid:  NORTH REFERENCE
 SPUD.               09-Jan-20:  SPUD DATE
 DATE.      14.04.48 07-Feb-20:  END TIME
 STIM.      07.00.00 09-Jan-20:  START TIME
 DMF .             Drill Floor:  DRILL MEAS FROM
 DFST.                        :  DIST FSL TEXT
 DFWT.                        :  DIST FWL TEXT
 CNTY.                        :  COUNTY
 LOC .                        :  LOCATION
 LMF .             Drill Floor:  LOG MEASURED FROM
 DEP .m                   0.00:  DEPTH
 VSNS.m                  10.28:  VERT SEC N/S
 VSEW.m                  -6.24:  VERT SEC E/W
 AGAP.m                  43.00:  AIR GAP
 APD .m                  43.00:  DEPTH ABOVE PD
 WDMS.m                 169.80:  WD ELEV
 EGL .m                   0.00:  GROUND ELEVATION
 EPD .m                   0.00:  ELEVATION
 AZTC.deg                 6.27:  AZM TOTAL CORR
 GRDC.deg                 0.15:  GRID CORRECTION
 MDEC.deg                 6.42:  MAGNETIC DECL
 MDIP.deg                59.56:  MAGNETIC DIP
 MFLD.nT              50277.00:  MAGNETIC FIELD
 GVFD.g                   1.00:  GRAVITY FIELD
 VSDR.deg               148.53:  VERT SEC DIRECT
 TDD .m                3473.01:  TOTAL DEPTH (DRILLER)
 SDEP.m                 364.00:  START DEPTH
 DFSL.m                   0.00:  DISTANCE FSL
 DFWL.m                   0.00:  DISTANCE FWL
 UTMY.m             4443793.85:  UTM Y
 UTMX.m              519005.06:  UTM X
 WHEW.m                  -6.24:  WELL HEAD E/W
 WHNS.m                  10.28:  WELL HEAD N/S
 LONG.deg                51.22:  LONGITUDE
 LATI.deg                40.13:  LATITUDE
 TVDS.m                  43.00:  TVDSS CORRECTN
 EKB .m                   0.00:  KB ELEVATION
 EDF .m                  43.00:  DF ELEVATION
 TDL .m                 254.00:  TOTAL DEPTH (LOGGER)
 MAGU.                 1850021:  MAGUTM CHECKSUM
 VSC .                       0:  VS TO CLOSURE
~Parameter Information Block
#MNEM.UNIT       Value        Description
#---------     -----------    ---------------------------
 AV  .mps                 0.50:  Ann Velocity 
 AVMX.mps                 1.40:  Max Ann Veloc 
 AZIF.deg               144.94:  Azm, Final 
 BHAT.        Rotary Steerable:  BHA Type 
 BROT.°/30m               0.23:  Build Rotating 
 BS  .in                  8.50:  Bit Size 
 BTPL.psig              264.00:  Bit Press Loss 
 CABU.                     Yes:  Customer Abuse 
 COMM.                     ¼ýd:  Run Comments 1 
 TCS .hr                 87.30:  Time Ciculation Ended 
 CV  .mps                 2.45:  Crit Velocity 
 CVMX.mps                 2.74:  Max Crit Veloc 
 DD1 .             Aziz Aliyev:  Direct Drillr 1 
 DDSV.               Geo-Pilot:  DD Service 
 DEFF.%                 100.00:  % Det Eff 
 DLRX.°/30m               1.22:  Dogleg Rot Max 
 DLSO.°/30m               0.52:  Dogleg Oriented 
 DLSX.°/30m               1.22:  Dogleg Str Max 
 DRET.      12.59.00 23-Feb-20:  Drill End Time 
 DRST.      09.44.00 18-Feb-20:  Drill Start Tim 
 DTIM.hr                 23.03:  Time Drilling 
 EDEP.m                3473.01:  End Depth 
 ENG1.         Almaz Almadatov:  Engineer 1 
 ENG2.         Dair Mahammadov:  Engineer 2 
 ENG3.          Nazrin Asgarli:  Engineer 3 
 ETIM.      10.33.36 26-Feb-20:  End Time 
 FLOI.gpm               480.00:  Flow In 
 FLON.gpm               300.00:  Flow In Min 
 FLOS.cptm                1.00:  Fluid Loss 
 FLOX.gpm               550.00:  Flow In Max 
 HFLO.                      No:  High Flow 
 HPRE.                      No:  High Pressure 
 HTEM.                      No:  High Temp 
 HYDO.m                   1.80:  Hydro Offset 
 IFIN.deg                74.42:  Inc, Final 
 IMAX.deg                76.14:  Inc Max 
 IMIN.deg                74.42:  Inc Min 
 IMND.m                3462.72:  Inc Min Depth 
 IMXD.m                3235.69:  Inc Max Depth 
 JARR.                      No:  Jarring 
 LETM.      12.59.00 23-Feb-20:  Log End Time 
 LOST.hr                     0:  Lost Rig Time 
 LSTM.      09.44.00 18-Feb-20:  Log Start Time 
 MDCL.ppm             45000.00:  Mud Chlorides 
 MDES.     Inversion Oil/Synthetic:  Mud Desc 
 DFD .sg                  1.38:  Mud Density 
 MDMN.sg                  1.34:  Dens Mud Min 
 MDMX.sg                  1.49:  Dens Mud Max 
 MOIL.                      67:  Run Mud Oil % 
 MOWR.                   67:33:  Run Mud OWR 
 MSND.                    0.12:  Run Mud Sand % 
 MSOL.                      22:  Run Mud Solids% 
 DFV .spqt               81.00:  Mud Viscosity 
 MWOD.in                  6.75:  MWD Tool OD 
 MWSI.                      No:  Serv Intrp, MWD 
 OTIM.hr                231.44:  Time Operating 
 PCON.          Wear / Scratch:  Pad Condition 
 PMAX.psia             3400.00:  Press Op, Max 
 PV  .cP                 55.00:  Mud PV 
 RUN .                     800:  Run Number 
 ROPA.m/hr               12.00:  ROP Avg 
 ROPN.m/hr                5.00:  ROP Min 
 ROPX.m/hr               28.00:  ROP Max 
 RPMA.rpm               120.00:  RPM Surface Avg 
 RPMN.rpm                40.00:  RPM Surface Min 
 RPMX.rpm               130.00:  RPM Surface Max 
 RRUN.                    0800:  Rig Run Number 
 RTIM.hr                 45.00:  Time Reaming 
 SAZI.deg               145.38:  Azm, Start 
 SDEP.m                3219.01:  Start Depth 
 SIDD.                      No:  Serv Intrp, DD 
 SINC.deg                75.11:  Inc, Start 
 SPPA.psig             2400.00:  SPP Avg 
 SPPN.psig             2320.00:  SPP Min 
 SPPX.psig             3200.00:  SPP Max 
 STIM.      15.15.00 17-Feb-20:  Start Time 
 SVCS.                 DD, MWD:  Services 
 SVER.                    9.20:  Sperry Version 
 TDAT.m                 254.00:  Tot Depth Attmp 
 TDDF.                      No:  Trip for DD 
 TDLG.m                 254.00:  Tot Depth Loggd 
 TFF .                      No:  Trip for Fail 
 TQAA.f-kp               13.00:  Torque Abs Avg 
 TQAN.f-kp                7.00:  Torque Abs Min 
 TQAX.f-kp               15.00:  Torque Abs Max 
 TRRT.°/30m               0.21:  Turn Rotating 
 MRT .                  EWR-M5:  Maximum Recorded Temperature 
 TTMX.degC               64.00:  Max Tool Temp 
 VS01.                90586516:  Virtual Str1 SN 
 VS02.                90513691:  Virtual Str2 SN 
 VS03.                90586523:  Virtual Str3 SN 
 VS04.                90586520:  Virtual Str4 SN 
 VS05.                90590507:  Virtual Str5 SN 
 WBMN.klb                12.00:  WOB Min 
 WITN.           Rufat Babayev:  Customer Rep 2 
 WITN.         Alistair Sprott:  Customer Rep 
 WOBA.klb                18.00:  WOB Avg 
 WOBX.klb                30.00:  WOB Max 
 YP  .lhf2               41.00:  Yield Point 
~Curve Information Block
#MNEM.UNIT                 API CODE     Curve Description
#---------               -----------    ---------------------------
 TIME.HHMMSS            00 000 000 000:  GT Time & Date
 GTDEPTH.m              00 000 000 000:  GT Depth
 GTPQH.psia             00 000 000 000:  GT HR Quartz Pressure
 GTTQ.degC              00 000 000 000:  GT Quartz Temperature
 GTTN.NONE              00 000 000 000:  GT Test Number
 GTET.sec               00 000 000 000:  GT Elapsed Test Time
 GTTVD.m                00 000 000 000:  GT True Vertical Depth
#Other Information
#
#WARRANTY: Halliburton will use its best efforts to furnish customers with 
#accurate information and interpretations that are part of, and incident to, the services 
#provided.  However, Halliburton cannot and does not warrant the accuracy 
#or correctness of such information and interpretations.  Under no circumstances should any 
#such information or interpretation be relied upon as the sole basis for any drilling, 
#completion, production, or financial decision or any procedure involving any risk to the 
#safety of any drilling venture, drilling rig or its crew or any other third party.  The 
#Customer has full responsibility for all drilling, completion and production operation.  
#Halliburton makes no representations or warranties, either expressed or 
#implied, including, but not limited to, the implied warranties of merchantability or fitness 
#for a particular purpose, with respect to the services rendered.  In no event will 
#Halliburton be liable for failure to obtain any particular results or for 
#any damages, including, but not limited to, indirect, special or consequential damages, 
#resulting from the use of any information or interpretation provided by Halliburton.
#
~A           TIME           GTDEPTH  GTPQH  GTTQ  GTTN  GTET   GTTVD  
# ...
   23:52:09.440.23-Feb-2020 3441.51 4209.15 56.59 1.00 207.02 2726.26
   23:52:09.640.23-Feb-2020 3441.51 4209.15 56.59 1.00 207.22 2726.26
   23:52:09.840.23-Feb-2020 3441.51 4209.17 56.59 1.00 207.42 2726.26
   23:52:10.040.23-Feb-2020 3441.51 4209.18 56.59 1.00 207.62 2726.26
   23:52:10.240.23-Feb-2020 3441.51 4209.17 56.59 1.00 207.82 2726.26
   23:52:10.440.23-Feb-2020 3441.51 4209.21 56.59 1.00 208.02 2726.26
   23:52:10.640.23-Feb-2020 3441.51 4209.21 56.59 1.00 208.22 2726.26
   23:52:10.840.23-Feb-2020 3441.51 4209.17 56.59 1.00 208.42 2726.26
   23:52:11.040.23-Feb-2020 3441.51 4209.14 56.59 1.00 208.62 2726.26
   23:52:11.240.23-Feb-2020 3441.51 4209.19 56.59 1.00 208.82 2726.26
   23:52:11.440.23-Feb-2020 3441.51 4209.18 56.59 1.00 209.02 2726.26
   23:52:11.640.23-Feb-2020 3441.51 4209.18 56.59 1.00 209.22 2726.26
   23:52:11.840.23-Feb-2020 3441.51 4209.49 56.59 1.00 209.42 2726.26
   23:52:12.040.23-Feb-2020 3441.51 4209.04 56.59 1.00 209.62 2726.26
   23:52:12.240.23-Feb-2020 3441.51 4209.31 56.59 1.00 209.82 2726.26
   23:52:12.440.23-Feb-2020 3441.51 4209.04 56.59 1.00 210.02 2726.26
   23:52:12.640.23-Feb-2020 3441.51 4209.04 56.59 1.00 210.22 2726.26
   23:52:12.840.23-Feb-2020 3441.51 4208.85 56.59 1.00 210.42 2726.26
   23:52:13.040.23-Feb-2020 3441.51 4209.60 56.59 1.00 210.62 2726.26
   23:52:13.240.23-Feb-2020 3441.51 4209.04 56.59 1.00 210.82 2726.26
   23:52:13.440.23-Feb-2020 3441.51 4209.23 56.59 1.00 211.02 2726.26
   23:52:13.640.23-Feb-2020 3441.51 4209.23 56.59 1.00 211.22 2726.26
   23:52:13.840.23-Feb-2020 3441.51 4209.15 56.59 1.00 211.42 2726.26
   23:52:14.041.23-Feb-2020 3441.51 4209.45 56.59 1.00 211.62 2726.26
   23:52:14.241.23-Feb-2020 3441.51 4208.97 56.59 1.00 211.82 2726.26
   23:52:14.441.23-Feb-2020 3441.51 4209.46 56.59 1.00 212.02 2726.26
   23:52:14.641.23-Feb-2020 3441.51 4209.46 56.59 1.00 212.22 2726.26
   23:52:14.841.23-Feb-2020 3441.51 4209.60 56.59 1.00 212.42 2726.26
   23:52:15.041.23-Feb-2020 3441.51 4208.92 56.59 1.00 212.62 2726.26
   23:52:15.241.23-Feb-2020 3441.51 4209.32 56.59 1.00 212.82 2726.26
   23:52:15.441.23-Feb-2020 3441.51 4209.05 56.59 1.00 213.02 2726.26
   23:52:15.641.23-Feb-2020 3441.51 4209.05 56.59 1.00 213.22 2726.26
   23:52:15.841.23-Feb-2020 3441.51 4209.13 56.59 1.00 213.42 2726.26
   23:52:16.041.23-Feb-2020 3441.51 4209.19 56.59 1.00 213.62 2726.26
   23:52:16.241.23-Feb-2020 3441.51 4209.14 56.59 1.00 213.82 2726.26
   23:52:16.441.23-Feb-2020 3441.51 4209.16 56.59 1.00 214.02 2726.26
   23:52:16.641.23-Feb-2020 3441.51 4209.16 56.59 1.00 214.22 2726.26
   23:52:16.841.23-Feb-2020 3441.51 4209.16 56.59 1.00 214.42 2726.26
   23:52:17.041.23-Feb-2020 3441.51 4209.16 56.59 1.00 214.62 2726.26
   23:52:17.241.23-Feb-2020 3441.51 4209.18 56.59 1.00 214.82 2726.26
   23:52:17.441.23-Feb-2020 3441.51 4209.17 56.59 1.00 215.02 2726.26
   23:52:17.641.23-Feb-2020 3441.51 4209.17 56.59 1.00 215.22 2726.26
   23:52:17.841.23-Feb-2020 3441.51 4209.27 56.59 1.00 215.42 2726.26
   23:52:18.041.23-Feb-2020 3441.51 4208.90 56.59 1.00 215.62 2726.26
   23:52:18.241.23-Feb-2020 3441.51 4209.51 56.59 1.00 215.82 2726.26
   23:52:18.441.23-Feb-2020 3441.51 4209.11 56.59 1.00 216.02 2726.26
   23:52:18.641.23-Feb-2020 3441.51 4209.11 56.59 1.00 216.22 2726.26
   23:52:18.841.23-Feb-2020 3441.51 4209.15 56.59 1.00 216.42 2726.26
   23:52:19.041.23-Feb-2020 3441.51 4209.14 56.59 1.00 216.62 2726.26
   23:52:19.241.23-Feb-2020 3441.51 4209.17 56.59 1.00 216.82 2726.26
   23:52:19.441.23-Feb-2020 3441.51 4209.18 56.59 1.00 217.02 2726.26
   23:52:19.641.23-Feb-2020 3441.51 4209.18 56.59 1.00 217.22 2726.26
   23:52:19.841.23-Feb-2020 3441.51 4209.20 56.59 1.00 217.43 2726.26
   23:52:20.041.23-Feb-2020 3441.51 4209.16 56.59 1.00 217.63 2726.26
   23:52:20.241.23-Feb-2020 3441.51 4209.17 56.59 1.00 217.83 2726.26
   23:52:20.441.23-Feb-2020 3441.51 4209.14 56.59 1.00 218.03 2726.26
   23:52:20.641.23-Feb-2020 3441.51 4209.14 56.59 1.00 218.23 2726.26
   23:52:20.841.23-Feb-2020 3441.51 4209.18 56.59 1.00 218.43 2726.26
   23:52:21.041.23-Feb-2020 3441.51 4209.09 56.59 1.00 218.63 2726.26
   23:52:21.241.23-Feb-2020 3441.51 4209.47 56.59 1.00 218.83 2726.26
   23:52:21.441.23-Feb-2020 3441.51 4209.02 56.59 1.00 219.03 2726.26
   23:52:21.641.23-Feb-2020 3441.51 4209.02 56.59 1.00 219.23 2726.26
   23:52:21.841.23-Feb-2020 3441.51 4209.01 56.59 1.00 219.43 2726.26
   23:52:22.041.23-Feb-2020 3441.51 4209.36 56.59 1.00 219.63 2726.26
   23:52:22.241.23-Feb-2020 3441.51 4208.83 56.59 1.00 219.83 2726.26
   23:52:22.441.23-Feb-2020 3441.51 4209.59 56.59 1.00 220.03 2726.26
   23:52:22.642.23-Feb-2020 3441.51 4209.59 56.59 1.00 220.23 2726.26
   23:52:22.842.23-Feb-2020 3441.51 4209.22 56.59 1.00 220.43 2726.26
   23:52:23.042.23-Feb-2020 3441.51 4209.18 56.59 1.00 220.63 2726.26
   23:52:23.242.23-Feb-2020 3441.51 4209.14 56.59 1.00 220.83 2726.26
   23:52:23.442.23-Feb-2020 3441.51 4209.44 56.59 1.00 221.03 2726.26
   23:52:23.642.23-Feb-2020 3441.51 4209.44 56.59 1.00 221.23 2726.26
   23:52:23.842.23-Feb-2020 3441.51 4209.46 56.59 1.00 221.43 2726.26
   23:52:24.042.23-Feb-2020 3441.51 4208.89 56.59 1.00 221.63 2726.26
   23:52:24.242.23-Feb-2020 3441.51 4209.58 56.59 1.00 221.83 2726.26
   23:52:24.442.23-Feb-2020 3441.51 4208.92 56.59 1.00 222.03 2726.26
   23:52:24.642.23-Feb-2020 3441.51 4208.92 56.59 1.00 222.23 2726.26
   23:52:24.842.23-Feb-2020 3441.51 4209.03 56.59 1.00 222.43 2726.26
   23:52:25.042.23-Feb-2020 3441.51 4209.24 56.59 1.00 222.63 2726.26
   23:52:25.242.23-Feb-2020 3441.51 4209.12 56.59 1.00 222.83 2726.26
   23:52:25.442.23-Feb-2020 3441.51 4209.18 56.59 1.00 223.03 2726.26
   23:52:25.642.23-Feb-2020 3441.51 4209.18 56.59 1.00 223.23 2726.26
   23:52:25.842.23-Feb-2020 3441.51 4209.16 56.59 1.00 223.43 2726.26
   23:52:26.042.23-Feb-2020 3441.51 4209.18 56.59 1.00 223.63 2726.26
   23:52:26.242.23-Feb-2020 3441.51 4209.16 56.59 1.00 223.83 2726.26
   23:52:26.442.23-Feb-2020 3441.51 4209.15 56.59 1.00 224.03 2726.26
   23:52:26.642.23-Feb-2020 3441.51 4209.15 56.59 1.00 224.23 2726.26
   23:52:26.842.23-Feb-2020 3441.51 4209.16 56.59 1.00 224.43 2726.26
   23:52:27.042.23-Feb-2020 3441.51 4209.18 56.59 1.00 224.63 2726.26
   23:52:27.242.23-Feb-2020 3441.51 4209.26 56.59 1.00 224.83 2726.26
   23:52:27.442.23-Feb-2020 3441.51 4208.88 56.59 1.00 225.03 2726.26
   23:52:27.642.23-Feb-2020 3441.51 4208.88 56.59 1.00 225.23 2726.26
   23:52:27.842.23-Feb-2020 3441.51 4209.10 56.59 1.00 225.43 2726.26
   23:52:28.042.23-Feb-2020 3441.51 4209.22 56.59 1.00 225.63 2726.26
   23:52:28.242.23-Feb-2020 3441.51 4209.14 56.59 1.00 225.83 2726.26
   23:52:28.442.23-Feb-2020 3441.51 4209.14 56.59 1.00 226.03 2726.26
   23:52:28.642.23-Feb-2020 3441.51 4209.14 56.59 1.00 226.23 2726.26
   23:52:28.842.23-Feb-2020 3441.51 4209.17 56.59 1.00 226.43 2726.26
   23:52:29.042.23-Feb-2020 3441.51 4209.16 56.59 1.00 226.63 2726.26
   23:52:29.242.23-Feb-2020 3441.51 4209.18 56.59 1.00 226.83 2726.26
   23:52:29.442.23-Feb-2020 3441.51 4209.17 56.59 1.00 227.03 2726.26
   23:52:29.642.23-Feb-2020 3441.51 4209.17 56.59 1.00 227.23 2726.26
   23:52:29.842.23-Feb-2020 3441.51 4209.14 56.59 1.00 227.43 2726.26
   23:52:30.042.23-Feb-2020 3441.51 4209.18 56.59 1.00 227.63 2726.26
   23:52:30.242.23-Feb-2020 3441.51 4209.18 56.59 1.00 227.83 2726.26
   23:52:30.442.23-Feb-2020 3441.51 4209.08 56.59 1.00 228.03 2726.26
   23:52:30.642.23-Feb-2020 3441.51 4209.08 56.59 1.00 228.23 2726.26
   23:52:30.842.23-Feb-2020 3441.51 4209.02 56.59 1.00 228.43 2726.26
   23:52:31.042.23-Feb-2020 3441.51 4209.29 56.59 1.00 228.63 2726.26
   23:52:31.242.23-Feb-2020 3441.51 4209.01 56.59 1.00 228.83 2726.26
   23:52:31.443.23-Feb-2020 3441.51 4209.35 56.59 1.00 229.03 2726.26
   23:52:31.643.23-Feb-2020 3441.51 4209.35 56.59 1.00 229.23 2726.26
   23:52:31.843.23-Feb-2020 3441.51 4209.57 56.59 1.00 229.43 2726.26
   23:52:32.043.23-Feb-2020 3441.51 4209.02 56.59 1.00 229.63 2726.26
   23:52:32.243.23-Feb-2020 3441.51 4209.21 56.59 1.00 229.83 2726.26
