~Version Information
 VERS.                  2.0:   CWLS log ASCII Standard -VERSION 2.0
 WRAP.                   NO:   One line per depth step
~Well Information Block
#MNEM.UNIT     VALUE/NAME     DESCRIPTION
#---------     -----------    ---------------------------
 STRT.S             03:19:12 24-Feb-20: START TIME 03:19:12 24-Feb-20
 STOP.S             03:27:48 24-Feb-20: STOP TIME  03:27:48 24-Feb-20
 STEP.S                   0.00: STEP TIME
 NULL.                 -999.25: NULL VALUE
 JOBN.        AZ-XX-0905059384:  JOB TICKET NUMB
 PDAT.          Mean Sea Level:  PERMANENT DATUM
 UNIT.                     N/A:  LOGGING EQUIPMENT ID
 DCON.         Sperry Drilling:  DIRECTNL CONTR
 DOE .                     N/A:  DOE NUMBER
 RIG .             West Chirag:  RIG NAME
 WELL.                     J22:  WELL NAME
 MWDS.                    Baku:  MWD SHOP
 SRVC.     TURAN Drilling & Engineering:  CONTRACTOR
 FLD .                     ACG:  FIELD NAME
 CTRY.              Azerbaijan:  COUNTRY NAME
 PROV.                    Baku:  PROVINCE
 STAT.                    Baku:  STATE NAME
 REGN.                   EESSA:  REGION
 BASE.              Azerbaijan:  LOGGING EQUIPMENT BASE LOCATION
 UWI .                     N/A:  UNIQUE WELL IDENTIFIER
 API .                     N/A:  API NUMBER
 COMP.     BP Exploration (Caspian Sea) Ltd.:  COMPANY
 WTYP.                Deviated:  WELL TYPE
 MDS .        Operator Entered:  MAG DATA SOURCE
 SON .        AZ-XX-0905059384:  JOB NUMBER
 FTOP.          Formation Tops:  FORM TOPS DESC
 ILTD.               Lithology:  INTERP LTH DESC
 SVYD.                  Survey:  SURVEY DESC
 DMOD.             Drill Model:  DRILL MOD DESC
 HPTY.       Minimum Curvature:  HOLE POS TYPE
 NREF.                    Grid:  NORTH REFERENCE
 SPUD.               09-Jan-20:  SPUD DATE
 DATE.      14.04.48 07-Feb-20:  END TIME
 STIM.      07.00.00 09-Jan-20:  START TIME
 DMF .             Drill Floor:  DRILL MEAS FROM
 DFST.                        :  DIST FSL TEXT
 DFWT.                        :  DIST FWL TEXT
 CNTY.                        :  COUNTY
 LOC .                        :  LOCATION
 LMF .             Drill Floor:  LOG MEASURED FROM
 DEP .m                   0.00:  DEPTH
 VSNS.m                  10.28:  VERT SEC N/S
 VSEW.m                  -6.24:  VERT SEC E/W
 AGAP.m                  43.00:  AIR GAP
 APD .m                  43.00:  DEPTH ABOVE PD
 WDMS.m                 169.80:  WD ELEV
 EGL .m                   0.00:  GROUND ELEVATION
 EPD .m                   0.00:  ELEVATION
 AZTC.deg                 6.27:  AZM TOTAL CORR
 GRDC.deg                 0.15:  GRID CORRECTION
 MDEC.deg                 6.42:  MAGNETIC DECL
 MDIP.deg                59.56:  MAGNETIC DIP
 MFLD.nT              50277.00:  MAGNETIC FIELD
 GVFD.g                   1.00:  GRAVITY FIELD
 VSDR.deg               148.53:  VERT SEC DIRECT
 TDD .m                3473.01:  TOTAL DEPTH (DRILLER)
 SDEP.m                 364.00:  START DEPTH
 DFSL.m                   0.00:  DISTANCE FSL
 DFWL.m                   0.00:  DISTANCE FWL
 UTMY.m             4443793.85:  UTM Y
 UTMX.m              519005.06:  UTM X
 WHEW.m                  -6.24:  WELL HEAD E/W
 WHNS.m                  10.28:  WELL HEAD N/S
 LONG.deg                51.22:  LONGITUDE
 LATI.deg                40.13:  LATITUDE
 TVDS.m                  43.00:  TVDSS CORRECTN
 EKB .m                   0.00:  KB ELEVATION
 EDF .m                  43.00:  DF ELEVATION
 TDL .m                 254.00:  TOTAL DEPTH (LOGGER)
 MAGU.                 1850021:  MAGUTM CHECKSUM
 VSC .                       0:  VS TO CLOSURE
~Parameter Information Block
#MNEM.UNIT       Value        Description
#---------     -----------    ---------------------------
 AV  .mps                 0.50:  Ann Velocity 
 AVMX.mps                 1.40:  Max Ann Veloc 
 AZIF.deg               144.94:  Azm, Final 
 BHAT.        Rotary Steerable:  BHA Type 
 BROT.°/30m               0.23:  Build Rotating 
 BS  .in                  8.50:  Bit Size 
 BTPL.psig              264.00:  Bit Press Loss 
 CABU.                     Yes:  Customer Abuse 
 COMM.                     ´á{:  Run Comments 1 
 TCS .hr                 87.30:  Time Ciculation Ended 
 CV  .mps                 2.45:  Crit Velocity 
 CVMX.mps                 2.74:  Max Crit Veloc 
 DD1 .             Aziz Aliyev:  Direct Drillr 1 
 DDSV.               Geo-Pilot:  DD Service 
 DEFF.%                 100.00:  % Det Eff 
 DLRX.°/30m               1.22:  Dogleg Rot Max 
 DLSO.°/30m               0.52:  Dogleg Oriented 
 DLSX.°/30m               1.22:  Dogleg Str Max 
 DRET.      12.59.00 23-Feb-20:  Drill End Time 
 DRST.      09.44.00 18-Feb-20:  Drill Start Tim 
 DTIM.hr                 23.03:  Time Drilling 
 EDEP.m                3473.01:  End Depth 
 ENG1.         Almaz Almadatov:  Engineer 1 
 ENG2.         Dair Mahammadov:  Engineer 2 
 ENG3.          Nazrin Asgarli:  Engineer 3 
 ETIM.      10.33.36 26-Feb-20:  End Time 
 FLOI.gpm               480.00:  Flow In 
 FLON.gpm               300.00:  Flow In Min 
 FLOS.cptm                1.00:  Fluid Loss 
 FLOX.gpm               550.00:  Flow In Max 
 HFLO.                      No:  High Flow 
 HPRE.                      No:  High Pressure 
 HTEM.                      No:  High Temp 
 HYDO.m                   1.80:  Hydro Offset 
 IFIN.deg                74.42:  Inc, Final 
 IMAX.deg                76.14:  Inc Max 
 IMIN.deg                74.42:  Inc Min 
 IMND.m                3462.72:  Inc Min Depth 
 IMXD.m                3235.69:  Inc Max Depth 
 JARR.                      No:  Jarring 
 LETM.      12.59.00 23-Feb-20:  Log End Time 
 LOST.hr                     0:  Lost Rig Time 
 LSTM.      09.44.00 18-Feb-20:  Log Start Time 
 MDCL.ppm             45000.00:  Mud Chlorides 
 MDES.     Inversion Oil/Synthetic:  Mud Desc 
 DFD .sg                  1.38:  Mud Density 
 MDMN.sg                  1.34:  Dens Mud Min 
 MDMX.sg                  1.49:  Dens Mud Max 
 MOIL.                      67:  Run Mud Oil % 
 MOWR.                   67:33:  Run Mud OWR 
 MSND.                    0.12:  Run Mud Sand % 
 MSOL.                      22:  Run Mud Solids% 
 DFV .spqt               81.00:  Mud Viscosity 
 MWOD.in                  6.75:  MWD Tool OD 
 MWSI.                      No:  Serv Intrp, MWD 
 OTIM.hr                231.44:  Time Operating 
 PCON.          Wear / Scratch:  Pad Condition 
 PMAX.psia             3400.00:  Press Op, Max 
 PV  .cP                 55.00:  Mud PV 
 RUN .                     800:  Run Number 
 ROPA.m/hr               12.00:  ROP Avg 
 ROPN.m/hr                5.00:  ROP Min 
 ROPX.m/hr               28.00:  ROP Max 
 RPMA.rpm               120.00:  RPM Surface Avg 
 RPMN.rpm                40.00:  RPM Surface Min 
 RPMX.rpm               130.00:  RPM Surface Max 
 RRUN.                    0800:  Rig Run Number 
 RTIM.hr                 45.00:  Time Reaming 
 SAZI.deg               145.38:  Azm, Start 
 SDEP.m                3219.01:  Start Depth 
 SIDD.                      No:  Serv Intrp, DD 
 SINC.deg                75.11:  Inc, Start 
 SPPA.psig             2400.00:  SPP Avg 
 SPPN.psig             2320.00:  SPP Min 
 SPPX.psig             3200.00:  SPP Max 
 STIM.      15.15.00 17-Feb-20:  Start Time 
 SVCS.                 DD, MWD:  Services 
 SVER.                    9.20:  Sperry Version 
 TDAT.m                 254.00:  Tot Depth Attmp 
 TDDF.                      No:  Trip for DD 
 TDLG.m                 254.00:  Tot Depth Loggd 
 TFF .                      No:  Trip for Fail 
 TQAA.f-kp               13.00:  Torque Abs Avg 
 TQAN.f-kp                7.00:  Torque Abs Min 
 TQAX.f-kp               15.00:  Torque Abs Max 
 TRRT.°/30m               0.21:  Turn Rotating 
 MRT .                  EWR-M5:  Maximum Recorded Temperature 
 TTMX.degC               64.00:  Max Tool Temp 
 VS01.                90586516:  Virtual Str1 SN 
 VS02.                90513691:  Virtual Str2 SN 
 VS03.                90586523:  Virtual Str3 SN 
 VS04.                90586520:  Virtual Str4 SN 
 VS05.                90590507:  Virtual Str5 SN 
 WBMN.klb                12.00:  WOB Min 
 WITN.           Rufat Babayev:  Customer Rep 2 
 WITN.         Alistair Sprott:  Customer Rep 
 WOBA.klb                18.00:  WOB Avg 
 WOBX.klb                30.00:  WOB Max 
 YP  .lhf2               41.00:  Yield Point 
~Curve Information Block
#MNEM.UNIT                 API CODE     Curve Description
#---------               -----------    ---------------------------
 TIME.HHMMSS            00 000 000 000:  GT Time & Date
 GTDEPTH.m              00 000 000 000:  GT Depth
 GTPQH.psia             00 000 000 000:  GT HR Quartz Pressure
 GTTQ.degC              00 000 000 000:  GT Quartz Temperature
 GTTN.NONE              00 000 000 000:  GT Test Number
 GTET.sec               00 000 000 000:  GT Elapsed Test Time
 GTTVD.m                00 000 000 000:  GT True Vertical Depth
#Other Information
#
#WARRANTY: Halliburton will use its best efforts to furnish customers with 
#accurate information and interpretations that are part of, and incident to, the services 
#provided.  However, Halliburton cannot and does not warrant the accuracy 
#or correctness of such information and interpretations.  Under no circumstances should any 
#such information or interpretation be relied upon as the sole basis for any drilling, 
#completion, production, or financial decision or any procedure involving any risk to the 
#safety of any drilling venture, drilling rig or its crew or any other third party.  The 
#Customer has full responsibility for all drilling, completion and production operation.  
#Halliburton makes no representations or warranties, either expressed or 
#implied, including, but not limited to, the implied warranties of merchantability or fitness 
#for a particular purpose, with respect to the services rendered.  In no event will 
#Halliburton be liable for failure to obtain any particular results or for 
#any damages, including, but not limited to, indirect, special or consequential damages, 
#resulting from the use of any information or interpretation provided by Halliburton.
#
~A           TIME           GTDEPTH  GTPQH  GTTQ  GTTN  GTET   GTTVD  
# ...
   03:24:34.234.24-Feb-2020 3366.71 4429.64 55.04 6.00 322.13 2706.89
   03:24:34.435.24-Feb-2020 3366.71 4429.64 55.04 6.00 322.33 2706.89
   03:24:34.635.24-Feb-2020 3366.71 4429.36 55.04 6.00 322.53 2706.89
   03:24:34.835.24-Feb-2020 3366.71 4428.88 55.04 6.00 322.73 2706.89
   03:24:35.035.24-Feb-2020 3366.71 4429.64 55.04 6.00 322.93 2706.89
   03:24:35.235.24-Feb-2020 3366.71 4429.41 55.04 6.00 323.13 2706.89
   03:24:35.435.24-Feb-2020 3366.71 4429.41 55.04 6.00 323.33 2706.89
   03:24:35.635.24-Feb-2020 3366.71 4429.50 55.04 6.00 323.53 2706.89
   03:24:35.835.24-Feb-2020 3366.71 4429.30 55.04 6.00 323.73 2706.89
   03:24:36.035.24-Feb-2020 3366.71 4429.31 55.04 6.00 323.93 2706.89
   03:24:36.235.24-Feb-2020 3366.71 4429.31 55.04 6.00 324.13 2706.89
   03:24:36.435.24-Feb-2020 3366.71 4429.31 55.04 6.00 324.33 2706.89
   03:24:36.635.24-Feb-2020 3366.71 4429.21 55.04 6.00 324.53 2706.89
   03:24:36.836.24-Feb-2020 3366.71 4429.22 55.04 6.00 324.73 2706.89
   03:24:37.036.24-Feb-2020 3366.71 4429.22 55.04 6.00 324.93 2706.89
   03:24:37.236.24-Feb-2020 3366.71 4429.32 55.04 6.00 325.13 2706.89
   03:24:37.436.24-Feb-2020 3366.71 4429.32 55.04 6.00 325.33 2706.89
   03:24:37.636.24-Feb-2020 3366.71 4429.21 55.04 6.00 325.53 2706.89
   03:24:37.836.24-Feb-2020 3366.71 4428.17 55.04 6.00 325.73 2706.89
   03:24:38.036.24-Feb-2020 3366.71 4429.71 55.04 6.00 325.93 2706.89
   03:24:38.236.24-Feb-2020 3366.71 4430.08 55.04 6.00 326.13 2706.89
   03:24:38.436.24-Feb-2020 3366.71 4430.08 55.04 6.00 326.33 2706.89
   03:24:38.636.24-Feb-2020 3366.71 4429.32 55.04 6.00 326.53 2706.89
   03:24:38.836.24-Feb-2020 3366.71 4429.39 55.04 6.00 326.73 2706.89
   03:24:39.036.24-Feb-2020 3366.71 4429.27 55.04 6.00 326.93 2706.89
   03:24:39.236.24-Feb-2020 3366.71 4429.33 55.04 6.00 327.13 2706.89
   03:24:39.437.24-Feb-2020 3366.71 4429.33 55.04 6.00 327.33 2706.89
   03:24:39.637.24-Feb-2020 3366.71 4429.18 55.04 6.00 327.53 2706.89
   03:24:39.837.24-Feb-2020 3366.71 4429.08 55.04 6.00 327.73 2706.89
   03:24:40.037.24-Feb-2020 3366.71 4429.12 55.04 6.00 327.93 2706.89
   03:24:40.237.24-Feb-2020 3366.71 4429.07 55.04 6.00 328.13 2706.89
   03:24:40.437.24-Feb-2020 3366.71 4429.07 55.04 6.00 328.33 2706.89
   03:24:40.637.24-Feb-2020 3366.71 4429.26 55.04 6.00 328.53 2706.89
   03:24:40.837.24-Feb-2020 3366.71 4429.23 55.04 6.00 328.73 2706.89
   03:24:41.037.24-Feb-2020 3366.71 4429.16 55.04 6.00 328.93 2706.89
   03:24:41.237.24-Feb-2020 3366.71 4428.21 55.04 6.00 329.13 2706.89
   03:24:41.437.24-Feb-2020 3366.71 4428.21 55.04 6.00 329.33 2706.89
   03:24:41.637.24-Feb-2020 3366.71 4429.74 55.04 6.00 329.53 2706.89
   03:24:41.838.24-Feb-2020 3366.71 4429.48 55.04 6.00 329.73 2706.89
   03:24:42.038.24-Feb-2020 3366.71 4428.51 55.04 6.00 329.93 2706.89
   03:24:42.238.24-Feb-2020 3366.71 4429.65 55.04 6.00 330.13 2706.89
   03:24:42.438.24-Feb-2020 3366.71 4429.65 55.04 6.00 330.33 2706.89
   03:24:42.638.24-Feb-2020 3366.71 4429.70 55.04 6.00 330.53 2706.89
   03:24:42.838.24-Feb-2020 3366.71 4429.58 55.04 6.00 330.73 2706.89
   03:24:43.038.24-Feb-2020 3366.71 4429.50 55.04 6.00 330.93 2706.89
   03:24:43.238.24-Feb-2020 3366.71 4428.43 55.04 6.00 331.13 2706.89
   03:24:43.438.24-Feb-2020 3366.71 4428.43 55.04 6.00 331.33 2706.89
   03:24:43.638.24-Feb-2020 3366.71 4430.33 55.04 6.00 331.53 2706.89
   03:24:43.838.24-Feb-2020 3366.71 4429.76 55.04 6.00 331.73 2706.89
   03:24:44.038.24-Feb-2020 3366.71 4429.68 55.04 6.00 331.93 2706.89
   03:24:44.238.24-Feb-2020 3366.71 4429.61 55.04 6.00 332.13 2706.89
   03:24:44.439.24-Feb-2020 3366.71 4429.61 55.04 6.00 332.33 2706.89
   03:24:44.639.24-Feb-2020 3366.71 4060.99 55.04 6.00 332.53 2706.89
   03:24:44.839.24-Feb-2020 3366.71 3804.16 55.04 6.00 332.73 2706.89
   03:24:45.039.24-Feb-2020 3366.71 3596.73 55.04 6.00 332.93 2706.89
   03:24:45.239.24-Feb-2020 3366.71 3438.93 55.04 6.00 333.13 2706.89
   03:24:45.439.24-Feb-2020 3366.71 3438.93 55.04 6.00 333.33 2706.89
   03:24:45.639.24-Feb-2020 3366.71 3216.48 55.04 6.00 333.53 2706.89
   03:24:45.839.24-Feb-2020 3366.71 3125.43 55.04 6.00 333.73 2706.89
   03:24:46.039.24-Feb-2020 3366.71 3049.79 55.04 6.00 333.93 2706.89
   03:24:46.239.24-Feb-2020 3366.71 2988.15 55.04 6.00 334.13 2706.89
   03:24:46.439.24-Feb-2020 3366.71 2988.15 55.04 6.00 334.33 2706.89
   03:24:46.639.24-Feb-2020 3366.71 2899.91 55.04 6.00 334.53 2706.89
   03:24:46.840.24-Feb-2020 3366.71 2863.37 55.04 6.00 334.73 2706.89
   03:24:47.040.24-Feb-2020 3366.71 2829.19 55.04 6.00 334.93 2706.89
   03:24:47.240.24-Feb-2020 3366.71 2800.03 55.04 6.00 335.13 2706.89
   03:24:47.440.24-Feb-2020 3366.71 2800.03 55.04 6.00 335.33 2706.89
   03:24:47.640.24-Feb-2020 3366.71 2757.98 55.04 6.00 335.53 2706.89
   03:24:47.840.24-Feb-2020 3366.71 2748.62 55.03 6.00 335.73 2706.89
   03:24:48.040.24-Feb-2020 3366.71 2736.18 55.03 6.00 335.93 2706.89
   03:24:48.240.24-Feb-2020 3366.71 2726.42 55.03 6.00 336.13 2706.89
   03:24:48.440.24-Feb-2020 3366.71 2726.42 55.03 6.00 336.33 2706.89
   03:24:48.640.24-Feb-2020 3366.71 2706.13 55.03 6.00 336.53 2706.89
   03:24:48.840.24-Feb-2020 3366.71 2698.81 55.03 6.00 336.73 2706.89
   03:24:49.040.24-Feb-2020 3366.71 2689.44 55.03 6.00 336.93 2706.89
   03:24:49.240.24-Feb-2020 3366.71 2681.80 55.03 6.00 337.13 2706.89
   03:24:49.441.24-Feb-2020 3366.71 2681.80 55.03 6.00 337.33 2706.89
   03:24:49.641.24-Feb-2020 3366.71 2671.76 55.02 6.00 337.54 2706.89
   03:24:49.841.24-Feb-2020 3366.71 2664.66 55.02 6.00 337.74 2706.89
   03:24:50.041.24-Feb-2020 3366.71 2659.82 55.02 6.00 337.94 2706.89
   03:24:50.241.24-Feb-2020 3366.71 2655.47 55.02 6.00 338.14 2706.89
   03:24:50.441.24-Feb-2020 3366.71 2655.47 55.02 6.00 338.34 2706.89
   03:24:50.641.24-Feb-2020 3366.71 2647.93 55.02 6.00 338.54 2706.89
   03:24:50.841.24-Feb-2020 3366.71 2645.73 55.02 6.00 338.74 2706.89
   03:24:51.041.24-Feb-2020 3366.71 2643.06 55.02 6.00 338.94 2706.89
   03:24:51.241.24-Feb-2020 3366.71 2641.24 55.02 6.00 339.14 2706.89
   03:24:51.441.24-Feb-2020 3366.71 2641.24 55.02 6.00 339.34 2706.89
   03:24:51.641.24-Feb-2020 3366.71 2633.98 55.01 6.00 339.54 2706.89
   03:24:51.842.24-Feb-2020 3366.71 2635.10 55.01 6.00 339.74 2706.89
   03:24:52.042.24-Feb-2020 3366.71 2633.87 55.01 6.00 339.94 2706.89
   03:24:52.242.24-Feb-2020 3366.71 2636.61 55.01 6.00 340.14 2706.89
   03:24:52.442.24-Feb-2020 3366.71 2636.61 55.01 6.00 340.34 2706.89
   03:24:52.642.24-Feb-2020 3366.71 2634.84 55.01 6.00 340.54 2706.89
   03:24:52.842.24-Feb-2020 3366.71 2632.94 55.01 6.00 340.74 2706.89
   03:24:53.042.24-Feb-2020 3366.71 2631.76 55.01 6.00 340.94 2706.89
   03:24:53.242.24-Feb-2020 3366.71 2624.19 55.01 6.00 341.14 2706.89
   03:24:53.442.24-Feb-2020 3366.71 2624.19 55.01 6.00 341.34 2706.89
   03:24:53.642.24-Feb-2020 3366.71 2627.11 55.01 6.00 341.54 2706.89
   03:24:53.842.24-Feb-2020 3366.71 2623.22 55.01 6.00 341.74 2706.89
   03:24:54.042.24-Feb-2020 3366.71 2624.11 55.01 6.00 341.94 2706.89
   03:24:54.242.24-Feb-2020 3366.71 2619.89 55.01 6.00 342.14 2706.89
   03:24:54.443.24-Feb-2020 3366.71 2619.89 55.01 6.00 342.34 2706.89
   03:24:54.643.24-Feb-2020 3366.71 2699.28 55.01 6.00 342.54 2706.89
   03:24:54.843.24-Feb-2020 3366.71 2953.56 55.00 6.00 342.74 2706.89
   03:24:55.043.24-Feb-2020 3366.71 3179.28 55.00 6.00 342.94 2706.89
   03:24:55.243.24-Feb-2020 3366.71 3377.14 55.00 6.00 343.14 2706.89
   03:24:55.443.24-Feb-2020 3366.71 3377.14 55.00 6.00 343.34 2706.89
   03:24:55.643.24-Feb-2020 3366.71 3672.27 55.00 6.00 343.54 2706.89
   03:24:55.843.24-Feb-2020 3366.71 3781.99 55.00 6.00 343.74 2706.89
   03:24:56.043.24-Feb-2020 3366.71 3873.03 55.00 6.00 343.94 2706.89
   03:24:56.243.24-Feb-2020 3366.71 3948.93 55.00 6.00 344.14 2706.89
   03:24:56.443.24-Feb-2020 3366.71 3948.93 55.00 6.00 344.34 2706.89
   03:24:56.643.24-Feb-2020 3366.71 4065.90 55.00 6.00 344.54 2706.89
   03:24:56.844.24-Feb-2020 3366.71 4111.11 55.00 6.00 344.74 2706.89
   03:24:57.044.24-Feb-2020 3366.71 4149.25 55.00 6.00 344.94 2706.89
