~Version Information
 VERS.                  2.0:   CWLS log ASCII Standard -VERSION 2.0
 WRAP.                   NO:   One line per depth step
~Well Information Block
#MNEM.UNIT     VALUE/NAME     DESCRIPTION
#---------     -----------    ---------------------------
 STRT.S             03:19:12 24-Feb-20: START TIME 03:19:12 24-Feb-20
 STOP.S             03:27:48 24-Feb-20: STOP TIME  03:27:48 24-Feb-20
 STEP.S                   0.00: STEP TIME
 NULL.                 -999.25: NULL VALUE
 JOBN.        AZ-XX-0905059384:  JOB TICKET NUMB
 PDAT.          Mean Sea Level:  PERMANENT DATUM
 UNIT.                     N/A:  LOGGING EQUIPMENT ID
 DCON.         Sperry Drilling:  DIRECTNL CONTR
 DOE .                     N/A:  DOE NUMBER
 RIG .             West Chirag:  RIG NAME
 WELL.                     J22:  WELL NAME
 MWDS.                    Baku:  MWD SHOP
 SRVC.     TURAN Drilling & Engineering:  CONTRACTOR
 FLD .                     ACG:  FIELD NAME
 CTRY.              Azerbaijan:  COUNTRY NAME
 PROV.                    Baku:  PROVINCE
 STAT.                    Baku:  STATE NAME
 REGN.                   EESSA:  REGION
 BASE.              Azerbaijan:  LOGGING EQUIPMENT BASE LOCATION
 UWI .                     N/A:  UNIQUE WELL IDENTIFIER
 API .                     N/A:  API NUMBER
 COMP.     BP Exploration (Caspian Sea) Ltd.:  COMPANY
 WTYP.                Deviated:  WELL TYPE
 MDS .        Operator Entered:  MAG DATA SOURCE
 SON .        AZ-XX-0905059384:  JOB NUMBER
 FTOP.          Formation Tops:  FORM TOPS DESC
 ILTD.               Lithology:  INTERP LTH DESC
 SVYD.                  Survey:  SURVEY DESC
 DMOD.             Drill Model:  DRILL MOD DESC
 HPTY.       Minimum Curvature:  HOLE POS TYPE
 NREF.                    Grid:  NORTH REFERENCE
 SPUD.               09-Jan-20:  SPUD DATE
 DATE.      14.04.48 07-Feb-20:  END TIME
 STIM.      07.00.00 09-Jan-20:  START TIME
 DMF .             Drill Floor:  DRILL MEAS FROM
 DFST.                        :  DIST FSL TEXT
 DFWT.                        :  DIST FWL TEXT
 CNTY.                        :  COUNTY
 LOC .                        :  LOCATION
 LMF .             Drill Floor:  LOG MEASURED FROM
 DEP .m                   0.00:  DEPTH
 VSNS.m                  10.28:  VERT SEC N/S
 VSEW.m                  -6.24:  VERT SEC E/W
 AGAP.m                  43.00:  AIR GAP
 APD .m                  43.00:  DEPTH ABOVE PD
 WDMS.m                 169.80:  WD ELEV
 EGL .m                   0.00:  GROUND ELEVATION
 EPD .m                   0.00:  ELEVATION
 AZTC.deg                 6.27:  AZM TOTAL CORR
 GRDC.deg                 0.15:  GRID CORRECTION
 MDEC.deg                 6.42:  MAGNETIC DECL
 MDIP.deg                59.56:  MAGNETIC DIP
 MFLD.nT              50277.00:  MAGNETIC FIELD
 GVFD.g                   1.00:  GRAVITY FIELD
 VSDR.deg               148.53:  VERT SEC DIRECT
 TDD .m                3473.01:  TOTAL DEPTH (DRILLER)
 SDEP.m                 364.00:  START DEPTH
 DFSL.m                   0.00:  DISTANCE FSL
 DFWL.m                   0.00:  DISTANCE FWL
 UTMY.m             4443793.85:  UTM Y
 UTMX.m              519005.06:  UTM X
 WHEW.m                  -6.24:  WELL HEAD E/W
 WHNS.m                  10.28:  WELL HEAD N/S
 LONG.deg                51.22:  LONGITUDE
 LATI.deg                40.13:  LATITUDE
 TVDS.m                  43.00:  TVDSS CORRECTN
 EKB .m                   0.00:  KB ELEVATION
 EDF .m                  43.00:  DF ELEVATION
 TDL .m                 254.00:  TOTAL DEPTH (LOGGER)
 MAGU.                 1850021:  MAGUTM CHECKSUM
 VSC .                       0:  VS TO CLOSURE
~Parameter Information Block
#MNEM.UNIT       Value        Description
#---------     -----------    ---------------------------
 AV  .mps                 0.50:  Ann Velocity 
 AVMX.mps                 1.40:  Max Ann Veloc 
 AZIF.deg               144.94:  Azm, Final 
 BHAT.        Rotary Steerable:  BHA Type 
 BROT.°/30m               0.23:  Build Rotating 
 BS  .in                  8.50:  Bit Size 
 BTPL.psig              264.00:  Bit Press Loss 
 CABU.                     Yes:  Customer Abuse 
 COMM.                     ´á{:  Run Comments 1 
 TCS .hr                 87.30:  Time Ciculation Ended 
 CV  .mps                 2.45:  Crit Velocity 
 CVMX.mps                 2.74:  Max Crit Veloc 
 DD1 .             Aziz Aliyev:  Direct Drillr 1 
 DDSV.               Geo-Pilot:  DD Service 
 DEFF.%                 100.00:  % Det Eff 
 DLRX.°/30m               1.22:  Dogleg Rot Max 
 DLSO.°/30m               0.52:  Dogleg Oriented 
 DLSX.°/30m               1.22:  Dogleg Str Max 
 DRET.      12.59.00 23-Feb-20:  Drill End Time 
 DRST.      09.44.00 18-Feb-20:  Drill Start Tim 
 DTIM.hr                 23.03:  Time Drilling 
 EDEP.m                3473.01:  End Depth 
 ENG1.         Almaz Almadatov:  Engineer 1 
 ENG2.         Dair Mahammadov:  Engineer 2 
 ENG3.          Nazrin Asgarli:  Engineer 3 
 ETIM.      10.33.36 26-Feb-20:  End Time 
 FLOI.gpm               480.00:  Flow In 
 FLON.gpm               300.00:  Flow In Min 
 FLOS.cptm                1.00:  Fluid Loss 
 FLOX.gpm               550.00:  Flow In Max 
 HFLO.                      No:  High Flow 
 HPRE.                      No:  High Pressure 
 HTEM.                      No:  High Temp 
 HYDO.m                   1.80:  Hydro Offset 
 IFIN.deg                74.42:  Inc, Final 
 IMAX.deg                76.14:  Inc Max 
 IMIN.deg                74.42:  Inc Min 
 IMND.m                3462.72:  Inc Min Depth 
 IMXD.m                3235.69:  Inc Max Depth 
 JARR.                      No:  Jarring 
 LETM.      12.59.00 23-Feb-20:  Log End Time 
 LOST.hr                     0:  Lost Rig Time 
 LSTM.      09.44.00 18-Feb-20:  Log Start Time 
 MDCL.ppm             45000.00:  Mud Chlorides 
 MDES.     Inversion Oil/Synthetic:  Mud Desc 
 DFD .sg                  1.38:  Mud Density 
 MDMN.sg                  1.34:  Dens Mud Min 
 MDMX.sg                  1.49:  Dens Mud Max 
 MOIL.                      67:  Run Mud Oil % 
 MOWR.                   67:33:  Run Mud OWR 
 MSND.                    0.12:  Run Mud Sand % 
 MSOL.                      22:  Run Mud Solids% 
 DFV .spqt               81.00:  Mud Viscosity 
 MWOD.in                  6.75:  MWD Tool OD 
 MWSI.                      No:  Serv Intrp, MWD 
 OTIM.hr                231.44:  Time Operating 
 PCON.          Wear / Scratch:  Pad Condition 
 PMAX.psia             3400.00:  Press Op, Max 
 PV  .cP                 55.00:  Mud PV 
 RUN .                     800:  Run Number 
 ROPA.m/hr               12.00:  ROP Avg 
 ROPN.m/hr                5.00:  ROP Min 
 ROPX.m/hr               28.00:  ROP Max 
 RPMA.rpm               120.00:  RPM Surface Avg 
 RPMN.rpm                40.00:  RPM Surface Min 
 RPMX.rpm               130.00:  RPM Surface Max 
 RRUN.                    0800:  Rig Run Number 
 RTIM.hr                 45.00:  Time Reaming 
 SAZI.deg               145.38:  Azm, Start 
 SDEP.m                3219.01:  Start Depth 
 SIDD.                      No:  Serv Intrp, DD 
 SINC.deg                75.11:  Inc, Start 
 SPPA.psig             2400.00:  SPP Avg 
 SPPN.psig             2320.00:  SPP Min 
 SPPX.psig             3200.00:  SPP Max 
 STIM.      15.15.00 17-Feb-20:  Start Time 
 SVCS.                 DD, MWD:  Services 
 SVER.                    9.20:  Sperry Version 
 TDAT.m                 254.00:  Tot Depth Attmp 
 TDDF.                      No:  Trip for DD 
 TDLG.m                 254.00:  Tot Depth Loggd 
 TFF .                      No:  Trip for Fail 
 TQAA.f-kp               13.00:  Torque Abs Avg 
 TQAN.f-kp                7.00:  Torque Abs Min 
 TQAX.f-kp               15.00:  Torque Abs Max 
 TRRT.°/30m               0.21:  Turn Rotating 
 MRT .                  EWR-M5:  Maximum Recorded Temperature 
 TTMX.degC               64.00:  Max Tool Temp 
 VS01.                90586516:  Virtual Str1 SN 
 VS02.                90513691:  Virtual Str2 SN 
 VS03.                90586523:  Virtual Str3 SN 
 VS04.                90586520:  Virtual Str4 SN 
 VS05.                90590507:  Virtual Str5 SN 
 WBMN.klb                12.00:  WOB Min 
 WITN.           Rufat Babayev:  Customer Rep 2 
 WITN.         Alistair Sprott:  Customer Rep 
 WOBA.klb                18.00:  WOB Avg 
 WOBX.klb                30.00:  WOB Max 
 YP  .lhf2               41.00:  Yield Point 
~Curve Information Block
#MNEM.UNIT                 API CODE     Curve Description
#---------               -----------    ---------------------------
 TIME.HHMMSS            00 000 000 000:  GT Time & Date
 GTDEPTH.m              00 000 000 000:  GT Depth
 GTPQH.psia             00 000 000 000:  GT HR Quartz Pressure
 GTTQ.degC              00 000 000 000:  GT Quartz Temperature
 GTTN.NONE              00 000 000 000:  GT Test Number
 GTET.sec               00 000 000 000:  GT Elapsed Test Time
 GTTVD.m                00 000 000 000:  GT True Vertical Depth
#Other Information
#
#WARRANTY: Halliburton will use its best efforts to furnish customers with 
#accurate information and interpretations that are part of, and incident to, the services 
#provided.  However, Halliburton cannot and does not warrant the accuracy 
#or correctness of such information and interpretations.  Under no circumstances should any 
#such information or interpretation be relied upon as the sole basis for any drilling, 
#completion, production, or financial decision or any procedure involving any risk to the 
#safety of any drilling venture, drilling rig or its crew or any other third party.  The 
#Customer has full responsibility for all drilling, completion and production operation.  
#Halliburton makes no representations or warranties, either expressed or 
#implied, including, but not limited to, the implied warranties of merchantability or fitness 
#for a particular purpose, with respect to the services rendered.  In no event will 
#Halliburton be liable for failure to obtain any particular results or for 
#any damages, including, but not limited to, indirect, special or consequential damages, 
#resulting from the use of any information or interpretation provided by Halliburton.
#
~A           TIME           GTDEPTH  GTPQH  GTTQ  GTTN  GTET   GTTVD  
# ...
   03:21:53.170.24-Feb-2020 3366.71 4428.41 55.06 6.00 161.06 2706.89
   03:21:53.370.24-Feb-2020 3366.71 4428.41 55.06 6.00 161.26 2706.89
   03:21:53.570.24-Feb-2020 3366.71 4428.32 55.06 6.00 161.46 2706.89
   03:21:53.770.24-Feb-2020 3366.71 4428.14 55.06 6.00 161.66 2706.89
   03:21:53.970.24-Feb-2020 3366.71 4428.16 55.06 6.00 161.86 2706.89
   03:21:54.170.24-Feb-2020 3366.71 4428.18 55.06 6.00 162.06 2706.89
   03:21:54.371.24-Feb-2020 3366.71 4428.18 55.06 6.00 162.26 2706.89
   03:21:54.571.24-Feb-2020 3366.71 4428.01 55.06 6.00 162.47 2706.89
   03:21:54.771.24-Feb-2020 3366.71 4427.83 55.06 6.00 162.67 2706.89
   03:21:54.971.24-Feb-2020 3366.71 4427.94 55.06 6.00 162.87 2706.89
   03:21:55.171.24-Feb-2020 3366.71 4427.95 55.06 6.00 163.07 2706.89
   03:21:55.371.24-Feb-2020 3366.71 4427.95 55.06 6.00 163.27 2706.89
   03:21:55.571.24-Feb-2020 3366.71 4428.05 55.06 6.00 163.47 2706.89
   03:21:55.771.24-Feb-2020 3366.71 4428.10 55.06 6.00 163.67 2706.89
   03:21:55.971.24-Feb-2020 3366.71 4427.43 55.06 6.00 163.87 2706.89
   03:21:56.171.24-Feb-2020 3366.71 4428.01 55.06 6.00 164.07 2706.89
   03:21:56.371.24-Feb-2020 3366.71 4428.01 55.06 6.00 164.27 2706.89
   03:21:56.571.24-Feb-2020 3366.71 4428.26 55.06 6.00 164.47 2706.89
   03:21:56.771.24-Feb-2020 3366.71 4428.27 55.06 6.00 164.67 2706.89
   03:21:56.972.24-Feb-2020 3366.71 4427.85 55.06 6.00 164.87 2706.89
   03:21:57.172.24-Feb-2020 3366.71 4428.72 55.06 6.00 165.07 2706.89
   03:21:57.372.24-Feb-2020 3366.71 4428.72 55.06 6.00 165.27 2706.89
   03:21:57.572.24-Feb-2020 3366.71 4428.61 55.06 6.00 165.47 2706.89
   03:21:57.772.24-Feb-2020 3366.71 4428.52 55.06 6.00 165.67 2706.89
   03:21:57.972.24-Feb-2020 3366.71 4427.85 55.06 6.00 165.87 2706.89
   03:21:58.172.24-Feb-2020 3366.71 4428.42 55.06 6.00 166.07 2706.89
   03:21:58.372.24-Feb-2020 3366.71 4428.42 55.06 6.00 166.27 2706.89
   03:21:58.572.24-Feb-2020 3366.71 4428.73 55.06 6.00 166.47 2706.89
   03:21:58.772.24-Feb-2020 3366.71 4428.67 55.06 6.00 166.67 2706.89
   03:21:58.972.24-Feb-2020 3366.71 4428.59 55.06 6.00 166.87 2706.89
   03:21:59.172.24-Feb-2020 3366.71 4428.40 55.06 6.00 167.07 2706.89
   03:21:59.373.24-Feb-2020 3366.71 4428.40 55.06 6.00 167.27 2706.89
   03:21:59.573.24-Feb-2020 3366.71 4428.66 55.06 6.00 167.47 2706.89
   03:21:59.773.24-Feb-2020 3366.71 4429.06 55.06 6.00 167.67 2706.89
   03:21:59.973.24-Feb-2020 3366.71 4428.77 55.06 6.00 167.87 2706.89
   03:22:00.173.24-Feb-2020 3366.71 4428.59 55.06 6.00 168.07 2706.89
   03:22:00.373.24-Feb-2020 3366.71 4428.59 55.06 6.00 168.27 2706.89
   03:22:00.573.24-Feb-2020 3366.71 4428.39 55.06 6.00 168.47 2706.89
   03:22:00.773.24-Feb-2020 3366.71 4428.34 55.06 6.00 168.67 2706.89
   03:22:00.973.24-Feb-2020 3366.71 4428.23 55.06 6.00 168.87 2706.89
   03:22:01.173.24-Feb-2020 3366.71 4428.18 55.06 6.00 169.07 2706.89
   03:22:01.373.24-Feb-2020 3366.71 4428.18 55.06 6.00 169.27 2706.89
   03:22:01.573.24-Feb-2020 3366.71 4428.16 55.06 6.00 169.47 2706.89
   03:22:01.773.24-Feb-2020 3366.71 4428.22 55.06 6.00 169.67 2706.89
   03:22:01.974.24-Feb-2020 3366.71 4428.30 55.06 6.00 169.87 2706.89
   03:22:02.174.24-Feb-2020 3366.71 4428.28 55.06 6.00 170.07 2706.89
   03:22:02.374.24-Feb-2020 3366.71 4428.28 55.06 6.00 170.27 2706.89
   03:22:02.574.24-Feb-2020 3366.71 4428.33 55.06 6.00 170.47 2706.89
   03:22:02.774.24-Feb-2020 3366.71 4428.89 55.06 6.00 170.67 2706.89
   03:22:02.974.24-Feb-2020 3366.71 4428.62 55.06 6.00 170.87 2706.89
   03:22:03.174.24-Feb-2020 3366.71 4428.50 55.06 6.00 171.07 2706.89
   03:22:03.374.24-Feb-2020 3366.71 4428.50 55.06 6.00 171.27 2706.89
   03:22:03.574.24-Feb-2020 3366.71 4428.33 55.06 6.00 171.47 2706.89
   03:22:03.774.24-Feb-2020 3366.71 4428.28 55.06 6.00 171.67 2706.89
   03:22:03.974.24-Feb-2020 3366.71 4428.33 55.06 6.00 171.87 2706.89
   03:22:04.174.24-Feb-2020 3366.71 4428.27 55.06 6.00 172.07 2706.89
   03:22:04.375.24-Feb-2020 3366.71 4428.27 55.06 6.00 172.27 2706.89
   03:22:04.575.24-Feb-2020 3366.71 4428.06 55.06 6.00 172.47 2706.89
   03:22:04.775.24-Feb-2020 3366.71 4428.07 55.06 6.00 172.67 2706.89
   03:22:04.975.24-Feb-2020 3366.71 4428.08 55.06 6.00 172.87 2706.89
   03:22:05.175.24-Feb-2020 3366.71 4428.22 55.06 6.00 173.07 2706.89
   03:22:05.375.24-Feb-2020 3366.71 4428.22 55.06 6.00 173.27 2706.89
   03:22:05.575.24-Feb-2020 3366.71 4428.17 55.06 6.00 173.47 2706.89
   03:22:05.775.24-Feb-2020 3366.71 4426.98 55.06 6.00 173.67 2706.89
   03:22:05.975.24-Feb-2020 3366.71 4428.45 55.06 6.00 173.87 2706.89
   03:22:06.175.24-Feb-2020 3366.71 4429.06 55.06 6.00 174.07 2706.89
   03:22:06.375.24-Feb-2020 3366.71 4429.06 55.06 6.00 174.27 2706.89
   03:22:06.575.24-Feb-2020 3366.71 4427.28 55.06 6.00 174.47 2706.89
   03:22:06.775.24-Feb-2020 3366.71 4428.80 55.06 6.00 174.67 2706.89
   03:22:06.976.24-Feb-2020 3366.71 4429.46 55.06 6.00 174.87 2706.89
   03:22:07.176.24-Feb-2020 3366.71 4428.77 55.06 6.00 175.07 2706.89
   03:22:07.376.24-Feb-2020 3366.71 4428.77 55.06 6.00 175.27 2706.89
   03:22:07.576.24-Feb-2020 3366.71 4428.66 55.06 6.00 175.47 2706.89
   03:22:07.776.24-Feb-2020 3366.71 4427.49 55.06 6.00 175.67 2706.89
   03:22:07.976.24-Feb-2020 3366.71 4428.87 55.06 6.00 175.87 2706.89
   03:22:08.176.24-Feb-2020 3366.71 4429.49 55.06 6.00 176.07 2706.89
   03:22:08.376.24-Feb-2020 3366.71 4429.49 55.06 6.00 176.27 2706.89
   03:22:08.576.24-Feb-2020 3366.71 4428.77 55.06 6.00 176.47 2706.89
   03:22:08.776.24-Feb-2020 3366.71 4428.69 55.06 6.00 176.67 2706.89
   03:22:08.976.24-Feb-2020 3366.71 4428.57 55.06 6.00 176.87 2706.89
   03:22:09.176.24-Feb-2020 3366.71 4427.40 55.06 6.00 177.07 2706.89
   03:22:09.377.24-Feb-2020 3366.71 4427.40 55.06 6.00 177.27 2706.89
   03:22:09.577.24-Feb-2020 3366.71 4429.40 55.06 6.00 177.47 2706.89
   03:22:09.777.24-Feb-2020 3366.71 4428.76 55.06 6.00 177.67 2706.89
   03:22:09.977.24-Feb-2020 3366.71 4428.59 55.06 6.00 177.87 2706.89
   03:22:10.177.24-Feb-2020 3366.71 4428.65 55.06 6.00 178.07 2706.89
   03:22:10.377.24-Feb-2020 3366.71 4428.65 55.06 6.00 178.27 2706.89
   03:22:10.577.24-Feb-2020 3366.71 4428.43 55.06 6.00 178.47 2706.89
   03:22:10.777.24-Feb-2020 3366.71 4428.39 55.06 6.00 178.67 2706.89
   03:22:10.977.24-Feb-2020 3366.71 4428.35 55.06 6.00 178.87 2706.89
   03:22:11.177.24-Feb-2020 3366.71 4428.35 55.06 6.00 179.07 2706.89
   03:22:11.377.24-Feb-2020 3366.71 4428.36 55.06 6.00 179.27 2706.89
   03:22:11.577.24-Feb-2020 3366.71 4428.43 55.06 6.00 179.47 2706.89
   03:22:11.777.24-Feb-2020 3366.71 4428.44 55.06 6.00 179.67 2706.89
   03:22:11.978.24-Feb-2020 3366.71 4428.47 55.06 6.00 179.87 2706.89
   03:22:12.178.24-Feb-2020 3366.71 4428.31 55.06 6.00 180.07 2706.89
   03:22:12.378.24-Feb-2020 3366.71 4427.99 55.06 6.00 180.27 2706.89
   03:22:12.578.24-Feb-2020 3366.71 4429.01 55.06 6.00 180.47 2706.89
   03:22:12.778.24-Feb-2020 3366.71 4428.69 55.06 6.00 180.67 2706.89
   03:22:12.978.24-Feb-2020 3366.71 4428.68 55.06 6.00 180.87 2706.89
   03:22:13.178.24-Feb-2020 3366.71 4428.66 55.06 6.00 181.07 2706.89
   03:22:13.378.24-Feb-2020 3366.71 4428.66 55.06 6.00 181.27 2706.89
   03:22:13.578.24-Feb-2020 3366.71 4428.45 55.06 6.00 181.47 2706.89
   03:22:13.778.24-Feb-2020 3366.71 4428.49 55.06 6.00 181.67 2706.89
   03:22:13.978.24-Feb-2020 3366.71 4428.44 55.06 6.00 181.87 2706.89
   03:22:14.178.24-Feb-2020 3366.71 4428.22 55.06 6.00 182.07 2706.89
   03:22:14.379.24-Feb-2020 3366.71 4428.24 55.06 6.00 182.27 2706.89
   03:22:14.579.24-Feb-2020 3366.71 4428.30 55.06 6.00 182.47 2706.89
   03:22:14.779.24-Feb-2020 3366.71 4428.24 55.06 6.00 182.67 2706.89
   03:22:14.979.24-Feb-2020 3366.71 4428.36 55.06 6.00 182.87 2706.89
   03:22:15.179.24-Feb-2020 3366.71 4428.43 55.06 6.00 183.07 2706.89
   03:22:15.379.24-Feb-2020 3366.71 4428.43 55.06 6.00 183.27 2706.89
   03:22:15.579.24-Feb-2020 3366.71 4427.79 55.06 6.00 183.47 2706.89
   03:22:15.779.24-Feb-2020 3366.71 4428.42 55.06 6.00 183.67 2706.89
   03:22:15.979.24-Feb-2020 3366.71 4428.82 55.06 6.00 183.87 2706.89
