~Version Information
 VERS.                  2.0:   CWLS log ASCII Standard -VERSION 2.0
 WRAP.                   NO:   One line per depth step
~Well Information Block
#MNEM.UNIT     VALUE/NAME     DESCRIPTION
#---------     -----------    ---------------------------
 STRT.S             02:47:37 24-Feb-20: START TIME 02:47:37 24-Feb-20
 STOP.S             02:54:57 24-Feb-20: STOP TIME  02:54:57 24-Feb-20
 STEP.S                   0.00: STEP TIME
 NULL.                 -999.25: NULL VALUE
 JOBN.        AZ-XX-0905059384:  JOB TICKET NUMB
 PDAT.          Mean Sea Level:  PERMANENT DATUM
 UNIT.                     N/A:  LOGGING EQUIPMENT ID
 DCON.         Sperry Drilling:  DIRECTNL CONTR
 DOE .                     N/A:  DOE NUMBER
 RIG .             West Chirag:  RIG NAME
 WELL.                     J22:  WELL NAME
 MWDS.                    Baku:  MWD SHOP
 SRVC.     TURAN Drilling & Engineering:  CONTRACTOR
 FLD .                     ACG:  FIELD NAME
 CTRY.              Azerbaijan:  COUNTRY NAME
 PROV.                    Baku:  PROVINCE
 STAT.                    Baku:  STATE NAME
 REGN.                   EESSA:  REGION
 BASE.              Azerbaijan:  LOGGING EQUIPMENT BASE LOCATION
 UWI .                     N/A:  UNIQUE WELL IDENTIFIER
 API .                     N/A:  API NUMBER
 COMP.     BP Exploration (Caspian Sea) Ltd.:  COMPANY
 WTYP.                Deviated:  WELL TYPE
 MDS .        Operator Entered:  MAG DATA SOURCE
 SON .        AZ-XX-0905059384:  JOB NUMBER
 FTOP.          Formation Tops:  FORM TOPS DESC
 ILTD.               Lithology:  INTERP LTH DESC
 SVYD.                  Survey:  SURVEY DESC
 DMOD.             Drill Model:  DRILL MOD DESC
 HPTY.       Minimum Curvature:  HOLE POS TYPE
 NREF.                    Grid:  NORTH REFERENCE
 SPUD.               09-Jan-20:  SPUD DATE
 DATE.      14.04.48 07-Feb-20:  END TIME
 STIM.      07.00.00 09-Jan-20:  START TIME
 DMF .             Drill Floor:  DRILL MEAS FROM
 DFST.                        :  DIST FSL TEXT
 DFWT.                        :  DIST FWL TEXT
 CNTY.                        :  COUNTY
 LOC .                        :  LOCATION
 LMF .             Drill Floor:  LOG MEASURED FROM
 DEP .m                   0.00:  DEPTH
 VSNS.m                  10.28:  VERT SEC N/S
 VSEW.m                  -6.24:  VERT SEC E/W
 AGAP.m                  43.00:  AIR GAP
 APD .m                  43.00:  DEPTH ABOVE PD
 WDMS.m                 169.80:  WD ELEV
 EGL .m                   0.00:  GROUND ELEVATION
 EPD .m                   0.00:  ELEVATION
 AZTC.deg                 6.27:  AZM TOTAL CORR
 GRDC.deg                 0.15:  GRID CORRECTION
 MDEC.deg                 6.42:  MAGNETIC DECL
 MDIP.deg                59.56:  MAGNETIC DIP
 MFLD.nT              50277.00:  MAGNETIC FIELD
 GVFD.g                   1.00:  GRAVITY FIELD
 VSDR.deg               148.53:  VERT SEC DIRECT
 TDD .m                3473.01:  TOTAL DEPTH (DRILLER)
 SDEP.m                 364.00:  START DEPTH
 DFSL.m                   0.00:  DISTANCE FSL
 DFWL.m                   0.00:  DISTANCE FWL
 UTMY.m             4443793.85:  UTM Y
 UTMX.m              519005.06:  UTM X
 WHEW.m                  -6.24:  WELL HEAD E/W
 WHNS.m                  10.28:  WELL HEAD N/S
 LONG.deg                51.22:  LONGITUDE
 LATI.deg                40.13:  LATITUDE
 TVDS.m                  43.00:  TVDSS CORRECTN
 EKB .m                   0.00:  KB ELEVATION
 EDF .m                  43.00:  DF ELEVATION
 TDL .m                 254.00:  TOTAL DEPTH (LOGGER)
 MAGU.                 1850021:  MAGUTM CHECKSUM
 VSC .                       0:  VS TO CLOSURE
~Parameter Information Block
#MNEM.UNIT       Value        Description
#---------     -----------    ---------------------------
 AV  .mps                 0.50:  Ann Velocity 
 AVMX.mps                 1.40:  Max Ann Veloc 
 AZIF.deg               144.94:  Azm, Final 
 BHAT.        Rotary Steerable:  BHA Type 
 BROT.°/30m               0.23:  Build Rotating 
 BS  .in                  8.50:  Bit Size 
 BTPL.psig              264.00:  Bit Press Loss 
 CABU.                     Yes:  Customer Abuse 
 COMM.                     D
_:  Run Comments 1 
 TCS .hr                 87.30:  Time Ciculation Ended 
 CV  .mps                 2.45:  Crit Velocity 
 CVMX.mps                 2.74:  Max Crit Veloc 
 DD1 .             Aziz Aliyev:  Direct Drillr 1 
 DDSV.               Geo-Pilot:  DD Service 
 DEFF.%                 100.00:  % Det Eff 
 DLRX.°/30m               1.22:  Dogleg Rot Max 
 DLSO.°/30m               0.52:  Dogleg Oriented 
 DLSX.°/30m               1.22:  Dogleg Str Max 
 DRET.      12.59.00 23-Feb-20:  Drill End Time 
 DRST.      09.44.00 18-Feb-20:  Drill Start Tim 
 DTIM.hr                 23.03:  Time Drilling 
 EDEP.m                3473.01:  End Depth 
 ENG1.         Almaz Almadatov:  Engineer 1 
 ENG2.         Dair Mahammadov:  Engineer 2 
 ENG3.          Nazrin Asgarli:  Engineer 3 
 ETIM.      10.33.36 26-Feb-20:  End Time 
 FLOI.gpm               480.00:  Flow In 
 FLON.gpm               300.00:  Flow In Min 
 FLOS.cptm                1.00:  Fluid Loss 
 FLOX.gpm               550.00:  Flow In Max 
 HFLO.                      No:  High Flow 
 HPRE.                      No:  High Pressure 
 HTEM.                      No:  High Temp 
 HYDO.m                   1.80:  Hydro Offset 
 IFIN.deg                74.42:  Inc, Final 
 IMAX.deg                76.14:  Inc Max 
 IMIN.deg                74.42:  Inc Min 
 IMND.m                3462.72:  Inc Min Depth 
 IMXD.m                3235.69:  Inc Max Depth 
 JARR.                      No:  Jarring 
 LETM.      12.59.00 23-Feb-20:  Log End Time 
 LOST.hr                     0:  Lost Rig Time 
 LSTM.      09.44.00 18-Feb-20:  Log Start Time 
 MDCL.ppm             45000.00:  Mud Chlorides 
 MDES.     Inversion Oil/Synthetic:  Mud Desc 
 DFD .sg                  1.38:  Mud Density 
 MDMN.sg                  1.34:  Dens Mud Min 
 MDMX.sg                  1.49:  Dens Mud Max 
 MOIL.                      67:  Run Mud Oil % 
 MOWR.                   67:33:  Run Mud OWR 
 MSND.                    0.12:  Run Mud Sand % 
 MSOL.                      22:  Run Mud Solids% 
 DFV .spqt               81.00:  Mud Viscosity 
 MWOD.in                  6.75:  MWD Tool OD 
 MWSI.                      No:  Serv Intrp, MWD 
 OTIM.hr                231.44:  Time Operating 
 PCON.          Wear / Scratch:  Pad Condition 
 PMAX.psia             3400.00:  Press Op, Max 
 PV  .cP                 55.00:  Mud PV 
 RUN .                     800:  Run Number 
 ROPA.m/hr               12.00:  ROP Avg 
 ROPN.m/hr                5.00:  ROP Min 
 ROPX.m/hr               28.00:  ROP Max 
 RPMA.rpm               120.00:  RPM Surface Avg 
 RPMN.rpm                40.00:  RPM Surface Min 
 RPMX.rpm               130.00:  RPM Surface Max 
 RRUN.                    0800:  Rig Run Number 
 RTIM.hr                 45.00:  Time Reaming 
 SAZI.deg               145.38:  Azm, Start 
 SDEP.m                3219.01:  Start Depth 
 SIDD.                      No:  Serv Intrp, DD 
 SINC.deg                75.11:  Inc, Start 
 SPPA.psig             2400.00:  SPP Avg 
 SPPN.psig             2320.00:  SPP Min 
 SPPX.psig             3200.00:  SPP Max 
 STIM.      15.15.00 17-Feb-20:  Start Time 
 SVCS.                 DD, MWD:  Services 
 SVER.                    9.20:  Sperry Version 
 TDAT.m                 254.00:  Tot Depth Attmp 
 TDDF.                      No:  Trip for DD 
 TDLG.m                 254.00:  Tot Depth Loggd 
 TFF .                      No:  Trip for Fail 
 TQAA.f-kp               13.00:  Torque Abs Avg 
 TQAN.f-kp                7.00:  Torque Abs Min 
 TQAX.f-kp               15.00:  Torque Abs Max 
 TRRT.°/30m               0.21:  Turn Rotating 
 MRT .                  EWR-M5:  Maximum Recorded Temperature 
 TTMX.degC               64.00:  Max Tool Temp 
 VS01.                90586516:  Virtual Str1 SN 
 VS02.                90513691:  Virtual Str2 SN 
 VS03.                90586523:  Virtual Str3 SN 
 VS04.                90586520:  Virtual Str4 SN 
 VS05.                90590507:  Virtual Str5 SN 
 WBMN.klb                12.00:  WOB Min 
 WITN.           Rufat Babayev:  Customer Rep 2 
 WITN.         Alistair Sprott:  Customer Rep 
 WOBA.klb                18.00:  WOB Avg 
 WOBX.klb                30.00:  WOB Max 
 YP  .lhf2               41.00:  Yield Point 
~Curve Information Block
#MNEM.UNIT                 API CODE     Curve Description
#---------               -----------    ---------------------------
 TIME.HHMMSS            00 000 000 000:  GT Time & Date
 GTDEPTH.m              00 000 000 000:  GT Depth
 GTPQH.psia             00 000 000 000:  GT HR Quartz Pressure
 GTTQ.degC              00 000 000 000:  GT Quartz Temperature
 GTTN.NONE              00 000 000 000:  GT Test Number
 GTET.sec               00 000 000 000:  GT Elapsed Test Time
 GTTVD.m                00 000 000 000:  GT True Vertical Depth
#Other Information
#
#WARRANTY: Halliburton will use its best efforts to furnish customers with 
#accurate information and interpretations that are part of, and incident to, the services 
#provided.  However, Halliburton cannot and does not warrant the accuracy 
#or correctness of such information and interpretations.  Under no circumstances should any 
#such information or interpretation be relied upon as the sole basis for any drilling, 
#completion, production, or financial decision or any procedure involving any risk to the 
#safety of any drilling venture, drilling rig or its crew or any other third party.  The 
#Customer has full responsibility for all drilling, completion and production operation.  
#Halliburton makes no representations or warranties, either expressed or 
#implied, including, but not limited to, the implied warranties of merchantability or fitness 
#for a particular purpose, with respect to the services rendered.  In no event will 
#Halliburton be liable for failure to obtain any particular results or for 
#any damages, including, but not limited to, indirect, special or consequential damages, 
#resulting from the use of any information or interpretation provided by Halliburton.
#
~A           TIME           GTDEPTH  GTPQH  GTTQ  GTTN  GTET   GTTVD  
# ...
   02:49:55.403.24-Feb-2020 3375.51 4204.04 55.85 5.00 138.06 2709.14
   02:49:55.603.24-Feb-2020 3375.51 4204.04 55.85 5.00 138.26 2709.14
   02:49:55.803.24-Feb-2020 3375.51 4204.01 55.85 5.00 138.46 2709.14
   02:49:56.003.24-Feb-2020 3375.51 4204.03 55.85 5.00 138.66 2709.14
   02:49:56.203.24-Feb-2020 3375.51 4204.04 55.85 5.00 138.86 2709.14
   02:49:56.403.24-Feb-2020 3375.51 4204.06 55.85 5.00 139.06 2709.14
   02:49:56.603.24-Feb-2020 3375.51 4204.06 55.85 5.00 139.26 2709.14
   02:49:56.803.24-Feb-2020 3375.51 4203.99 55.85 5.00 139.46 2709.14
   02:49:57.003.24-Feb-2020 3375.51 4204.01 55.85 5.00 139.66 2709.14
   02:49:57.203.24-Feb-2020 3375.51 4204.04 55.85 5.00 139.86 2709.14
   02:49:57.403.24-Feb-2020 3375.51 4204.06 55.85 5.00 140.06 2709.14
   02:49:57.604.24-Feb-2020 3375.51 4204.06 55.85 5.00 140.26 2709.14
   02:49:57.804.24-Feb-2020 3375.51 4204.01 55.85 5.00 140.46 2709.14
   02:49:58.004.24-Feb-2020 3375.51 4204.01 55.85 5.00 140.66 2709.14
   02:49:58.204.24-Feb-2020 3375.51 4204.05 55.85 5.00 140.86 2709.14
   02:49:58.404.24-Feb-2020 3375.51 4204.07 55.85 5.00 141.06 2709.14
   02:49:58.604.24-Feb-2020 3375.51 4204.07 55.85 5.00 141.26 2709.14
   02:49:58.804.24-Feb-2020 3375.51 4204.09 55.85 5.00 141.46 2709.14
   02:49:59.004.24-Feb-2020 3375.51 4204.07 55.85 5.00 141.66 2709.14
   02:49:59.204.24-Feb-2020 3375.51 4204.05 55.85 5.00 141.86 2709.14
   02:49:59.404.24-Feb-2020 3375.51 4204.09 55.85 5.00 142.06 2709.14
   02:49:59.604.24-Feb-2020 3375.51 4204.09 55.85 5.00 142.26 2709.14
   02:49:59.804.24-Feb-2020 3375.51 4204.09 55.85 5.00 142.46 2709.14
   02:50:00.004.24-Feb-2020 3375.51 4204.05 55.85 5.00 142.66 2709.14
   02:50:00.205.24-Feb-2020 3375.51 4204.02 55.85 5.00 142.86 2709.14
   02:50:00.405.24-Feb-2020 3375.51 4204.10 55.85 5.00 143.06 2709.14
   02:50:00.605.24-Feb-2020 3375.51 4204.10 55.85 5.00 143.26 2709.14
   02:50:00.805.24-Feb-2020 3375.51 4203.98 55.85 5.00 143.46 2709.14
   02:50:01.005.24-Feb-2020 3375.51 4204.08 55.85 5.00 143.66 2709.14
   02:50:01.205.24-Feb-2020 3375.51 4203.58 55.85 5.00 143.86 2709.14
   02:50:01.405.24-Feb-2020 3375.51 4204.48 55.85 5.00 144.06 2709.14
   02:50:01.605.24-Feb-2020 3375.51 4204.20 55.85 5.00 144.26 2709.14
   02:50:01.805.24-Feb-2020 3375.51 4203.90 55.85 5.00 144.46 2709.14
   02:50:02.005.24-Feb-2020 3375.51 4204.05 55.85 5.00 144.66 2709.14
   02:50:02.205.24-Feb-2020 3375.51 4204.01 55.85 5.00 144.86 2709.14
   02:50:02.405.24-Feb-2020 3375.51 4204.02 55.85 5.00 145.06 2709.14
   02:50:02.606.24-Feb-2020 3375.51 4204.02 55.85 5.00 145.26 2709.14
   02:50:02.806.24-Feb-2020 3375.51 4203.99 55.85 5.00 145.46 2709.14
   02:50:03.006.24-Feb-2020 3375.51 4204.03 55.85 5.00 145.66 2709.14
   02:50:03.206.24-Feb-2020 3375.51 4204.02 55.85 5.00 145.86 2709.14
   02:50:03.406.24-Feb-2020 3375.51 4204.02 55.85 5.00 146.06 2709.14
   02:50:03.606.24-Feb-2020 3375.51 4204.02 55.85 5.00 146.26 2709.14
   02:50:03.806.24-Feb-2020 3375.51 4204.03 55.85 5.00 146.46 2709.14
   02:50:04.006.24-Feb-2020 3375.51 4204.01 55.85 5.00 146.66 2709.14
   02:50:04.206.24-Feb-2020 3375.51 4203.98 55.85 5.00 146.86 2709.14
   02:50:04.406.24-Feb-2020 3375.51 4204.08 55.85 5.00 147.06 2709.14
   02:50:04.606.24-Feb-2020 3375.51 4204.08 55.85 5.00 147.26 2709.14
   02:50:04.806.24-Feb-2020 3375.51 4203.97 55.85 5.00 147.46 2709.14
   02:50:05.006.24-Feb-2020 3375.51 4203.93 55.85 5.00 147.66 2709.14
   02:50:05.207.24-Feb-2020 3375.51 4204.02 55.85 5.00 147.86 2709.14
   02:50:05.407.24-Feb-2020 3375.51 4203.96 55.85 5.00 148.06 2709.14
   02:50:05.607.24-Feb-2020 3375.51 4203.96 55.85 5.00 148.26 2709.14
   02:50:05.807.24-Feb-2020 3375.51 4204.03 55.85 5.00 148.46 2709.14
   02:50:06.007.24-Feb-2020 3375.51 4204.05 55.85 5.00 148.66 2709.14
   02:50:06.207.24-Feb-2020 3375.51 4203.99 55.85 5.00 148.86 2709.14
   02:50:06.407.24-Feb-2020 3375.51 4203.98 55.85 5.00 149.06 2709.14
   02:50:06.607.24-Feb-2020 3375.51 4203.98 55.85 5.00 149.26 2709.14
   02:50:06.807.24-Feb-2020 3375.51 4204.02 55.85 5.00 149.46 2709.14
   02:50:07.007.24-Feb-2020 3375.51 4204.03 55.85 5.00 149.66 2709.14
   02:50:07.207.24-Feb-2020 3375.51 4204.00 55.85 5.00 149.86 2709.14
   02:50:07.407.24-Feb-2020 3375.51 4203.99 55.85 5.00 150.06 2709.14
   02:50:07.608.24-Feb-2020 3375.51 4203.99 55.85 5.00 150.26 2709.14
   02:50:07.808.24-Feb-2020 3375.51 4204.46 55.85 5.00 150.46 2709.14
   02:50:08.008.24-Feb-2020 3375.51 4204.15 55.85 5.00 150.66 2709.14
   02:50:08.208.24-Feb-2020 3375.51 4203.91 55.85 5.00 150.86 2709.14
   02:50:08.408.24-Feb-2020 3375.51 4204.01 55.85 5.00 151.06 2709.14
   02:50:08.608.24-Feb-2020 3375.51 4204.01 55.85 5.00 151.26 2709.14
   02:50:08.808.24-Feb-2020 3375.51 4204.56 55.85 5.00 151.46 2709.14
   02:50:09.008.24-Feb-2020 3375.51 4203.92 55.85 5.00 151.66 2709.14
   02:50:09.208.24-Feb-2020 3375.51 4204.05 55.85 5.00 151.86 2709.14
   02:50:09.408.24-Feb-2020 3375.51 4204.00 55.85 5.00 152.06 2709.14
   02:50:09.608.24-Feb-2020 3375.51 4204.00 55.85 5.00 152.26 2709.14
   02:50:09.808.24-Feb-2020 3375.51 4203.56 55.85 5.00 152.46 2709.14
   02:50:10.008.24-Feb-2020 3375.51 4204.51 55.85 5.00 152.66 2709.14
   02:50:10.209.24-Feb-2020 3375.51 4204.16 55.85 5.00 152.86 2709.14
   02:50:10.409.24-Feb-2020 3375.51 4203.96 55.85 5.00 153.06 2709.14
   02:50:10.609.24-Feb-2020 3375.51 4203.96 55.85 5.00 153.26 2709.14
   02:50:10.809.24-Feb-2020 3375.51 4204.01 55.85 5.00 153.46 2709.14
   02:50:11.009.24-Feb-2020 3375.51 4204.07 55.85 5.00 153.66 2709.14
   02:50:11.209.24-Feb-2020 3375.51 4204.07 55.85 5.00 153.86 2709.14
   02:50:11.409.24-Feb-2020 3375.51 4203.88 55.85 5.00 154.06 2709.14
   02:50:11.609.24-Feb-2020 3375.51 4203.88 55.85 5.00 154.26 2709.14
   02:50:11.809.24-Feb-2020 3375.51 4204.00 55.85 5.00 154.46 2709.14
   02:50:12.009.24-Feb-2020 3375.51 4203.95 55.85 5.00 154.66 2709.14
   02:50:12.209.24-Feb-2020 3375.51 4203.97 55.85 5.00 154.86 2709.14
   02:50:12.409.24-Feb-2020 3375.51 4203.99 55.85 5.00 155.06 2709.14
   02:50:12.610.24-Feb-2020 3375.51 4203.99 55.85 5.00 155.26 2709.14
   02:50:12.810.24-Feb-2020 3375.51 4204.00 55.85 5.00 155.46 2709.14
   02:50:13.010.24-Feb-2020 3375.51 4203.99 55.85 5.00 155.66 2709.14
   02:50:13.210.24-Feb-2020 3375.51 4203.98 55.85 5.00 155.86 2709.14
   02:50:13.410.24-Feb-2020 3375.51 4204.02 55.85 5.00 156.06 2709.14
   02:50:13.610.24-Feb-2020 3375.51 4204.02 55.85 5.00 156.26 2709.14
   02:50:13.810.24-Feb-2020 3375.51 4203.57 55.85 5.00 156.46 2709.14
   02:50:14.010.24-Feb-2020 3375.51 4204.41 55.85 5.00 156.66 2709.14
   02:50:14.210.24-Feb-2020 3375.51 4203.99 55.85 5.00 156.86 2709.14
   02:50:14.410.24-Feb-2020 3375.51 4204.01 55.84 5.00 157.06 2709.14
   02:50:14.610.24-Feb-2020 3375.51 4204.01 55.84 5.00 157.26 2709.14
   02:50:14.810.24-Feb-2020 3375.51 4204.01 55.84 5.00 157.46 2709.14
   02:50:15.010.24-Feb-2020 3375.51 4203.90 55.84 5.00 157.66 2709.14
   02:50:15.211.24-Feb-2020 3375.51 4203.97 55.84 5.00 157.86 2709.14
   02:50:15.411.24-Feb-2020 3375.51 4203.96 55.84 5.00 158.06 2709.14
   02:50:15.611.24-Feb-2020 3375.51 4203.96 55.84 5.00 158.26 2709.14
   02:50:15.811.24-Feb-2020 3375.51 4203.99 55.84 5.00 158.46 2709.14
   02:50:16.011.24-Feb-2020 3375.51 4203.99 55.84 5.00 158.66 2709.14
   02:50:16.211.24-Feb-2020 3375.51 4203.92 55.84 5.00 158.86 2709.14
   02:50:16.411.24-Feb-2020 3375.51 4203.97 55.84 5.00 159.06 2709.14
   02:50:16.611.24-Feb-2020 3375.51 4203.97 55.84 5.00 159.26 2709.14
   02:50:16.811.24-Feb-2020 3375.51 4204.00 55.84 5.00 159.46 2709.14
   02:50:17.011.24-Feb-2020 3375.51 4203.95 55.84 5.00 159.66 2709.14
   02:50:17.211.24-Feb-2020 3375.51 4204.00 55.84 5.00 159.86 2709.14
   02:50:17.411.24-Feb-2020 3375.51 4203.95 55.84 5.00 160.06 2709.14
   02:50:17.612.24-Feb-2020 3375.51 4203.95 55.84 5.00 160.26 2709.14
   02:50:17.812.24-Feb-2020 3375.51 4203.97 55.84 5.00 160.46 2709.14
   02:50:18.012.24-Feb-2020 3375.51 4203.99 55.84 5.00 160.66 2709.14
   02:50:18.212.24-Feb-2020 3375.51 4204.00 55.84 5.00 160.86 2709.14
