~Version Information
 VERS.                  2.0:   CWLS log ASCII Standard -VERSION 2.0
 WRAP.                   NO:   One line per depth step
~Well Information Block
#MNEM.UNIT     VALUE/NAME     DESCRIPTION
#---------     -----------    ---------------------------
 STRT.S             03:19:12 24-Feb-20: START TIME 03:19:12 24-Feb-20
 STOP.S             03:27:48 24-Feb-20: STOP TIME  03:27:48 24-Feb-20
 STEP.S                   0.00: STEP TIME
 NULL.                 -999.25: NULL VALUE
 JOBN.        AZ-XX-0905059384:  JOB TICKET NUMB
 PDAT.          Mean Sea Level:  PERMANENT DATUM
 UNIT.                     N/A:  LOGGING EQUIPMENT ID
 DCON.         Sperry Drilling:  DIRECTNL CONTR
 DOE .                     N/A:  DOE NUMBER
 RIG .             West Chirag:  RIG NAME
 WELL.                     J22:  WELL NAME
 MWDS.                    Baku:  MWD SHOP
 SRVC.     TURAN Drilling & Engineering:  CONTRACTOR
 FLD .                     ACG:  FIELD NAME
 CTRY.              Azerbaijan:  COUNTRY NAME
 PROV.                    Baku:  PROVINCE
 STAT.                    Baku:  STATE NAME
 REGN.                   EESSA:  REGION
 BASE.              Azerbaijan:  LOGGING EQUIPMENT BASE LOCATION
 UWI .                     N/A:  UNIQUE WELL IDENTIFIER
 API .                     N/A:  API NUMBER
 COMP.     BP Exploration (Caspian Sea) Ltd.:  COMPANY
 WTYP.                Deviated:  WELL TYPE
 MDS .        Operator Entered:  MAG DATA SOURCE
 SON .        AZ-XX-0905059384:  JOB NUMBER
 FTOP.          Formation Tops:  FORM TOPS DESC
 ILTD.               Lithology:  INTERP LTH DESC
 SVYD.                  Survey:  SURVEY DESC
 DMOD.             Drill Model:  DRILL MOD DESC
 HPTY.       Minimum Curvature:  HOLE POS TYPE
 NREF.                    Grid:  NORTH REFERENCE
 SPUD.               09-Jan-20:  SPUD DATE
 DATE.      14.04.48 07-Feb-20:  END TIME
 STIM.      07.00.00 09-Jan-20:  START TIME
 DMF .             Drill Floor:  DRILL MEAS FROM
 DFST.                        :  DIST FSL TEXT
 DFWT.                        :  DIST FWL TEXT
 CNTY.                        :  COUNTY
 LOC .                        :  LOCATION
 LMF .             Drill Floor:  LOG MEASURED FROM
 DEP .m                   0.00:  DEPTH
 VSNS.m                  10.28:  VERT SEC N/S
 VSEW.m                  -6.24:  VERT SEC E/W
 AGAP.m                  43.00:  AIR GAP
 APD .m                  43.00:  DEPTH ABOVE PD
 WDMS.m                 169.80:  WD ELEV
 EGL .m                   0.00:  GROUND ELEVATION
 EPD .m                   0.00:  ELEVATION
 AZTC.deg                 6.27:  AZM TOTAL CORR
 GRDC.deg                 0.15:  GRID CORRECTION
 MDEC.deg                 6.42:  MAGNETIC DECL
 MDIP.deg                59.56:  MAGNETIC DIP
 MFLD.nT              50277.00:  MAGNETIC FIELD
 GVFD.g                   1.00:  GRAVITY FIELD
 VSDR.deg               148.53:  VERT SEC DIRECT
 TDD .m                3473.01:  TOTAL DEPTH (DRILLER)
 SDEP.m                 364.00:  START DEPTH
 DFSL.m                   0.00:  DISTANCE FSL
 DFWL.m                   0.00:  DISTANCE FWL
 UTMY.m             4443793.85:  UTM Y
 UTMX.m              519005.06:  UTM X
 WHEW.m                  -6.24:  WELL HEAD E/W
 WHNS.m                  10.28:  WELL HEAD N/S
 LONG.deg                51.22:  LONGITUDE
 LATI.deg                40.13:  LATITUDE
 TVDS.m                  43.00:  TVDSS CORRECTN
 EKB .m                   0.00:  KB ELEVATION
 EDF .m                  43.00:  DF ELEVATION
 TDL .m                 254.00:  TOTAL DEPTH (LOGGER)
 MAGU.                 1850021:  MAGUTM CHECKSUM
 VSC .                       0:  VS TO CLOSURE
~Parameter Information Block
#MNEM.UNIT       Value        Description
#---------     -----------    ---------------------------
 AV  .mps                 0.50:  Ann Velocity 
 AVMX.mps                 1.40:  Max Ann Veloc 
 AZIF.deg               144.94:  Azm, Final 
 BHAT.        Rotary Steerable:  BHA Type 
 BROT.°/30m               0.23:  Build Rotating 
 BS  .in                  8.50:  Bit Size 
 BTPL.psig              264.00:  Bit Press Loss 
 CABU.                     Yes:  Customer Abuse 
 COMM.                     ´á{:  Run Comments 1 
 TCS .hr                 87.30:  Time Ciculation Ended 
 CV  .mps                 2.45:  Crit Velocity 
 CVMX.mps                 2.74:  Max Crit Veloc 
 DD1 .             Aziz Aliyev:  Direct Drillr 1 
 DDSV.               Geo-Pilot:  DD Service 
 DEFF.%                 100.00:  % Det Eff 
 DLRX.°/30m               1.22:  Dogleg Rot Max 
 DLSO.°/30m               0.52:  Dogleg Oriented 
 DLSX.°/30m               1.22:  Dogleg Str Max 
 DRET.      12.59.00 23-Feb-20:  Drill End Time 
 DRST.      09.44.00 18-Feb-20:  Drill Start Tim 
 DTIM.hr                 23.03:  Time Drilling 
 EDEP.m                3473.01:  End Depth 
 ENG1.         Almaz Almadatov:  Engineer 1 
 ENG2.         Dair Mahammadov:  Engineer 2 
 ENG3.          Nazrin Asgarli:  Engineer 3 
 ETIM.      10.33.36 26-Feb-20:  End Time 
 FLOI.gpm               480.00:  Flow In 
 FLON.gpm               300.00:  Flow In Min 
 FLOS.cptm                1.00:  Fluid Loss 
 FLOX.gpm               550.00:  Flow In Max 
 HFLO.                      No:  High Flow 
 HPRE.                      No:  High Pressure 
 HTEM.                      No:  High Temp 
 HYDO.m                   1.80:  Hydro Offset 
 IFIN.deg                74.42:  Inc, Final 
 IMAX.deg                76.14:  Inc Max 
 IMIN.deg                74.42:  Inc Min 
 IMND.m                3462.72:  Inc Min Depth 
 IMXD.m                3235.69:  Inc Max Depth 
 JARR.                      No:  Jarring 
 LETM.      12.59.00 23-Feb-20:  Log End Time 
 LOST.hr                     0:  Lost Rig Time 
 LSTM.      09.44.00 18-Feb-20:  Log Start Time 
 MDCL.ppm             45000.00:  Mud Chlorides 
 MDES.     Inversion Oil/Synthetic:  Mud Desc 
 DFD .sg                  1.38:  Mud Density 
 MDMN.sg                  1.34:  Dens Mud Min 
 MDMX.sg                  1.49:  Dens Mud Max 
 MOIL.                      67:  Run Mud Oil % 
 MOWR.                   67:33:  Run Mud OWR 
 MSND.                    0.12:  Run Mud Sand % 
 MSOL.                      22:  Run Mud Solids% 
 DFV .spqt               81.00:  Mud Viscosity 
 MWOD.in                  6.75:  MWD Tool OD 
 MWSI.                      No:  Serv Intrp, MWD 
 OTIM.hr                231.44:  Time Operating 
 PCON.          Wear / Scratch:  Pad Condition 
 PMAX.psia             3400.00:  Press Op, Max 
 PV  .cP                 55.00:  Mud PV 
 RUN .                     800:  Run Number 
 ROPA.m/hr               12.00:  ROP Avg 
 ROPN.m/hr                5.00:  ROP Min 
 ROPX.m/hr               28.00:  ROP Max 
 RPMA.rpm               120.00:  RPM Surface Avg 
 RPMN.rpm                40.00:  RPM Surface Min 
 RPMX.rpm               130.00:  RPM Surface Max 
 RRUN.                    0800:  Rig Run Number 
 RTIM.hr                 45.00:  Time Reaming 
 SAZI.deg               145.38:  Azm, Start 
 SDEP.m                3219.01:  Start Depth 
 SIDD.                      No:  Serv Intrp, DD 
 SINC.deg                75.11:  Inc, Start 
 SPPA.psig             2400.00:  SPP Avg 
 SPPN.psig             2320.00:  SPP Min 
 SPPX.psig             3200.00:  SPP Max 
 STIM.      15.15.00 17-Feb-20:  Start Time 
 SVCS.                 DD, MWD:  Services 
 SVER.                    9.20:  Sperry Version 
 TDAT.m                 254.00:  Tot Depth Attmp 
 TDDF.                      No:  Trip for DD 
 TDLG.m                 254.00:  Tot Depth Loggd 
 TFF .                      No:  Trip for Fail 
 TQAA.f-kp               13.00:  Torque Abs Avg 
 TQAN.f-kp                7.00:  Torque Abs Min 
 TQAX.f-kp               15.00:  Torque Abs Max 
 TRRT.°/30m               0.21:  Turn Rotating 
 MRT .                  EWR-M5:  Maximum Recorded Temperature 
 TTMX.degC               64.00:  Max Tool Temp 
 VS01.                90586516:  Virtual Str1 SN 
 VS02.                90513691:  Virtual Str2 SN 
 VS03.                90586523:  Virtual Str3 SN 
 VS04.                90586520:  Virtual Str4 SN 
 VS05.                90590507:  Virtual Str5 SN 
 WBMN.klb                12.00:  WOB Min 
 WITN.           Rufat Babayev:  Customer Rep 2 
 WITN.         Alistair Sprott:  Customer Rep 
 WOBA.klb                18.00:  WOB Avg 
 WOBX.klb                30.00:  WOB Max 
 YP  .lhf2               41.00:  Yield Point 
~Curve Information Block
#MNEM.UNIT                 API CODE     Curve Description
#---------               -----------    ---------------------------
 TIME.HHMMSS            00 000 000 000:  GT Time & Date
 GTDEPTH.m              00 000 000 000:  GT Depth
 GTPQH.psia             00 000 000 000:  GT HR Quartz Pressure
 GTTQ.degC              00 000 000 000:  GT Quartz Temperature
 GTTN.NONE              00 000 000 000:  GT Test Number
 GTET.sec               00 000 000 000:  GT Elapsed Test Time
 GTTVD.m                00 000 000 000:  GT True Vertical Depth
#Other Information
#
#WARRANTY: Halliburton will use its best efforts to furnish customers with 
#accurate information and interpretations that are part of, and incident to, the services 
#provided.  However, Halliburton cannot and does not warrant the accuracy 
#or correctness of such information and interpretations.  Under no circumstances should any 
#such information or interpretation be relied upon as the sole basis for any drilling, 
#completion, production, or financial decision or any procedure involving any risk to the 
#safety of any drilling venture, drilling rig or its crew or any other third party.  The 
#Customer has full responsibility for all drilling, completion and production operation.  
#Halliburton makes no representations or warranties, either expressed or 
#implied, including, but not limited to, the implied warranties of merchantability or fitness 
#for a particular purpose, with respect to the services rendered.  In no event will 
#Halliburton be liable for failure to obtain any particular results or for 
#any damages, including, but not limited to, indirect, special or consequential damages, 
#resulting from the use of any information or interpretation provided by Halliburton.
#
~A           TIME           GTDEPTH  GTPQH  GTTQ  GTTN  GTET   GTTVD  
   03:19:12.106.24-Feb-2020 3366.71 5701.78 55.11 6.00   0.00 2706.89
   03:19:12.306.24-Feb-2020 3366.71 5701.78 55.11 6.00   0.20 2706.89
   03:19:12.506.24-Feb-2020 3366.71 5701.27 55.11 6.00   0.40 2706.89
   03:19:12.706.24-Feb-2020 3366.71 5701.55 55.11 6.00   0.60 2706.89
   03:19:12.906.24-Feb-2020 3366.71 5702.31 55.11 6.00   0.80 2706.89
   03:19:13.106.24-Feb-2020 3366.71 5702.84 55.11 6.00   1.00 2706.89
   03:19:13.306.24-Feb-2020 3366.71 5702.84 55.11 6.00   1.20 2706.89
   03:19:13.506.24-Feb-2020 3366.71 5702.41 55.11 6.00   1.40 2706.89
   03:19:13.706.24-Feb-2020 3366.71 5702.40 55.11 6.00   1.60 2706.89
   03:19:13.906.24-Feb-2020 3366.71 5702.85 55.11 6.00   1.80 2706.89
   03:19:14.106.24-Feb-2020 3366.71 5703.26 55.11 6.00   2.00 2706.89
   03:19:14.306.24-Feb-2020 3366.71 5703.26 55.11 6.00   2.20 2706.89
   03:19:14.507.24-Feb-2020 3366.71 5701.01 55.11 6.00   2.40 2706.89
   03:19:14.707.24-Feb-2020 3366.71 5702.98 55.11 6.00   2.60 2706.89
   03:19:14.907.24-Feb-2020 3366.71 5701.83 55.11 6.00   2.80 2706.89
   03:19:15.107.24-Feb-2020 3366.71 5702.74 55.11 6.00   3.00 2706.89
   03:19:15.307.24-Feb-2020 3366.71 5702.74 55.11 6.00   3.20 2706.89
   03:19:15.507.24-Feb-2020 3366.71 5701.97 55.11 6.00   3.40 2706.89
   03:19:15.707.24-Feb-2020 3366.71 5703.59 55.11 6.00   3.60 2706.89
   03:19:15.907.24-Feb-2020 3366.71 5702.71 55.11 6.00   3.80 2706.89
   03:19:16.107.24-Feb-2020 3366.71 5703.18 55.11 6.00   4.00 2706.89
   03:19:16.307.24-Feb-2020 3366.71 5703.18 55.11 6.00   4.20 2706.89
   03:19:16.507.24-Feb-2020 3366.71 5703.66 55.11 6.00   4.40 2706.89
   03:19:16.707.24-Feb-2020 3366.71 5703.18 55.11 6.00   4.60 2706.89
   03:19:16.908.24-Feb-2020 3366.71 5704.02 55.11 6.00   4.80 2706.89
   03:19:17.108.24-Feb-2020 3366.71 5706.52 55.11 6.00   5.00 2706.89
   03:19:17.308.24-Feb-2020 3366.71 5706.52 55.11 6.00   5.20 2706.89
   03:19:17.508.24-Feb-2020 3366.71 5704.81 55.11 6.00   5.40 2706.89
   03:19:17.708.24-Feb-2020 3366.71 5703.01 55.11 6.00   5.60 2706.89
   03:19:17.908.24-Feb-2020 3366.71 5704.42 55.11 6.00   5.80 2706.89
   03:19:18.108.24-Feb-2020 3366.71 5704.37 55.11 6.00   6.00 2706.89
   03:19:18.308.24-Feb-2020 3366.71 5704.37 55.11 6.00   6.20 2706.89
   03:19:18.508.24-Feb-2020 3366.71 5704.59 55.11 6.00   6.40 2706.89
   03:19:18.708.24-Feb-2020 3366.71 5703.60 55.11 6.00   6.60 2706.89
   03:19:18.908.24-Feb-2020 3366.71 5706.57 55.11 6.00   6.80 2706.89
   03:19:19.108.24-Feb-2020 3366.71 5702.44 55.11 6.00   7.00 2706.89
   03:19:19.308.24-Feb-2020 3366.71 5702.44 55.11 6.00   7.20 2706.89
   03:19:19.509.24-Feb-2020 3366.71 5704.00 55.11 6.00   7.40 2706.89
   03:19:19.709.24-Feb-2020 3366.71 5704.11 55.11 6.00   7.60 2706.89
   03:19:19.909.24-Feb-2020 3366.71 5706.58 55.11 6.00   7.80 2706.89
   03:19:20.109.24-Feb-2020 3366.71 5703.72 55.11 6.00   8.00 2706.89
   03:19:20.309.24-Feb-2020 3366.71 5703.72 55.11 6.00   8.20 2706.89
   03:19:20.509.24-Feb-2020 3366.71 5704.89 55.11 6.00   8.40 2706.89
   03:19:20.709.24-Feb-2020 3366.71 5704.90 55.11 6.00   8.60 2706.89
   03:19:20.909.24-Feb-2020 3366.71 5707.01 55.11 6.00   8.80 2706.89
   03:19:21.109.24-Feb-2020 3366.71 5703.29 55.11 6.00   9.00 2706.89
   03:19:21.309.24-Feb-2020 3366.71 5703.29 55.11 6.00   9.20 2706.89
   03:19:21.509.24-Feb-2020 3366.71 5705.16 55.11 6.00   9.40 2706.89
   03:19:21.709.24-Feb-2020 3366.71 5705.14 55.11 6.00   9.60 2706.89
   03:19:21.910.24-Feb-2020 3366.71 5705.34 55.11 6.00   9.80 2706.89
   03:19:22.110.24-Feb-2020 3366.71 5708.07 55.11 6.00  10.00 2706.89
   03:19:22.310.24-Feb-2020 3366.71 5708.07 55.11 6.00  10.20 2706.89
   03:19:22.510.24-Feb-2020 3366.71 5705.37 55.11 6.00  10.40 2706.89
   03:19:22.710.24-Feb-2020 3366.71 5704.88 55.11 6.00  10.60 2706.89
   03:19:22.910.24-Feb-2020 3366.71 5704.69 55.11 6.00  10.80 2706.89
   03:19:23.110.24-Feb-2020 3366.71 5705.90 55.11 6.00  11.00 2706.89
   03:19:23.310.24-Feb-2020 3366.71 5705.90 55.11 6.00  11.20 2706.89
   03:19:23.510.24-Feb-2020 3366.71 5706.02 55.11 6.00  11.40 2706.89
   03:19:23.710.24-Feb-2020 3366.71 5705.27 55.11 6.00  11.60 2706.89
   03:19:23.910.24-Feb-2020 3366.71 5705.64 55.11 6.00  11.80 2706.89
   03:19:24.110.24-Feb-2020 3366.71 5706.31 55.11 6.00  12.00 2706.89
   03:19:24.310.24-Feb-2020 3366.71 5706.31 55.11 6.00  12.20 2706.89
   03:19:24.511.24-Feb-2020 3366.71 5705.63 55.11 6.00  12.40 2706.89
   03:19:24.711.24-Feb-2020 3366.71 5705.51 55.11 6.00  12.61 2706.89
   03:19:24.911.24-Feb-2020 3366.71 5706.36 55.11 6.00  12.81 2706.89
   03:19:25.111.24-Feb-2020 3366.71 5706.74 55.11 6.00  13.01 2706.89
   03:19:25.311.24-Feb-2020 3366.71 5706.74 55.11 6.00  13.21 2706.89
   03:19:25.511.24-Feb-2020 3366.71 5705.68 55.11 6.00  13.41 2706.89
   03:19:25.711.24-Feb-2020 3366.71 5708.36 55.11 6.00  13.61 2706.89
   03:19:25.911.24-Feb-2020 3366.71 5704.37 55.11 6.00  13.81 2706.89
   03:19:26.111.24-Feb-2020 3366.71 5707.23 55.11 6.00  14.01 2706.89
   03:19:26.311.24-Feb-2020 3366.71 5707.23 55.11 6.00  14.21 2706.89
   03:19:26.511.24-Feb-2020 3366.71 5707.23 55.11 6.00  14.41 2706.89
   03:19:26.711.24-Feb-2020 3366.71 5705.88 55.11 6.00  14.61 2706.89
   03:19:26.912.24-Feb-2020 3366.71 5706.29 55.11 6.00  14.81 2706.89
   03:19:27.112.24-Feb-2020 3366.71 5706.92 55.11 6.00  15.01 2706.89
   03:19:27.312.24-Feb-2020 3366.71 5706.92 55.11 6.00  15.21 2706.89
   03:19:27.512.24-Feb-2020 3366.71 5705.67 55.11 6.00  15.41 2706.89
   03:19:27.712.24-Feb-2020 3366.71 5705.58 55.11 6.00  15.61 2706.89
   03:19:27.912.24-Feb-2020 3366.71 5706.17 55.11 6.00  15.81 2706.89
   03:19:28.112.24-Feb-2020 3366.71 5706.93 55.11 6.00  16.01 2706.89
   03:19:28.312.24-Feb-2020 3366.71 5706.93 55.11 6.00  16.21 2706.89
   03:19:28.512.24-Feb-2020 3366.71 5706.99 55.11 6.00  16.41 2706.89
   03:19:28.712.24-Feb-2020 3366.71 5706.14 55.11 6.00  16.61 2706.89
   03:19:28.912.24-Feb-2020 3366.71 5705.69 55.11 6.00  16.81 2706.89
   03:19:29.112.24-Feb-2020 3366.71 5706.16 55.11 6.00  17.01 2706.89
   03:19:29.312.24-Feb-2020 3366.71 5706.16 55.11 6.00  17.21 2706.89
   03:19:29.513.24-Feb-2020 3366.71 5708.47 55.11 6.00  17.41 2706.89
   03:19:29.713.24-Feb-2020 3366.71 5705.33 55.11 6.00  17.61 2706.89
   03:19:29.913.24-Feb-2020 3366.71 5707.29 55.11 6.00  17.81 2706.89
   03:19:30.113.24-Feb-2020 3366.71 5705.79 55.11 6.00  18.01 2706.89
   03:19:30.313.24-Feb-2020 3366.71 5705.79 55.11 6.00  18.21 2706.89
   03:19:30.513.24-Feb-2020 3366.71 5709.47 55.11 6.00  18.41 2706.89
   03:19:30.713.24-Feb-2020 3366.71 5705.32 55.11 6.00  18.61 2706.89
   03:19:30.913.24-Feb-2020 3366.71 5707.00 55.11 6.00  18.81 2706.89
   03:19:31.113.24-Feb-2020 3366.71 5706.73 55.11 6.00  19.01 2706.89
   03:19:31.313.24-Feb-2020 3366.71 5706.73 55.11 6.00  19.21 2706.89
   03:19:31.513.24-Feb-2020 3366.71 5707.67 55.11 6.00  19.41 2706.89
   03:19:31.713.24-Feb-2020 3366.71 5706.73 55.11 6.00  19.61 2706.89
   03:19:31.914.24-Feb-2020 3366.71 5707.87 55.11 6.00  19.81 2706.89
   03:19:32.114.24-Feb-2020 3366.71 5709.08 55.11 6.00  20.01 2706.89
   03:19:32.314.24-Feb-2020 3366.71 5709.08 55.11 6.00  20.21 2706.89
   03:19:32.514.24-Feb-2020 3366.71 5707.64 55.11 6.00  20.41 2706.89
   03:19:32.714.24-Feb-2020 3366.71 5706.44 55.11 6.00  20.61 2706.89
   03:19:32.914.24-Feb-2020 3366.71 5708.65 55.11 6.00  20.81 2706.89
   03:19:33.114.24-Feb-2020 3366.71 5706.34 55.11 6.00  21.01 2706.89
   03:19:33.314.24-Feb-2020 3366.71 5706.34 55.11 6.00  21.21 2706.89
   03:19:33.514.24-Feb-2020 3366.71 5706.74 55.11 6.00  21.41 2706.89
   03:19:33.714.24-Feb-2020 3366.71 5707.31 55.11 6.00  21.61 2706.89
   03:19:33.914.24-Feb-2020 3366.71 5709.99 55.11 6.00  21.81 2706.89
   03:19:34.114.24-Feb-2020 3366.71 5706.05 55.11 6.00  22.01 2706.89
   03:19:34.314.24-Feb-2020 3366.71 5706.05 55.11 6.00  22.21 2706.89
   03:19:34.515.24-Feb-2020 3366.71 5707.52 55.11 6.00  22.41 2706.89
   03:19:34.715.24-Feb-2020 3366.71 5707.17 55.11 6.00  22.61 2706.89
   03:19:34.915.24-Feb-2020 3366.71 5708.16 55.11 6.00  22.81 2706.89
