~Version Information
 VERS.                  2.0:   CWLS log ASCII Standard -VERSION 2.0
 WRAP.                   NO:   One line per depth step
~Well Information Block
#MNEM.UNIT     VALUE/NAME     DESCRIPTION
#---------     -----------    ---------------------------
 STRT.S             02:47:37 24-Feb-20: START TIME 02:47:37 24-Feb-20
 STOP.S             02:54:57 24-Feb-20: STOP TIME  02:54:57 24-Feb-20
 STEP.S                   0.00: STEP TIME
 NULL.                 -999.25: NULL VALUE
 JOBN.        AZ-XX-0905059384:  JOB TICKET NUMB
 PDAT.          Mean Sea Level:  PERMANENT DATUM
 UNIT.                     N/A:  LOGGING EQUIPMENT ID
 DCON.         Sperry Drilling:  DIRECTNL CONTR
 DOE .                     N/A:  DOE NUMBER
 RIG .             West Chirag:  RIG NAME
 WELL.                     J22:  WELL NAME
 MWDS.                    Baku:  MWD SHOP
 SRVC.     TURAN Drilling & Engineering:  CONTRACTOR
 FLD .                     ACG:  FIELD NAME
 CTRY.              Azerbaijan:  COUNTRY NAME
 PROV.                    Baku:  PROVINCE
 STAT.                    Baku:  STATE NAME
 REGN.                   EESSA:  REGION
 BASE.              Azerbaijan:  LOGGING EQUIPMENT BASE LOCATION
 UWI .                     N/A:  UNIQUE WELL IDENTIFIER
 API .                     N/A:  API NUMBER
 COMP.     BP Exploration (Caspian Sea) Ltd.:  COMPANY
 WTYP.                Deviated:  WELL TYPE
 MDS .        Operator Entered:  MAG DATA SOURCE
 SON .        AZ-XX-0905059384:  JOB NUMBER
 FTOP.          Formation Tops:  FORM TOPS DESC
 ILTD.               Lithology:  INTERP LTH DESC
 SVYD.                  Survey:  SURVEY DESC
 DMOD.             Drill Model:  DRILL MOD DESC
 HPTY.       Minimum Curvature:  HOLE POS TYPE
 NREF.                    Grid:  NORTH REFERENCE
 SPUD.               09-Jan-20:  SPUD DATE
 DATE.      14.04.48 07-Feb-20:  END TIME
 STIM.      07.00.00 09-Jan-20:  START TIME
 DMF .             Drill Floor:  DRILL MEAS FROM
 DFST.                        :  DIST FSL TEXT
 DFWT.                        :  DIST FWL TEXT
 CNTY.                        :  COUNTY
 LOC .                        :  LOCATION
 LMF .             Drill Floor:  LOG MEASURED FROM
 DEP .m                   0.00:  DEPTH
 VSNS.m                  10.28:  VERT SEC N/S
 VSEW.m                  -6.24:  VERT SEC E/W
 AGAP.m                  43.00:  AIR GAP
 APD .m                  43.00:  DEPTH ABOVE PD
 WDMS.m                 169.80:  WD ELEV
 EGL .m                   0.00:  GROUND ELEVATION
 EPD .m                   0.00:  ELEVATION
 AZTC.deg                 6.27:  AZM TOTAL CORR
 GRDC.deg                 0.15:  GRID CORRECTION
 MDEC.deg                 6.42:  MAGNETIC DECL
 MDIP.deg                59.56:  MAGNETIC DIP
 MFLD.nT              50277.00:  MAGNETIC FIELD
 GVFD.g                   1.00:  GRAVITY FIELD
 VSDR.deg               148.53:  VERT SEC DIRECT
 TDD .m                3473.01:  TOTAL DEPTH (DRILLER)
 SDEP.m                 364.00:  START DEPTH
 DFSL.m                   0.00:  DISTANCE FSL
 DFWL.m                   0.00:  DISTANCE FWL
 UTMY.m             4443793.85:  UTM Y
 UTMX.m              519005.06:  UTM X
 WHEW.m                  -6.24:  WELL HEAD E/W
 WHNS.m                  10.28:  WELL HEAD N/S
 LONG.deg                51.22:  LONGITUDE
 LATI.deg                40.13:  LATITUDE
 TVDS.m                  43.00:  TVDSS CORRECTN
 EKB .m                   0.00:  KB ELEVATION
 EDF .m                  43.00:  DF ELEVATION
 TDL .m                 254.00:  TOTAL DEPTH (LOGGER)
 MAGU.                 1850021:  MAGUTM CHECKSUM
 VSC .                       0:  VS TO CLOSURE
~Parameter Information Block
#MNEM.UNIT       Value        Description
#---------     -----------    ---------------------------
 AV  .mps                 0.50:  Ann Velocity 
 AVMX.mps                 1.40:  Max Ann Veloc 
 AZIF.deg               144.94:  Azm, Final 
 BHAT.        Rotary Steerable:  BHA Type 
 BROT.°/30m               0.23:  Build Rotating 
 BS  .in                  8.50:  Bit Size 
 BTPL.psig              264.00:  Bit Press Loss 
 CABU.                     Yes:  Customer Abuse 
 COMM.                     D
_:  Run Comments 1 
 TCS .hr                 87.30:  Time Ciculation Ended 
 CV  .mps                 2.45:  Crit Velocity 
 CVMX.mps                 2.74:  Max Crit Veloc 
 DD1 .             Aziz Aliyev:  Direct Drillr 1 
 DDSV.               Geo-Pilot:  DD Service 
 DEFF.%                 100.00:  % Det Eff 
 DLRX.°/30m               1.22:  Dogleg Rot Max 
 DLSO.°/30m               0.52:  Dogleg Oriented 
 DLSX.°/30m               1.22:  Dogleg Str Max 
 DRET.      12.59.00 23-Feb-20:  Drill End Time 
 DRST.      09.44.00 18-Feb-20:  Drill Start Tim 
 DTIM.hr                 23.03:  Time Drilling 
 EDEP.m                3473.01:  End Depth 
 ENG1.         Almaz Almadatov:  Engineer 1 
 ENG2.         Dair Mahammadov:  Engineer 2 
 ENG3.          Nazrin Asgarli:  Engineer 3 
 ETIM.      10.33.36 26-Feb-20:  End Time 
 FLOI.gpm               480.00:  Flow In 
 FLON.gpm               300.00:  Flow In Min 
 FLOS.cptm                1.00:  Fluid Loss 
 FLOX.gpm               550.00:  Flow In Max 
 HFLO.                      No:  High Flow 
 HPRE.                      No:  High Pressure 
 HTEM.                      No:  High Temp 
 HYDO.m                   1.80:  Hydro Offset 
 IFIN.deg                74.42:  Inc, Final 
 IMAX.deg                76.14:  Inc Max 
 IMIN.deg                74.42:  Inc Min 
 IMND.m                3462.72:  Inc Min Depth 
 IMXD.m                3235.69:  Inc Max Depth 
 JARR.                      No:  Jarring 
 LETM.      12.59.00 23-Feb-20:  Log End Time 
 LOST.hr                     0:  Lost Rig Time 
 LSTM.      09.44.00 18-Feb-20:  Log Start Time 
 MDCL.ppm             45000.00:  Mud Chlorides 
 MDES.     Inversion Oil/Synthetic:  Mud Desc 
 DFD .sg                  1.38:  Mud Density 
 MDMN.sg                  1.34:  Dens Mud Min 
 MDMX.sg                  1.49:  Dens Mud Max 
 MOIL.                      67:  Run Mud Oil % 
 MOWR.                   67:33:  Run Mud OWR 
 MSND.                    0.12:  Run Mud Sand % 
 MSOL.                      22:  Run Mud Solids% 
 DFV .spqt               81.00:  Mud Viscosity 
 MWOD.in                  6.75:  MWD Tool OD 
 MWSI.                      No:  Serv Intrp, MWD 
 OTIM.hr                231.44:  Time Operating 
 PCON.          Wear / Scratch:  Pad Condition 
 PMAX.psia             3400.00:  Press Op, Max 
 PV  .cP                 55.00:  Mud PV 
 RUN .                     800:  Run Number 
 ROPA.m/hr               12.00:  ROP Avg 
 ROPN.m/hr                5.00:  ROP Min 
 ROPX.m/hr               28.00:  ROP Max 
 RPMA.rpm               120.00:  RPM Surface Avg 
 RPMN.rpm                40.00:  RPM Surface Min 
 RPMX.rpm               130.00:  RPM Surface Max 
 RRUN.                    0800:  Rig Run Number 
 RTIM.hr                 45.00:  Time Reaming 
 SAZI.deg               145.38:  Azm, Start 
 SDEP.m                3219.01:  Start Depth 
 SIDD.                      No:  Serv Intrp, DD 
 SINC.deg                75.11:  Inc, Start 
 SPPA.psig             2400.00:  SPP Avg 
 SPPN.psig             2320.00:  SPP Min 
 SPPX.psig             3200.00:  SPP Max 
 STIM.      15.15.00 17-Feb-20:  Start Time 
 SVCS.                 DD, MWD:  Services 
 SVER.                    9.20:  Sperry Version 
 TDAT.m                 254.00:  Tot Depth Attmp 
 TDDF.                      No:  Trip for DD 
 TDLG.m                 254.00:  Tot Depth Loggd 
 TFF .                      No:  Trip for Fail 
 TQAA.f-kp               13.00:  Torque Abs Avg 
 TQAN.f-kp                7.00:  Torque Abs Min 
 TQAX.f-kp               15.00:  Torque Abs Max 
 TRRT.°/30m               0.21:  Turn Rotating 
 MRT .                  EWR-M5:  Maximum Recorded Temperature 
 TTMX.degC               64.00:  Max Tool Temp 
 VS01.                90586516:  Virtual Str1 SN 
 VS02.                90513691:  Virtual Str2 SN 
 VS03.                90586523:  Virtual Str3 SN 
 VS04.                90586520:  Virtual Str4 SN 
 VS05.                90590507:  Virtual Str5 SN 
 WBMN.klb                12.00:  WOB Min 
 WITN.           Rufat Babayev:  Customer Rep 2 
 WITN.         Alistair Sprott:  Customer Rep 
 WOBA.klb                18.00:  WOB Avg 
 WOBX.klb                30.00:  WOB Max 
 YP  .lhf2               41.00:  Yield Point 
~Curve Information Block
#MNEM.UNIT                 API CODE     Curve Description
#---------               -----------    ---------------------------
 TIME.HHMMSS            00 000 000 000:  GT Time & Date
 GTDEPTH.m              00 000 000 000:  GT Depth
 GTPQH.psia             00 000 000 000:  GT HR Quartz Pressure
 GTTQ.degC              00 000 000 000:  GT Quartz Temperature
 GTTN.NONE              00 000 000 000:  GT Test Number
 GTET.sec               00 000 000 000:  GT Elapsed Test Time
 GTTVD.m                00 000 000 000:  GT True Vertical Depth
#Other Information
#
#WARRANTY: Halliburton will use its best efforts to furnish customers with 
#accurate information and interpretations that are part of, and incident to, the services 
#provided.  However, Halliburton cannot and does not warrant the accuracy 
#or correctness of such information and interpretations.  Under no circumstances should any 
#such information or interpretation be relied upon as the sole basis for any drilling, 
#completion, production, or financial decision or any procedure involving any risk to the 
#safety of any drilling venture, drilling rig or its crew or any other third party.  The 
#Customer has full responsibility for all drilling, completion and production operation.  
#Halliburton makes no representations or warranties, either expressed or 
#implied, including, but not limited to, the implied warranties of merchantability or fitness 
#for a particular purpose, with respect to the services rendered.  In no event will 
#Halliburton be liable for failure to obtain any particular results or for 
#any damages, including, but not limited to, indirect, special or consequential damages, 
#resulting from the use of any information or interpretation provided by Halliburton.
#
~A           TIME           GTDEPTH  GTPQH  GTTQ  GTTN  GTET   GTTVD  
# ...
   02:54:31.513.24-Feb-2020 3375.51 5709.72 55.75 5.00 414.17 2709.14
   02:54:31.713.24-Feb-2020 3375.51 5709.72 55.75 5.00 414.37 2709.14
   02:54:31.913.24-Feb-2020 3375.51 5710.32 55.75 5.00 414.57 2709.14
   02:54:32.113.24-Feb-2020 3375.51 5710.78 55.75 5.00 414.77 2709.14
   02:54:32.313.24-Feb-2020 3375.51 5712.38 55.75 5.00 414.97 2709.14
   02:54:32.514.24-Feb-2020 3375.51 5709.31 55.75 5.00 415.17 2709.14
   02:54:32.714.24-Feb-2020 3375.51 5709.31 55.75 5.00 415.37 2709.14
   02:54:32.914.24-Feb-2020 3375.51 5709.73 55.75 5.00 415.57 2709.14
   02:54:33.114.24-Feb-2020 3375.51 5710.31 55.75 5.00 415.77 2709.14
   02:54:33.314.24-Feb-2020 3375.51 5709.72 55.75 5.00 415.97 2709.14
   02:54:33.514.24-Feb-2020 3375.51 5708.73 55.75 5.00 416.17 2709.14
   02:54:33.714.24-Feb-2020 3375.51 5708.73 55.75 5.00 416.37 2709.14
   02:54:33.914.24-Feb-2020 3375.51 5708.86 55.75 5.00 416.57 2709.14
   02:54:34.114.24-Feb-2020 3375.51 5709.73 55.75 5.00 416.77 2709.14
   02:54:34.314.24-Feb-2020 3375.51 5710.24 55.75 5.00 416.97 2709.14
   02:54:34.514.24-Feb-2020 3375.51 5709.23 55.75 5.00 417.17 2709.14
   02:54:34.714.24-Feb-2020 3375.51 5709.23 55.75 5.00 417.37 2709.14
   02:54:34.914.24-Feb-2020 3375.51 5709.18 55.75 5.00 417.57 2709.14
   02:54:35.115.24-Feb-2020 3375.51 5709.99 55.75 5.00 417.77 2709.14
   02:54:35.315.24-Feb-2020 3375.51 5710.42 55.74 5.00 417.97 2709.14
   02:54:35.515.24-Feb-2020 3375.51 5709.81 55.74 5.00 418.17 2709.14
   02:54:35.715.24-Feb-2020 3375.51 5709.81 55.74 5.00 418.37 2709.14
   02:54:35.915.24-Feb-2020 3375.51 5708.90 55.74 5.00 418.57 2709.14
   02:54:36.115.24-Feb-2020 3375.51 5710.84 55.74 5.00 418.77 2709.14
   02:54:36.315.24-Feb-2020 3375.51 5709.12 55.74 5.00 418.97 2709.14
   02:54:36.515.24-Feb-2020 3375.51 5711.62 55.74 5.00 419.17 2709.14
   02:54:36.715.24-Feb-2020 3375.51 5711.62 55.74 5.00 419.37 2709.14
   02:54:36.915.24-Feb-2020 3375.51 5710.94 55.74 5.00 419.57 2709.14
   02:54:37.115.24-Feb-2020 3375.51 5709.36 55.74 5.00 419.77 2709.14
   02:54:37.315.24-Feb-2020 3375.51 5709.66 55.74 5.00 419.97 2709.14
   02:54:37.516.24-Feb-2020 3375.51 5709.83 55.74 5.00 420.17 2709.14
   02:54:37.716.24-Feb-2020 3375.51 5709.83 55.74 5.00 420.37 2709.14
   02:54:37.916.24-Feb-2020 3375.51 5709.60 55.74 5.00 420.57 2709.14
   02:54:38.116.24-Feb-2020 3375.51 5711.39 55.74 5.00 420.77 2709.14
   02:54:38.316.24-Feb-2020 3375.51 5710.66 55.74 5.00 420.97 2709.14
   02:54:38.516.24-Feb-2020 3375.51 5711.28 55.74 5.00 421.17 2709.14
   02:54:38.716.24-Feb-2020 3375.51 5711.28 55.74 5.00 421.37 2709.14
   02:54:38.916.24-Feb-2020 3375.51 5710.17 55.74 5.00 421.57 2709.14
   02:54:39.116.24-Feb-2020 3375.51 5710.89 55.74 5.00 421.77 2709.14
   02:54:39.316.24-Feb-2020 3375.51 5709.40 55.74 5.00 421.97 2709.14
   02:54:39.516.24-Feb-2020 3375.51 5710.16 55.74 5.00 422.17 2709.14
   02:54:39.716.24-Feb-2020 3375.51 5710.16 55.74 5.00 422.37 2709.14
   02:54:39.916.24-Feb-2020 3375.51 5709.46 55.74 5.00 422.57 2709.14
   02:54:40.117.24-Feb-2020 3375.51 5709.52 55.74 5.00 422.77 2709.14
   02:54:40.317.24-Feb-2020 3375.51 5709.41 55.74 5.00 422.97 2709.14
   02:54:40.517.24-Feb-2020 3375.51 5709.82 55.74 5.00 423.17 2709.14
   02:54:40.717.24-Feb-2020 3375.51 5709.82 55.74 5.00 423.37 2709.14
   02:54:40.917.24-Feb-2020 3375.51 5709.66 55.74 5.00 423.57 2709.14
   02:54:41.117.24-Feb-2020 3375.51 5709.73 55.74 5.00 423.77 2709.14
   02:54:41.317.24-Feb-2020 3375.51 5709.87 55.74 5.00 423.97 2709.14
   02:54:41.517.24-Feb-2020 3375.51 5710.38 55.74 5.00 424.17 2709.14
   02:54:41.717.24-Feb-2020 3375.51 5710.38 55.74 5.00 424.37 2709.14
   02:54:41.917.24-Feb-2020 3375.51 5709.91 55.74 5.00 424.57 2709.14
   02:54:42.117.24-Feb-2020 3375.51 5711.05 55.74 5.00 424.77 2709.14
   02:54:42.317.24-Feb-2020 3375.51 5710.12 55.74 5.00 424.97 2709.14
   02:54:42.518.24-Feb-2020 3375.51 5709.83 55.74 5.00 425.17 2709.14
   02:54:42.718.24-Feb-2020 3375.51 5709.83 55.74 5.00 425.37 2709.14
   02:54:42.918.24-Feb-2020 3375.51 5709.19 55.74 5.00 425.57 2709.14
   02:54:43.118.24-Feb-2020 3375.51 5708.79 55.74 5.00 425.77 2709.14
   02:54:43.318.24-Feb-2020 3375.51 5708.70 55.74 5.00 425.97 2709.14
   02:54:43.518.24-Feb-2020 3375.51 5709.02 55.74 5.00 426.17 2709.14
   02:54:43.718.24-Feb-2020 3375.51 5709.02 55.74 5.00 426.37 2709.14
   02:54:43.918.24-Feb-2020 3375.51 5710.28 55.74 5.00 426.57 2709.14
   02:54:44.118.24-Feb-2020 3375.51 5709.19 55.74 5.00 426.77 2709.14
   02:54:44.318.24-Feb-2020 3375.51 5708.64 55.74 5.00 426.97 2709.14
   02:54:44.518.24-Feb-2020 3375.51 5709.50 55.74 5.00 427.17 2709.14
   02:54:44.718.24-Feb-2020 3375.51 5709.50 55.74 5.00 427.37 2709.14
   02:54:44.918.24-Feb-2020 3375.51 5710.15 55.74 5.00 427.57 2709.14
   02:54:45.119.24-Feb-2020 3375.51 5710.59 55.74 5.00 427.77 2709.14
   02:54:45.319.24-Feb-2020 3375.51 5709.00 55.74 5.00 427.97 2709.14
   02:54:45.519.24-Feb-2020 3375.51 5710.88 55.74 5.00 428.17 2709.14
   02:54:45.719.24-Feb-2020 3375.51 5710.88 55.74 5.00 428.37 2709.14
   02:54:45.919.24-Feb-2020 3375.51 5710.57 55.74 5.00 428.57 2709.14
   02:54:46.119.24-Feb-2020 3375.51 5709.72 55.74 5.00 428.77 2709.14
   02:54:46.319.24-Feb-2020 3375.51 5710.88 55.73 5.00 428.97 2709.14
   02:54:46.519.24-Feb-2020 3375.51 5710.00 55.73 5.00 429.17 2709.14
   02:54:46.719.24-Feb-2020 3375.51 5710.00 55.73 5.00 429.37 2709.14
   02:54:46.919.24-Feb-2020 3375.51 5710.15 55.73 5.00 429.57 2709.14
   02:54:47.119.24-Feb-2020 3375.51 5710.21 55.73 5.00 429.77 2709.14
   02:54:47.319.24-Feb-2020 3375.51 5710.61 55.73 5.00 429.97 2709.14
   02:54:47.520.24-Feb-2020 3375.51 5710.68 55.73 5.00 430.17 2709.14
   02:54:47.720.24-Feb-2020 3375.51 5711.40 55.73 5.00 430.37 2709.14
   02:54:47.920.24-Feb-2020 3375.51 5710.34 55.73 5.00 430.57 2709.14
   02:54:48.120.24-Feb-2020 3375.51 5712.37 55.73 5.00 430.77 2709.14
   02:54:48.320.24-Feb-2020 3375.51 5709.60 55.73 5.00 430.97 2709.14
   02:54:48.520.24-Feb-2020 3375.51 5710.93 55.73 5.00 431.17 2709.14
   02:54:48.720.24-Feb-2020 3375.51 5710.20 55.73 5.00 431.37 2709.14
   02:54:48.920.24-Feb-2020 3375.51 5709.75 55.73 5.00 431.57 2709.14
   02:54:49.120.24-Feb-2020 3375.51 5710.39 55.73 5.00 431.77 2709.14
   02:54:49.320.24-Feb-2020 3375.51 5709.62 55.73 5.00 431.97 2709.14
   02:54:49.520.24-Feb-2020 3375.51 5709.55 55.73 5.00 432.17 2709.14
   02:54:49.720.24-Feb-2020 3375.51 5709.55 55.73 5.00 432.37 2709.14
   02:54:49.920.24-Feb-2020 3375.51 5709.58 55.73 5.00 432.57 2709.14
   02:54:50.121.24-Feb-2020 3375.51 5709.72 55.73 5.00 432.77 2709.14
   02:54:50.321.24-Feb-2020 3375.51 5709.55 55.73 5.00 432.97 2709.14
   02:54:50.521.24-Feb-2020 3375.51 5709.62 55.73 5.00 433.17 2709.14
   02:54:50.721.24-Feb-2020 3375.51 5709.62 55.73 5.00 433.37 2709.14
   02:54:50.921.24-Feb-2020 3375.51 5709.92 55.73 5.00 433.57 2709.14
   02:54:51.121.24-Feb-2020 3375.51 5710.66 55.73 5.00 433.77 2709.14
   02:54:51.321.24-Feb-2020 3375.51 5712.40 55.73 5.00 433.97 2709.14
   02:54:51.521.24-Feb-2020 3375.51 5709.47 55.73 5.00 434.17 2709.14
   02:54:51.721.24-Feb-2020 3375.51 5709.47 55.73 5.00 434.37 2709.14
   02:54:51.921.24-Feb-2020 3375.51 5709.68 55.73 5.00 434.57 2709.14
   02:54:52.121.24-Feb-2020 3375.51 5710.29 55.73 5.00 434.77 2709.14
   02:54:52.321.24-Feb-2020 3375.51 5709.98 55.73 5.00 434.97 2709.14
   02:54:52.522.24-Feb-2020 3375.51 5708.92 55.73 5.00 435.17 2709.14
   02:54:52.722.24-Feb-2020 3375.51 5708.92 55.73 5.00 435.37 2709.14
   02:54:52.922.24-Feb-2020 3375.51 5708.77 55.73 5.00 435.57 2709.14
   02:54:53.122.24-Feb-2020 3375.51 5709.64 55.73 5.00 435.77 2709.14
   02:54:53.322.24-Feb-2020 3375.51 5710.17 55.73 5.00 435.97 2709.14
   02:54:53.522.24-Feb-2020 3375.51 5709.82 55.73 5.00 436.17 2709.14
   02:54:53.722.24-Feb-2020 3375.51 5709.82 55.73 5.00 436.37 2709.14
   02:54:53.922.24-Feb-2020 3375.51 5708.96 55.73 5.00 436.57 2709.14
   02:54:54.122.24-Feb-2020 3375.51 5709.87 55.73 5.00 436.77 2709.14
   02:54:54.322.24-Feb-2020 3375.51 5710.35 55.73 5.00 436.97 2709.14
