~Version Information
 VERS.                  2.0:   CWLS log ASCII Standard -VERSION 2.0
 WRAP.                   NO:   One line per depth step
~Well Information Block
#MNEM.UNIT     VALUE/NAME     DESCRIPTION
#---------     -----------    ---------------------------
 STRT.S             06:21:10 24-Feb-20: START TIME 06:21:10 24-Feb-20
 STOP.S             06:29:09 24-Feb-20: STOP TIME  06:29:09 24-Feb-20
 STEP.S                   0.00: STEP TIME
 NULL.                 -999.25: NULL VALUE
 JOBN.        AZ-XX-0905059384:  JOB TICKET NUMB
 PDAT.          Mean Sea Level:  PERMANENT DATUM
 UNIT.                     N/A:  LOGGING EQUIPMENT ID
 DCON.         Sperry Drilling:  DIRECTNL CONTR
 DOE .                     N/A:  DOE NUMBER
 RIG .             West Chirag:  RIG NAME
 WELL.                     J22:  WELL NAME
 MWDS.                    Baku:  MWD SHOP
 SRVC.     TURAN Drilling & Engineering:  CONTRACTOR
 FLD .                     ACG:  FIELD NAME
 CTRY.              Azerbaijan:  COUNTRY NAME
 PROV.                    Baku:  PROVINCE
 STAT.                    Baku:  STATE NAME
 REGN.                   EESSA:  REGION
 BASE.              Azerbaijan:  LOGGING EQUIPMENT BASE LOCATION
 UWI .                     N/A:  UNIQUE WELL IDENTIFIER
 API .                     N/A:  API NUMBER
 COMP.     BP Exploration (Caspian Sea) Ltd.:  COMPANY
 WTYP.                Deviated:  WELL TYPE
 MDS .        Operator Entered:  MAG DATA SOURCE
 SON .        AZ-XX-0905059384:  JOB NUMBER
 FTOP.          Formation Tops:  FORM TOPS DESC
 ILTD.               Lithology:  INTERP LTH DESC
 SVYD.                  Survey:  SURVEY DESC
 DMOD.             Drill Model:  DRILL MOD DESC
 HPTY.       Minimum Curvature:  HOLE POS TYPE
 NREF.                    Grid:  NORTH REFERENCE
 SPUD.               09-Jan-20:  SPUD DATE
 DATE.      14.04.48 07-Feb-20:  END TIME
 STIM.      07.00.00 09-Jan-20:  START TIME
 DMF .             Drill Floor:  DRILL MEAS FROM
 DFST.                        :  DIST FSL TEXT
 DFWT.                        :  DIST FWL TEXT
 CNTY.                        :  COUNTY
 LOC .                        :  LOCATION
 LMF .             Drill Floor:  LOG MEASURED FROM
 DEP .m                   0.00:  DEPTH
 VSNS.m                  10.28:  VERT SEC N/S
 VSEW.m                  -6.24:  VERT SEC E/W
 AGAP.m                  43.00:  AIR GAP
 APD .m                  43.00:  DEPTH ABOVE PD
 WDMS.m                 169.80:  WD ELEV
 EGL .m                   0.00:  GROUND ELEVATION
 EPD .m                   0.00:  ELEVATION
 AZTC.deg                 6.27:  AZM TOTAL CORR
 GRDC.deg                 0.15:  GRID CORRECTION
 MDEC.deg                 6.42:  MAGNETIC DECL
 MDIP.deg                59.56:  MAGNETIC DIP
 MFLD.nT              50277.00:  MAGNETIC FIELD
 GVFD.g                   1.00:  GRAVITY FIELD
 VSDR.deg               148.53:  VERT SEC DIRECT
 TDD .m                3473.01:  TOTAL DEPTH (DRILLER)
 SDEP.m                 364.00:  START DEPTH
 DFSL.m                   0.00:  DISTANCE FSL
 DFWL.m                   0.00:  DISTANCE FWL
 UTMY.m             4443793.85:  UTM Y
 UTMX.m              519005.06:  UTM X
 WHEW.m                  -6.24:  WELL HEAD E/W
 WHNS.m                  10.28:  WELL HEAD N/S
 LONG.deg                51.22:  LONGITUDE
 LATI.deg                40.13:  LATITUDE
 TVDS.m                  43.00:  TVDSS CORRECTN
 EKB .m                   0.00:  KB ELEVATION
 EDF .m                  43.00:  DF ELEVATION
 TDL .m                 254.00:  TOTAL DEPTH (LOGGER)
 MAGU.                 1850021:  MAGUTM CHECKSUM
 VSC .                       0:  VS TO CLOSURE
~Parameter Information Block
#MNEM.UNIT       Value        Description
#---------     -----------    ---------------------------
 AV  .mps                 0.50:  Ann Velocity 
 AVMX.mps                 1.40:  Max Ann Veloc 
 AZIF.deg               144.94:  Azm, Final 
 BHAT.        Rotary Steerable:  BHA Type 
 BROT.°/30m               0.23:  Build Rotating 
 BS  .in                  8.50:  Bit Size 
 BTPL.psig              264.00:  Bit Press Loss 
 CABU.                     Yes:  Customer Abuse 
 COMM.                     î^:  Run Comments 1 
 TCS .hr                 87.30:  Time Ciculation Ended 
 CV  .mps                 2.45:  Crit Velocity 
 CVMX.mps                 2.74:  Max Crit Veloc 
 DD1 .             Aziz Aliyev:  Direct Drillr 1 
 DDSV.               Geo-Pilot:  DD Service 
 DEFF.%                 100.00:  % Det Eff 
 DLRX.°/30m               1.22:  Dogleg Rot Max 
 DLSO.°/30m               0.52:  Dogleg Oriented 
 DLSX.°/30m               1.22:  Dogleg Str Max 
 DRET.      12.59.00 23-Feb-20:  Drill End Time 
 DRST.      09.44.00 18-Feb-20:  Drill Start Tim 
 DTIM.hr                 23.03:  Time Drilling 
 EDEP.m                3473.01:  End Depth 
 ENG1.         Almaz Almadatov:  Engineer 1 
 ENG2.         Dair Mahammadov:  Engineer 2 
 ENG3.          Nazrin Asgarli:  Engineer 3 
 ETIM.      10.33.36 26-Feb-20:  End Time 
 FLOI.gpm               480.00:  Flow In 
 FLON.gpm               300.00:  Flow In Min 
 FLOS.cptm                1.00:  Fluid Loss 
 FLOX.gpm               550.00:  Flow In Max 
 HFLO.                      No:  High Flow 
 HPRE.                      No:  High Pressure 
 HTEM.                      No:  High Temp 
 HYDO.m                   1.80:  Hydro Offset 
 IFIN.deg                74.42:  Inc, Final 
 IMAX.deg                76.14:  Inc Max 
 IMIN.deg                74.42:  Inc Min 
 IMND.m                3462.72:  Inc Min Depth 
 IMXD.m                3235.69:  Inc Max Depth 
 JARR.                      No:  Jarring 
 LETM.      12.59.00 23-Feb-20:  Log End Time 
 LOST.hr                     0:  Lost Rig Time 
 LSTM.      09.44.00 18-Feb-20:  Log Start Time 
 MDCL.ppm             45000.00:  Mud Chlorides 
 MDES.     Inversion Oil/Synthetic:  Mud Desc 
 DFD .sg                  1.38:  Mud Density 
 MDMN.sg                  1.34:  Dens Mud Min 
 MDMX.sg                  1.49:  Dens Mud Max 
 MOIL.                      67:  Run Mud Oil % 
 MOWR.                   67:33:  Run Mud OWR 
 MSND.                    0.12:  Run Mud Sand % 
 MSOL.                      22:  Run Mud Solids% 
 DFV .spqt               81.00:  Mud Viscosity 
 MWOD.in                  6.75:  MWD Tool OD 
 MWSI.                      No:  Serv Intrp, MWD 
 OTIM.hr                231.44:  Time Operating 
 PCON.          Wear / Scratch:  Pad Condition 
 PMAX.psia             3400.00:  Press Op, Max 
 PV  .cP                 55.00:  Mud PV 
 RUN .                     800:  Run Number 
 ROPA.m/hr               12.00:  ROP Avg 
 ROPN.m/hr                5.00:  ROP Min 
 ROPX.m/hr               28.00:  ROP Max 
 RPMA.rpm               120.00:  RPM Surface Avg 
 RPMN.rpm                40.00:  RPM Surface Min 
 RPMX.rpm               130.00:  RPM Surface Max 
 RRUN.                    0800:  Rig Run Number 
 RTIM.hr                 45.00:  Time Reaming 
 SAZI.deg               145.38:  Azm, Start 
 SDEP.m                3219.01:  Start Depth 
 SIDD.                      No:  Serv Intrp, DD 
 SINC.deg                75.11:  Inc, Start 
 SPPA.psig             2400.00:  SPP Avg 
 SPPN.psig             2320.00:  SPP Min 
 SPPX.psig             3200.00:  SPP Max 
 STIM.      15.15.00 17-Feb-20:  Start Time 
 SVCS.                 DD, MWD:  Services 
 SVER.                    9.20:  Sperry Version 
 TDAT.m                 254.00:  Tot Depth Attmp 
 TDDF.                      No:  Trip for DD 
 TDLG.m                 254.00:  Tot Depth Loggd 
 TFF .                      No:  Trip for Fail 
 TQAA.f-kp               13.00:  Torque Abs Avg 
 TQAN.f-kp                7.00:  Torque Abs Min 
 TQAX.f-kp               15.00:  Torque Abs Max 
 TRRT.°/30m               0.21:  Turn Rotating 
 MRT .                  EWR-M5:  Maximum Recorded Temperature 
 TTMX.degC               64.00:  Max Tool Temp 
 VS01.                90586516:  Virtual Str1 SN 
 VS02.                90513691:  Virtual Str2 SN 
 VS03.                90586523:  Virtual Str3 SN 
 VS04.                90586520:  Virtual Str4 SN 
 VS05.                90590507:  Virtual Str5 SN 
 WBMN.klb                12.00:  WOB Min 
 WITN.           Rufat Babayev:  Customer Rep 2 
 WITN.         Alistair Sprott:  Customer Rep 
 WOBA.klb                18.00:  WOB Avg 
 WOBX.klb                30.00:  WOB Max 
 YP  .lhf2               41.00:  Yield Point 
~Curve Information Block
#MNEM.UNIT                 API CODE     Curve Description
#---------               -----------    ---------------------------
 TIME.HHMMSS            00 000 000 000:  GT Time & Date
 GTDEPTH.m              00 000 000 000:  GT Depth
 GTPQH.psia             00 000 000 000:  GT HR Quartz Pressure
 GTTQ.degC              00 000 000 000:  GT Quartz Temperature
 GTTN.NONE              00 000 000 000:  GT Test Number
 GTET.sec               00 000 000 000:  GT Elapsed Test Time
 GTTVD.m                00 000 000 000:  GT True Vertical Depth
#Other Information
#
#WARRANTY: Halliburton will use its best efforts to furnish customers with 
#accurate information and interpretations that are part of, and incident to, the services 
#provided.  However, Halliburton cannot and does not warrant the accuracy 
#or correctness of such information and interpretations.  Under no circumstances should any 
#such information or interpretation be relied upon as the sole basis for any drilling, 
#completion, production, or financial decision or any procedure involving any risk to the 
#safety of any drilling venture, drilling rig or its crew or any other third party.  The 
#Customer has full responsibility for all drilling, completion and production operation.  
#Halliburton makes no representations or warranties, either expressed or 
#implied, including, but not limited to, the implied warranties of merchantability or fitness 
#for a particular purpose, with respect to the services rendered.  In no event will 
#Halliburton be liable for failure to obtain any particular results or for 
#any damages, including, but not limited to, indirect, special or consequential damages, 
#resulting from the use of any information or interpretation provided by Halliburton.
#
~A           TIME           GTDEPTH  GTPQH  GTTQ  GTTN   GTET   GTTVD  
# ...
   06:24:33.852.24-Feb-2020 3290.51 4402.41 53.95 10.00 203.44 2687.65
   06:24:34.053.24-Feb-2020 3290.51 4402.24 53.95 10.00 203.64 2687.65
   06:24:34.253.24-Feb-2020 3290.51 4402.23 53.95 10.00 203.84 2687.65
   06:24:34.453.24-Feb-2020 3290.51 4402.28 53.95 10.00 204.04 2687.65
   06:24:34.653.24-Feb-2020 3290.51 4402.28 53.95 10.00 204.24 2687.65
   06:24:34.853.24-Feb-2020 3290.51 4402.34 53.95 10.00 204.44 2687.65
   06:24:35.053.24-Feb-2020 3290.51 4402.42 53.95 10.00 204.64 2687.65
   06:24:35.253.24-Feb-2020 3290.51 4402.34 53.95 10.00 204.84 2687.65
   06:24:35.453.24-Feb-2020 3290.51 4402.17 53.95 10.00 205.04 2687.65
   06:24:35.653.24-Feb-2020 3290.51 4402.17 53.95 10.00 205.24 2687.65
   06:24:35.853.24-Feb-2020 3290.51 4402.19 53.95 10.00 205.44 2687.65
   06:24:36.053.24-Feb-2020 3290.51 4401.79 53.95 10.00 205.64 2687.65
   06:24:36.253.24-Feb-2020 3290.51 4402.40 53.95 10.00 205.85 2687.65
   06:24:36.453.24-Feb-2020 3290.51 4402.44 53.95 10.00 206.05 2687.65
   06:24:36.653.24-Feb-2020 3290.51 4401.88 53.95 10.00 206.25 2687.65
   06:24:36.853.24-Feb-2020 3290.51 4402.14 53.95 10.00 206.45 2687.65
   06:24:37.053.24-Feb-2020 3290.51 4402.22 53.95 10.00 206.65 2687.65
   06:24:37.253.24-Feb-2020 3290.51 4402.46 53.95 10.00 206.85 2687.65
   06:24:37.453.24-Feb-2020 3290.51 4402.55 53.95 10.00 207.05 2687.65
   06:24:37.653.24-Feb-2020 3290.51 4402.55 53.95 10.00 207.25 2687.65
   06:24:37.853.24-Feb-2020 3290.51 4402.33 53.95 10.00 207.45 2687.65
   06:24:38.053.24-Feb-2020 3290.51 4402.60 53.95 10.00 207.65 2687.65
   06:24:38.253.24-Feb-2020 3290.51 4402.78 53.95 10.00 207.85 2687.65
   06:24:38.453.24-Feb-2020 3290.51 4402.69 53.95 10.00 208.05 2687.65
   06:24:38.654.24-Feb-2020 3290.51 4402.69 53.95 10.00 208.25 2687.65
   06:24:38.854.24-Feb-2020 3290.51 4402.51 53.95 10.00 208.45 2687.65
   06:24:39.054.24-Feb-2020 3290.51 4401.87 53.95 10.00 208.65 2687.65
   06:24:39.254.24-Feb-2020 3290.51 4402.24 53.95 10.00 208.85 2687.65
   06:24:39.454.24-Feb-2020 3290.51 4402.61 53.95 10.00 209.05 2687.65
   06:24:39.654.24-Feb-2020 3290.51 4402.61 53.95 10.00 209.25 2687.65
   06:24:39.854.24-Feb-2020 3290.51 4402.67 53.95 10.00 209.45 2687.65
   06:24:40.054.24-Feb-2020 3290.51 4402.65 53.95 10.00 209.65 2687.65
   06:24:40.254.24-Feb-2020 3290.51 4179.21 53.95 10.00 209.85 2687.65
   06:24:40.454.24-Feb-2020 3290.51 3871.56 53.95 10.00 210.05 2687.65
   06:24:40.654.24-Feb-2020 3290.51 3726.39 53.95 10.00 210.25 2687.65
   06:24:40.854.24-Feb-2020 3290.51 3668.28 53.95 10.00 210.45 2687.65
   06:24:41.054.24-Feb-2020 3290.51 3641.46 53.95 10.00 210.65 2687.65
   06:24:41.254.24-Feb-2020 3290.51 3628.75 53.95 10.00 210.85 2687.65
   06:24:41.454.24-Feb-2020 3290.51 3619.54 53.95 10.00 211.05 2687.65
   06:24:41.654.24-Feb-2020 3290.51 3619.54 53.95 10.00 211.25 2687.65
   06:24:41.854.24-Feb-2020 3290.51 3621.70 53.94 10.00 211.45 2687.65
   06:24:42.054.24-Feb-2020 3290.51 3618.93 53.94 10.00 211.65 2687.65
   06:24:42.254.24-Feb-2020 3290.51 3624.27 53.94 10.00 211.85 2687.65
   06:24:42.454.24-Feb-2020 3290.51 4056.21 53.94 10.00 212.05 2687.65
   06:24:42.654.24-Feb-2020 3290.51 4056.21 53.94 10.00 212.25 2687.65
   06:24:42.854.24-Feb-2020 3290.51 3775.89 53.94 10.00 212.45 2687.65
   06:24:43.054.24-Feb-2020 3290.51 3706.09 53.94 10.00 212.65 2687.65
   06:24:43.255.24-Feb-2020 3290.51 3673.70 53.94 10.00 212.85 2687.65
   06:24:43.455.24-Feb-2020 3290.51 3662.11 53.94 10.00 213.05 2687.65
   06:24:43.655.24-Feb-2020 3290.51 3662.11 53.94 10.00 213.25 2687.65
   06:24:43.855.24-Feb-2020 3290.51 3656.31 53.94 10.00 213.45 2687.65
   06:24:44.055.24-Feb-2020 3290.51 3658.33 53.94 10.00 213.65 2687.65
   06:24:44.255.24-Feb-2020 3290.51 3662.01 53.94 10.00 213.85 2687.65
   06:24:44.455.24-Feb-2020 3290.51 3667.20 53.94 10.00 214.05 2687.65
   06:24:44.655.24-Feb-2020 3290.51 3667.20 53.94 10.00 214.25 2687.65
   06:24:44.855.24-Feb-2020 3290.51 3861.44 53.94 10.00 214.45 2687.65
   06:24:45.055.24-Feb-2020 3290.51 3834.74 53.94 10.00 214.65 2687.65
   06:24:45.255.24-Feb-2020 3290.51 3751.91 53.94 10.00 214.85 2687.65
   06:24:45.455.24-Feb-2020 3290.51 4169.86 53.94 10.00 215.05 2687.65
   06:24:45.655.24-Feb-2020 3290.51 4169.86 53.94 10.00 215.25 2687.65
   06:24:45.855.24-Feb-2020 3290.51 3857.00 53.93 10.00 215.45 2687.65
   06:24:46.055.24-Feb-2020 3290.51 3779.86 53.93 10.00 215.65 2687.65
   06:24:46.255.24-Feb-2020 3290.51 3738.67 53.93 10.00 215.85 2687.65
   06:24:46.455.24-Feb-2020 3290.51 3719.83 53.93 10.00 216.05 2687.65
   06:24:46.655.24-Feb-2020 3290.51 3719.83 53.93 10.00 216.25 2687.65
   06:24:46.855.24-Feb-2020 3290.51 3708.32 53.93 10.00 216.45 2687.65
   06:24:47.055.24-Feb-2020 3290.51 3706.39 53.93 10.00 216.65 2687.65
   06:24:47.255.24-Feb-2020 3290.51 3704.54 53.93 10.00 216.85 2687.65
   06:24:47.455.24-Feb-2020 3290.51 3696.91 53.93 10.00 217.05 2687.65
   06:24:47.655.24-Feb-2020 3290.51 3696.91 53.93 10.00 217.25 2687.65
   06:24:47.856.24-Feb-2020 3290.51 3706.77 53.93 10.00 217.45 2687.65
   06:24:48.056.24-Feb-2020 3290.51 3706.09 53.93 10.00 217.65 2687.65
   06:24:48.256.24-Feb-2020 3290.51 3706.70 53.93 10.00 217.85 2687.65
   06:24:48.456.24-Feb-2020 3290.51 3704.60 53.93 10.00 218.05 2687.65
   06:24:48.656.24-Feb-2020 3290.51 3706.92 53.93 10.00 218.25 2687.65
   06:24:48.856.24-Feb-2020 3290.51 3704.95 53.93 10.00 218.45 2687.65
   06:24:49.056.24-Feb-2020 3290.51 3706.05 53.93 10.00 218.65 2687.65
   06:24:49.256.24-Feb-2020 3290.51 3709.76 53.93 10.00 218.85 2687.65
   06:24:49.456.24-Feb-2020 3290.51 3711.47 53.93 10.00 219.05 2687.65
   06:24:49.656.24-Feb-2020 3290.51 3711.47 53.93 10.00 219.25 2687.65
   06:24:49.856.24-Feb-2020 3290.51 3712.89 53.93 10.00 219.45 2687.65
   06:24:50.056.24-Feb-2020 3290.51 3712.40 53.93 10.00 219.65 2687.65
   06:24:50.256.24-Feb-2020 3290.51 3733.85 53.93 10.00 219.85 2687.65
   06:24:50.456.24-Feb-2020 3290.51 4022.38 53.93 10.00 220.05 2687.65
   06:24:50.656.24-Feb-2020 3290.51 4022.38 53.93 10.00 220.25 2687.65
   06:24:50.856.24-Feb-2020 3290.51 4325.74 53.93 10.00 220.45 2687.65
   06:24:51.056.24-Feb-2020 3290.51 4367.21 53.93 10.00 220.65 2687.65
   06:24:51.256.24-Feb-2020 3290.51 4384.41 53.93 10.00 220.85 2687.65
   06:24:51.456.24-Feb-2020 3290.51 4391.88 53.93 10.00 221.05 2687.65
   06:24:51.656.24-Feb-2020 3290.51 4391.88 53.93 10.00 221.25 2687.65
   06:24:51.856.24-Feb-2020 3290.51 4396.53 53.93 10.00 221.45 2687.65
   06:24:52.056.24-Feb-2020 3290.51 4397.12 53.93 10.00 221.65 2687.65
   06:24:52.256.24-Feb-2020 3290.51 4397.62 53.93 10.00 221.85 2687.65
   06:24:52.457.24-Feb-2020 3290.51 4399.00 53.93 10.00 222.05 2687.65
   06:24:52.657.24-Feb-2020 3290.51 4399.46 53.93 10.00 222.25 2687.65
   06:24:52.857.24-Feb-2020 3290.51 4399.86 53.93 10.00 222.45 2687.65
   06:24:53.057.24-Feb-2020 3290.51 4400.16 53.93 10.00 222.65 2687.65
   06:24:53.257.24-Feb-2020 3290.51 4400.39 53.93 10.00 222.85 2687.65
   06:24:53.457.24-Feb-2020 3290.51 4400.40 53.93 10.00 223.05 2687.65
   06:24:53.657.24-Feb-2020 3290.51 4400.40 53.93 10.00 223.25 2687.65
   06:24:53.857.24-Feb-2020 3290.51 4400.67 53.93 10.00 223.45 2687.65
   06:24:54.057.24-Feb-2020 3290.51 4400.71 53.93 10.00 223.65 2687.65
   06:24:54.257.24-Feb-2020 3290.51 4400.90 53.93 10.00 223.85 2687.65
   06:24:54.457.24-Feb-2020 3290.51 4401.04 53.93 10.00 224.05 2687.65
   06:24:54.657.24-Feb-2020 3290.51 4401.04 53.93 10.00 224.25 2687.65
   06:24:54.857.24-Feb-2020 3290.51 4401.02 53.93 10.00 224.45 2687.65
   06:24:55.057.24-Feb-2020 3290.51 4400.63 53.93 10.00 224.65 2687.65
   06:24:55.257.24-Feb-2020 3290.51 4401.03 53.93 10.00 224.85 2687.65
   06:24:55.457.24-Feb-2020 3290.51 4400.97 53.94 10.00 225.05 2687.65
   06:24:55.657.24-Feb-2020 3290.51 4400.97 53.94 10.00 225.25 2687.65
   06:24:55.857.24-Feb-2020 3290.51 4401.77 53.94 10.00 225.45 2687.65
   06:24:56.057.24-Feb-2020 3290.51 4401.36 53.94 10.00 225.65 2687.65
   06:24:56.257.24-Feb-2020 3290.51 4401.82 53.94 10.00 225.85 2687.65
