~Version Information
 VERS.                  2.0:   CWLS log ASCII Standard -VERSION 2.0
 WRAP.                   NO:   One line per depth step
~Well Information Block
#MNEM.UNIT     VALUE/NAME     DESCRIPTION
#---------     -----------    ---------------------------
 STRT.S             05:02:14 24-Feb-20: START TIME 05:02:14 24-Feb-20
 STOP.S             05:09:32 24-Feb-20: STOP TIME  05:09:32 24-Feb-20
 STEP.S                   0.00: STEP TIME
 NULL.                 -999.25: NULL VALUE
 JOBN.        AZ-XX-0905059384:  JOB TICKET NUMB
 PDAT.          Mean Sea Level:  PERMANENT DATUM
 UNIT.                     N/A:  LOGGING EQUIPMENT ID
 DCON.         Sperry Drilling:  DIRECTNL CONTR
 DOE .                     N/A:  DOE NUMBER
 RIG .             West Chirag:  RIG NAME
 WELL.                     J22:  WELL NAME
 MWDS.                    Baku:  MWD SHOP
 SRVC.     TURAN Drilling & Engineering:  CONTRACTOR
 FLD .                     ACG:  FIELD NAME
 CTRY.              Azerbaijan:  COUNTRY NAME
 PROV.                    Baku:  PROVINCE
 STAT.                    Baku:  STATE NAME
 REGN.                   EESSA:  REGION
 BASE.              Azerbaijan:  LOGGING EQUIPMENT BASE LOCATION
 UWI .                     N/A:  UNIQUE WELL IDENTIFIER
 API .                     N/A:  API NUMBER
 COMP.     BP Exploration (Caspian Sea) Ltd.:  COMPANY
 WTYP.                Deviated:  WELL TYPE
 MDS .        Operator Entered:  MAG DATA SOURCE
 SON .        AZ-XX-0905059384:  JOB NUMBER
 FTOP.          Formation Tops:  FORM TOPS DESC
 ILTD.               Lithology:  INTERP LTH DESC
 SVYD.                  Survey:  SURVEY DESC
 DMOD.             Drill Model:  DRILL MOD DESC
 HPTY.       Minimum Curvature:  HOLE POS TYPE
 NREF.                    Grid:  NORTH REFERENCE
 SPUD.               09-Jan-20:  SPUD DATE
 DATE.      14.04.48 07-Feb-20:  END TIME
 STIM.      07.00.00 09-Jan-20:  START TIME
 DMF .             Drill Floor:  DRILL MEAS FROM
 DFST.                        :  DIST FSL TEXT
 DFWT.                        :  DIST FWL TEXT
 CNTY.                        :  COUNTY
 LOC .                        :  LOCATION
 LMF .             Drill Floor:  LOG MEASURED FROM
 DEP .m                   0.00:  DEPTH
 VSNS.m                  10.28:  VERT SEC N/S
 VSEW.m                  -6.24:  VERT SEC E/W
 AGAP.m                  43.00:  AIR GAP
 APD .m                  43.00:  DEPTH ABOVE PD
 WDMS.m                 169.80:  WD ELEV
 EGL .m                   0.00:  GROUND ELEVATION
 EPD .m                   0.00:  ELEVATION
 AZTC.deg                 6.27:  AZM TOTAL CORR
 GRDC.deg                 0.15:  GRID CORRECTION
 MDEC.deg                 6.42:  MAGNETIC DECL
 MDIP.deg                59.56:  MAGNETIC DIP
 MFLD.nT              50277.00:  MAGNETIC FIELD
 GVFD.g                   1.00:  GRAVITY FIELD
 VSDR.deg               148.53:  VERT SEC DIRECT
 TDD .m                3473.01:  TOTAL DEPTH (DRILLER)
 SDEP.m                 364.00:  START DEPTH
 DFSL.m                   0.00:  DISTANCE FSL
 DFWL.m                   0.00:  DISTANCE FWL
 UTMY.m             4443793.85:  UTM Y
 UTMX.m              519005.06:  UTM X
 WHEW.m                  -6.24:  WELL HEAD E/W
 WHNS.m                  10.28:  WELL HEAD N/S
 LONG.deg                51.22:  LONGITUDE
 LATI.deg                40.13:  LATITUDE
 TVDS.m                  43.00:  TVDSS CORRECTN
 EKB .m                   0.00:  KB ELEVATION
 EDF .m                  43.00:  DF ELEVATION
 TDL .m                 254.00:  TOTAL DEPTH (LOGGER)
 MAGU.                 1850021:  MAGUTM CHECKSUM
 VSC .                       0:  VS TO CLOSURE
~Parameter Information Block
#MNEM.UNIT       Value        Description
#---------     -----------    ---------------------------
 AV  .mps                 0.50:  Ann Velocity 
 AVMX.mps                 1.40:  Max Ann Veloc 
 AZIF.deg               144.94:  Azm, Final 
 BHAT.        Rotary Steerable:  BHA Type 
 BROT.°/30m               0.23:  Build Rotating 
 BS  .in                  8.50:  Bit Size 
 BTPL.psig              264.00:  Bit Press Loss 
 CABU.                     Yes:  Customer Abuse 
 TCS .hr                 87.30:  Time Ciculation Ended 
 CV  .mps                 2.45:  Crit Velocity 
 CVMX.mps                 2.74:  Max Crit Veloc 
 DD1 .             Aziz Aliyev:  Direct Drillr 1 
 DDSV.               Geo-Pilot:  DD Service 
 DEFF.%                 100.00:  % Det Eff 
 DLRX.°/30m               1.22:  Dogleg Rot Max 
 DLSO.°/30m               0.52:  Dogleg Oriented 
 DLSX.°/30m               1.22:  Dogleg Str Max 
 DRET.      12.59.00 23-Feb-20:  Drill End Time 
 DRST.      09.44.00 18-Feb-20:  Drill Start Tim 
 DTIM.hr                 23.03:  Time Drilling 
 EDEP.m                3473.01:  End Depth 
 ENG1.         Almaz Almadatov:  Engineer 1 
 ENG2.         Dair Mahammadov:  Engineer 2 
 ENG3.          Nazrin Asgarli:  Engineer 3 
 ETIM.      10.33.36 26-Feb-20:  End Time 
 FLOI.gpm               480.00:  Flow In 
 FLON.gpm               300.00:  Flow In Min 
 FLOS.cptm                1.00:  Fluid Loss 
 FLOX.gpm               550.00:  Flow In Max 
 HFLO.                      No:  High Flow 
 HPRE.                      No:  High Pressure 
 HTEM.                      No:  High Temp 
 HYDO.m                   1.80:  Hydro Offset 
 IFIN.deg                74.42:  Inc, Final 
 IMAX.deg                76.14:  Inc Max 
 IMIN.deg                74.42:  Inc Min 
 IMND.m                3462.72:  Inc Min Depth 
 IMXD.m                3235.69:  Inc Max Depth 
 JARR.                      No:  Jarring 
 LETM.      12.59.00 23-Feb-20:  Log End Time 
 LOST.hr                     0:  Lost Rig Time 
 LSTM.      09.44.00 18-Feb-20:  Log Start Time 
 MDCL.ppm             45000.00:  Mud Chlorides 
 MDES.     Inversion Oil/Synthetic:  Mud Desc 
 DFD .sg                  1.38:  Mud Density 
 MDMN.sg                  1.34:  Dens Mud Min 
 MDMX.sg                  1.49:  Dens Mud Max 
 MOIL.                      67:  Run Mud Oil % 
 MOWR.                   67:33:  Run Mud OWR 
 MSND.                    0.12:  Run Mud Sand % 
 MSOL.                      22:  Run Mud Solids% 
 DFV .spqt               81.00:  Mud Viscosity 
 MWOD.in                  6.75:  MWD Tool OD 
 MWSI.                      No:  Serv Intrp, MWD 
 OTIM.hr                231.44:  Time Operating 
 PCON.          Wear / Scratch:  Pad Condition 
 PMAX.psia             3400.00:  Press Op, Max 
 PV  .cP                 55.00:  Mud PV 
 RUN .                     800:  Run Number 
 ROPA.m/hr               12.00:  ROP Avg 
 ROPN.m/hr                5.00:  ROP Min 
 ROPX.m/hr               28.00:  ROP Max 
 RPMA.rpm               120.00:  RPM Surface Avg 
 RPMN.rpm                40.00:  RPM Surface Min 
 RPMX.rpm               130.00:  RPM Surface Max 
 RRUN.                    0800:  Rig Run Number 
 RTIM.hr                 45.00:  Time Reaming 
 SAZI.deg               145.38:  Azm, Start 
 SDEP.m                3219.01:  Start Depth 
 SIDD.                      No:  Serv Intrp, DD 
 SINC.deg                75.11:  Inc, Start 
 SPPA.psig             2400.00:  SPP Avg 
 SPPN.psig             2320.00:  SPP Min 
 SPPX.psig             3200.00:  SPP Max 
 STIM.      15.15.00 17-Feb-20:  Start Time 
 SVCS.                 DD, MWD:  Services 
 SVER.                    9.20:  Sperry Version 
 TDAT.m                 254.00:  Tot Depth Attmp 
 TDDF.                      No:  Trip for DD 
 TDLG.m                 254.00:  Tot Depth Loggd 
 TFF .                      No:  Trip for Fail 
 TQAA.f-kp               13.00:  Torque Abs Avg 
 TQAN.f-kp                7.00:  Torque Abs Min 
 TQAX.f-kp               15.00:  Torque Abs Max 
 TRRT.°/30m               0.21:  Turn Rotating 
 MRT .                  EWR-M5:  Maximum Recorded Temperature 
 TTMX.degC               64.00:  Max Tool Temp 
 VS01.                90586516:  Virtual Str1 SN 
 VS02.                90513691:  Virtual Str2 SN 
 VS03.                90586523:  Virtual Str3 SN 
 VS04.                90586520:  Virtual Str4 SN 
 VS05.                90590507:  Virtual Str5 SN 
 WBMN.klb                12.00:  WOB Min 
 WITN.           Rufat Babayev:  Customer Rep 2 
 WITN.         Alistair Sprott:  Customer Rep 
 WOBA.klb                18.00:  WOB Avg 
 WOBX.klb                30.00:  WOB Max 
 YP  .lhf2               41.00:  Yield Point 
~Curve Information Block
#MNEM.UNIT                 API CODE     Curve Description
#---------               -----------    ---------------------------
 TIME.HHMMSS            00 000 000 000:  GT Time & Date
 GTDEPTH.m              00 000 000 000:  GT Depth
 GTPQH.psia             00 000 000 000:  GT HR Quartz Pressure
 GTTQ.degC              00 000 000 000:  GT Quartz Temperature
 GTTN.NONE              00 000 000 000:  GT Test Number
 GTET.sec               00 000 000 000:  GT Elapsed Test Time
 GTTVD.m                00 000 000 000:  GT True Vertical Depth
#Other Information
#
#WARRANTY: Halliburton will use its best efforts to furnish customers with 
#accurate information and interpretations that are part of, and incident to, the services 
#provided.  However, Halliburton cannot and does not warrant the accuracy 
#or correctness of such information and interpretations.  Under no circumstances should any 
#such information or interpretation be relied upon as the sole basis for any drilling, 
#completion, production, or financial decision or any procedure involving any risk to the 
#safety of any drilling venture, drilling rig or its crew or any other third party.  The 
#Customer has full responsibility for all drilling, completion and production operation.  
#Halliburton makes no representations or warranties, either expressed or 
#implied, including, but not limited to, the implied warranties of merchantability or fitness 
#for a particular purpose, with respect to the services rendered.  In no event will 
#Halliburton be liable for failure to obtain any particular results or for 
#any damages, including, but not limited to, indirect, special or consequential damages, 
#resulting from the use of any information or interpretation provided by Halliburton.
#
~A           TIME           GTDEPTH  GTPQH  GTTQ  GTTN  GTET   GTTVD  
# ...
   05:03:00.829.24-Feb-2020 3303.51 5826.29 55.51 8.00  45.99 2690.98
   05:03:01.029.24-Feb-2020 3303.51 5836.23 55.51 8.00  46.19 2690.98
   05:03:01.229.24-Feb-2020 3303.51 5853.89 55.51 8.00  46.39 2690.98
   05:03:01.429.24-Feb-2020 3303.51 5868.35 55.51 8.00  46.59 2690.98
   05:03:01.629.24-Feb-2020 3303.51 5884.64 55.51 8.00  46.79 2690.98
   05:03:01.829.24-Feb-2020 3303.51 5895.95 55.51 8.00  46.99 2690.98
   05:03:02.029.24-Feb-2020 3303.51 5895.95 55.51 8.00  47.19 2690.98
   05:03:02.229.24-Feb-2020 3303.51 5920.66 55.51 8.00  47.39 2690.98
   05:03:02.429.24-Feb-2020 3303.51 5934.23 55.51 8.00  47.59 2690.98
   05:03:02.629.24-Feb-2020 3303.51 5935.66 55.51 8.00  47.79 2690.98
   05:03:02.829.24-Feb-2020 3303.51 5948.04 55.51 8.00  47.99 2690.98
   05:03:03.029.24-Feb-2020 3303.51 5963.54 55.51 8.00  48.19 2690.98
   05:03:03.229.24-Feb-2020 3303.51 5975.69 55.51 8.00  48.39 2690.98
   05:03:03.428.24-Feb-2020 3303.51 5979.76 55.51 8.00  48.59 2690.98
   05:03:03.628.24-Feb-2020 3303.51 5991.61 55.51 8.00  48.79 2690.98
   05:03:03.828.24-Feb-2020 3303.51 6013.16 55.51 8.00  48.99 2690.98
   05:03:04.028.24-Feb-2020 3303.51 6028.93 55.51 8.00  49.19 2690.98
   05:03:04.228.24-Feb-2020 3303.51 6046.42 55.51 8.00  49.39 2690.98
   05:03:04.428.24-Feb-2020 3303.51 6055.31 55.51 8.00  49.59 2690.98
   05:03:04.628.24-Feb-2020 3303.51 6067.08 55.51 8.00  49.79 2690.98
   05:03:04.828.24-Feb-2020 3303.51 6092.71 55.51 8.00  49.99 2690.98
   05:03:05.028.24-Feb-2020 3303.51 6120.16 55.51 8.00  50.19 2690.98
   05:03:05.228.24-Feb-2020 3303.51 6141.77 55.51 8.00  50.39 2690.98
   05:03:05.428.24-Feb-2020 3303.51 6159.72 55.51 8.00  50.59 2690.98
   05:03:05.628.24-Feb-2020 3303.51 6170.84 55.51 8.00  50.79 2690.98
   05:03:05.828.24-Feb-2020 3303.51 6177.46 55.51 8.00  50.99 2690.98
   05:03:06.028.24-Feb-2020 3303.51 6177.46 55.51 8.00  51.18 2690.98
   05:03:06.228.24-Feb-2020 3303.51 6181.87 55.51 8.00  51.38 2690.98
   05:03:06.428.24-Feb-2020 3303.51 6181.17 55.51 8.00  51.58 2690.98
   05:03:06.628.24-Feb-2020 3303.51 6182.61 55.51 8.00  51.78 2690.98
   05:03:06.827.24-Feb-2020 3303.51 6184.09 55.51 8.00  51.98 2690.98
   05:03:07.027.24-Feb-2020 3303.51 6184.09 55.51 8.00  52.18 2690.98
   05:03:07.227.24-Feb-2020 3303.51 6186.23 55.51 8.00  52.38 2690.98
   05:03:07.427.24-Feb-2020 3303.51 6190.52 55.51 8.00  52.58 2690.98
   05:03:07.627.24-Feb-2020 3303.51 6191.81 55.51 8.00  52.78 2690.98
   05:03:07.827.24-Feb-2020 3303.51 6196.19 55.51 8.00  52.98 2690.98
   05:03:08.027.24-Feb-2020 3303.51 6196.19 55.51 8.00  53.18 2690.98
   05:03:08.227.24-Feb-2020 3303.51 6193.41 55.51 8.00  53.38 2690.98
   05:03:08.427.24-Feb-2020 3303.51 6193.46 55.51 8.00  53.58 2690.98
   05:03:08.627.24-Feb-2020 3303.51 6193.95 55.51 8.00  53.78 2690.98
   05:03:08.827.24-Feb-2020 3303.51 6195.07 55.51 8.00  53.98 2690.98
   05:03:09.027.24-Feb-2020 3303.51 6196.17 55.51 8.00  54.18 2690.98
   05:03:09.227.24-Feb-2020 3303.51 6197.85 55.51 8.00  54.38 2690.98
   05:03:09.427.24-Feb-2020 3303.51 6200.30 55.51 8.00  54.58 2690.98
   05:03:09.627.24-Feb-2020 3303.51 6201.31 55.51 8.00  54.78 2690.98
   05:03:09.827.24-Feb-2020 3303.51 6203.23 55.52 8.00  54.98 2690.98
   05:03:10.027.24-Feb-2020 3303.51 6203.23 55.52 8.00  55.18 2690.98
   05:03:10.226.24-Feb-2020 3303.51 6206.79 55.52 8.00  55.38 2690.98
   05:03:10.426.24-Feb-2020 3303.51 6208.01 55.52 8.00  55.58 2690.98
   05:03:10.626.24-Feb-2020 3303.51 6209.09 55.52 8.00  55.78 2690.98
   05:03:10.826.24-Feb-2020 3303.51 6210.94 55.52 8.00  55.98 2690.98
   05:03:11.026.24-Feb-2020 3303.51 6210.94 55.52 8.00  56.18 2690.98
   05:03:11.226.24-Feb-2020 3303.51 6220.17 55.52 8.00  56.38 2690.98
   05:03:11.426.24-Feb-2020 3303.51 6219.54 55.52 8.00  56.58 2690.98
   05:03:11.626.24-Feb-2020 3303.51 6227.71 55.52 8.00  56.78 2690.98
   05:03:11.826.24-Feb-2020 3303.51 6227.75 55.52 8.00  56.98 2690.98
   05:03:12.026.24-Feb-2020 3303.51 6227.75 55.52 8.00  57.18 2690.98
   05:03:12.226.24-Feb-2020 3303.51 6218.35 55.52 8.00  57.38 2690.98
   05:03:12.426.24-Feb-2020 3303.51 6215.75 55.52 8.00  57.58 2690.98
   05:03:12.626.24-Feb-2020 3303.51 6213.39 55.52 8.00  57.78 2690.98
   05:03:12.826.24-Feb-2020 3303.51 6214.30 55.52 8.00  57.98 2690.98
   05:03:13.026.24-Feb-2020 3303.51 6214.30 55.52 8.00  58.18 2690.98
   05:03:13.226.24-Feb-2020 3303.51 6189.61 55.52 8.00  58.38 2690.98
   05:03:13.426.24-Feb-2020 3303.51 6189.61 55.52 8.00  58.58 2690.98
   05:03:13.625.24-Feb-2020 3303.51 6179.15 55.52 8.00  58.78 2690.98
   05:03:13.825.24-Feb-2020 3303.51 6138.11 55.52 8.00  58.98 2690.98
   05:03:14.025.24-Feb-2020 3303.51 6138.11 55.52 8.00  59.18 2690.98
   05:03:14.225.24-Feb-2020 3303.51 6117.07 55.52 8.00  59.38 2690.98
   05:03:14.425.24-Feb-2020 3303.51 6115.84 55.52 8.00  59.58 2690.98
   05:03:14.625.24-Feb-2020 3303.51 6096.64 55.52 8.00  59.78 2690.98
   05:03:14.825.24-Feb-2020 3303.51 6094.75 55.52 8.00  59.98 2690.98
   05:03:15.025.24-Feb-2020 3303.51 6094.75 55.52 8.00  60.18 2690.98
   05:03:15.225.24-Feb-2020 3303.51 6088.25 55.52 8.00  60.38 2690.98
   05:03:15.425.24-Feb-2020 3303.51 6085.71 55.52 8.00  60.58 2690.98
   05:03:15.625.24-Feb-2020 3303.51 6083.88 55.52 8.00  60.78 2690.98
   05:03:15.825.24-Feb-2020 3303.51 6082.36 55.51 8.00  60.98 2690.98
   05:03:16.025.24-Feb-2020 3303.51 6082.36 55.51 8.00  61.18 2690.98
   05:03:16.225.24-Feb-2020 3303.51 6079.02 55.51 8.00  61.38 2690.98
   05:03:16.425.24-Feb-2020 3303.51 6077.76 55.51 8.00  61.58 2690.98
   05:03:16.625.24-Feb-2020 3303.51 6076.95 55.51 8.00  61.78 2690.98
   05:03:16.825.24-Feb-2020 3303.51 6076.14 55.51 8.00  61.98 2690.98
   05:03:17.024.24-Feb-2020 3303.51 6075.16 55.51 8.00  62.18 2690.98
   05:03:17.224.24-Feb-2020 3303.51 6073.35 55.51 8.00  62.38 2690.98
   05:03:17.424.24-Feb-2020 3303.51 6071.94 55.51 8.00  62.58 2690.98
   05:03:17.624.24-Feb-2020 3303.51 5963.52 55.51 8.00  62.78 2690.98
   05:03:17.824.24-Feb-2020 3303.51 5508.41 55.51 8.00  62.98 2690.98
   05:03:18.024.24-Feb-2020 3303.51 5508.41 55.51 8.00  63.18 2690.98
   05:03:18.224.24-Feb-2020 3303.51 3953.97 55.51 8.00  63.38 2690.98
   05:03:18.424.24-Feb-2020 3303.51 4265.99 55.51 8.00  63.58 2690.98
   05:03:18.624.24-Feb-2020 3303.51 4339.33 55.51 8.00  63.78 2690.98
   05:03:18.824.24-Feb-2020 3303.51 4356.09 55.51 8.00  63.98 2690.98
   05:03:19.024.24-Feb-2020 3303.51 4356.09 55.51 8.00  64.18 2690.98
   05:03:19.224.24-Feb-2020 3303.51 4367.27 55.51 8.00  64.38 2690.98
   05:03:19.424.24-Feb-2020 3303.51 4370.93 55.51 8.00  64.58 2690.98
   05:03:19.624.24-Feb-2020 3303.51 4375.16 55.51 8.00  64.78 2690.98
   05:03:19.824.24-Feb-2020 3303.51 4378.23 55.51 8.00  64.98 2690.98
   05:03:20.024.24-Feb-2020 3303.51 4378.23 55.51 8.00  65.18 2690.98
   05:03:20.224.24-Feb-2020 3303.51 4382.47 55.50 8.00  65.38 2690.98
   05:03:20.423.24-Feb-2020 3303.51 4383.21 55.50 8.00  65.58 2690.98
   05:03:20.623.24-Feb-2020 3303.51 4385.70 55.50 8.00  65.78 2690.98
   05:03:20.823.24-Feb-2020 3303.51 4385.14 55.50 8.00  65.98 2690.98
   05:03:21.023.24-Feb-2020 3303.51 4384.62 55.50 8.00  66.18 2690.98
   05:03:21.223.24-Feb-2020 3303.51 4386.01 55.50 8.00  66.38 2690.98
   05:03:21.423.24-Feb-2020 3303.51 4386.72 55.50 8.00  66.58 2690.98
   05:03:21.623.24-Feb-2020 3303.51 4386.90 55.49 8.00  66.78 2690.98
   05:03:21.823.24-Feb-2020 3303.51 4388.30 55.49 8.00  66.98 2690.98
   05:03:22.023.24-Feb-2020 3303.51 4388.30 55.49 8.00  67.18 2690.98
   05:03:22.223.24-Feb-2020 3303.51 4389.03 55.49 8.00  67.38 2690.98
   05:03:22.423.24-Feb-2020 3303.51 4389.77 55.49 8.00  67.58 2690.98
   05:03:22.623.24-Feb-2020 3303.51 4389.75 55.49 8.00  67.78 2690.98
   05:03:22.823.24-Feb-2020 3303.51 4391.15 55.49 8.00  67.98 2690.98
   05:03:23.023.24-Feb-2020 3303.51 4391.15 55.49 8.00  68.18 2690.98
   05:03:23.223.24-Feb-2020 3303.51 4392.21 55.48 8.00  68.38 2690.98
   05:03:23.423.24-Feb-2020 3303.51 4392.63 55.48 8.00  68.58 2690.98
   05:03:23.623.24-Feb-2020 3303.51 4393.81 55.48 8.00  68.78 2690.98
