~Version Information
 VERS.                  2.0:   CWLS log ASCII Standard -VERSION 2.0
 WRAP.                   NO:   One line per depth step
~Well Information Block
#MNEM.UNIT     VALUE/NAME     DESCRIPTION
#---------     -----------    ---------------------------
 STRT.S             01:46:16 24-Feb-20: START TIME 01:46:16 24-Feb-20
 STOP.S             01:53:27 24-Feb-20: STOP TIME  01:53:27 24-Feb-20
 STEP.S                   0.00: STEP TIME
 NULL.                 -999.25: NULL VALUE
 JOBN.        AZ-XX-0905059384:  JOB TICKET NUMB
 PDAT.          Mean Sea Level:  PERMANENT DATUM
 UNIT.                     N/A:  LOGGING EQUIPMENT ID
 DCON.         Sperry Drilling:  DIRECTNL CONTR
 DOE .                     N/A:  DOE NUMBER
 RIG .             West Chirag:  RIG NAME
 WELL.                     J22:  WELL NAME
 MWDS.                    Baku:  MWD SHOP
 SRVC.     TURAN Drilling & Engineering:  CONTRACTOR
 FLD .                     ACG:  FIELD NAME
 CTRY.              Azerbaijan:  COUNTRY NAME
 PROV.                    Baku:  PROVINCE
 STAT.                    Baku:  STATE NAME
 REGN.                   EESSA:  REGION
 BASE.              Azerbaijan:  LOGGING EQUIPMENT BASE LOCATION
 UWI .                     N/A:  UNIQUE WELL IDENTIFIER
 API .                     N/A:  API NUMBER
 COMP.     BP Exploration (Caspian Sea) Ltd.:  COMPANY
 WTYP.                Deviated:  WELL TYPE
 MDS .        Operator Entered:  MAG DATA SOURCE
 SON .        AZ-XX-0905059384:  JOB NUMBER
 FTOP.          Formation Tops:  FORM TOPS DESC
 ILTD.               Lithology:  INTERP LTH DESC
 SVYD.                  Survey:  SURVEY DESC
 DMOD.             Drill Model:  DRILL MOD DESC
 HPTY.       Minimum Curvature:  HOLE POS TYPE
 NREF.                    Grid:  NORTH REFERENCE
 SPUD.               09-Jan-20:  SPUD DATE
 DATE.      14.04.48 07-Feb-20:  END TIME
 STIM.      07.00.00 09-Jan-20:  START TIME
 DMF .             Drill Floor:  DRILL MEAS FROM
 DFST.                        :  DIST FSL TEXT
 DFWT.                        :  DIST FWL TEXT
 CNTY.                        :  COUNTY
 LOC .                        :  LOCATION
 LMF .             Drill Floor:  LOG MEASURED FROM
 DEP .m                   0.00:  DEPTH
 VSNS.m                  10.28:  VERT SEC N/S
 VSEW.m                  -6.24:  VERT SEC E/W
 AGAP.m                  43.00:  AIR GAP
 APD .m                  43.00:  DEPTH ABOVE PD
 WDMS.m                 169.80:  WD ELEV
 EGL .m                   0.00:  GROUND ELEVATION
 EPD .m                   0.00:  ELEVATION
 AZTC.deg                 6.27:  AZM TOTAL CORR
 GRDC.deg                 0.15:  GRID CORRECTION
 MDEC.deg                 6.42:  MAGNETIC DECL
 MDIP.deg                59.56:  MAGNETIC DIP
 MFLD.nT              50277.00:  MAGNETIC FIELD
 GVFD.g                   1.00:  GRAVITY FIELD
 VSDR.deg               148.53:  VERT SEC DIRECT
 TDD .m                3473.01:  TOTAL DEPTH (DRILLER)
 SDEP.m                 364.00:  START DEPTH
 DFSL.m                   0.00:  DISTANCE FSL
 DFWL.m                   0.00:  DISTANCE FWL
 UTMY.m             4443793.85:  UTM Y
 UTMX.m              519005.06:  UTM X
 WHEW.m                  -6.24:  WELL HEAD E/W
 WHNS.m                  10.28:  WELL HEAD N/S
 LONG.deg                51.22:  LONGITUDE
 LATI.deg                40.13:  LATITUDE
 TVDS.m                  43.00:  TVDSS CORRECTN
 EKB .m                   0.00:  KB ELEVATION
 EDF .m                  43.00:  DF ELEVATION
 TDL .m                 254.00:  TOTAL DEPTH (LOGGER)
 MAGU.                 1850021:  MAGUTM CHECKSUM
 VSC .                       0:  VS TO CLOSURE
~Parameter Information Block
#MNEM.UNIT       Value        Description
#---------     -----------    ---------------------------
 AV  .mps                 0.50:  Ann Velocity 
 AVMX.mps                 1.40:  Max Ann Veloc 
 AZIF.deg               144.94:  Azm, Final 
 BHAT.        Rotary Steerable:  BHA Type 
 BROT.°/30m               0.23:  Build Rotating 
 BS  .in                  8.50:  Bit Size 
 BTPL.psig              264.00:  Bit Press Loss 
 CABU.                     Yes:  Customer Abuse 
 COMM.                     $æx:  Run Comments 1 
 TCS .hr                 87.30:  Time Ciculation Ended 
 CV  .mps                 2.45:  Crit Velocity 
 CVMX.mps                 2.74:  Max Crit Veloc 
 DD1 .             Aziz Aliyev:  Direct Drillr 1 
 DDSV.               Geo-Pilot:  DD Service 
 DEFF.%                 100.00:  % Det Eff 
 DLRX.°/30m               1.22:  Dogleg Rot Max 
 DLSO.°/30m               0.52:  Dogleg Oriented 
 DLSX.°/30m               1.22:  Dogleg Str Max 
 DRET.      12.59.00 23-Feb-20:  Drill End Time 
 DRST.      09.44.00 18-Feb-20:  Drill Start Tim 
 DTIM.hr                 23.03:  Time Drilling 
 EDEP.m                3473.01:  End Depth 
 ENG1.         Almaz Almadatov:  Engineer 1 
 ENG2.         Dair Mahammadov:  Engineer 2 
 ENG3.          Nazrin Asgarli:  Engineer 3 
 ETIM.      10.33.36 26-Feb-20:  End Time 
 FLOI.gpm               480.00:  Flow In 
 FLON.gpm               300.00:  Flow In Min 
 FLOS.cptm                1.00:  Fluid Loss 
 FLOX.gpm               550.00:  Flow In Max 
 HFLO.                      No:  High Flow 
 HPRE.                      No:  High Pressure 
 HTEM.                      No:  High Temp 
 HYDO.m                   1.80:  Hydro Offset 
 IFIN.deg                74.42:  Inc, Final 
 IMAX.deg                76.14:  Inc Max 
 IMIN.deg                74.42:  Inc Min 
 IMND.m                3462.72:  Inc Min Depth 
 IMXD.m                3235.69:  Inc Max Depth 
 JARR.                      No:  Jarring 
 LETM.      12.59.00 23-Feb-20:  Log End Time 
 LOST.hr                     0:  Lost Rig Time 
 LSTM.      09.44.00 18-Feb-20:  Log Start Time 
 MDCL.ppm             45000.00:  Mud Chlorides 
 MDES.     Inversion Oil/Synthetic:  Mud Desc 
 DFD .sg                  1.38:  Mud Density 
 MDMN.sg                  1.34:  Dens Mud Min 
 MDMX.sg                  1.49:  Dens Mud Max 
 MOIL.                      67:  Run Mud Oil % 
 MOWR.                   67:33:  Run Mud OWR 
 MSND.                    0.12:  Run Mud Sand % 
 MSOL.                      22:  Run Mud Solids% 
 DFV .spqt               81.00:  Mud Viscosity 
 MWOD.in                  6.75:  MWD Tool OD 
 MWSI.                      No:  Serv Intrp, MWD 
 OTIM.hr                231.44:  Time Operating 
 PCON.          Wear / Scratch:  Pad Condition 
 PMAX.psia             3400.00:  Press Op, Max 
 PV  .cP                 55.00:  Mud PV 
 RUN .                     800:  Run Number 
 ROPA.m/hr               12.00:  ROP Avg 
 ROPN.m/hr                5.00:  ROP Min 
 ROPX.m/hr               28.00:  ROP Max 
 RPMA.rpm               120.00:  RPM Surface Avg 
 RPMN.rpm                40.00:  RPM Surface Min 
 RPMX.rpm               130.00:  RPM Surface Max 
 RRUN.                    0800:  Rig Run Number 
 RTIM.hr                 45.00:  Time Reaming 
 SAZI.deg               145.38:  Azm, Start 
 SDEP.m                3219.01:  Start Depth 
 SIDD.                      No:  Serv Intrp, DD 
 SINC.deg                75.11:  Inc, Start 
 SPPA.psig             2400.00:  SPP Avg 
 SPPN.psig             2320.00:  SPP Min 
 SPPX.psig             3200.00:  SPP Max 
 STIM.      15.15.00 17-Feb-20:  Start Time 
 SVCS.                 DD, MWD:  Services 
 SVER.                    9.20:  Sperry Version 
 TDAT.m                 254.00:  Tot Depth Attmp 
 TDDF.                      No:  Trip for DD 
 TDLG.m                 254.00:  Tot Depth Loggd 
 TFF .                      No:  Trip for Fail 
 TQAA.f-kp               13.00:  Torque Abs Avg 
 TQAN.f-kp                7.00:  Torque Abs Min 
 TQAX.f-kp               15.00:  Torque Abs Max 
 TRRT.°/30m               0.21:  Turn Rotating 
 MRT .                  EWR-M5:  Maximum Recorded Temperature 
 TTMX.degC               64.00:  Max Tool Temp 
 VS01.                90586516:  Virtual Str1 SN 
 VS02.                90513691:  Virtual Str2 SN 
 VS03.                90586523:  Virtual Str3 SN 
 VS04.                90586520:  Virtual Str4 SN 
 VS05.                90590507:  Virtual Str5 SN 
 WBMN.klb                12.00:  WOB Min 
 WITN.           Rufat Babayev:  Customer Rep 2 
 WITN.         Alistair Sprott:  Customer Rep 
 WOBA.klb                18.00:  WOB Avg 
 WOBX.klb                30.00:  WOB Max 
 YP  .lhf2               41.00:  Yield Point 
~Curve Information Block
#MNEM.UNIT                 API CODE     Curve Description
#---------               -----------    ---------------------------
 TIME.HHMMSS            00 000 000 000:  GT Time & Date
 GTDEPTH.m              00 000 000 000:  GT Depth
 GTPQH.psia             00 000 000 000:  GT HR Quartz Pressure
 GTTQ.degC              00 000 000 000:  GT Quartz Temperature
 GTTN.NONE              00 000 000 000:  GT Test Number
 GTET.sec               00 000 000 000:  GT Elapsed Test Time
 GTTVD.m                00 000 000 000:  GT True Vertical Depth
#Other Information
#
#WARRANTY: Halliburton will use its best efforts to furnish customers with 
#accurate information and interpretations that are part of, and incident to, the services 
#provided.  However, Halliburton cannot and does not warrant the accuracy 
#or correctness of such information and interpretations.  Under no circumstances should any 
#such information or interpretation be relied upon as the sole basis for any drilling, 
#completion, production, or financial decision or any procedure involving any risk to the 
#safety of any drilling venture, drilling rig or its crew or any other third party.  The 
#Customer has full responsibility for all drilling, completion and production operation.  
#Halliburton makes no representations or warranties, either expressed or 
#implied, including, but not limited to, the implied warranties of merchantability or fitness 
#for a particular purpose, with respect to the services rendered.  In no event will 
#Halliburton be liable for failure to obtain any particular results or for 
#any damages, including, but not limited to, indirect, special or consequential damages, 
#resulting from the use of any information or interpretation provided by Halliburton.
#
~A           TIME           GTDEPTH  GTPQH  GTTQ  GTTN  GTET   GTTVD  
# ...
   01:47:48.432.24-Feb-2020 3392.01 4211.65 55.95 4.00  92.02 2713.39
   01:47:48.632.24-Feb-2020 3392.01 4211.65 55.95 4.00  92.22 2713.39
   01:47:48.833.24-Feb-2020 3392.01 4211.68 55.95 4.00  92.42 2713.39
   01:47:49.033.24-Feb-2020 3392.01 4211.69 55.95 4.00  92.62 2713.39
   01:47:49.233.24-Feb-2020 3392.01 4211.69 55.95 4.00  92.82 2713.39
   01:47:49.433.24-Feb-2020 3392.01 4211.69 55.95 4.00  93.02 2713.39
   01:47:49.633.24-Feb-2020 3392.01 4211.69 55.95 4.00  93.22 2713.39
   01:47:49.833.24-Feb-2020 3392.01 4211.69 55.95 4.00  93.42 2713.39
   01:47:50.033.24-Feb-2020 3392.01 4211.68 55.95 4.00  93.62 2713.39
   01:47:50.233.24-Feb-2020 3392.01 4211.70 55.95 4.00  93.82 2713.39
   01:47:50.433.24-Feb-2020 3392.01 4211.70 55.95 4.00  94.02 2713.39
   01:47:50.633.24-Feb-2020 3392.01 4211.70 55.95 4.00  94.22 2713.39
   01:47:50.833.24-Feb-2020 3392.01 4211.75 55.95 4.00  94.42 2713.39
   01:47:51.033.24-Feb-2020 3392.01 4211.58 55.95 4.00  94.62 2713.39
   01:47:51.233.24-Feb-2020 3392.01 4211.74 55.95 4.00  94.82 2713.39
   01:47:51.433.24-Feb-2020 3392.01 4211.69 55.95 4.00  95.02 2713.39
   01:47:51.633.24-Feb-2020 3392.01 4211.69 55.95 4.00  95.22 2713.39
   01:47:51.833.24-Feb-2020 3392.01 4211.70 55.95 4.00  95.42 2713.39
   01:47:52.033.24-Feb-2020 3392.01 4211.68 55.95 4.00  95.62 2713.39
   01:47:52.233.24-Feb-2020 3392.01 4211.68 55.95 4.00  95.82 2713.39
   01:47:52.433.24-Feb-2020 3392.01 4211.69 55.95 4.00  96.02 2713.39
   01:47:52.633.24-Feb-2020 3392.01 4211.69 55.95 4.00  96.22 2713.39
   01:47:52.833.24-Feb-2020 3392.01 4211.71 55.95 4.00  96.42 2713.39
   01:47:53.033.24-Feb-2020 3392.01 4211.68 55.95 4.00  96.62 2713.39
   01:47:53.233.24-Feb-2020 3392.01 4211.69 55.95 4.00  96.82 2713.39
   01:47:53.433.24-Feb-2020 3392.01 4211.69 55.95 4.00  97.02 2713.39
   01:47:53.634.24-Feb-2020 3392.01 4211.69 55.95 4.00  97.22 2713.39
   01:47:53.834.24-Feb-2020 3392.01 4211.69 55.95 4.00  97.42 2713.39
   01:47:54.034.24-Feb-2020 3392.01 4211.71 55.95 4.00  97.62 2713.39
   01:47:54.234.24-Feb-2020 3392.01 4211.62 55.95 4.00  97.82 2713.39
   01:47:54.434.24-Feb-2020 3392.01 4211.80 55.95 4.00  98.02 2713.39
   01:47:54.634.24-Feb-2020 3392.01 4211.80 55.95 4.00  98.22 2713.39
   01:47:54.834.24-Feb-2020 3392.01 4211.66 55.95 4.00  98.42 2713.39
   01:47:55.034.24-Feb-2020 3392.01 4211.68 55.95 4.00  98.62 2713.39
   01:47:55.234.24-Feb-2020 3392.01 4211.78 55.95 4.00  98.82 2713.39
   01:47:55.434.24-Feb-2020 3392.01 4211.62 55.95 4.00  99.02 2713.39
   01:47:55.634.24-Feb-2020 3392.01 4211.62 55.95 4.00  99.22 2713.39
   01:47:55.834.24-Feb-2020 3392.01 4211.72 55.95 4.00  99.42 2713.39
   01:47:56.034.24-Feb-2020 3392.01 4211.69 55.95 4.00  99.62 2713.39
   01:47:56.234.24-Feb-2020 3392.01 4211.69 55.95 4.00  99.82 2713.39
   01:47:56.434.24-Feb-2020 3392.01 4211.75 55.94 4.00 100.02 2713.39
   01:47:56.634.24-Feb-2020 3392.01 4211.75 55.94 4.00 100.22 2713.39
   01:47:56.834.24-Feb-2020 3392.01 4211.75 55.94 4.00 100.42 2713.39
   01:47:57.034.24-Feb-2020 3392.01 4211.69 55.94 4.00 100.62 2713.39
   01:47:57.234.24-Feb-2020 3392.01 4211.68 55.94 4.00 100.82 2713.39
   01:47:57.434.24-Feb-2020 3392.01 4211.67 55.94 4.00 101.02 2713.39
   01:47:57.634.24-Feb-2020 3392.01 4211.67 55.94 4.00 101.22 2713.39
   01:47:57.834.24-Feb-2020 3392.01 4211.72 55.94 4.00 101.42 2713.39
   01:47:58.034.24-Feb-2020 3392.01 4211.67 55.94 4.00 101.62 2713.39
   01:47:58.234.24-Feb-2020 3392.01 4211.71 55.94 4.00 101.82 2713.39
   01:47:58.435.24-Feb-2020 3392.01 4211.70 55.94 4.00 102.02 2713.39
   01:47:58.635.24-Feb-2020 3392.01 4211.70 55.94 4.00 102.22 2713.39
   01:47:58.835.24-Feb-2020 3392.01 4211.69 55.94 4.00 102.42 2713.39
   01:47:59.035.24-Feb-2020 3392.01 4211.70 55.94 4.00 102.62 2713.39
   01:47:59.235.24-Feb-2020 3392.01 4211.69 55.94 4.00 102.82 2713.39
   01:47:59.435.24-Feb-2020 3392.01 4211.69 55.94 4.00 103.02 2713.39
   01:47:59.635.24-Feb-2020 3392.01 4211.69 55.94 4.00 103.22 2713.39
   01:47:59.835.24-Feb-2020 3392.01 4211.69 55.94 4.00 103.42 2713.39
   01:48:00.035.24-Feb-2020 3392.01 4211.71 55.94 4.00 103.62 2713.39
   01:48:00.235.24-Feb-2020 3392.01 4211.70 55.94 4.00 103.82 2713.39
   01:48:00.435.24-Feb-2020 3392.01 4211.66 55.94 4.00 104.02 2713.39
   01:48:00.635.24-Feb-2020 3392.01 4211.66 55.94 4.00 104.22 2713.39
   01:48:00.835.24-Feb-2020 3392.01 4211.62 55.94 4.00 104.42 2713.39
   01:48:01.035.24-Feb-2020 3392.01 4211.70 55.94 4.00 104.62 2713.39
   01:48:01.235.24-Feb-2020 3392.01 4211.72 55.94 4.00 104.82 2713.39
   01:48:01.435.24-Feb-2020 3392.01 4211.69 55.94 4.00 105.02 2713.39
   01:48:01.635.24-Feb-2020 3392.01 4211.69 55.94 4.00 105.22 2713.39
   01:48:01.835.24-Feb-2020 3392.01 4211.70 55.94 4.00 105.42 2713.39
   01:48:02.035.24-Feb-2020 3392.01 4211.69 55.94 4.00 105.62 2713.39
   01:48:02.235.24-Feb-2020 3392.01 4211.70 55.94 4.00 105.82 2713.39
   01:48:02.435.24-Feb-2020 3392.01 4211.71 55.94 4.00 106.02 2713.39
   01:48:02.635.24-Feb-2020 3392.01 4211.71 55.94 4.00 106.22 2713.39
   01:48:02.835.24-Feb-2020 3392.01 4211.69 55.94 4.00 106.42 2713.39
   01:48:03.035.24-Feb-2020 3392.01 4211.69 55.94 4.00 106.62 2713.39
   01:48:03.236.24-Feb-2020 3392.01 4211.71 55.94 4.00 106.82 2713.39
   01:48:03.436.24-Feb-2020 3392.01 4211.70 55.94 4.00 107.02 2713.39
   01:48:03.636.24-Feb-2020 3392.01 4211.70 55.94 4.00 107.22 2713.39
   01:48:03.836.24-Feb-2020 3392.01 4211.68 55.94 4.00 107.42 2713.39
   01:48:04.036.24-Feb-2020 3392.01 4211.68 55.94 4.00 107.62 2713.39
   01:48:04.236.24-Feb-2020 3392.01 4211.74 55.94 4.00 107.82 2713.39
   01:48:04.436.24-Feb-2020 3392.01 4211.67 55.94 4.00 108.02 2713.39
   01:48:04.636.24-Feb-2020 3392.01 4211.67 55.94 4.00 108.22 2713.39
   01:48:04.836.24-Feb-2020 3392.01 4211.66 55.94 4.00 108.42 2713.39
   01:48:05.036.24-Feb-2020 3392.01 4211.81 55.94 4.00 108.62 2713.39
   01:48:05.236.24-Feb-2020 3392.01 4211.66 55.94 4.00 108.82 2713.39
   01:48:05.436.24-Feb-2020 3392.01 4211.67 55.94 4.00 109.02 2713.39
   01:48:05.636.24-Feb-2020 3392.01 4211.67 55.94 4.00 109.22 2713.39
   01:48:05.836.24-Feb-2020 3392.01 4211.68 55.94 4.00 109.42 2713.39
   01:48:06.036.24-Feb-2020 3392.01 4211.67 55.94 4.00 109.62 2713.39
   01:48:06.236.24-Feb-2020 3392.01 4211.82 55.94 4.00 109.82 2713.39
   01:48:06.436.24-Feb-2020 3392.01 4211.62 55.94 4.00 110.02 2713.39
   01:48:06.636.24-Feb-2020 3392.01 4211.62 55.94 4.00 110.22 2713.39
   01:48:06.836.24-Feb-2020 3392.01 4211.73 55.94 4.00 110.42 2713.39
   01:48:07.036.24-Feb-2020 3392.01 4211.74 55.94 4.00 110.62 2713.39
   01:48:07.236.24-Feb-2020 3392.01 4211.61 55.94 4.00 110.82 2713.39
   01:48:07.436.24-Feb-2020 3392.01 4211.75 55.94 4.00 111.02 2713.39
   01:48:07.636.24-Feb-2020 3392.01 4211.75 55.94 4.00 111.22 2713.39
   01:48:07.836.24-Feb-2020 3392.01 4211.68 55.94 4.00 111.42 2713.39
   01:48:08.037.24-Feb-2020 3392.01 4211.71 55.94 4.00 111.62 2713.39
   01:48:08.237.24-Feb-2020 3392.01 4211.69 55.94 4.00 111.82 2713.39
   01:48:08.437.24-Feb-2020 3392.01 4211.70 55.94 4.00 112.02 2713.39
   01:48:08.637.24-Feb-2020 3392.01 4211.70 55.94 4.00 112.22 2713.39
   01:48:08.837.24-Feb-2020 3392.01 4211.70 55.94 4.00 112.42 2713.39
   01:48:09.037.24-Feb-2020 3392.01 4211.70 55.94 4.00 112.62 2713.39
   01:48:09.237.24-Feb-2020 3392.01 4211.70 55.94 4.00 112.82 2713.39
   01:48:09.437.24-Feb-2020 3392.01 4211.70 55.94 4.00 113.02 2713.39
   01:48:09.637.24-Feb-2020 3392.01 4211.70 55.94 4.00 113.22 2713.39
   01:48:09.837.24-Feb-2020 3392.01 4211.71 55.94 4.00 113.42 2713.39
   01:48:10.037.24-Feb-2020 3392.01 4211.70 55.94 4.00 113.62 2713.39
   01:48:10.237.24-Feb-2020 3392.01 4211.63 55.94 4.00 113.82 2713.39
   01:48:10.437.24-Feb-2020 3392.01 4211.81 55.94 4.00 114.02 2713.39
   01:48:10.637.24-Feb-2020 3392.01 4211.81 55.94 4.00 114.22 2713.39
   01:48:10.837.24-Feb-2020 3392.01 4211.66 55.94 4.00 114.42 2713.39
   01:48:11.037.24-Feb-2020 3392.01 4211.72 55.94 4.00 114.62 2713.39
   01:48:11.237.24-Feb-2020 3392.01 4211.67 55.94 4.00 114.82 2713.39
