~Version Information
 VERS.                  2.0:   CWLS log ASCII Standard -VERSION 2.0
 WRAP.                   NO:   One line per depth step
~Well Information Block
#MNEM.UNIT     VALUE/NAME     DESCRIPTION
#---------     -----------    ---------------------------
 STRT.S             01:46:16 24-Feb-20: START TIME 01:46:16 24-Feb-20
 STOP.S             01:53:27 24-Feb-20: STOP TIME  01:53:27 24-Feb-20
 STEP.S                   0.00: STEP TIME
 NULL.                 -999.25: NULL VALUE
 JOBN.        AZ-XX-0905059384:  JOB TICKET NUMB
 PDAT.          Mean Sea Level:  PERMANENT DATUM
 UNIT.                     N/A:  LOGGING EQUIPMENT ID
 DCON.         Sperry Drilling:  DIRECTNL CONTR
 DOE .                     N/A:  DOE NUMBER
 RIG .             West Chirag:  RIG NAME
 WELL.                     J22:  WELL NAME
 MWDS.                    Baku:  MWD SHOP
 SRVC.     TURAN Drilling & Engineering:  CONTRACTOR
 FLD .                     ACG:  FIELD NAME
 CTRY.              Azerbaijan:  COUNTRY NAME
 PROV.                    Baku:  PROVINCE
 STAT.                    Baku:  STATE NAME
 REGN.                   EESSA:  REGION
 BASE.              Azerbaijan:  LOGGING EQUIPMENT BASE LOCATION
 UWI .                     N/A:  UNIQUE WELL IDENTIFIER
 API .                     N/A:  API NUMBER
 COMP.     BP Exploration (Caspian Sea) Ltd.:  COMPANY
 WTYP.                Deviated:  WELL TYPE
 MDS .        Operator Entered:  MAG DATA SOURCE
 SON .        AZ-XX-0905059384:  JOB NUMBER
 FTOP.          Formation Tops:  FORM TOPS DESC
 ILTD.               Lithology:  INTERP LTH DESC
 SVYD.                  Survey:  SURVEY DESC
 DMOD.             Drill Model:  DRILL MOD DESC
 HPTY.       Minimum Curvature:  HOLE POS TYPE
 NREF.                    Grid:  NORTH REFERENCE
 SPUD.               09-Jan-20:  SPUD DATE
 DATE.      14.04.48 07-Feb-20:  END TIME
 STIM.      07.00.00 09-Jan-20:  START TIME
 DMF .             Drill Floor:  DRILL MEAS FROM
 DFST.                        :  DIST FSL TEXT
 DFWT.                        :  DIST FWL TEXT
 CNTY.                        :  COUNTY
 LOC .                        :  LOCATION
 LMF .             Drill Floor:  LOG MEASURED FROM
 DEP .m                   0.00:  DEPTH
 VSNS.m                  10.28:  VERT SEC N/S
 VSEW.m                  -6.24:  VERT SEC E/W
 AGAP.m                  43.00:  AIR GAP
 APD .m                  43.00:  DEPTH ABOVE PD
 WDMS.m                 169.80:  WD ELEV
 EGL .m                   0.00:  GROUND ELEVATION
 EPD .m                   0.00:  ELEVATION
 AZTC.deg                 6.27:  AZM TOTAL CORR
 GRDC.deg                 0.15:  GRID CORRECTION
 MDEC.deg                 6.42:  MAGNETIC DECL
 MDIP.deg                59.56:  MAGNETIC DIP
 MFLD.nT              50277.00:  MAGNETIC FIELD
 GVFD.g                   1.00:  GRAVITY FIELD
 VSDR.deg               148.53:  VERT SEC DIRECT
 TDD .m                3473.01:  TOTAL DEPTH (DRILLER)
 SDEP.m                 364.00:  START DEPTH
 DFSL.m                   0.00:  DISTANCE FSL
 DFWL.m                   0.00:  DISTANCE FWL
 UTMY.m             4443793.85:  UTM Y
 UTMX.m              519005.06:  UTM X
 WHEW.m                  -6.24:  WELL HEAD E/W
 WHNS.m                  10.28:  WELL HEAD N/S
 LONG.deg                51.22:  LONGITUDE
 LATI.deg                40.13:  LATITUDE
 TVDS.m                  43.00:  TVDSS CORRECTN
 EKB .m                   0.00:  KB ELEVATION
 EDF .m                  43.00:  DF ELEVATION
 TDL .m                 254.00:  TOTAL DEPTH (LOGGER)
 MAGU.                 1850021:  MAGUTM CHECKSUM
 VSC .                       0:  VS TO CLOSURE
~Parameter Information Block
#MNEM.UNIT       Value        Description
#---------     -----------    ---------------------------
 AV  .mps                 0.50:  Ann Velocity 
 AVMX.mps                 1.40:  Max Ann Veloc 
 AZIF.deg               144.94:  Azm, Final 
 BHAT.        Rotary Steerable:  BHA Type 
 BROT.°/30m               0.23:  Build Rotating 
 BS  .in                  8.50:  Bit Size 
 BTPL.psig              264.00:  Bit Press Loss 
 CABU.                     Yes:  Customer Abuse 
 COMM.                     $æx:  Run Comments 1 
 TCS .hr                 87.30:  Time Ciculation Ended 
 CV  .mps                 2.45:  Crit Velocity 
 CVMX.mps                 2.74:  Max Crit Veloc 
 DD1 .             Aziz Aliyev:  Direct Drillr 1 
 DDSV.               Geo-Pilot:  DD Service 
 DEFF.%                 100.00:  % Det Eff 
 DLRX.°/30m               1.22:  Dogleg Rot Max 
 DLSO.°/30m               0.52:  Dogleg Oriented 
 DLSX.°/30m               1.22:  Dogleg Str Max 
 DRET.      12.59.00 23-Feb-20:  Drill End Time 
 DRST.      09.44.00 18-Feb-20:  Drill Start Tim 
 DTIM.hr                 23.03:  Time Drilling 
 EDEP.m                3473.01:  End Depth 
 ENG1.         Almaz Almadatov:  Engineer 1 
 ENG2.         Dair Mahammadov:  Engineer 2 
 ENG3.          Nazrin Asgarli:  Engineer 3 
 ETIM.      10.33.36 26-Feb-20:  End Time 
 FLOI.gpm               480.00:  Flow In 
 FLON.gpm               300.00:  Flow In Min 
 FLOS.cptm                1.00:  Fluid Loss 
 FLOX.gpm               550.00:  Flow In Max 
 HFLO.                      No:  High Flow 
 HPRE.                      No:  High Pressure 
 HTEM.                      No:  High Temp 
 HYDO.m                   1.80:  Hydro Offset 
 IFIN.deg                74.42:  Inc, Final 
 IMAX.deg                76.14:  Inc Max 
 IMIN.deg                74.42:  Inc Min 
 IMND.m                3462.72:  Inc Min Depth 
 IMXD.m                3235.69:  Inc Max Depth 
 JARR.                      No:  Jarring 
 LETM.      12.59.00 23-Feb-20:  Log End Time 
 LOST.hr                     0:  Lost Rig Time 
 LSTM.      09.44.00 18-Feb-20:  Log Start Time 
 MDCL.ppm             45000.00:  Mud Chlorides 
 MDES.     Inversion Oil/Synthetic:  Mud Desc 
 DFD .sg                  1.38:  Mud Density 
 MDMN.sg                  1.34:  Dens Mud Min 
 MDMX.sg                  1.49:  Dens Mud Max 
 MOIL.                      67:  Run Mud Oil % 
 MOWR.                   67:33:  Run Mud OWR 
 MSND.                    0.12:  Run Mud Sand % 
 MSOL.                      22:  Run Mud Solids% 
 DFV .spqt               81.00:  Mud Viscosity 
 MWOD.in                  6.75:  MWD Tool OD 
 MWSI.                      No:  Serv Intrp, MWD 
 OTIM.hr                231.44:  Time Operating 
 PCON.          Wear / Scratch:  Pad Condition 
 PMAX.psia             3400.00:  Press Op, Max 
 PV  .cP                 55.00:  Mud PV 
 RUN .                     800:  Run Number 
 ROPA.m/hr               12.00:  ROP Avg 
 ROPN.m/hr                5.00:  ROP Min 
 ROPX.m/hr               28.00:  ROP Max 
 RPMA.rpm               120.00:  RPM Surface Avg 
 RPMN.rpm                40.00:  RPM Surface Min 
 RPMX.rpm               130.00:  RPM Surface Max 
 RRUN.                    0800:  Rig Run Number 
 RTIM.hr                 45.00:  Time Reaming 
 SAZI.deg               145.38:  Azm, Start 
 SDEP.m                3219.01:  Start Depth 
 SIDD.                      No:  Serv Intrp, DD 
 SINC.deg                75.11:  Inc, Start 
 SPPA.psig             2400.00:  SPP Avg 
 SPPN.psig             2320.00:  SPP Min 
 SPPX.psig             3200.00:  SPP Max 
 STIM.      15.15.00 17-Feb-20:  Start Time 
 SVCS.                 DD, MWD:  Services 
 SVER.                    9.20:  Sperry Version 
 TDAT.m                 254.00:  Tot Depth Attmp 
 TDDF.                      No:  Trip for DD 
 TDLG.m                 254.00:  Tot Depth Loggd 
 TFF .                      No:  Trip for Fail 
 TQAA.f-kp               13.00:  Torque Abs Avg 
 TQAN.f-kp                7.00:  Torque Abs Min 
 TQAX.f-kp               15.00:  Torque Abs Max 
 TRRT.°/30m               0.21:  Turn Rotating 
 MRT .                  EWR-M5:  Maximum Recorded Temperature 
 TTMX.degC               64.00:  Max Tool Temp 
 VS01.                90586516:  Virtual Str1 SN 
 VS02.                90513691:  Virtual Str2 SN 
 VS03.                90586523:  Virtual Str3 SN 
 VS04.                90586520:  Virtual Str4 SN 
 VS05.                90590507:  Virtual Str5 SN 
 WBMN.klb                12.00:  WOB Min 
 WITN.           Rufat Babayev:  Customer Rep 2 
 WITN.         Alistair Sprott:  Customer Rep 
 WOBA.klb                18.00:  WOB Avg 
 WOBX.klb                30.00:  WOB Max 
 YP  .lhf2               41.00:  Yield Point 
~Curve Information Block
#MNEM.UNIT                 API CODE     Curve Description
#---------               -----------    ---------------------------
 TIME.HHMMSS            00 000 000 000:  GT Time & Date
 GTDEPTH.m              00 000 000 000:  GT Depth
 GTPQH.psia             00 000 000 000:  GT HR Quartz Pressure
 GTTQ.degC              00 000 000 000:  GT Quartz Temperature
 GTTN.NONE              00 000 000 000:  GT Test Number
 GTET.sec               00 000 000 000:  GT Elapsed Test Time
 GTTVD.m                00 000 000 000:  GT True Vertical Depth
#Other Information
#
#WARRANTY: Halliburton will use its best efforts to furnish customers with 
#accurate information and interpretations that are part of, and incident to, the services 
#provided.  However, Halliburton cannot and does not warrant the accuracy 
#or correctness of such information and interpretations.  Under no circumstances should any 
#such information or interpretation be relied upon as the sole basis for any drilling, 
#completion, production, or financial decision or any procedure involving any risk to the 
#safety of any drilling venture, drilling rig or its crew or any other third party.  The 
#Customer has full responsibility for all drilling, completion and production operation.  
#Halliburton makes no representations or warranties, either expressed or 
#implied, including, but not limited to, the implied warranties of merchantability or fitness 
#for a particular purpose, with respect to the services rendered.  In no event will 
#Halliburton be liable for failure to obtain any particular results or for 
#any damages, including, but not limited to, indirect, special or consequential damages, 
#resulting from the use of any information or interpretation provided by Halliburton.
#
~A           TIME           GTDEPTH  GTPQH  GTTQ  GTTN  GTET   GTTVD  
# ...
   01:47:02.423.24-Feb-2020 3392.01 5883.58 56.01 4.00  46.01 2713.39
   01:47:02.623.24-Feb-2020 3392.01 5951.89 56.01 4.00  46.21 2713.39
   01:47:02.823.24-Feb-2020 3392.01 5998.58 56.01 4.00  46.41 2713.39
   01:47:03.023.24-Feb-2020 3392.01 5990.02 56.01 4.00  46.61 2713.39
   01:47:03.223.24-Feb-2020 3392.01 5976.76 56.01 4.00  46.81 2713.39
   01:47:03.423.24-Feb-2020 3392.01 5969.24 56.01 4.00  47.01 2713.39
   01:47:03.623.24-Feb-2020 3392.01 5961.72 56.01 4.00  47.21 2713.39
   01:47:03.823.24-Feb-2020 3392.01 5958.66 56.01 4.00  47.41 2713.39
   01:47:04.023.24-Feb-2020 3392.01 5954.71 56.01 4.00  47.61 2713.39
   01:47:04.223.24-Feb-2020 3392.01 5947.25 56.01 4.00  47.81 2713.39
   01:47:04.423.24-Feb-2020 3392.01 5937.52 56.01 4.00  48.01 2713.39
   01:47:04.623.24-Feb-2020 3392.01 5919.07 56.01 4.00  48.21 2713.39
   01:47:04.823.24-Feb-2020 3392.01 5883.10 56.01 4.00  48.41 2713.39
   01:47:05.023.24-Feb-2020 3392.01 5845.79 56.01 4.00  48.61 2713.39
   01:47:05.223.24-Feb-2020 3392.01 5819.83 56.01 4.00  48.81 2713.39
   01:47:05.423.24-Feb-2020 3392.01 5803.35 56.01 4.00  49.01 2713.39
   01:47:05.624.24-Feb-2020 3392.01 5803.35 56.01 4.00  49.21 2713.39
   01:47:05.824.24-Feb-2020 3392.01 5784.91 56.01 4.00  49.41 2713.39
   01:47:06.024.24-Feb-2020 3392.01 5770.50 56.01 4.00  49.61 2713.39
   01:47:06.224.24-Feb-2020 3392.01 5758.02 56.01 4.00  49.81 2713.39
   01:47:06.424.24-Feb-2020 3392.01 5734.36 56.01 4.00  50.01 2713.39
   01:47:06.624.24-Feb-2020 3392.01 5734.36 56.01 4.00  50.21 2713.39
   01:47:06.824.24-Feb-2020 3392.01 5720.17 56.01 4.00  50.41 2713.39
   01:47:07.024.24-Feb-2020 3392.01 5715.08 56.01 4.00  50.61 2713.39
   01:47:07.224.24-Feb-2020 3392.01 5719.30 56.01 4.00  50.81 2713.39
   01:47:07.424.24-Feb-2020 3392.01 5716.35 56.01 4.00  51.01 2713.39
   01:47:07.624.24-Feb-2020 3392.01 5716.35 56.01 4.00  51.21 2713.39
   01:47:07.824.24-Feb-2020 3392.01 5717.23 56.01 4.00  51.41 2713.39
   01:47:08.024.24-Feb-2020 3392.01 5716.74 56.01 4.00  51.61 2713.39
   01:47:08.224.24-Feb-2020 3392.01 5716.68 56.01 4.00  51.81 2713.39
   01:47:08.424.24-Feb-2020 3392.01 5721.75 56.01 4.00  52.01 2713.39
   01:47:08.624.24-Feb-2020 3392.01 5721.75 56.01 4.00  52.21 2713.39
   01:47:08.824.24-Feb-2020 3392.01 5717.96 56.01 4.00  52.41 2713.39
   01:47:09.024.24-Feb-2020 3392.01 5718.68 56.01 4.00  52.61 2713.39
   01:47:09.224.24-Feb-2020 3392.01 5716.77 56.00 4.00  52.81 2713.39
   01:47:09.424.24-Feb-2020 3392.01 5717.22 56.00 4.00  53.01 2713.39
   01:47:09.624.24-Feb-2020 3392.01 5717.22 56.00 4.00  53.21 2713.39
   01:47:09.824.24-Feb-2020 3392.01 5714.97 56.00 4.00  53.41 2713.39
   01:47:10.024.24-Feb-2020 3392.01 5711.44 56.00 4.00  53.61 2713.39
   01:47:10.224.24-Feb-2020 3392.01 5712.84 56.00 4.00  53.81 2713.39
   01:47:10.425.24-Feb-2020 3392.01 5712.13 56.00 4.00  54.01 2713.39
   01:47:10.625.24-Feb-2020 3392.01 5712.13 56.00 4.00  54.21 2713.39
   01:47:10.825.24-Feb-2020 3392.01 5705.87 56.00 4.00  54.41 2713.39
   01:47:11.025.24-Feb-2020 3392.01 5695.47 56.00 4.00  54.61 2713.39
   01:47:11.225.24-Feb-2020 3392.01 5630.72 56.00 4.00  54.81 2713.39
   01:47:11.425.24-Feb-2020 3392.01 5477.39 56.00 4.00  55.01 2713.39
   01:47:11.625.24-Feb-2020 3392.01 5477.39 56.00 4.00  55.21 2713.39
   01:47:11.825.24-Feb-2020 3392.01 4818.45 56.00 4.00  55.41 2713.39
   01:47:12.025.24-Feb-2020 3392.01 4338.32 56.00 4.00  55.61 2713.39
   01:47:12.225.24-Feb-2020 3392.01 4179.96 56.00 4.00  55.81 2713.39
   01:47:12.425.24-Feb-2020 3392.01 4199.22 56.00 4.00  56.01 2713.39
   01:47:12.625.24-Feb-2020 3392.01 4199.22 56.00 4.00  56.21 2713.39
   01:47:12.825.24-Feb-2020 3392.01 4201.09 56.00 4.00  56.41 2713.39
   01:47:13.025.24-Feb-2020 3392.01 4202.21 56.00 4.00  56.61 2713.39
   01:47:13.225.24-Feb-2020 3392.01 4202.60 56.00 4.00  56.81 2713.39
   01:47:13.425.24-Feb-2020 3392.01 4203.13 56.00 4.00  57.01 2713.39
   01:47:13.625.24-Feb-2020 3392.01 4203.13 56.00 4.00  57.21 2713.39
   01:47:13.825.24-Feb-2020 3392.01 4205.03 55.99 4.00  57.41 2713.39
   01:47:14.025.24-Feb-2020 3392.01 4203.94 55.99 4.00  57.61 2713.39
   01:47:14.225.24-Feb-2020 3392.01 4204.16 55.99 4.00  57.81 2713.39
   01:47:14.425.24-Feb-2020 3392.01 4204.44 55.99 4.00  58.01 2713.39
   01:47:14.625.24-Feb-2020 3392.01 4204.44 55.99 4.00  58.21 2713.39
   01:47:14.825.24-Feb-2020 3392.01 4202.80 55.99 4.00  58.41 2713.39
   01:47:15.025.24-Feb-2020 3392.01 4202.10 55.99 4.00  58.61 2713.39
   01:47:15.226.24-Feb-2020 3392.01 4202.56 55.99 4.00  58.81 2713.39
   01:47:15.426.24-Feb-2020 3392.01 4203.03 55.98 4.00  59.01 2713.39
   01:47:15.626.24-Feb-2020 3392.01 4203.03 55.98 4.00  59.21 2713.39
   01:47:15.826.24-Feb-2020 3392.01 4203.34 55.98 4.00  59.41 2713.39
   01:47:16.026.24-Feb-2020 3392.01 4203.28 55.98 4.00  59.61 2713.39
   01:47:16.226.24-Feb-2020 3392.01 4203.24 55.98 4.00  59.81 2713.39
   01:47:16.426.24-Feb-2020 3392.01 4202.80 55.98 4.00  60.01 2713.39
   01:47:16.626.24-Feb-2020 3392.01 4202.80 55.98 4.00  60.21 2713.39
   01:47:16.826.24-Feb-2020 3392.01 4202.84 55.98 4.00  60.41 2713.39
   01:47:17.026.24-Feb-2020 3392.01 4202.14 55.98 4.00  60.61 2713.39
   01:47:17.226.24-Feb-2020 3392.01 4202.63 55.98 4.00  60.81 2713.39
   01:47:17.426.24-Feb-2020 3392.01 4202.68 55.97 4.00  61.01 2713.39
   01:47:17.626.24-Feb-2020 3392.01 4202.68 55.97 4.00  61.21 2713.39
   01:47:17.826.24-Feb-2020 3392.01 4202.64 55.97 4.00  61.41 2713.39
   01:47:18.026.24-Feb-2020 3392.01 4202.62 55.97 4.00  61.61 2713.39
   01:47:18.226.24-Feb-2020 3392.01 4202.91 55.97 4.00  61.81 2713.39
   01:47:18.426.24-Feb-2020 3392.01 4202.48 55.97 4.00  62.01 2713.39
   01:47:18.626.24-Feb-2020 3392.01 4202.48 55.97 4.00  62.21 2713.39
   01:47:18.826.24-Feb-2020 3392.01 4202.56 55.97 4.00  62.41 2713.39
   01:47:19.026.24-Feb-2020 3392.01 4202.76 55.97 4.00  62.61 2713.39
   01:47:19.226.24-Feb-2020 3392.01 4208.82 55.97 4.00  62.81 2713.39
   01:47:19.426.24-Feb-2020 3392.01 4211.87 55.97 4.00  63.01 2713.39
   01:47:19.626.24-Feb-2020 3392.01 4211.87 55.97 4.00  63.21 2713.39
   01:47:19.826.24-Feb-2020 3392.01 4211.89 55.97 4.00  63.41 2713.39
   01:47:20.027.24-Feb-2020 3392.01 4211.90 55.96 4.00  63.61 2713.39
   01:47:20.227.24-Feb-2020 3392.01 4211.88 55.96 4.00  63.81 2713.39
   01:47:20.427.24-Feb-2020 3392.01 4211.86 55.96 4.00  64.01 2713.39
   01:47:20.627.24-Feb-2020 3392.01 4211.86 55.96 4.00  64.21 2713.39
   01:47:20.827.24-Feb-2020 3392.01 4211.79 55.96 4.00  64.41 2713.39
   01:47:21.027.24-Feb-2020 3392.01 4211.76 55.96 4.00  64.61 2713.39
   01:47:21.227.24-Feb-2020 3392.01 4211.74 55.96 4.00  64.81 2713.39
   01:47:21.427.24-Feb-2020 3392.01 4211.73 55.96 4.00  65.01 2713.39
   01:47:21.627.24-Feb-2020 3392.01 4211.73 55.96 4.00  65.21 2713.39
   01:47:21.827.24-Feb-2020 3392.01 4211.70 55.96 4.00  65.41 2713.39
   01:47:22.027.24-Feb-2020 3392.01 4211.72 55.96 4.00  65.61 2713.39
   01:47:22.227.24-Feb-2020 3392.01 4211.66 55.96 4.00  65.81 2713.39
   01:47:22.427.24-Feb-2020 3392.01 4211.67 55.96 4.00  66.01 2713.39
   01:47:22.627.24-Feb-2020 3392.01 4211.67 55.96 4.00  66.21 2713.39
   01:47:22.827.24-Feb-2020 3392.01 4211.63 55.96 4.00  66.41 2713.39
   01:47:23.027.24-Feb-2020 3392.01 4211.62 55.96 4.00  66.61 2713.39
   01:47:23.227.24-Feb-2020 3392.01 4211.58 55.96 4.00  66.81 2713.39
   01:47:23.427.24-Feb-2020 3392.01 4211.59 55.96 4.00  67.01 2713.39
   01:47:23.627.24-Feb-2020 3392.01 4211.59 55.96 4.00  67.21 2713.39
   01:47:23.827.24-Feb-2020 3392.01 4211.60 55.96 4.00  67.41 2713.39
   01:47:24.027.24-Feb-2020 3392.01 4211.59 55.96 4.00  67.61 2713.39
   01:47:24.227.24-Feb-2020 3392.01 4211.58 55.96 4.00  67.81 2713.39
   01:47:24.427.24-Feb-2020 3392.01 4211.57 55.96 4.00  68.01 2713.39
   01:47:24.627.24-Feb-2020 3392.01 4211.57 55.96 4.00  68.21 2713.39
   01:47:24.828.24-Feb-2020 3392.01 4211.58 55.96 4.00  68.41 2713.39
   01:47:25.028.24-Feb-2020 3392.01 4211.59 55.96 4.00  68.61 2713.39
   01:47:25.228.24-Feb-2020 3392.01 4211.55 55.96 4.00  68.81 2713.39
