~Version Information
 VERS.                  2.0:   CWLS log ASCII Standard -VERSION 2.0
 WRAP.                   NO:   One line per depth step
~Well Information Block
#MNEM.UNIT     VALUE/NAME     DESCRIPTION
#---------     -----------    ---------------------------
 STRT.S             02:47:37 24-Feb-20: START TIME 02:47:37 24-Feb-20
 STOP.S             02:54:57 24-Feb-20: STOP TIME  02:54:57 24-Feb-20
 STEP.S                   0.00: STEP TIME
 NULL.                 -999.25: NULL VALUE
 JOBN.        AZ-XX-0905059384:  JOB TICKET NUMB
 PDAT.          Mean Sea Level:  PERMANENT DATUM
 UNIT.                     N/A:  LOGGING EQUIPMENT ID
 DCON.         Sperry Drilling:  DIRECTNL CONTR
 DOE .                     N/A:  DOE NUMBER
 RIG .             West Chirag:  RIG NAME
 WELL.                     J22:  WELL NAME
 MWDS.                    Baku:  MWD SHOP
 SRVC.     TURAN Drilling & Engineering:  CONTRACTOR
 FLD .                     ACG:  FIELD NAME
 CTRY.              Azerbaijan:  COUNTRY NAME
 PROV.                    Baku:  PROVINCE
 STAT.                    Baku:  STATE NAME
 REGN.                   EESSA:  REGION
 BASE.              Azerbaijan:  LOGGING EQUIPMENT BASE LOCATION
 UWI .                     N/A:  UNIQUE WELL IDENTIFIER
 API .                     N/A:  API NUMBER
 COMP.     BP Exploration (Caspian Sea) Ltd.:  COMPANY
 WTYP.                Deviated:  WELL TYPE
 MDS .        Operator Entered:  MAG DATA SOURCE
 SON .        AZ-XX-0905059384:  JOB NUMBER
 FTOP.          Formation Tops:  FORM TOPS DESC
 ILTD.               Lithology:  INTERP LTH DESC
 SVYD.                  Survey:  SURVEY DESC
 DMOD.             Drill Model:  DRILL MOD DESC
 HPTY.       Minimum Curvature:  HOLE POS TYPE
 NREF.                    Grid:  NORTH REFERENCE
 SPUD.               09-Jan-20:  SPUD DATE
 DATE.      14.04.48 07-Feb-20:  END TIME
 STIM.      07.00.00 09-Jan-20:  START TIME
 DMF .             Drill Floor:  DRILL MEAS FROM
 DFST.                        :  DIST FSL TEXT
 DFWT.                        :  DIST FWL TEXT
 CNTY.                        :  COUNTY
 LOC .                        :  LOCATION
 LMF .             Drill Floor:  LOG MEASURED FROM
 DEP .m                   0.00:  DEPTH
 VSNS.m                  10.28:  VERT SEC N/S
 VSEW.m                  -6.24:  VERT SEC E/W
 AGAP.m                  43.00:  AIR GAP
 APD .m                  43.00:  DEPTH ABOVE PD
 WDMS.m                 169.80:  WD ELEV
 EGL .m                   0.00:  GROUND ELEVATION
 EPD .m                   0.00:  ELEVATION
 AZTC.deg                 6.27:  AZM TOTAL CORR
 GRDC.deg                 0.15:  GRID CORRECTION
 MDEC.deg                 6.42:  MAGNETIC DECL
 MDIP.deg                59.56:  MAGNETIC DIP
 MFLD.nT              50277.00:  MAGNETIC FIELD
 GVFD.g                   1.00:  GRAVITY FIELD
 VSDR.deg               148.53:  VERT SEC DIRECT
 TDD .m                3473.01:  TOTAL DEPTH (DRILLER)
 SDEP.m                 364.00:  START DEPTH
 DFSL.m                   0.00:  DISTANCE FSL
 DFWL.m                   0.00:  DISTANCE FWL
 UTMY.m             4443793.85:  UTM Y
 UTMX.m              519005.06:  UTM X
 WHEW.m                  -6.24:  WELL HEAD E/W
 WHNS.m                  10.28:  WELL HEAD N/S
 LONG.deg                51.22:  LONGITUDE
 LATI.deg                40.13:  LATITUDE
 TVDS.m                  43.00:  TVDSS CORRECTN
 EKB .m                   0.00:  KB ELEVATION
 EDF .m                  43.00:  DF ELEVATION
 TDL .m                 254.00:  TOTAL DEPTH (LOGGER)
 MAGU.                 1850021:  MAGUTM CHECKSUM
 VSC .                       0:  VS TO CLOSURE
~Parameter Information Block
#MNEM.UNIT       Value        Description
#---------     -----------    ---------------------------
 AV  .mps                 0.50:  Ann Velocity 
 AVMX.mps                 1.40:  Max Ann Veloc 
 AZIF.deg               144.94:  Azm, Final 
 BHAT.        Rotary Steerable:  BHA Type 
 BROT.°/30m               0.23:  Build Rotating 
 BS  .in                  8.50:  Bit Size 
 BTPL.psig              264.00:  Bit Press Loss 
 CABU.                     Yes:  Customer Abuse 
 COMM.                     D
_:  Run Comments 1 
 TCS .hr                 87.30:  Time Ciculation Ended 
 CV  .mps                 2.45:  Crit Velocity 
 CVMX.mps                 2.74:  Max Crit Veloc 
 DD1 .             Aziz Aliyev:  Direct Drillr 1 
 DDSV.               Geo-Pilot:  DD Service 
 DEFF.%                 100.00:  % Det Eff 
 DLRX.°/30m               1.22:  Dogleg Rot Max 
 DLSO.°/30m               0.52:  Dogleg Oriented 
 DLSX.°/30m               1.22:  Dogleg Str Max 
 DRET.      12.59.00 23-Feb-20:  Drill End Time 
 DRST.      09.44.00 18-Feb-20:  Drill Start Tim 
 DTIM.hr                 23.03:  Time Drilling 
 EDEP.m                3473.01:  End Depth 
 ENG1.         Almaz Almadatov:  Engineer 1 
 ENG2.         Dair Mahammadov:  Engineer 2 
 ENG3.          Nazrin Asgarli:  Engineer 3 
 ETIM.      10.33.36 26-Feb-20:  End Time 
 FLOI.gpm               480.00:  Flow In 
 FLON.gpm               300.00:  Flow In Min 
 FLOS.cptm                1.00:  Fluid Loss 
 FLOX.gpm               550.00:  Flow In Max 
 HFLO.                      No:  High Flow 
 HPRE.                      No:  High Pressure 
 HTEM.                      No:  High Temp 
 HYDO.m                   1.80:  Hydro Offset 
 IFIN.deg                74.42:  Inc, Final 
 IMAX.deg                76.14:  Inc Max 
 IMIN.deg                74.42:  Inc Min 
 IMND.m                3462.72:  Inc Min Depth 
 IMXD.m                3235.69:  Inc Max Depth 
 JARR.                      No:  Jarring 
 LETM.      12.59.00 23-Feb-20:  Log End Time 
 LOST.hr                     0:  Lost Rig Time 
 LSTM.      09.44.00 18-Feb-20:  Log Start Time 
 MDCL.ppm             45000.00:  Mud Chlorides 
 MDES.     Inversion Oil/Synthetic:  Mud Desc 
 DFD .sg                  1.38:  Mud Density 
 MDMN.sg                  1.34:  Dens Mud Min 
 MDMX.sg                  1.49:  Dens Mud Max 
 MOIL.                      67:  Run Mud Oil % 
 MOWR.                   67:33:  Run Mud OWR 
 MSND.                    0.12:  Run Mud Sand % 
 MSOL.                      22:  Run Mud Solids% 
 DFV .spqt               81.00:  Mud Viscosity 
 MWOD.in                  6.75:  MWD Tool OD 
 MWSI.                      No:  Serv Intrp, MWD 
 OTIM.hr                231.44:  Time Operating 
 PCON.          Wear / Scratch:  Pad Condition 
 PMAX.psia             3400.00:  Press Op, Max 
 PV  .cP                 55.00:  Mud PV 
 RUN .                     800:  Run Number 
 ROPA.m/hr               12.00:  ROP Avg 
 ROPN.m/hr                5.00:  ROP Min 
 ROPX.m/hr               28.00:  ROP Max 
 RPMA.rpm               120.00:  RPM Surface Avg 
 RPMN.rpm                40.00:  RPM Surface Min 
 RPMX.rpm               130.00:  RPM Surface Max 
 RRUN.                    0800:  Rig Run Number 
 RTIM.hr                 45.00:  Time Reaming 
 SAZI.deg               145.38:  Azm, Start 
 SDEP.m                3219.01:  Start Depth 
 SIDD.                      No:  Serv Intrp, DD 
 SINC.deg                75.11:  Inc, Start 
 SPPA.psig             2400.00:  SPP Avg 
 SPPN.psig             2320.00:  SPP Min 
 SPPX.psig             3200.00:  SPP Max 
 STIM.      15.15.00 17-Feb-20:  Start Time 
 SVCS.                 DD, MWD:  Services 
 SVER.                    9.20:  Sperry Version 
 TDAT.m                 254.00:  Tot Depth Attmp 
 TDDF.                      No:  Trip for DD 
 TDLG.m                 254.00:  Tot Depth Loggd 
 TFF .                      No:  Trip for Fail 
 TQAA.f-kp               13.00:  Torque Abs Avg 
 TQAN.f-kp                7.00:  Torque Abs Min 
 TQAX.f-kp               15.00:  Torque Abs Max 
 TRRT.°/30m               0.21:  Turn Rotating 
 MRT .                  EWR-M5:  Maximum Recorded Temperature 
 TTMX.degC               64.00:  Max Tool Temp 
 VS01.                90586516:  Virtual Str1 SN 
 VS02.                90513691:  Virtual Str2 SN 
 VS03.                90586523:  Virtual Str3 SN 
 VS04.                90586520:  Virtual Str4 SN 
 VS05.                90590507:  Virtual Str5 SN 
 WBMN.klb                12.00:  WOB Min 
 WITN.           Rufat Babayev:  Customer Rep 2 
 WITN.         Alistair Sprott:  Customer Rep 
 WOBA.klb                18.00:  WOB Avg 
 WOBX.klb                30.00:  WOB Max 
 YP  .lhf2               41.00:  Yield Point 
~Curve Information Block
#MNEM.UNIT                 API CODE     Curve Description
#---------               -----------    ---------------------------
 TIME.HHMMSS            00 000 000 000:  GT Time & Date
 GTDEPTH.m              00 000 000 000:  GT Depth
 GTPQH.psia             00 000 000 000:  GT HR Quartz Pressure
 GTTQ.degC              00 000 000 000:  GT Quartz Temperature
 GTTN.NONE              00 000 000 000:  GT Test Number
 GTET.sec               00 000 000 000:  GT Elapsed Test Time
 GTTVD.m                00 000 000 000:  GT True Vertical Depth
#Other Information
#
#WARRANTY: Halliburton will use its best efforts to furnish customers with 
#accurate information and interpretations that are part of, and incident to, the services 
#provided.  However, Halliburton cannot and does not warrant the accuracy 
#or correctness of such information and interpretations.  Under no circumstances should any 
#such information or interpretation be relied upon as the sole basis for any drilling, 
#completion, production, or financial decision or any procedure involving any risk to the 
#safety of any drilling venture, drilling rig or its crew or any other third party.  The 
#Customer has full responsibility for all drilling, completion and production operation.  
#Halliburton makes no representations or warranties, either expressed or 
#implied, including, but not limited to, the implied warranties of merchantability or fitness 
#for a particular purpose, with respect to the services rendered.  In no event will 
#Halliburton be liable for failure to obtain any particular results or for 
#any damages, including, but not limited to, indirect, special or consequential damages, 
#resulting from the use of any information or interpretation provided by Halliburton.
#
~A           TIME           GTDEPTH  GTPQH  GTTQ  GTTN  GTET   GTTVD  
# ...
   02:49:09.384.24-Feb-2020 3375.51 4204.22 55.86 5.00  92.04 2709.14
   02:49:09.584.24-Feb-2020 3375.51 4204.22 55.86 5.00  92.24 2709.14
   02:49:09.784.24-Feb-2020 3375.51 4204.43 55.86 5.00  92.44 2709.14
   02:49:09.984.24-Feb-2020 3375.51 4204.38 55.86 5.00  92.64 2709.14
   02:49:10.185.24-Feb-2020 3375.51 4204.21 55.86 5.00  92.84 2709.14
   02:49:10.385.24-Feb-2020 3375.51 4204.19 55.86 5.00  93.04 2709.14
   02:49:10.585.24-Feb-2020 3375.51 4204.19 55.86 5.00  93.24 2709.14
   02:49:10.785.24-Feb-2020 3375.51 4204.49 55.86 5.00  93.44 2709.14
   02:49:10.985.24-Feb-2020 3375.51 4204.35 55.86 5.00  93.64 2709.14
   02:49:11.185.24-Feb-2020 3375.51 4204.24 55.86 5.00  93.84 2709.14
   02:49:11.385.24-Feb-2020 3375.51 4204.20 55.86 5.00  94.04 2709.14
   02:49:11.585.24-Feb-2020 3375.51 4204.20 55.86 5.00  94.24 2709.14
   02:49:11.785.24-Feb-2020 3375.51 4204.20 55.86 5.00  94.44 2709.14
   02:49:11.985.24-Feb-2020 3375.51 4204.46 55.86 5.00  94.64 2709.14
   02:49:12.185.24-Feb-2020 3375.51 4204.43 55.86 5.00  94.84 2709.14
   02:49:12.385.24-Feb-2020 3375.51 4204.21 55.86 5.00  95.04 2709.14
   02:49:12.585.24-Feb-2020 3375.51 4204.21 55.86 5.00  95.24 2709.14
   02:49:12.786.24-Feb-2020 3375.51 4204.24 55.86 5.00  95.44 2709.14
   02:49:12.986.24-Feb-2020 3375.51 4204.31 55.86 5.00  95.64 2709.14
   02:49:13.186.24-Feb-2020 3375.51 4204.34 55.86 5.00  95.84 2709.14
   02:49:13.386.24-Feb-2020 3375.51 4204.34 55.86 5.00  96.04 2709.14
   02:49:13.586.24-Feb-2020 3375.51 4204.34 55.86 5.00  96.24 2709.14
   02:49:13.786.24-Feb-2020 3375.51 4204.28 55.86 5.00  96.44 2709.14
   02:49:13.986.24-Feb-2020 3375.51 4204.22 55.86 5.00  96.64 2709.14
   02:49:14.186.24-Feb-2020 3375.51 4204.17 55.86 5.00  96.84 2709.14
   02:49:14.386.24-Feb-2020 3375.51 4204.22 55.86 5.00  97.04 2709.14
   02:49:14.586.24-Feb-2020 3375.51 4204.22 55.86 5.00  97.24 2709.14
   02:49:14.786.24-Feb-2020 3375.51 4204.19 55.86 5.00  97.44 2709.14
   02:49:14.986.24-Feb-2020 3375.51 4204.19 55.86 5.00  97.64 2709.14
   02:49:15.187.24-Feb-2020 3375.51 4204.20 55.86 5.00  97.84 2709.14
   02:49:15.387.24-Feb-2020 3375.51 4204.21 55.86 5.00  98.04 2709.14
   02:49:15.587.24-Feb-2020 3375.51 4204.21 55.86 5.00  98.24 2709.14
   02:49:15.787.24-Feb-2020 3375.51 4204.21 55.86 5.00  98.44 2709.14
   02:49:15.987.24-Feb-2020 3375.51 4203.73 55.86 5.00  98.64 2709.14
   02:49:16.187.24-Feb-2020 3375.51 4204.81 55.86 5.00  98.84 2709.14
   02:49:16.387.24-Feb-2020 3375.51 4204.18 55.86 5.00  99.04 2709.14
   02:49:16.587.24-Feb-2020 3375.51 4204.18 55.86 5.00  99.24 2709.14
   02:49:16.787.24-Feb-2020 3375.51 4204.19 55.86 5.00  99.44 2709.14
   02:49:16.987.24-Feb-2020 3375.51 4204.12 55.86 5.00  99.64 2709.14
   02:49:17.187.24-Feb-2020 3375.51 4204.14 55.86 5.00  99.84 2709.14
   02:49:17.387.24-Feb-2020 3375.51 4204.19 55.86 5.00 100.04 2709.14
   02:49:17.587.24-Feb-2020 3375.51 4204.19 55.86 5.00 100.24 2709.14
   02:49:17.788.24-Feb-2020 3375.51 4204.19 55.86 5.00 100.44 2709.14
   02:49:17.988.24-Feb-2020 3375.51 4204.20 55.86 5.00 100.64 2709.14
   02:49:18.188.24-Feb-2020 3375.51 4204.12 55.86 5.00 100.84 2709.14
   02:49:18.388.24-Feb-2020 3375.51 4204.14 55.86 5.00 101.04 2709.14
   02:49:18.588.24-Feb-2020 3375.51 4204.14 55.86 5.00 101.24 2709.14
   02:49:18.788.24-Feb-2020 3375.51 4204.20 55.86 5.00 101.44 2709.14
   02:49:18.988.24-Feb-2020 3375.51 4204.18 55.86 5.00 101.64 2709.14
   02:49:19.188.24-Feb-2020 3375.51 4204.13 55.86 5.00 101.84 2709.14
   02:49:19.388.24-Feb-2020 3375.51 4204.18 55.86 5.00 102.04 2709.14
   02:49:19.588.24-Feb-2020 3375.51 4204.18 55.86 5.00 102.24 2709.14
   02:49:19.788.24-Feb-2020 3375.51 4204.24 55.86 5.00 102.44 2709.14
   02:49:19.988.24-Feb-2020 3375.51 4204.10 55.86 5.00 102.64 2709.14
   02:49:20.189.24-Feb-2020 3375.51 4204.23 55.86 5.00 102.84 2709.14
   02:49:20.389.24-Feb-2020 3375.51 4204.25 55.86 5.00 103.04 2709.14
   02:49:20.589.24-Feb-2020 3375.51 4204.25 55.86 5.00 103.24 2709.14
   02:49:20.789.24-Feb-2020 3375.51 4204.27 55.86 5.00 103.44 2709.14
   02:49:20.989.24-Feb-2020 3375.51 4204.10 55.86 5.00 103.64 2709.14
   02:49:21.189.24-Feb-2020 3375.51 4204.24 55.86 5.00 103.84 2709.14
   02:49:21.389.24-Feb-2020 3375.51 4204.19 55.86 5.00 104.04 2709.14
   02:49:21.589.24-Feb-2020 3375.51 4204.19 55.86 5.00 104.24 2709.14
   02:49:21.789.24-Feb-2020 3375.51 4204.33 55.86 5.00 104.44 2709.14
   02:49:21.989.24-Feb-2020 3375.51 4204.28 55.86 5.00 104.64 2709.14
   02:49:22.189.24-Feb-2020 3375.51 4204.12 55.86 5.00 104.84 2709.14
   02:49:22.389.24-Feb-2020 3375.51 4204.20 55.86 5.00 105.04 2709.14
   02:49:22.589.24-Feb-2020 3375.51 4204.20 55.86 5.00 105.24 2709.14
   02:49:22.790.24-Feb-2020 3375.51 4204.71 55.86 5.00 105.44 2709.14
   02:49:22.990.24-Feb-2020 3375.51 4204.36 55.86 5.00 105.64 2709.14
   02:49:23.190.24-Feb-2020 3375.51 4204.06 55.86 5.00 105.84 2709.14
   02:49:23.390.24-Feb-2020 3375.51 4204.19 55.86 5.00 106.04 2709.14
   02:49:23.590.24-Feb-2020 3375.51 4204.19 55.86 5.00 106.24 2709.14
   02:49:23.790.24-Feb-2020 3375.51 4204.15 55.86 5.00 106.44 2709.14
   02:49:23.990.24-Feb-2020 3375.51 4204.19 55.86 5.00 106.64 2709.14
   02:49:24.190.24-Feb-2020 3375.51 4204.14 55.86 5.00 106.84 2709.14
   02:49:24.390.24-Feb-2020 3375.51 4204.16 55.86 5.00 107.04 2709.14
   02:49:24.590.24-Feb-2020 3375.51 4204.16 55.86 5.00 107.24 2709.14
   02:49:24.790.24-Feb-2020 3375.51 4204.14 55.86 5.00 107.44 2709.14
   02:49:24.990.24-Feb-2020 3375.51 4204.15 55.86 5.00 107.64 2709.14
   02:49:25.191.24-Feb-2020 3375.51 4204.20 55.86 5.00 107.84 2709.14
   02:49:25.391.24-Feb-2020 3375.51 4204.14 55.86 5.00 108.04 2709.14
   02:49:25.591.24-Feb-2020 3375.51 4204.14 55.86 5.00 108.24 2709.14
   02:49:25.791.24-Feb-2020 3375.51 4204.31 55.86 5.00 108.44 2709.14
   02:49:25.991.24-Feb-2020 3375.51 4204.25 55.86 5.00 108.64 2709.14
   02:49:26.191.24-Feb-2020 3375.51 4204.13 55.86 5.00 108.84 2709.14
   02:49:26.391.24-Feb-2020 3375.51 4204.10 55.86 5.00 109.04 2709.14
   02:49:26.591.24-Feb-2020 3375.51 4204.10 55.86 5.00 109.24 2709.14
   02:49:26.791.24-Feb-2020 3375.51 4204.10 55.86 5.00 109.44 2709.14
   02:49:26.991.24-Feb-2020 3375.51 4204.10 55.86 5.00 109.64 2709.14
   02:49:27.191.24-Feb-2020 3375.51 4204.17 55.86 5.00 109.84 2709.14
   02:49:27.391.24-Feb-2020 3375.51 4204.18 55.86 5.00 110.04 2709.14
   02:49:27.591.24-Feb-2020 3375.51 4204.18 55.86 5.00 110.24 2709.14
   02:49:27.792.24-Feb-2020 3375.51 4204.12 55.86 5.00 110.44 2709.14
   02:49:27.992.24-Feb-2020 3375.51 4204.08 55.86 5.00 110.64 2709.14
   02:49:28.192.24-Feb-2020 3375.51 4204.13 55.86 5.00 110.84 2709.14
   02:49:28.392.24-Feb-2020 3375.51 4204.17 55.86 5.00 111.04 2709.14
   02:49:28.592.24-Feb-2020 3375.51 4204.17 55.86 5.00 111.24 2709.14
   02:49:28.792.24-Feb-2020 3375.51 4204.12 55.86 5.00 111.44 2709.14
   02:49:28.992.24-Feb-2020 3375.51 4203.63 55.86 5.00 111.64 2709.14
   02:49:29.192.24-Feb-2020 3375.51 4204.66 55.86 5.00 111.84 2709.14
   02:49:29.392.24-Feb-2020 3375.51 4204.26 55.86 5.00 112.04 2709.14
   02:49:29.592.24-Feb-2020 3375.51 4204.26 55.86 5.00 112.24 2709.14
   02:49:29.792.24-Feb-2020 3375.51 4204.14 55.86 5.00 112.44 2709.14
   02:49:29.992.24-Feb-2020 3375.51 4203.65 55.86 5.00 112.65 2709.14
   02:49:30.193.24-Feb-2020 3375.51 4204.71 55.86 5.00 112.85 2709.14
   02:49:30.393.24-Feb-2020 3375.51 4204.29 55.86 5.00 113.05 2709.14
   02:49:30.593.24-Feb-2020 3375.51 4204.29 55.86 5.00 113.25 2709.14
   02:49:30.793.24-Feb-2020 3375.51 4204.14 55.86 5.00 113.45 2709.14
   02:49:30.993.24-Feb-2020 3375.51 4204.13 55.86 5.00 113.65 2709.14
   02:49:31.193.24-Feb-2020 3375.51 4203.68 55.86 5.00 113.85 2709.14
   02:49:31.393.24-Feb-2020 3375.51 4204.72 55.86 5.00 114.05 2709.14
   02:49:31.593.24-Feb-2020 3375.51 4204.72 55.86 5.00 114.25 2709.14
   02:49:31.793.24-Feb-2020 3375.51 4204.08 55.86 5.00 114.45 2709.14
   02:49:31.993.24-Feb-2020 3375.51 4204.11 55.86 5.00 114.65 2709.14
   02:49:32.193.24-Feb-2020 3375.51 4203.71 55.86 5.00 114.85 2709.14
