~Version Information
 VERS.                  2.0:   CWLS log ASCII Standard -VERSION 2.0
 WRAP.                   NO:   One line per depth step
~Well Information Block
#MNEM.UNIT     VALUE/NAME     DESCRIPTION
#---------     -----------    ---------------------------
 STRT.S             05:02:14 24-Feb-20: START TIME 05:02:14 24-Feb-20
 STOP.S             05:09:32 24-Feb-20: STOP TIME  05:09:32 24-Feb-20
 STEP.S                   0.00: STEP TIME
 NULL.                 -999.25: NULL VALUE
 JOBN.        AZ-XX-0905059384:  JOB TICKET NUMB
 PDAT.          Mean Sea Level:  PERMANENT DATUM
 UNIT.                     N/A:  LOGGING EQUIPMENT ID
 DCON.         Sperry Drilling:  DIRECTNL CONTR
 DOE .                     N/A:  DOE NUMBER
 RIG .             West Chirag:  RIG NAME
 WELL.                     J22:  WELL NAME
 MWDS.                    Baku:  MWD SHOP
 SRVC.     TURAN Drilling & Engineering:  CONTRACTOR
 FLD .                     ACG:  FIELD NAME
 CTRY.              Azerbaijan:  COUNTRY NAME
 PROV.                    Baku:  PROVINCE
 STAT.                    Baku:  STATE NAME
 REGN.                   EESSA:  REGION
 BASE.              Azerbaijan:  LOGGING EQUIPMENT BASE LOCATION
 UWI .                     N/A:  UNIQUE WELL IDENTIFIER
 API .                     N/A:  API NUMBER
 COMP.     BP Exploration (Caspian Sea) Ltd.:  COMPANY
 WTYP.                Deviated:  WELL TYPE
 MDS .        Operator Entered:  MAG DATA SOURCE
 SON .        AZ-XX-0905059384:  JOB NUMBER
 FTOP.          Formation Tops:  FORM TOPS DESC
 ILTD.               Lithology:  INTERP LTH DESC
 SVYD.                  Survey:  SURVEY DESC
 DMOD.             Drill Model:  DRILL MOD DESC
 HPTY.       Minimum Curvature:  HOLE POS TYPE
 NREF.                    Grid:  NORTH REFERENCE
 SPUD.               09-Jan-20:  SPUD DATE
 DATE.      14.04.48 07-Feb-20:  END TIME
 STIM.      07.00.00 09-Jan-20:  START TIME
 DMF .             Drill Floor:  DRILL MEAS FROM
 DFST.                        :  DIST FSL TEXT
 DFWT.                        :  DIST FWL TEXT
 CNTY.                        :  COUNTY
 LOC .                        :  LOCATION
 LMF .             Drill Floor:  LOG MEASURED FROM
 DEP .m                   0.00:  DEPTH
 VSNS.m                  10.28:  VERT SEC N/S
 VSEW.m                  -6.24:  VERT SEC E/W
 AGAP.m                  43.00:  AIR GAP
 APD .m                  43.00:  DEPTH ABOVE PD
 WDMS.m                 169.80:  WD ELEV
 EGL .m                   0.00:  GROUND ELEVATION
 EPD .m                   0.00:  ELEVATION
 AZTC.deg                 6.27:  AZM TOTAL CORR
 GRDC.deg                 0.15:  GRID CORRECTION
 MDEC.deg                 6.42:  MAGNETIC DECL
 MDIP.deg                59.56:  MAGNETIC DIP
 MFLD.nT              50277.00:  MAGNETIC FIELD
 GVFD.g                   1.00:  GRAVITY FIELD
 VSDR.deg               148.53:  VERT SEC DIRECT
 TDD .m                3473.01:  TOTAL DEPTH (DRILLER)
 SDEP.m                 364.00:  START DEPTH
 DFSL.m                   0.00:  DISTANCE FSL
 DFWL.m                   0.00:  DISTANCE FWL
 UTMY.m             4443793.85:  UTM Y
 UTMX.m              519005.06:  UTM X
 WHEW.m                  -6.24:  WELL HEAD E/W
 WHNS.m                  10.28:  WELL HEAD N/S
 LONG.deg                51.22:  LONGITUDE
 LATI.deg                40.13:  LATITUDE
 TVDS.m                  43.00:  TVDSS CORRECTN
 EKB .m                   0.00:  KB ELEVATION
 EDF .m                  43.00:  DF ELEVATION
 TDL .m                 254.00:  TOTAL DEPTH (LOGGER)
 MAGU.                 1850021:  MAGUTM CHECKSUM
 VSC .                       0:  VS TO CLOSURE
~Parameter Information Block
#MNEM.UNIT       Value        Description
#---------     -----------    ---------------------------
 AV  .mps                 0.50:  Ann Velocity 
 AVMX.mps                 1.40:  Max Ann Veloc 
 AZIF.deg               144.94:  Azm, Final 
 BHAT.        Rotary Steerable:  BHA Type 
 BROT.°/30m               0.23:  Build Rotating 
 BS  .in                  8.50:  Bit Size 
 BTPL.psig              264.00:  Bit Press Loss 
 CABU.                     Yes:  Customer Abuse 
 TCS .hr                 87.30:  Time Ciculation Ended 
 CV  .mps                 2.45:  Crit Velocity 
 CVMX.mps                 2.74:  Max Crit Veloc 
 DD1 .             Aziz Aliyev:  Direct Drillr 1 
 DDSV.               Geo-Pilot:  DD Service 
 DEFF.%                 100.00:  % Det Eff 
 DLRX.°/30m               1.22:  Dogleg Rot Max 
 DLSO.°/30m               0.52:  Dogleg Oriented 
 DLSX.°/30m               1.22:  Dogleg Str Max 
 DRET.      12.59.00 23-Feb-20:  Drill End Time 
 DRST.      09.44.00 18-Feb-20:  Drill Start Tim 
 DTIM.hr                 23.03:  Time Drilling 
 EDEP.m                3473.01:  End Depth 
 ENG1.         Almaz Almadatov:  Engineer 1 
 ENG2.         Dair Mahammadov:  Engineer 2 
 ENG3.          Nazrin Asgarli:  Engineer 3 
 ETIM.      10.33.36 26-Feb-20:  End Time 
 FLOI.gpm               480.00:  Flow In 
 FLON.gpm               300.00:  Flow In Min 
 FLOS.cptm                1.00:  Fluid Loss 
 FLOX.gpm               550.00:  Flow In Max 
 HFLO.                      No:  High Flow 
 HPRE.                      No:  High Pressure 
 HTEM.                      No:  High Temp 
 HYDO.m                   1.80:  Hydro Offset 
 IFIN.deg                74.42:  Inc, Final 
 IMAX.deg                76.14:  Inc Max 
 IMIN.deg                74.42:  Inc Min 
 IMND.m                3462.72:  Inc Min Depth 
 IMXD.m                3235.69:  Inc Max Depth 
 JARR.                      No:  Jarring 
 LETM.      12.59.00 23-Feb-20:  Log End Time 
 LOST.hr                     0:  Lost Rig Time 
 LSTM.      09.44.00 18-Feb-20:  Log Start Time 
 MDCL.ppm             45000.00:  Mud Chlorides 
 MDES.     Inversion Oil/Synthetic:  Mud Desc 
 DFD .sg                  1.38:  Mud Density 
 MDMN.sg                  1.34:  Dens Mud Min 
 MDMX.sg                  1.49:  Dens Mud Max 
 MOIL.                      67:  Run Mud Oil % 
 MOWR.                   67:33:  Run Mud OWR 
 MSND.                    0.12:  Run Mud Sand % 
 MSOL.                      22:  Run Mud Solids% 
 DFV .spqt               81.00:  Mud Viscosity 
 MWOD.in                  6.75:  MWD Tool OD 
 MWSI.                      No:  Serv Intrp, MWD 
 OTIM.hr                231.44:  Time Operating 
 PCON.          Wear / Scratch:  Pad Condition 
 PMAX.psia             3400.00:  Press Op, Max 
 PV  .cP                 55.00:  Mud PV 
 RUN .                     800:  Run Number 
 ROPA.m/hr               12.00:  ROP Avg 
 ROPN.m/hr                5.00:  ROP Min 
 ROPX.m/hr               28.00:  ROP Max 
 RPMA.rpm               120.00:  RPM Surface Avg 
 RPMN.rpm                40.00:  RPM Surface Min 
 RPMX.rpm               130.00:  RPM Surface Max 
 RRUN.                    0800:  Rig Run Number 
 RTIM.hr                 45.00:  Time Reaming 
 SAZI.deg               145.38:  Azm, Start 
 SDEP.m                3219.01:  Start Depth 
 SIDD.                      No:  Serv Intrp, DD 
 SINC.deg                75.11:  Inc, Start 
 SPPA.psig             2400.00:  SPP Avg 
 SPPN.psig             2320.00:  SPP Min 
 SPPX.psig             3200.00:  SPP Max 
 STIM.      15.15.00 17-Feb-20:  Start Time 
 SVCS.                 DD, MWD:  Services 
 SVER.                    9.20:  Sperry Version 
 TDAT.m                 254.00:  Tot Depth Attmp 
 TDDF.                      No:  Trip for DD 
 TDLG.m                 254.00:  Tot Depth Loggd 
 TFF .                      No:  Trip for Fail 
 TQAA.f-kp               13.00:  Torque Abs Avg 
 TQAN.f-kp                7.00:  Torque Abs Min 
 TQAX.f-kp               15.00:  Torque Abs Max 
 TRRT.°/30m               0.21:  Turn Rotating 
 MRT .                  EWR-M5:  Maximum Recorded Temperature 
 TTMX.degC               64.00:  Max Tool Temp 
 VS01.                90586516:  Virtual Str1 SN 
 VS02.                90513691:  Virtual Str2 SN 
 VS03.                90586523:  Virtual Str3 SN 
 VS04.                90586520:  Virtual Str4 SN 
 VS05.                90590507:  Virtual Str5 SN 
 WBMN.klb                12.00:  WOB Min 
 WITN.           Rufat Babayev:  Customer Rep 2 
 WITN.         Alistair Sprott:  Customer Rep 
 WOBA.klb                18.00:  WOB Avg 
 WOBX.klb                30.00:  WOB Max 
 YP  .lhf2               41.00:  Yield Point 
~Curve Information Block
#MNEM.UNIT                 API CODE     Curve Description
#---------               -----------    ---------------------------
 TIME.HHMMSS            00 000 000 000:  GT Time & Date
 GTDEPTH.m              00 000 000 000:  GT Depth
 GTPQH.psia             00 000 000 000:  GT HR Quartz Pressure
 GTTQ.degC              00 000 000 000:  GT Quartz Temperature
 GTTN.NONE              00 000 000 000:  GT Test Number
 GTET.sec               00 000 000 000:  GT Elapsed Test Time
 GTTVD.m                00 000 000 000:  GT True Vertical Depth
#Other Information
#
#WARRANTY: Halliburton will use its best efforts to furnish customers with 
#accurate information and interpretations that are part of, and incident to, the services 
#provided.  However, Halliburton cannot and does not warrant the accuracy 
#or correctness of such information and interpretations.  Under no circumstances should any 
#such information or interpretation be relied upon as the sole basis for any drilling, 
#completion, production, or financial decision or any procedure involving any risk to the 
#safety of any drilling venture, drilling rig or its crew or any other third party.  The 
#Customer has full responsibility for all drilling, completion and production operation.  
#Halliburton makes no representations or warranties, either expressed or 
#implied, including, but not limited to, the implied warranties of merchantability or fitness 
#for a particular purpose, with respect to the services rendered.  In no event will 
#Halliburton be liable for failure to obtain any particular results or for 
#any damages, including, but not limited to, indirect, special or consequential damages, 
#resulting from the use of any information or interpretation provided by Halliburton.
#
~A           TIME           GTDEPTH  GTPQH  GTTQ  GTTN  GTET   GTTVD  
# ...
   05:08:45.728.24-Feb-2020 3303.51 5686.83 55.34 8.00 390.89 2690.98
   05:08:45.928.24-Feb-2020 3303.51 5686.83 55.34 8.00 391.08 2690.98
   05:08:46.128.24-Feb-2020 3303.51 5687.60 55.34 8.00 391.28 2690.98
   05:08:46.328.24-Feb-2020 3303.51 5688.80 55.34 8.00 391.48 2690.98
   05:08:46.528.24-Feb-2020 3303.51 5688.48 55.34 8.00 391.68 2690.98
   05:08:46.728.24-Feb-2020 3303.51 5697.53 55.34 8.00 391.88 2690.98
   05:08:46.927.24-Feb-2020 3303.51 5697.53 55.34 8.00 392.08 2690.98
   05:08:47.127.24-Feb-2020 3303.51 5689.60 55.34 8.00 392.28 2690.98
   05:08:47.327.24-Feb-2020 3303.51 5687.30 55.34 8.00 392.48 2690.98
   05:08:47.527.24-Feb-2020 3303.51 5694.70 55.34 8.00 392.68 2690.98
   05:08:47.727.24-Feb-2020 3303.51 5689.43 55.34 8.00 392.88 2690.98
   05:08:47.927.24-Feb-2020 3303.51 5689.43 55.34 8.00 393.08 2690.98
   05:08:48.127.24-Feb-2020 3303.51 5689.79 55.34 8.00 393.28 2690.98
   05:08:48.327.24-Feb-2020 3303.51 5687.89 55.34 8.00 393.48 2690.98
   05:08:48.527.24-Feb-2020 3303.51 5688.47 55.34 8.00 393.68 2690.98
   05:08:48.727.24-Feb-2020 3303.51 5697.32 55.34 8.00 393.88 2690.98
   05:08:48.927.24-Feb-2020 3303.51 5689.46 55.34 8.00 394.08 2690.98
   05:08:49.127.24-Feb-2020 3303.51 5691.51 55.34 8.00 394.28 2690.98
   05:08:49.327.24-Feb-2020 3303.51 5692.26 55.34 8.00 394.48 2690.98
   05:08:49.527.24-Feb-2020 3303.51 5695.45 55.34 8.00 394.68 2690.98
   05:08:49.727.24-Feb-2020 3303.51 5692.81 55.34 8.00 394.88 2690.98
   05:08:49.927.24-Feb-2020 3303.51 5692.81 55.34 8.00 395.08 2690.98
   05:08:50.127.24-Feb-2020 3303.51 5689.75 55.34 8.00 395.28 2690.98
   05:08:50.326.24-Feb-2020 3303.51 5689.49 55.34 8.00 395.48 2690.98
   05:08:50.526.24-Feb-2020 3303.51 5688.08 55.34 8.00 395.68 2690.98
   05:08:50.726.24-Feb-2020 3303.51 5687.64 55.34 8.00 395.88 2690.98
   05:08:50.926.24-Feb-2020 3303.51 5687.64 55.34 8.00 396.08 2690.98
   05:08:51.126.24-Feb-2020 3303.51 5687.47 55.34 8.00 396.28 2690.98
   05:08:51.326.24-Feb-2020 3303.51 5687.86 55.34 8.00 396.48 2690.98
   05:08:51.526.24-Feb-2020 3303.51 5688.14 55.34 8.00 396.68 2690.98
   05:08:51.726.24-Feb-2020 3303.51 5688.48 55.34 8.00 396.88 2690.98
   05:08:51.926.24-Feb-2020 3303.51 5688.48 55.34 8.00 397.08 2690.98
   05:08:52.126.24-Feb-2020 3303.51 5688.81 55.34 8.00 397.28 2690.98
   05:08:52.326.24-Feb-2020 3303.51 5689.19 55.34 8.00 397.48 2690.98
   05:08:52.526.24-Feb-2020 3303.51 5690.06 55.34 8.00 397.68 2690.98
   05:08:52.726.24-Feb-2020 3303.51 5700.36 55.34 8.00 397.88 2690.98
   05:08:52.926.24-Feb-2020 3303.51 5688.31 55.34 8.00 398.08 2690.98
   05:08:53.126.24-Feb-2020 3303.51 5692.62 55.34 8.00 398.28 2690.98
   05:08:53.326.24-Feb-2020 3303.51 5689.22 55.34 8.00 398.48 2690.98
   05:08:53.526.24-Feb-2020 3303.51 5689.90 55.34 8.00 398.68 2690.98
   05:08:53.725.24-Feb-2020 3303.51 5688.21 55.34 8.00 398.88 2690.98
   05:08:53.925.24-Feb-2020 3303.51 5688.21 55.34 8.00 399.08 2690.98
   05:08:54.125.24-Feb-2020 3303.51 5685.99 55.34 8.00 399.28 2690.98
   05:08:54.325.24-Feb-2020 3303.51 5686.18 55.34 8.00 399.48 2690.98
   05:08:54.525.24-Feb-2020 3303.51 5687.15 55.34 8.00 399.68 2690.98
   05:08:54.725.24-Feb-2020 3303.51 5687.87 55.34 8.00 399.88 2690.98
   05:08:54.925.24-Feb-2020 3303.51 5687.87 55.34 8.00 400.08 2690.98
   05:08:55.125.24-Feb-2020 3303.51 5686.70 55.34 8.00 400.28 2690.98
   05:08:55.325.24-Feb-2020 3303.51 5686.25 55.34 8.00 400.48 2690.98
   05:08:55.525.24-Feb-2020 3303.51 5687.12 55.34 8.00 400.68 2690.98
   05:08:55.725.24-Feb-2020 3303.51 5688.39 55.34 8.00 400.88 2690.98
   05:08:55.925.24-Feb-2020 3303.51 5688.39 55.34 8.00 401.08 2690.98
   05:08:56.125.24-Feb-2020 3303.51 5696.25 55.34 8.00 401.28 2690.98
   05:08:56.325.24-Feb-2020 3303.51 5683.53 55.34 8.00 401.48 2690.98
   05:08:56.525.24-Feb-2020 3303.51 5689.09 55.34 8.00 401.68 2690.98
   05:08:56.725.24-Feb-2020 3303.51 5686.60 55.34 8.00 401.88 2690.98
   05:08:56.925.24-Feb-2020 3303.51 5687.27 55.34 8.00 402.08 2690.98
   05:08:57.124.24-Feb-2020 3303.51 5696.67 55.34 8.00 402.28 2690.98
   05:08:57.324.24-Feb-2020 3303.51 5684.63 55.34 8.00 402.48 2690.98
   05:08:57.524.24-Feb-2020 3303.51 5690.29 55.34 8.00 402.68 2690.98
   05:08:57.724.24-Feb-2020 3303.51 5687.57 55.34 8.00 402.88 2690.98
   05:08:57.924.24-Feb-2020 3303.51 5687.57 55.34 8.00 403.08 2690.98
   05:08:58.124.24-Feb-2020 3303.51 5696.62 55.34 8.00 403.28 2690.98
   05:08:58.324.24-Feb-2020 3303.51 5688.77 55.33 8.00 403.48 2690.98
   05:08:58.524.24-Feb-2020 3303.51 5690.89 55.33 8.00 403.68 2690.98
   05:08:58.724.24-Feb-2020 3303.51 5691.69 55.33 8.00 403.88 2690.98
   05:08:58.924.24-Feb-2020 3303.51 5691.69 55.33 8.00 404.08 2690.98
   05:08:59.124.24-Feb-2020 3303.51 5693.71 55.33 8.00 404.28 2690.98
   05:08:59.324.24-Feb-2020 3303.51 5690.63 55.33 8.00 404.48 2690.98
   05:08:59.524.24-Feb-2020 3303.51 5690.32 55.33 8.00 404.68 2690.98
   05:08:59.724.24-Feb-2020 3303.51 5689.47 55.33 8.00 404.88 2690.98
   05:08:59.924.24-Feb-2020 3303.51 5689.47 55.33 8.00 405.08 2690.98
   05:09:00.124.24-Feb-2020 3303.51 5688.12 55.33 8.00 405.28 2690.98
   05:09:00.324.24-Feb-2020 3303.51 5687.71 55.33 8.00 405.48 2690.98
   05:09:00.523.24-Feb-2020 3303.51 5687.93 55.33 8.00 405.68 2690.98
   05:09:00.723.24-Feb-2020 3303.51 5687.94 55.33 8.00 405.88 2690.98
   05:09:00.923.24-Feb-2020 3303.51 5688.04 55.33 8.00 406.08 2690.98
   05:09:01.123.24-Feb-2020 3303.51 5688.26 55.33 8.00 406.28 2690.98
   05:09:01.323.24-Feb-2020 3303.51 5688.49 55.33 8.00 406.48 2690.98
   05:09:01.523.24-Feb-2020 3303.51 5688.55 55.33 8.00 406.68 2690.98
   05:09:01.723.24-Feb-2020 3303.51 5688.87 55.33 8.00 406.88 2690.98
   05:09:01.923.24-Feb-2020 3303.51 5689.66 55.33 8.00 407.08 2690.98
   05:09:02.123.24-Feb-2020 3303.51 5689.72 55.33 8.00 407.28 2690.98
   05:09:02.323.24-Feb-2020 3303.51 5699.85 55.33 8.00 407.48 2690.98
   05:09:02.523.24-Feb-2020 3303.51 5686.16 55.33 8.00 407.68 2690.98
   05:09:02.723.24-Feb-2020 3303.51 5690.47 55.33 8.00 407.88 2690.98
   05:09:02.923.24-Feb-2020 3303.51 5690.47 55.33 8.00 408.08 2690.98
   05:09:03.123.24-Feb-2020 3303.51 5688.97 55.33 8.00 408.28 2690.98
   05:09:03.323.24-Feb-2020 3303.51 5688.79 55.33 8.00 408.48 2690.98
   05:09:03.523.24-Feb-2020 3303.51 5686.96 55.33 8.00 408.68 2690.98
   05:09:03.723.24-Feb-2020 3303.51 5686.53 55.33 8.00 408.88 2690.98
   05:09:03.922.24-Feb-2020 3303.51 5686.53 55.33 8.00 409.08 2690.98
   05:09:04.122.24-Feb-2020 3303.51 5687.30 55.33 8.00 409.28 2690.98
   05:09:04.322.24-Feb-2020 3303.51 5687.17 55.33 8.00 409.48 2690.98
   05:09:04.522.24-Feb-2020 3303.51 5686.22 55.33 8.00 409.68 2690.98
   05:09:04.722.24-Feb-2020 3303.51 5685.20 55.33 8.00 409.88 2690.98
   05:09:04.922.24-Feb-2020 3303.51 5685.20 55.33 8.00 410.08 2690.98
   05:09:05.122.24-Feb-2020 3303.51 5687.14 55.33 8.00 410.28 2690.98
   05:09:05.322.24-Feb-2020 3303.51 5688.07 55.33 8.00 410.48 2690.98
   05:09:05.522.24-Feb-2020 3303.51 5686.80 55.33 8.00 410.68 2690.98
   05:09:05.722.24-Feb-2020 3303.51 5695.88 55.33 8.00 410.88 2690.98
   05:09:05.922.24-Feb-2020 3303.51 5695.88 55.33 8.00 411.08 2690.98
   05:09:06.122.24-Feb-2020 3303.51 5688.89 55.33 8.00 411.28 2690.98
   05:09:06.322.24-Feb-2020 3303.51 5686.61 55.33 8.00 411.48 2690.98
   05:09:06.522.24-Feb-2020 3303.51 5687.28 55.33 8.00 411.68 2690.98
   05:09:06.722.24-Feb-2020 3303.51 5693.74 55.33 8.00 411.88 2690.98
   05:09:06.922.24-Feb-2020 3303.51 5693.74 55.33 8.00 412.08 2690.98
   05:09:07.122.24-Feb-2020 3303.51 5689.25 55.33 8.00 412.28 2690.98
   05:09:07.321.24-Feb-2020 3303.51 5689.84 55.33 8.00 412.48 2690.98
   05:09:07.521.24-Feb-2020 3303.51 5687.98 55.33 8.00 412.68 2690.98
   05:09:07.721.24-Feb-2020 3303.51 5696.75 55.32 8.00 412.88 2690.98
   05:09:07.921.24-Feb-2020 3303.51 5696.75 55.32 8.00 413.08 2690.98
   05:09:08.121.24-Feb-2020 3303.51 5691.10 55.32 8.00 413.28 2690.98
   05:09:08.321.24-Feb-2020 3303.51 5691.91 55.32 8.00 413.48 2690.98
   05:09:08.521.24-Feb-2020 3303.51 5694.67 55.32 8.00 413.68 2690.98
