~Version Information
 VERS.                  2.0:   CWLS log ASCII Standard -VERSION 2.0
 WRAP.                   NO:   One line per depth step
~Well Information Block
#MNEM.UNIT     VALUE/NAME     DESCRIPTION
#---------     -----------    ---------------------------
 STRT.S             06:02:59 24-Feb-20: START TIME 06:02:59 24-Feb-20
 STOP.S             06:10:09 24-Feb-20: STOP TIME  06:10:09 24-Feb-20
 STEP.S                   0.00: STEP TIME
 NULL.                 -999.25: NULL VALUE
 JOBN.        AZ-XX-0905059384:  JOB TICKET NUMB
 PDAT.          Mean Sea Level:  PERMANENT DATUM
 UNIT.                     N/A:  LOGGING EQUIPMENT ID
 DCON.         Sperry Drilling:  DIRECTNL CONTR
 DOE .                     N/A:  DOE NUMBER
 RIG .             West Chirag:  RIG NAME
 WELL.                     J22:  WELL NAME
 MWDS.                    Baku:  MWD SHOP
 SRVC.     TURAN Drilling & Engineering:  CONTRACTOR
 FLD .                     ACG:  FIELD NAME
 CTRY.              Azerbaijan:  COUNTRY NAME
 PROV.                    Baku:  PROVINCE
 STAT.                    Baku:  STATE NAME
 REGN.                   EESSA:  REGION
 BASE.              Azerbaijan:  LOGGING EQUIPMENT BASE LOCATION
 UWI .                     N/A:  UNIQUE WELL IDENTIFIER
 API .                     N/A:  API NUMBER
 COMP.     BP Exploration (Caspian Sea) Ltd.:  COMPANY
 WTYP.                Deviated:  WELL TYPE
 MDS .        Operator Entered:  MAG DATA SOURCE
 SON .        AZ-XX-0905059384:  JOB NUMBER
 FTOP.          Formation Tops:  FORM TOPS DESC
 ILTD.               Lithology:  INTERP LTH DESC
 SVYD.                  Survey:  SURVEY DESC
 DMOD.             Drill Model:  DRILL MOD DESC
 HPTY.       Minimum Curvature:  HOLE POS TYPE
 NREF.                    Grid:  NORTH REFERENCE
 SPUD.               09-Jan-20:  SPUD DATE
 DATE.      14.04.48 07-Feb-20:  END TIME
 STIM.      07.00.00 09-Jan-20:  START TIME
 DMF .             Drill Floor:  DRILL MEAS FROM
 DFST.                        :  DIST FSL TEXT
 DFWT.                        :  DIST FWL TEXT
 CNTY.                        :  COUNTY
 LOC .                        :  LOCATION
 LMF .             Drill Floor:  LOG MEASURED FROM
 DEP .m                   0.00:  DEPTH
 VSNS.m                  10.28:  VERT SEC N/S
 VSEW.m                  -6.24:  VERT SEC E/W
 AGAP.m                  43.00:  AIR GAP
 APD .m                  43.00:  DEPTH ABOVE PD
 WDMS.m                 169.80:  WD ELEV
 EGL .m                   0.00:  GROUND ELEVATION
 EPD .m                   0.00:  ELEVATION
 AZTC.deg                 6.27:  AZM TOTAL CORR
 GRDC.deg                 0.15:  GRID CORRECTION
 MDEC.deg                 6.42:  MAGNETIC DECL
 MDIP.deg                59.56:  MAGNETIC DIP
 MFLD.nT              50277.00:  MAGNETIC FIELD
 GVFD.g                   1.00:  GRAVITY FIELD
 VSDR.deg               148.53:  VERT SEC DIRECT
 TDD .m                3473.01:  TOTAL DEPTH (DRILLER)
 SDEP.m                 364.00:  START DEPTH
 DFSL.m                   0.00:  DISTANCE FSL
 DFWL.m                   0.00:  DISTANCE FWL
 UTMY.m             4443793.85:  UTM Y
 UTMX.m              519005.06:  UTM X
 WHEW.m                  -6.24:  WELL HEAD E/W
 WHNS.m                  10.28:  WELL HEAD N/S
 LONG.deg                51.22:  LONGITUDE
 LATI.deg                40.13:  LATITUDE
 TVDS.m                  43.00:  TVDSS CORRECTN
 EKB .m                   0.00:  KB ELEVATION
 EDF .m                  43.00:  DF ELEVATION
 TDL .m                 254.00:  TOTAL DEPTH (LOGGER)
 MAGU.                 1850021:  MAGUTM CHECKSUM
 VSC .                       0:  VS TO CLOSURE
~Parameter Information Block
#MNEM.UNIT       Value        Description
#---------     -----------    ---------------------------
 AV  .mps                 0.50:  Ann Velocity 
 AVMX.mps                 1.40:  Max Ann Veloc 
 AZIF.deg               144.94:  Azm, Final 
 BHAT.        Rotary Steerable:  BHA Type 
 BROT.°/30m               0.23:  Build Rotating 
 BS  .in                  8.50:  Bit Size 
 BTPL.psig              264.00:  Bit Press Loss 
 CABU.                     Yes:  Customer Abuse 
 COMM.                     ä\:  Run Comments 1 
 TCS .hr                 87.30:  Time Ciculation Ended 
 CV  .mps                 2.45:  Crit Velocity 
 CVMX.mps                 2.74:  Max Crit Veloc 
 DD1 .             Aziz Aliyev:  Direct Drillr 1 
 DDSV.               Geo-Pilot:  DD Service 
 DEFF.%                 100.00:  % Det Eff 
 DLRX.°/30m               1.22:  Dogleg Rot Max 
 DLSO.°/30m               0.52:  Dogleg Oriented 
 DLSX.°/30m               1.22:  Dogleg Str Max 
 DRET.      12.59.00 23-Feb-20:  Drill End Time 
 DRST.      09.44.00 18-Feb-20:  Drill Start Tim 
 DTIM.hr                 23.03:  Time Drilling 
 EDEP.m                3473.01:  End Depth 
 ENG1.         Almaz Almadatov:  Engineer 1 
 ENG2.         Dair Mahammadov:  Engineer 2 
 ENG3.          Nazrin Asgarli:  Engineer 3 
 ETIM.      10.33.36 26-Feb-20:  End Time 
 FLOI.gpm               480.00:  Flow In 
 FLON.gpm               300.00:  Flow In Min 
 FLOS.cptm                1.00:  Fluid Loss 
 FLOX.gpm               550.00:  Flow In Max 
 HFLO.                      No:  High Flow 
 HPRE.                      No:  High Pressure 
 HTEM.                      No:  High Temp 
 HYDO.m                   1.80:  Hydro Offset 
 IFIN.deg                74.42:  Inc, Final 
 IMAX.deg                76.14:  Inc Max 
 IMIN.deg                74.42:  Inc Min 
 IMND.m                3462.72:  Inc Min Depth 
 IMXD.m                3235.69:  Inc Max Depth 
 JARR.                      No:  Jarring 
 LETM.      12.59.00 23-Feb-20:  Log End Time 
 LOST.hr                     0:  Lost Rig Time 
 LSTM.      09.44.00 18-Feb-20:  Log Start Time 
 MDCL.ppm             45000.00:  Mud Chlorides 
 MDES.     Inversion Oil/Synthetic:  Mud Desc 
 DFD .sg                  1.38:  Mud Density 
 MDMN.sg                  1.34:  Dens Mud Min 
 MDMX.sg                  1.49:  Dens Mud Max 
 MOIL.                      67:  Run Mud Oil % 
 MOWR.                   67:33:  Run Mud OWR 
 MSND.                    0.12:  Run Mud Sand % 
 MSOL.                      22:  Run Mud Solids% 
 DFV .spqt               81.00:  Mud Viscosity 
 MWOD.in                  6.75:  MWD Tool OD 
 MWSI.                      No:  Serv Intrp, MWD 
 OTIM.hr                231.44:  Time Operating 
 PCON.          Wear / Scratch:  Pad Condition 
 PMAX.psia             3400.00:  Press Op, Max 
 PV  .cP                 55.00:  Mud PV 
 RUN .                     800:  Run Number 
 ROPA.m/hr               12.00:  ROP Avg 
 ROPN.m/hr                5.00:  ROP Min 
 ROPX.m/hr               28.00:  ROP Max 
 RPMA.rpm               120.00:  RPM Surface Avg 
 RPMN.rpm                40.00:  RPM Surface Min 
 RPMX.rpm               130.00:  RPM Surface Max 
 RRUN.                    0800:  Rig Run Number 
 RTIM.hr                 45.00:  Time Reaming 
 SAZI.deg               145.38:  Azm, Start 
 SDEP.m                3219.01:  Start Depth 
 SIDD.                      No:  Serv Intrp, DD 
 SINC.deg                75.11:  Inc, Start 
 SPPA.psig             2400.00:  SPP Avg 
 SPPN.psig             2320.00:  SPP Min 
 SPPX.psig             3200.00:  SPP Max 
 STIM.      15.15.00 17-Feb-20:  Start Time 
 SVCS.                 DD, MWD:  Services 
 SVER.                    9.20:  Sperry Version 
 TDAT.m                 254.00:  Tot Depth Attmp 
 TDDF.                      No:  Trip for DD 
 TDLG.m                 254.00:  Tot Depth Loggd 
 TFF .                      No:  Trip for Fail 
 TQAA.f-kp               13.00:  Torque Abs Avg 
 TQAN.f-kp                7.00:  Torque Abs Min 
 TQAX.f-kp               15.00:  Torque Abs Max 
 TRRT.°/30m               0.21:  Turn Rotating 
 MRT .                  EWR-M5:  Maximum Recorded Temperature 
 TTMX.degC               64.00:  Max Tool Temp 
 VS01.                90586516:  Virtual Str1 SN 
 VS02.                90513691:  Virtual Str2 SN 
 VS03.                90586523:  Virtual Str3 SN 
 VS04.                90586520:  Virtual Str4 SN 
 VS05.                90590507:  Virtual Str5 SN 
 WBMN.klb                12.00:  WOB Min 
 WITN.           Rufat Babayev:  Customer Rep 2 
 WITN.         Alistair Sprott:  Customer Rep 
 WOBA.klb                18.00:  WOB Avg 
 WOBX.klb                30.00:  WOB Max 
 YP  .lhf2               41.00:  Yield Point 
~Curve Information Block
#MNEM.UNIT                 API CODE     Curve Description
#---------               -----------    ---------------------------
 TIME.HHMMSS            00 000 000 000:  GT Time & Date
 GTDEPTH.m              00 000 000 000:  GT Depth
 GTPQH.psia             00 000 000 000:  GT HR Quartz Pressure
 GTTQ.degC              00 000 000 000:  GT Quartz Temperature
 GTTN.NONE              00 000 000 000:  GT Test Number
 GTET.sec               00 000 000 000:  GT Elapsed Test Time
 GTTVD.m                00 000 000 000:  GT True Vertical Depth
#Other Information
#
#WARRANTY: Halliburton will use its best efforts to furnish customers with 
#accurate information and interpretations that are part of, and incident to, the services 
#provided.  However, Halliburton cannot and does not warrant the accuracy 
#or correctness of such information and interpretations.  Under no circumstances should any 
#such information or interpretation be relied upon as the sole basis for any drilling, 
#completion, production, or financial decision or any procedure involving any risk to the 
#safety of any drilling venture, drilling rig or its crew or any other third party.  The 
#Customer has full responsibility for all drilling, completion and production operation.  
#Halliburton makes no representations or warranties, either expressed or 
#implied, including, but not limited to, the implied warranties of merchantability or fitness 
#for a particular purpose, with respect to the services rendered.  In no event will 
#Halliburton be liable for failure to obtain any particular results or for 
#any damages, including, but not limited to, indirect, special or consequential damages, 
#resulting from the use of any information or interpretation provided by Halliburton.
#
~A           TIME           GTDEPTH  GTPQH  GTTQ  GTTN  GTET   GTTVD  
# ...
   06:06:03.210.24-Feb-2020 3290.31   20.04 54.59 9.00 184.04 2687.60
   06:06:03.410.24-Feb-2020 3290.31   20.04 54.59 9.00 184.24 2687.60
   06:06:03.610.24-Feb-2020 3290.31   20.13 54.59 9.00 184.44 2687.60
   06:06:03.810.24-Feb-2020 3290.31   20.17 54.59 9.00 184.64 2687.60
   06:06:04.010.24-Feb-2020 3290.31   20.21 54.59 9.00 184.84 2687.60
   06:06:04.210.24-Feb-2020 3290.31   20.26 54.59 9.00 185.04 2687.60
   06:06:04.410.24-Feb-2020 3290.31   20.26 54.59 9.00 185.24 2687.60
   06:06:04.610.24-Feb-2020 3290.31   20.33 54.59 9.00 185.44 2687.60
   06:06:04.810.24-Feb-2020 3290.31   20.37 54.59 9.00 185.64 2687.60
   06:06:05.010.24-Feb-2020 3290.31   20.41 54.59 9.00 185.84 2687.60
   06:06:05.210.24-Feb-2020 3290.31   20.45 54.59 9.00 186.04 2687.60
   06:06:05.410.24-Feb-2020 3290.31   20.45 54.59 9.00 186.24 2687.60
   06:06:05.610.24-Feb-2020 3290.31   20.52 54.59 9.00 186.44 2687.60
   06:06:05.810.24-Feb-2020 3290.31   20.56 54.59 9.00 186.64 2687.60
   06:06:06.010.24-Feb-2020 3290.31   20.59 54.59 9.00 186.84 2687.60
   06:06:06.210.24-Feb-2020 3290.31   20.62 54.59 9.00 187.04 2687.60
   06:06:06.410.24-Feb-2020 3290.31   20.66 54.59 9.00 187.24 2687.60
   06:06:06.610.24-Feb-2020 3290.31   20.70 54.59 9.00 187.44 2687.60
   06:06:06.810.24-Feb-2020 3290.31   20.73 54.59 9.00 187.64 2687.60
   06:06:07.010.24-Feb-2020 3290.31   20.76 54.59 9.00 187.84 2687.60
   06:06:07.211.24-Feb-2020 3290.31   20.81 54.59 9.00 188.04 2687.60
   06:06:07.411.24-Feb-2020 3290.31   20.81 54.59 9.00 188.24 2687.60
   06:06:07.611.24-Feb-2020 3290.31   20.88 54.59 9.00 188.44 2687.60
   06:06:07.811.24-Feb-2020 3290.31   20.91 54.59 9.00 188.64 2687.60
   06:06:08.011.24-Feb-2020 3290.31   20.94 54.59 9.00 188.84 2687.60
   06:06:08.211.24-Feb-2020 3290.31   20.99 54.59 9.00 189.04 2687.60
   06:06:08.411.24-Feb-2020 3290.31   20.99 54.59 9.00 189.24 2687.60
   06:06:08.611.24-Feb-2020 3290.31   21.04 54.59 9.00 189.44 2687.60
   06:06:08.811.24-Feb-2020 3290.31   21.08 54.59 9.00 189.64 2687.60
   06:06:09.011.24-Feb-2020 3290.31   21.12 54.59 9.00 189.84 2687.60
   06:06:09.211.24-Feb-2020 3290.31   21.15 54.59 9.00 190.04 2687.60
   06:06:09.411.24-Feb-2020 3290.31   21.15 54.59 9.00 190.24 2687.60
   06:06:09.611.24-Feb-2020 3290.31   21.21 54.59 9.00 190.44 2687.60
   06:06:09.811.24-Feb-2020 3290.31   21.25 54.59 9.00 190.64 2687.60
   06:06:10.011.24-Feb-2020 3290.31   21.28 54.59 9.00 190.84 2687.60
   06:06:10.211.24-Feb-2020 3290.31   21.32 54.59 9.00 191.04 2687.60
   06:06:10.411.24-Feb-2020 3290.31   21.35 54.59 9.00 191.24 2687.60
   06:06:10.611.24-Feb-2020 3290.31   21.38 54.59 9.00 191.44 2687.60
   06:06:10.811.24-Feb-2020 3290.31   21.41 54.59 9.00 191.64 2687.60
   06:06:11.011.24-Feb-2020 3290.31   21.45 54.59 9.00 191.84 2687.60
   06:06:11.211.24-Feb-2020 3290.31   21.48 54.59 9.00 192.04 2687.60
   06:06:11.411.24-Feb-2020 3290.31   21.48 54.59 9.00 192.24 2687.60
   06:06:11.611.24-Feb-2020 3290.31   21.55 54.59 9.00 192.44 2687.60
   06:06:11.812.24-Feb-2020 3290.31   21.58 54.59 9.00 192.64 2687.60
   06:06:12.012.24-Feb-2020 3290.31   21.61 54.59 9.00 192.84 2687.60
   06:06:12.212.24-Feb-2020 3290.31   21.64 54.59 9.00 193.04 2687.60
   06:06:12.412.24-Feb-2020 3290.31   21.64 54.59 9.00 193.24 2687.60
   06:06:12.612.24-Feb-2020 3290.31   21.70 54.59 9.00 193.44 2687.60
   06:06:12.812.24-Feb-2020 3290.31   21.73 54.59 9.00 193.64 2687.60
   06:06:13.012.24-Feb-2020 3290.31   21.76 54.59 9.00 193.84 2687.60
   06:06:13.212.24-Feb-2020 3290.31   21.79 54.59 9.00 194.04 2687.60
   06:06:13.412.24-Feb-2020 3290.31   21.79 54.59 9.00 194.24 2687.60
   06:06:13.612.24-Feb-2020 3290.31   21.86 54.59 9.00 194.44 2687.60
   06:06:13.812.24-Feb-2020 3290.31   21.89 54.59 9.00 194.64 2687.60
   06:06:14.012.24-Feb-2020 3290.31   21.92 54.59 9.00 194.84 2687.60
   06:06:14.212.24-Feb-2020 3290.31   21.95 54.59 9.00 195.04 2687.60
   06:06:14.412.24-Feb-2020 3290.31   21.99 54.59 9.00 195.24 2687.60
   06:06:14.612.24-Feb-2020 3290.31   22.02 54.59 9.00 195.44 2687.60
   06:06:14.812.24-Feb-2020 3290.31   22.04 54.59 9.00 195.64 2687.60
   06:06:15.012.24-Feb-2020 3290.31   22.07 54.59 9.00 195.84 2687.60
   06:06:15.212.24-Feb-2020 3290.31   22.10 54.59 9.00 196.04 2687.60
   06:06:15.412.24-Feb-2020 3290.31   22.10 54.59 9.00 196.24 2687.60
   06:06:15.612.24-Feb-2020 3290.31   22.16 54.59 9.00 196.44 2687.60
   06:06:15.812.24-Feb-2020 3290.31   22.19 54.59 9.00 196.64 2687.60
   06:06:16.012.24-Feb-2020 3290.31   22.22 54.59 9.00 196.84 2687.60
   06:06:16.212.24-Feb-2020 3290.31   22.25 54.59 9.00 197.04 2687.60
   06:06:16.413.24-Feb-2020 3290.31   22.25 54.59 9.00 197.24 2687.60
   06:06:16.613.24-Feb-2020 3290.31   22.31 54.59 9.00 197.44 2687.60
   06:06:16.813.24-Feb-2020 3290.31   22.35 54.59 9.00 197.64 2687.60
   06:06:17.013.24-Feb-2020 3290.31   22.37 54.59 9.00 197.84 2687.60
   06:06:17.213.24-Feb-2020 3290.31   22.39 54.59 9.00 198.04 2687.60
   06:06:17.413.24-Feb-2020 3290.31   22.39 54.59 9.00 198.24 2687.60
   06:06:17.613.24-Feb-2020 3290.31   22.46 54.59 9.00 198.44 2687.60
   06:06:17.813.24-Feb-2020 3290.31   22.48 54.59 9.00 198.64 2687.60
   06:06:18.013.24-Feb-2020 3290.31   22.51 54.59 9.00 198.84 2687.60
   06:06:18.213.24-Feb-2020 3290.31   22.54 54.59 9.00 199.04 2687.60
   06:06:18.413.24-Feb-2020 3290.31   22.57 54.59 9.00 199.24 2687.60
   06:06:18.613.24-Feb-2020 3290.31   22.60 54.59 9.00 199.44 2687.60
   06:06:18.813.24-Feb-2020 3290.31   22.62 54.59 9.00 199.64 2687.60
   06:06:19.013.24-Feb-2020 3290.31   22.66 54.59 9.00 199.84 2687.60
   06:06:19.213.24-Feb-2020 3290.31   22.68 54.59 9.00 200.04 2687.60
   06:06:19.413.24-Feb-2020 3290.31   22.71 54.59 9.00 200.24 2687.60
   06:06:19.613.24-Feb-2020 3290.31   22.73 54.59 9.00 200.44 2687.60
   06:06:19.813.24-Feb-2020 3290.31   22.76 54.59 9.00 200.64 2687.60
   06:06:20.013.24-Feb-2020 3290.31   22.79 54.59 9.00 200.84 2687.60
   06:06:20.213.24-Feb-2020 3290.31   22.81 54.59 9.00 201.04 2687.60
   06:06:20.413.24-Feb-2020 3290.31   22.81 54.59 9.00 201.24 2687.60
   06:06:20.613.24-Feb-2020 3290.31   22.86 54.59 9.00 201.44 2687.60
   06:06:20.813.24-Feb-2020 3290.31   22.89 54.59 9.00 201.64 2687.60
   06:06:21.014.24-Feb-2020 3290.31   22.92 54.59 9.00 201.84 2687.60
   06:06:21.214.24-Feb-2020 3290.31   22.93 54.59 9.00 202.04 2687.60
   06:06:21.414.24-Feb-2020 3290.31   22.93 54.59 9.00 202.24 2687.60
   06:06:21.614.24-Feb-2020 3290.31   22.98 54.59 9.00 202.44 2687.60
   06:06:21.814.24-Feb-2020 3290.31   23.01 54.59 9.00 202.64 2687.60
   06:06:22.014.24-Feb-2020 3290.31   23.03 54.59 9.00 202.84 2687.60
   06:06:22.214.24-Feb-2020 3290.31   23.05 54.59 9.00 203.04 2687.60
   06:06:22.414.24-Feb-2020 3290.31   23.08 54.59 9.00 203.24 2687.60
   06:06:22.614.24-Feb-2020 3290.31   23.10 54.59 9.00 203.44 2687.60
   06:06:22.814.24-Feb-2020 3290.31   23.12 54.59 9.00 203.64 2687.60
   06:06:23.014.24-Feb-2020 3290.31   23.14 54.59 9.00 203.84 2687.60
   06:06:23.214.24-Feb-2020 3290.31   23.18 54.59 9.00 204.04 2687.60
   06:06:23.414.24-Feb-2020 3290.31   23.18 54.59 9.00 204.24 2687.60
   06:06:23.614.24-Feb-2020 3290.31   23.21 54.59 9.00 204.44 2687.60
   06:06:23.814.24-Feb-2020 3290.31   23.23 54.59 9.00 204.64 2687.60
   06:06:24.014.24-Feb-2020 3290.31   23.26 54.59 9.00 204.84 2687.60
   06:06:24.214.24-Feb-2020 3290.31   23.29 54.59 9.00 205.04 2687.60
   06:06:24.414.24-Feb-2020 3290.31   23.29 54.59 9.00 205.24 2687.60
   06:06:24.614.24-Feb-2020 3290.31   23.33 54.59 9.00 205.44 2687.60
   06:06:24.814.24-Feb-2020 3290.31   23.35 54.59 9.00 205.64 2687.60
   06:06:25.014.24-Feb-2020 3290.31   23.37 54.59 9.00 205.85 2687.60
   06:06:25.214.24-Feb-2020 3290.31   23.40 54.59 9.00 206.05 2687.60
   06:06:25.415.24-Feb-2020 3290.31   23.40 54.59 9.00 206.25 2687.60
   06:06:25.615.24-Feb-2020 3290.31   23.43 54.59 9.00 206.45 2687.60
   06:06:25.815.24-Feb-2020 3290.31   23.45 54.59 9.00 206.65 2687.60
   06:06:26.015.24-Feb-2020 3290.31   23.47 54.59 9.00 206.85 2687.60
