~Version Information
 VERS.                  2.0:   CWLS log ASCII Standard -VERSION 2.0
 WRAP.                   NO:   One line per depth step
~Well Information Block
#MNEM.UNIT     VALUE/NAME     DESCRIPTION
#---------     -----------    ---------------------------
 STRT.S             00:23:32 24-Feb-20: START TIME 00:23:32 24-Feb-20
 STOP.S             00:30:40 24-Feb-20: STOP TIME  00:30:40 24-Feb-20
 STEP.S                   0.00: STEP TIME
 NULL.                 -999.25: NULL VALUE
 JOBN.        AZ-XX-0905059384:  JOB TICKET NUMB
 PDAT.          Mean Sea Level:  PERMANENT DATUM
 UNIT.                     N/A:  LOGGING EQUIPMENT ID
 DCON.         Sperry Drilling:  DIRECTNL CONTR
 DOE .                     N/A:  DOE NUMBER
 RIG .             West Chirag:  RIG NAME
 WELL.                     J22:  WELL NAME
 MWDS.                    Baku:  MWD SHOP
 SRVC.     TURAN Drilling & Engineering:  CONTRACTOR
 FLD .                     ACG:  FIELD NAME
 CTRY.              Azerbaijan:  COUNTRY NAME
 PROV.                    Baku:  PROVINCE
 STAT.                    Baku:  STATE NAME
 REGN.                   EESSA:  REGION
 BASE.              Azerbaijan:  LOGGING EQUIPMENT BASE LOCATION
 UWI .                     N/A:  UNIQUE WELL IDENTIFIER
 API .                     N/A:  API NUMBER
 COMP.     BP Exploration (Caspian Sea) Ltd.:  COMPANY
 WTYP.                Deviated:  WELL TYPE
 MDS .        Operator Entered:  MAG DATA SOURCE
 SON .        AZ-XX-0905059384:  JOB NUMBER
 FTOP.          Formation Tops:  FORM TOPS DESC
 ILTD.               Lithology:  INTERP LTH DESC
 SVYD.                  Survey:  SURVEY DESC
 DMOD.             Drill Model:  DRILL MOD DESC
 HPTY.       Minimum Curvature:  HOLE POS TYPE
 NREF.                    Grid:  NORTH REFERENCE
 SPUD.               09-Jan-20:  SPUD DATE
 DATE.      14.04.48 07-Feb-20:  END TIME
 STIM.      07.00.00 09-Jan-20:  START TIME
 DMF .             Drill Floor:  DRILL MEAS FROM
 DFST.                        :  DIST FSL TEXT
 DFWT.                        :  DIST FWL TEXT
 CNTY.                        :  COUNTY
 LOC .                        :  LOCATION
 LMF .             Drill Floor:  LOG MEASURED FROM
 DEP .m                   0.00:  DEPTH
 VSNS.m                  10.28:  VERT SEC N/S
 VSEW.m                  -6.24:  VERT SEC E/W
 AGAP.m                  43.00:  AIR GAP
 APD .m                  43.00:  DEPTH ABOVE PD
 WDMS.m                 169.80:  WD ELEV
 EGL .m                   0.00:  GROUND ELEVATION
 EPD .m                   0.00:  ELEVATION
 AZTC.deg                 6.27:  AZM TOTAL CORR
 GRDC.deg                 0.15:  GRID CORRECTION
 MDEC.deg                 6.42:  MAGNETIC DECL
 MDIP.deg                59.56:  MAGNETIC DIP
 MFLD.nT              50277.00:  MAGNETIC FIELD
 GVFD.g                   1.00:  GRAVITY FIELD
 VSDR.deg               148.53:  VERT SEC DIRECT
 TDD .m                3473.01:  TOTAL DEPTH (DRILLER)
 SDEP.m                 364.00:  START DEPTH
 DFSL.m                   0.00:  DISTANCE FSL
 DFWL.m                   0.00:  DISTANCE FWL
 UTMY.m             4443793.85:  UTM Y
 UTMX.m              519005.06:  UTM X
 WHEW.m                  -6.24:  WELL HEAD E/W
 WHNS.m                  10.28:  WELL HEAD N/S
 LONG.deg                51.22:  LONGITUDE
 LATI.deg                40.13:  LATITUDE
 TVDS.m                  43.00:  TVDSS CORRECTN
 EKB .m                   0.00:  KB ELEVATION
 EDF .m                  43.00:  DF ELEVATION
 TDL .m                 254.00:  TOTAL DEPTH (LOGGER)
 MAGU.                 1850021:  MAGUTM CHECKSUM
 VSC .                       0:  VS TO CLOSURE
~Parameter Information Block
#MNEM.UNIT       Value        Description
#---------     -----------    ---------------------------
 AV  .mps                 0.50:  Ann Velocity 
 AVMX.mps                 1.40:  Max Ann Veloc 
 AZIF.deg               144.94:  Azm, Final 
 BHAT.        Rotary Steerable:  BHA Type 
 BROT.∞/30m               0.23:  Build Rotating 
 BS  .in                  8.50:  Bit Size 
 BTPL.psig              264.00:  Bit Press Loss 
 CABU.                     Yes:  Customer Abuse 
 COMM.                     ÙP`:  Run Comments 1 
 TCS .hr                 87.30:  Time Ciculation Ended 
 CV  .mps                 2.45:  Crit Velocity 
 CVMX.mps                 2.74:  Max Crit Veloc 
 DD1 .             Aziz Aliyev:  Direct Drillr 1 
 DDSV.               Geo-Pilot:  DD Service 
 DEFF.%                 100.00:  % Det Eff 
 DLRX.∞/30m               1.22:  Dogleg Rot Max 
 DLSO.∞/30m               0.52:  Dogleg Oriented 
 DLSX.∞/30m               1.22:  Dogleg Str Max 
 DRET.      12.59.00 23-Feb-20:  Drill End Time 
 DRST.      09.44.00 18-Feb-20:  Drill Start Tim 
 DTIM.hr                 23.03:  Time Drilling 
 EDEP.m                3473.01:  End Depth 
 ENG1.         Almaz Almadatov:  Engineer 1 
 ENG2.         Dair Mahammadov:  Engineer 2 
 ENG3.          Nazrin Asgarli:  Engineer 3 
 ETIM.      10.33.36 26-Feb-20:  End Time 
 FLOI.gpm               480.00:  Flow In 
 FLON.gpm               300.00:  Flow In Min 
 FLOS.cptm                1.00:  Fluid Loss 
 FLOX.gpm               550.00:  Flow In Max 
 HFLO.                      No:  High Flow 
 HPRE.                      No:  High Pressure 
 HTEM.                      No:  High Temp 
 HYDO.m                   1.80:  Hydro Offset 
 IFIN.deg                74.42:  Inc, Final 
 IMAX.deg                76.14:  Inc Max 
 IMIN.deg                74.42:  Inc Min 
 IMND.m                3462.72:  Inc Min Depth 
 IMXD.m                3235.69:  Inc Max Depth 
 JARR.                      No:  Jarring 
 LETM.      12.59.00 23-Feb-20:  Log End Time 
 LOST.hr                     0:  Lost Rig Time 
 LSTM.      09.44.00 18-Feb-20:  Log Start Time 
 MDCL.ppm             45000.00:  Mud Chlorides 
 MDES.     Inversion Oil/Synthetic:  Mud Desc 
 DFD .sg                  1.38:  Mud Density 
 MDMN.sg                  1.34:  Dens Mud Min 
 MDMX.sg                  1.49:  Dens Mud Max 
 MOIL.                      67:  Run Mud Oil % 
 MOWR.                   67:33:  Run Mud OWR 
 MSND.                    0.12:  Run Mud Sand % 
 MSOL.                      22:  Run Mud Solids% 
 DFV .spqt               81.00:  Mud Viscosity 
 MWOD.in                  6.75:  MWD Tool OD 
 MWSI.                      No:  Serv Intrp, MWD 
 OTIM.hr                231.44:  Time Operating 
 PCON.          Wear / Scratch:  Pad Condition 
 PMAX.psia             3400.00:  Press Op, Max 
 PV  .cP                 55.00:  Mud PV 
 RUN .                     800:  Run Number 
 ROPA.m/hr               12.00:  ROP Avg 
 ROPN.m/hr                5.00:  ROP Min 
 ROPX.m/hr               28.00:  ROP Max 
 RPMA.rpm               120.00:  RPM Surface Avg 
 RPMN.rpm                40.00:  RPM Surface Min 
 RPMX.rpm               130.00:  RPM Surface Max 
 RRUN.                    0800:  Rig Run Number 
 RTIM.hr                 45.00:  Time Reaming 
 SAZI.deg               145.38:  Azm, Start 
 SDEP.m                3219.01:  Start Depth 
 SIDD.                      No:  Serv Intrp, DD 
 SINC.deg                75.11:  Inc, Start 
 SPPA.psig             2400.00:  SPP Avg 
 SPPN.psig             2320.00:  SPP Min 
 SPPX.psig             3200.00:  SPP Max 
 STIM.      15.15.00 17-Feb-20:  Start Time 
 SVCS.                 DD, MWD:  Services 
 SVER.                    9.20:  Sperry Version 
 TDAT.m                 254.00:  Tot Depth Attmp 
 TDDF.                      No:  Trip for DD 
 TDLG.m                 254.00:  Tot Depth Loggd 
 TFF .                      No:  Trip for Fail 
 TQAA.f-kp               13.00:  Torque Abs Avg 
 TQAN.f-kp                7.00:  Torque Abs Min 
 TQAX.f-kp               15.00:  Torque Abs Max 
 TRRT.∞/30m               0.21:  Turn Rotating 
 MRT .                  EWR-M5:  Maximum Recorded Temperature 
 TTMX.degC               64.00:  Max Tool Temp 
 VS01.                90586516:  Virtual Str1 SN 
 VS02.                90513691:  Virtual Str2 SN 
 VS03.                90586523:  Virtual Str3 SN 
 VS04.                90586520:  Virtual Str4 SN 
 VS05.                90590507:  Virtual Str5 SN 
 WBMN.klb                12.00:  WOB Min 
 WITN.           Rufat Babayev:  Customer Rep 2 
 WITN.         Alistair Sprott:  Customer Rep 
 WOBA.klb                18.00:  WOB Avg 
 WOBX.klb                30.00:  WOB Max 
 YP  .lhf2               41.00:  Yield Point 
~Curve Information Block
#MNEM.UNIT                 API CODE     Curve Description
#---------               -----------    ---------------------------
 TIME.HHMMSS            00 000 000 000:  GT Time & Date
 GTDEPTH.m              00 000 000 000:  GT Depth
 GTPQH.psia             00 000 000 000:  GT HR Quartz Pressure
 GTTQ.degC              00 000 000 000:  GT Quartz Temperature
 GTTN.NONE              00 000 000 000:  GT Test Number
 GTET.sec               00 000 000 000:  GT Elapsed Test Time
 GTTVD.m                00 000 000 000:  GT True Vertical Depth
#Other Information
#
#WARRANTY: Halliburton will use its best efforts to furnish customers with 
#accurate information and interpretations that are part of, and incident to, the services 
#provided.  However, Halliburton cannot and does not warrant the accuracy 
#or correctness of such information and interpretations.  Under no circumstances should any 
#such information or interpretation be relied upon as the sole basis for any drilling, 
#completion, production, or financial decision or any procedure involving any risk to the 
#safety of any drilling venture, drilling rig or its crew or any other third party.  The 
#Customer has full responsibility for all drilling, completion and production operation.  
#Halliburton makes no representations or warranties, either expressed or 
#implied, including, but not limited to, the implied warranties of merchantability or fitness 
#for a particular purpose, with respect to the services rendered.  In no event will 
#Halliburton be liable for failure to obtain any particular results or for 
#any damages, including, but not limited to, indirect, special or consequential damages, 
#resulting from the use of any information or interpretation provided by Halliburton.
#
~A           TIME           GTDEPTH  GTPQH  GTTQ  GTTN  GTET   GTTVD  
# ...
   00:26:36.678.24-Feb-2020 3430.51 4219.12 56.39 2.00 184.02 2723.35
   00:26:36.878.24-Feb-2020 3430.51 4219.12 56.39 2.00 184.22 2723.35
   00:26:37.078.24-Feb-2020 3430.51 4218.63 56.39 2.00 184.42 2723.35
   00:26:37.278.24-Feb-2020 3430.51 4218.43 56.39 2.00 184.62 2723.35
   00:26:37.478.24-Feb-2020 3430.51 4218.44 56.39 2.00 184.82 2723.35
   00:26:37.678.24-Feb-2020 3430.51 4218.47 56.39 2.00 185.02 2723.35
   00:26:37.878.24-Feb-2020 3430.51 4218.47 56.39 2.00 185.22 2723.35
   00:26:38.078.24-Feb-2020 3430.51 4218.69 56.39 2.00 185.42 2723.35
   00:26:38.278.24-Feb-2020 3430.51 4219.31 56.39 2.00 185.62 2723.35
   00:26:38.478.24-Feb-2020 3430.51 4217.66 56.39 2.00 185.82 2723.35
   00:26:38.678.24-Feb-2020 3430.51 4220.13 56.39 2.00 186.02 2723.35
   00:26:38.878.24-Feb-2020 3430.51 4220.13 56.39 2.00 186.22 2723.35
   00:26:39.078.24-Feb-2020 3430.51 4219.67 56.39 2.00 186.42 2723.35
   00:26:39.278.24-Feb-2020 3430.51 4220.27 56.39 2.00 186.62 2723.35
   00:26:39.478.24-Feb-2020 3430.51 4217.68 56.39 2.00 186.82 2723.35
   00:26:39.678.24-Feb-2020 3430.51 4220.23 56.39 2.00 187.02 2723.35
   00:26:39.878.24-Feb-2020 3430.51 4220.43 56.39 2.00 187.22 2723.35
   00:26:40.078.24-Feb-2020 3430.51 4219.63 56.39 2.00 187.42 2723.35
   00:26:40.278.24-Feb-2020 3430.51 4219.34 56.39 2.00 187.62 2723.35
   00:26:40.478.24-Feb-2020 3430.51 4218.96 56.39 2.00 187.82 2723.35
   00:26:40.678.24-Feb-2020 3430.51 4219.49 56.39 2.00 188.02 2723.35
   00:26:40.878.24-Feb-2020 3430.51 4219.49 56.39 2.00 188.22 2723.35
   00:26:41.078.24-Feb-2020 3430.51 4219.78 56.39 2.00 188.42 2723.35
   00:26:41.278.24-Feb-2020 3430.51 4219.12 56.39 2.00 188.62 2723.35
   00:26:41.478.24-Feb-2020 3430.51 4219.33 56.39 2.00 188.82 2723.35
   00:26:41.678.24-Feb-2020 3430.51 4219.02 56.39 2.00 189.02 2723.35
   00:26:41.878.24-Feb-2020 3430.51 4219.02 56.39 2.00 189.22 2723.35
   00:26:42.078.24-Feb-2020 3430.51 4219.44 56.39 2.00 189.42 2723.35
   00:26:42.279.24-Feb-2020 3430.51 4220.09 56.39 2.00 189.62 2723.35
   00:26:42.479.24-Feb-2020 3430.51 4218.99 56.39 2.00 189.82 2723.35
   00:26:42.679.24-Feb-2020 3430.51 4219.25 56.39 2.00 190.02 2723.35
   00:26:42.879.24-Feb-2020 3430.51 4219.25 56.39 2.00 190.22 2723.35
   00:26:43.079.24-Feb-2020 3430.51 4219.17 56.39 2.00 190.42 2723.35
   00:26:43.279.24-Feb-2020 3430.51 4219.13 56.39 2.00 190.62 2723.35
   00:26:43.479.24-Feb-2020 3430.51 4219.10 56.39 2.00 190.82 2723.35
   00:26:43.679.24-Feb-2020 3430.51 4219.01 56.39 2.00 191.02 2723.35
   00:26:43.879.24-Feb-2020 3430.51 4219.03 56.39 2.00 191.22 2723.35
   00:26:44.079.24-Feb-2020 3430.51 4219.04 56.39 2.00 191.42 2723.35
   00:26:44.279.24-Feb-2020 3430.51 4219.10 56.39 2.00 191.62 2723.35
   00:26:44.479.24-Feb-2020 3430.51 4218.99 56.39 2.00 191.82 2723.35
   00:26:44.679.24-Feb-2020 3430.51 4218.87 56.39 2.00 192.02 2723.35
   00:26:44.879.24-Feb-2020 3430.51 4218.87 56.39 2.00 192.22 2723.35
   00:26:45.079.24-Feb-2020 3430.51 4217.94 56.39 2.00 192.42 2723.35
   00:26:45.279.24-Feb-2020 3430.51 4219.99 56.39 2.00 192.62 2723.35
   00:26:45.479.24-Feb-2020 3430.51 4220.13 56.39 2.00 192.82 2723.35
   00:26:45.679.24-Feb-2020 3430.51 4219.59 56.39 2.00 193.02 2723.35
   00:26:45.879.24-Feb-2020 3430.51 4219.59 56.39 2.00 193.22 2723.35
   00:26:46.079.24-Feb-2020 3430.51 4219.08 56.39 2.00 193.42 2723.35
   00:26:46.279.24-Feb-2020 3430.51 4218.94 56.39 2.00 193.62 2723.35
   00:26:46.479.24-Feb-2020 3430.51 4219.05 56.39 2.00 193.82 2723.35
   00:26:46.679.24-Feb-2020 3430.51 4219.24 56.39 2.00 194.02 2723.35
   00:26:46.879.24-Feb-2020 3430.51 4219.24 56.39 2.00 194.22 2723.35
   00:26:47.079.24-Feb-2020 3430.51 4218.94 56.39 2.00 194.42 2723.35
   00:26:47.279.24-Feb-2020 3430.51 4219.02 56.39 2.00 194.62 2723.35
   00:26:47.479.24-Feb-2020 3430.51 4219.15 56.39 2.00 194.82 2723.35
   00:26:47.679.24-Feb-2020 3430.51 4219.13 56.39 2.00 195.02 2723.35
   00:26:47.879.24-Feb-2020 3430.51 4219.13 56.39 2.00 195.22 2723.35
   00:26:48.079.24-Feb-2020 3430.51 4218.54 56.39 2.00 195.42 2723.35
   00:26:48.279.24-Feb-2020 3430.51 4219.47 56.39 2.00 195.62 2723.35
   00:26:48.479.24-Feb-2020 3430.51 4219.46 56.39 2.00 195.82 2723.35
   00:26:48.679.24-Feb-2020 3430.51 4219.99 56.39 2.00 196.02 2723.35
   00:26:48.879.24-Feb-2020 3430.51 4219.99 56.39 2.00 196.22 2723.35
   00:26:49.079.24-Feb-2020 3430.51 4219.39 56.39 2.00 196.42 2723.35
   00:26:49.279.24-Feb-2020 3430.51 4220.05 56.39 2.00 196.62 2723.35
   00:26:49.479.24-Feb-2020 3430.51 4218.87 56.39 2.00 196.82 2723.35
   00:26:49.679.24-Feb-2020 3430.51 4219.38 56.39 2.00 197.02 2723.35
   00:26:49.879.24-Feb-2020 3430.51 4219.38 56.39 2.00 197.22 2723.35
   00:26:50.079.24-Feb-2020 3430.51 4219.44 56.39 2.00 197.42 2723.35
   00:26:50.279.24-Feb-2020 3430.51 4219.52 56.39 2.00 197.62 2723.35
   00:26:50.479.24-Feb-2020 3430.51 4218.87 56.39 2.00 197.82 2723.35
   00:26:50.679.24-Feb-2020 3430.51 4218.42 56.39 2.00 198.02 2723.35
   00:26:50.879.24-Feb-2020 3430.51 4218.42 56.39 2.00 198.22 2723.35
   00:26:51.080.24-Feb-2020 3430.51 4220.39 56.39 2.00 198.42 2723.35
   00:26:51.280.24-Feb-2020 3430.51 4219.11 56.39 2.00 198.62 2723.35
   00:26:51.480.24-Feb-2020 3430.51 4218.96 56.39 2.00 198.82 2723.35
   00:26:51.680.24-Feb-2020 3430.51 4219.13 56.39 2.00 199.02 2723.35
   00:26:51.880.24-Feb-2020 3430.51 4219.13 56.39 2.00 199.22 2723.35
   00:26:52.080.24-Feb-2020 3430.51 4219.58 56.39 2.00 199.42 2723.35
   00:26:52.280.24-Feb-2020 3430.51 4219.26 56.39 2.00 199.62 2723.35
   00:26:52.480.24-Feb-2020 3430.51 4219.73 56.39 2.00 199.82 2723.35
   00:26:52.680.24-Feb-2020 3430.51 4218.85 56.39 2.00 200.02 2723.35
   00:26:52.880.24-Feb-2020 3430.51 4218.85 56.39 2.00 200.22 2723.35
   00:26:53.080.24-Feb-2020 3430.51 4219.42 56.39 2.00 200.42 2723.35
   00:26:53.280.24-Feb-2020 3430.51 4219.35 56.39 2.00 200.62 2723.35
   00:26:53.480.24-Feb-2020 3430.51 4219.34 56.39 2.00 200.82 2723.35
   00:26:53.680.24-Feb-2020 3430.51 4219.22 56.39 2.00 201.02 2723.35
   00:26:53.880.24-Feb-2020 3430.51 4219.22 56.39 2.00 201.22 2723.35
   00:26:54.080.24-Feb-2020 3430.51 4219.37 56.39 2.00 201.42 2723.35
   00:26:54.280.24-Feb-2020 3430.51 4219.25 56.39 2.00 201.62 2723.35
   00:26:54.480.24-Feb-2020 3430.51 4219.08 56.39 2.00 201.82 2723.35
   00:26:54.680.24-Feb-2020 3430.51 4218.82 56.39 2.00 202.02 2723.35
   00:26:54.880.24-Feb-2020 3430.51 4218.82 56.39 2.00 202.22 2723.35
   00:26:55.080.24-Feb-2020 3430.51 4219.95 56.39 2.00 202.42 2723.35
   00:26:55.280.24-Feb-2020 3430.51 4217.99 56.39 2.00 202.62 2723.35
   00:26:55.480.24-Feb-2020 3430.51 4219.85 56.39 2.00 202.82 2723.35
   00:26:55.680.24-Feb-2020 3430.51 4219.78 56.39 2.00 203.02 2723.35
   00:26:55.880.24-Feb-2020 3430.51 4219.78 56.39 2.00 203.22 2723.35
   00:26:56.080.24-Feb-2020 3430.51 4219.38 56.39 2.00 203.42 2723.35
   00:26:56.280.24-Feb-2020 3430.51 4218.96 56.39 2.00 203.62 2723.35
   00:26:56.480.24-Feb-2020 3430.51 4219.21 56.39 2.00 203.82 2723.35
   00:26:56.680.24-Feb-2020 3430.51 4219.32 56.39 2.00 204.02 2723.35
   00:26:56.880.24-Feb-2020 3430.51 4219.32 56.39 2.00 204.22 2723.35
   00:26:57.080.24-Feb-2020 3430.51 4218.85 56.39 2.00 204.42 2723.35
   00:26:57.280.24-Feb-2020 3430.51 4219.07 56.39 2.00 204.62 2723.35
   00:26:57.480.24-Feb-2020 3430.51 4219.18 56.39 2.00 204.82 2723.35
   00:26:57.680.24-Feb-2020 3430.51 4219.20 56.39 2.00 205.02 2723.35
   00:26:57.880.24-Feb-2020 3430.51 4219.20 56.39 2.00 205.22 2723.35
   00:26:58.080.24-Feb-2020 3430.51 4219.32 56.39 2.00 205.42 2723.35
   00:26:58.280.24-Feb-2020 3430.51 4218.63 56.39 2.00 205.62 2723.35
   00:26:58.480.24-Feb-2020 3430.51 4219.61 56.39 2.00 205.82 2723.35
   00:26:58.680.24-Feb-2020 3430.51 4219.32 56.39 2.00 206.02 2723.35
   00:26:58.880.24-Feb-2020 3430.51 4219.32 56.39 2.00 206.22 2723.35
   00:26:59.080.24-Feb-2020 3430.51 4219.03 56.39 2.00 206.42 2723.35
   00:26:59.280.24-Feb-2020 3430.51 4219.37 56.39 2.00 206.62 2723.35
   00:26:59.480.24-Feb-2020 3430.51 4220.01 56.39 2.00 206.82 2723.35
