~Version Information
 VERS.                  2.0:   CWLS log ASCII Standard -VERSION 2.0
 WRAP.                   NO:   One line per depth step
~Well Information Block
#MNEM.UNIT     VALUE/NAME     DESCRIPTION
#---------     -----------    ---------------------------
 STRT.S             00:23:32 24-Feb-20: START TIME 00:23:32 24-Feb-20
 STOP.S             00:30:40 24-Feb-20: STOP TIME  00:30:40 24-Feb-20
 STEP.S                   0.00: STEP TIME
 NULL.                 -999.25: NULL VALUE
 JOBN.        AZ-XX-0905059384:  JOB TICKET NUMB
 PDAT.          Mean Sea Level:  PERMANENT DATUM
 UNIT.                     N/A:  LOGGING EQUIPMENT ID
 DCON.         Sperry Drilling:  DIRECTNL CONTR
 DOE .                     N/A:  DOE NUMBER
 RIG .             West Chirag:  RIG NAME
 WELL.                     J22:  WELL NAME
 MWDS.                    Baku:  MWD SHOP
 SRVC.     TURAN Drilling & Engineering:  CONTRACTOR
 FLD .                     ACG:  FIELD NAME
 CTRY.              Azerbaijan:  COUNTRY NAME
 PROV.                    Baku:  PROVINCE
 STAT.                    Baku:  STATE NAME
 REGN.                   EESSA:  REGION
 BASE.              Azerbaijan:  LOGGING EQUIPMENT BASE LOCATION
 UWI .                     N/A:  UNIQUE WELL IDENTIFIER
 API .                     N/A:  API NUMBER
 COMP.     BP Exploration (Caspian Sea) Ltd.:  COMPANY
 WTYP.                Deviated:  WELL TYPE
 MDS .        Operator Entered:  MAG DATA SOURCE
 SON .        AZ-XX-0905059384:  JOB NUMBER
 FTOP.          Formation Tops:  FORM TOPS DESC
 ILTD.               Lithology:  INTERP LTH DESC
 SVYD.                  Survey:  SURVEY DESC
 DMOD.             Drill Model:  DRILL MOD DESC
 HPTY.       Minimum Curvature:  HOLE POS TYPE
 NREF.                    Grid:  NORTH REFERENCE
 SPUD.               09-Jan-20:  SPUD DATE
 DATE.      14.04.48 07-Feb-20:  END TIME
 STIM.      07.00.00 09-Jan-20:  START TIME
 DMF .             Drill Floor:  DRILL MEAS FROM
 DFST.                        :  DIST FSL TEXT
 DFWT.                        :  DIST FWL TEXT
 CNTY.                        :  COUNTY
 LOC .                        :  LOCATION
 LMF .             Drill Floor:  LOG MEASURED FROM
 DEP .m                   0.00:  DEPTH
 VSNS.m                  10.28:  VERT SEC N/S
 VSEW.m                  -6.24:  VERT SEC E/W
 AGAP.m                  43.00:  AIR GAP
 APD .m                  43.00:  DEPTH ABOVE PD
 WDMS.m                 169.80:  WD ELEV
 EGL .m                   0.00:  GROUND ELEVATION
 EPD .m                   0.00:  ELEVATION
 AZTC.deg                 6.27:  AZM TOTAL CORR
 GRDC.deg                 0.15:  GRID CORRECTION
 MDEC.deg                 6.42:  MAGNETIC DECL
 MDIP.deg                59.56:  MAGNETIC DIP
 MFLD.nT              50277.00:  MAGNETIC FIELD
 GVFD.g                   1.00:  GRAVITY FIELD
 VSDR.deg               148.53:  VERT SEC DIRECT
 TDD .m                3473.01:  TOTAL DEPTH (DRILLER)
 SDEP.m                 364.00:  START DEPTH
 DFSL.m                   0.00:  DISTANCE FSL
 DFWL.m                   0.00:  DISTANCE FWL
 UTMY.m             4443793.85:  UTM Y
 UTMX.m              519005.06:  UTM X
 WHEW.m                  -6.24:  WELL HEAD E/W
 WHNS.m                  10.28:  WELL HEAD N/S
 LONG.deg                51.22:  LONGITUDE
 LATI.deg                40.13:  LATITUDE
 TVDS.m                  43.00:  TVDSS CORRECTN
 EKB .m                   0.00:  KB ELEVATION
 EDF .m                  43.00:  DF ELEVATION
 TDL .m                 254.00:  TOTAL DEPTH (LOGGER)
 MAGU.                 1850021:  MAGUTM CHECKSUM
 VSC .                       0:  VS TO CLOSURE
~Parameter Information Block
#MNEM.UNIT       Value        Description
#---------     -----------    ---------------------------
 AV  .mps                 0.50:  Ann Velocity 
 AVMX.mps                 1.40:  Max Ann Veloc 
 AZIF.deg               144.94:  Azm, Final 
 BHAT.        Rotary Steerable:  BHA Type 
 BROT.∞/30m               0.23:  Build Rotating 
 BS  .in                  8.50:  Bit Size 
 BTPL.psig              264.00:  Bit Press Loss 
 CABU.                     Yes:  Customer Abuse 
 COMM.                     ÙP`:  Run Comments 1 
 TCS .hr                 87.30:  Time Ciculation Ended 
 CV  .mps                 2.45:  Crit Velocity 
 CVMX.mps                 2.74:  Max Crit Veloc 
 DD1 .             Aziz Aliyev:  Direct Drillr 1 
 DDSV.               Geo-Pilot:  DD Service 
 DEFF.%                 100.00:  % Det Eff 
 DLRX.∞/30m               1.22:  Dogleg Rot Max 
 DLSO.∞/30m               0.52:  Dogleg Oriented 
 DLSX.∞/30m               1.22:  Dogleg Str Max 
 DRET.      12.59.00 23-Feb-20:  Drill End Time 
 DRST.      09.44.00 18-Feb-20:  Drill Start Tim 
 DTIM.hr                 23.03:  Time Drilling 
 EDEP.m                3473.01:  End Depth 
 ENG1.         Almaz Almadatov:  Engineer 1 
 ENG2.         Dair Mahammadov:  Engineer 2 
 ENG3.          Nazrin Asgarli:  Engineer 3 
 ETIM.      10.33.36 26-Feb-20:  End Time 
 FLOI.gpm               480.00:  Flow In 
 FLON.gpm               300.00:  Flow In Min 
 FLOS.cptm                1.00:  Fluid Loss 
 FLOX.gpm               550.00:  Flow In Max 
 HFLO.                      No:  High Flow 
 HPRE.                      No:  High Pressure 
 HTEM.                      No:  High Temp 
 HYDO.m                   1.80:  Hydro Offset 
 IFIN.deg                74.42:  Inc, Final 
 IMAX.deg                76.14:  Inc Max 
 IMIN.deg                74.42:  Inc Min 
 IMND.m                3462.72:  Inc Min Depth 
 IMXD.m                3235.69:  Inc Max Depth 
 JARR.                      No:  Jarring 
 LETM.      12.59.00 23-Feb-20:  Log End Time 
 LOST.hr                     0:  Lost Rig Time 
 LSTM.      09.44.00 18-Feb-20:  Log Start Time 
 MDCL.ppm             45000.00:  Mud Chlorides 
 MDES.     Inversion Oil/Synthetic:  Mud Desc 
 DFD .sg                  1.38:  Mud Density 
 MDMN.sg                  1.34:  Dens Mud Min 
 MDMX.sg                  1.49:  Dens Mud Max 
 MOIL.                      67:  Run Mud Oil % 
 MOWR.                   67:33:  Run Mud OWR 
 MSND.                    0.12:  Run Mud Sand % 
 MSOL.                      22:  Run Mud Solids% 
 DFV .spqt               81.00:  Mud Viscosity 
 MWOD.in                  6.75:  MWD Tool OD 
 MWSI.                      No:  Serv Intrp, MWD 
 OTIM.hr                231.44:  Time Operating 
 PCON.          Wear / Scratch:  Pad Condition 
 PMAX.psia             3400.00:  Press Op, Max 
 PV  .cP                 55.00:  Mud PV 
 RUN .                     800:  Run Number 
 ROPA.m/hr               12.00:  ROP Avg 
 ROPN.m/hr                5.00:  ROP Min 
 ROPX.m/hr               28.00:  ROP Max 
 RPMA.rpm               120.00:  RPM Surface Avg 
 RPMN.rpm                40.00:  RPM Surface Min 
 RPMX.rpm               130.00:  RPM Surface Max 
 RRUN.                    0800:  Rig Run Number 
 RTIM.hr                 45.00:  Time Reaming 
 SAZI.deg               145.38:  Azm, Start 
 SDEP.m                3219.01:  Start Depth 
 SIDD.                      No:  Serv Intrp, DD 
 SINC.deg                75.11:  Inc, Start 
 SPPA.psig             2400.00:  SPP Avg 
 SPPN.psig             2320.00:  SPP Min 
 SPPX.psig             3200.00:  SPP Max 
 STIM.      15.15.00 17-Feb-20:  Start Time 
 SVCS.                 DD, MWD:  Services 
 SVER.                    9.20:  Sperry Version 
 TDAT.m                 254.00:  Tot Depth Attmp 
 TDDF.                      No:  Trip for DD 
 TDLG.m                 254.00:  Tot Depth Loggd 
 TFF .                      No:  Trip for Fail 
 TQAA.f-kp               13.00:  Torque Abs Avg 
 TQAN.f-kp                7.00:  Torque Abs Min 
 TQAX.f-kp               15.00:  Torque Abs Max 
 TRRT.∞/30m               0.21:  Turn Rotating 
 MRT .                  EWR-M5:  Maximum Recorded Temperature 
 TTMX.degC               64.00:  Max Tool Temp 
 VS01.                90586516:  Virtual Str1 SN 
 VS02.                90513691:  Virtual Str2 SN 
 VS03.                90586523:  Virtual Str3 SN 
 VS04.                90586520:  Virtual Str4 SN 
 VS05.                90590507:  Virtual Str5 SN 
 WBMN.klb                12.00:  WOB Min 
 WITN.           Rufat Babayev:  Customer Rep 2 
 WITN.         Alistair Sprott:  Customer Rep 
 WOBA.klb                18.00:  WOB Avg 
 WOBX.klb                30.00:  WOB Max 
 YP  .lhf2               41.00:  Yield Point 
~Curve Information Block
#MNEM.UNIT                 API CODE     Curve Description
#---------               -----------    ---------------------------
 TIME.HHMMSS            00 000 000 000:  GT Time & Date
 GTDEPTH.m              00 000 000 000:  GT Depth
 GTPQH.psia             00 000 000 000:  GT HR Quartz Pressure
 GTTQ.degC              00 000 000 000:  GT Quartz Temperature
 GTTN.NONE              00 000 000 000:  GT Test Number
 GTET.sec               00 000 000 000:  GT Elapsed Test Time
 GTTVD.m                00 000 000 000:  GT True Vertical Depth
#Other Information
#
#WARRANTY: Halliburton will use its best efforts to furnish customers with 
#accurate information and interpretations that are part of, and incident to, the services 
#provided.  However, Halliburton cannot and does not warrant the accuracy 
#or correctness of such information and interpretations.  Under no circumstances should any 
#such information or interpretation be relied upon as the sole basis for any drilling, 
#completion, production, or financial decision or any procedure involving any risk to the 
#safety of any drilling venture, drilling rig or its crew or any other third party.  The 
#Customer has full responsibility for all drilling, completion and production operation.  
#Halliburton makes no representations or warranties, either expressed or 
#implied, including, but not limited to, the implied warranties of merchantability or fitness 
#for a particular purpose, with respect to the services rendered.  In no event will 
#Halliburton be liable for failure to obtain any particular results or for 
#any damages, including, but not limited to, indirect, special or consequential damages, 
#resulting from the use of any information or interpretation provided by Halliburton.
#
~A           TIME           GTDEPTH  GTPQH  GTTQ  GTTN  GTET   GTTVD  
# ...
   00:28:31.691.24-Feb-2020 3430.51 4218.87 56.39 2.00 299.03 2723.35
   00:28:31.891.24-Feb-2020 3430.51 4218.87 56.39 2.00 299.23 2723.35
   00:28:32.091.24-Feb-2020 3430.51 4218.86 56.39 2.00 299.43 2723.35
   00:28:32.291.24-Feb-2020 3430.51 4218.43 56.39 2.00 299.63 2723.35
   00:28:32.491.24-Feb-2020 3430.51 4218.83 56.39 2.00 299.83 2723.35
   00:28:32.691.24-Feb-2020 3430.51 4218.54 56.39 2.00 300.03 2723.35
   00:28:32.891.24-Feb-2020 3430.51 4218.54 56.39 2.00 300.23 2723.35
   00:28:33.091.24-Feb-2020 3430.51 4218.64 56.39 2.00 300.43 2723.35
   00:28:33.291.24-Feb-2020 3430.51 4219.14 56.39 2.00 300.63 2723.35
   00:28:33.491.24-Feb-2020 3430.51 4218.50 56.39 2.00 300.83 2723.35
   00:28:33.691.24-Feb-2020 3430.51 4219.25 56.39 2.00 301.03 2723.35
   00:28:33.891.24-Feb-2020 3430.51 4219.25 56.39 2.00 301.23 2723.35
   00:28:34.091.24-Feb-2020 3430.51 4218.92 56.39 2.00 301.43 2723.35
   00:28:34.291.24-Feb-2020 3430.51 4219.01 56.39 2.00 301.63 2723.35
   00:28:34.491.24-Feb-2020 3430.51 4218.94 56.39 2.00 301.83 2723.35
   00:28:34.691.24-Feb-2020 3430.51 4218.91 56.39 2.00 302.03 2723.35
   00:28:34.891.24-Feb-2020 3430.51 4218.91 56.39 2.00 302.23 2723.35
   00:28:35.091.24-Feb-2020 3430.51 4218.91 56.39 2.00 302.43 2723.35
   00:28:35.292.24-Feb-2020 3430.51 4218.76 56.39 2.00 302.63 2723.35
   00:28:35.492.24-Feb-2020 3430.51 4218.76 56.39 2.00 302.83 2723.35
   00:28:35.692.24-Feb-2020 3430.51 4218.89 56.39 2.00 303.03 2723.35
   00:28:35.892.24-Feb-2020 3430.51 4218.89 56.39 2.00 303.23 2723.35
   00:28:36.092.24-Feb-2020 3430.51 4218.70 56.39 2.00 303.43 2723.35
   00:28:36.292.24-Feb-2020 3430.51 4219.34 56.39 2.00 303.63 2723.35
   00:28:36.492.24-Feb-2020 3430.51 4217.59 56.39 2.00 303.83 2723.35
   00:28:36.692.24-Feb-2020 3430.51 4219.24 56.39 2.00 304.03 2723.35
   00:28:36.892.24-Feb-2020 3430.51 4219.24 56.39 2.00 304.24 2723.35
   00:28:37.092.24-Feb-2020 3430.51 4218.97 56.39 2.00 304.44 2723.35
   00:28:37.292.24-Feb-2020 3430.51 4218.76 56.39 2.00 304.64 2723.35
   00:28:37.492.24-Feb-2020 3430.51 4218.75 56.39 2.00 304.84 2723.35
   00:28:37.692.24-Feb-2020 3430.51 4218.73 56.39 2.00 305.04 2723.35
   00:28:37.892.24-Feb-2020 3430.51 4218.73 56.39 2.00 305.24 2723.35
   00:28:38.092.24-Feb-2020 3430.51 4218.98 56.39 2.00 305.44 2723.35
   00:28:38.292.24-Feb-2020 3430.51 4218.90 56.39 2.00 305.64 2723.35
   00:28:38.492.24-Feb-2020 3430.51 4218.69 56.39 2.00 305.84 2723.35
   00:28:38.692.24-Feb-2020 3430.51 4218.71 56.39 2.00 306.04 2723.35
   00:28:38.892.24-Feb-2020 3430.51 4218.71 56.39 2.00 306.24 2723.35
   00:28:39.092.24-Feb-2020 3430.51 4218.87 56.39 2.00 306.44 2723.35
   00:28:39.292.24-Feb-2020 3430.51 4219.06 56.39 2.00 306.64 2723.35
   00:28:39.492.24-Feb-2020 3430.51 4218.71 56.39 2.00 306.84 2723.35
   00:28:39.692.24-Feb-2020 3430.51 4219.02 56.39 2.00 307.04 2723.35
   00:28:39.892.24-Feb-2020 3430.51 4219.02 56.39 2.00 307.24 2723.35
   00:28:40.092.24-Feb-2020 3430.51 4219.37 56.39 2.00 307.44 2723.35
   00:28:40.292.24-Feb-2020 3430.51 4218.46 56.39 2.00 307.64 2723.35
   00:28:40.492.24-Feb-2020 3430.51 4218.89 56.39 2.00 307.84 2723.35
   00:28:40.692.24-Feb-2020 3430.51 4219.32 56.39 2.00 308.04 2723.35
   00:28:40.892.24-Feb-2020 3430.51 4219.32 56.39 2.00 308.24 2723.35
   00:28:41.092.24-Feb-2020 3430.51 4218.81 56.39 2.00 308.44 2723.35
   00:28:41.292.24-Feb-2020 3430.51 4218.56 56.39 2.00 308.64 2723.35
   00:28:41.492.24-Feb-2020 3430.51 4219.06 56.39 2.00 308.84 2723.35
   00:28:41.692.24-Feb-2020 3430.51 4219.20 56.39 2.00 309.04 2723.35
   00:28:41.892.24-Feb-2020 3430.51 4219.20 56.39 2.00 309.24 2723.35
   00:28:42.092.24-Feb-2020 3430.51 4218.39 56.39 2.00 309.44 2723.35
   00:28:42.292.24-Feb-2020 3430.51 4219.41 56.39 2.00 309.64 2723.35
   00:28:42.492.24-Feb-2020 3430.51 4219.85 56.39 2.00 309.84 2723.35
   00:28:42.692.24-Feb-2020 3430.51 4218.85 56.39 2.00 310.04 2723.35
   00:28:42.892.24-Feb-2020 3430.51 4218.85 56.39 2.00 310.24 2723.35
   00:28:43.092.24-Feb-2020 3430.51 4218.89 56.39 2.00 310.44 2723.35
   00:28:43.292.24-Feb-2020 3430.51 4218.51 56.39 2.00 310.64 2723.35
   00:28:43.492.24-Feb-2020 3430.51 4219.29 56.39 2.00 310.84 2723.35
   00:28:43.692.24-Feb-2020 3430.51 4218.96 56.39 2.00 311.04 2723.35
   00:28:43.892.24-Feb-2020 3430.51 4218.96 56.39 2.00 311.24 2723.35
   00:28:44.093.24-Feb-2020 3430.51 4218.57 56.39 2.00 311.44 2723.35
   00:28:44.293.24-Feb-2020 3430.51 4219.11 56.39 2.00 311.64 2723.35
   00:28:44.493.24-Feb-2020 3430.51 4219.23 56.39 2.00 311.84 2723.35
   00:28:44.693.24-Feb-2020 3430.51 4219.05 56.39 2.00 312.04 2723.35
   00:28:44.893.24-Feb-2020 3430.51 4219.05 56.39 2.00 312.24 2723.35
   00:28:45.093.24-Feb-2020 3430.51 4219.08 56.39 2.00 312.44 2723.35
   00:28:45.293.24-Feb-2020 3430.51 4219.17 56.39 2.00 312.64 2723.35
   00:28:45.493.24-Feb-2020 3430.51 4219.12 56.39 2.00 312.84 2723.35
   00:28:45.693.24-Feb-2020 3430.51 4219.07 56.39 2.00 313.04 2723.35
   00:28:45.893.24-Feb-2020 3430.51 4219.07 56.39 2.00 313.24 2723.35
   00:28:46.093.24-Feb-2020 3430.51 4218.78 56.39 2.00 313.44 2723.35
   00:28:46.293.24-Feb-2020 3430.51 4218.93 56.39 2.00 313.64 2723.35
   00:28:46.493.24-Feb-2020 3430.51 4219.69 56.39 2.00 313.84 2723.35
   00:28:46.693.24-Feb-2020 3430.51 4217.65 56.39 2.00 314.04 2723.35
   00:28:46.893.24-Feb-2020 3430.51 4217.65 56.39 2.00 314.24 2723.35
   00:28:47.093.24-Feb-2020 3430.51 4219.20 56.39 2.00 314.44 2723.35
   00:28:47.293.24-Feb-2020 3430.51 4218.98 56.39 2.00 314.64 2723.35
   00:28:47.493.24-Feb-2020 3430.51 4219.17 56.39 2.00 314.84 2723.35
   00:28:47.693.24-Feb-2020 3430.51 4218.87 56.39 2.00 315.04 2723.35
   00:28:47.893.24-Feb-2020 3430.51 4218.87 56.39 2.00 315.24 2723.35
   00:28:48.093.24-Feb-2020 3430.51 4219.34 56.39 2.00 315.44 2723.35
   00:28:48.293.24-Feb-2020 3430.51 4219.05 56.39 2.00 315.64 2723.35
   00:28:48.493.24-Feb-2020 3430.51 4218.86 56.39 2.00 315.84 2723.35
   00:28:48.693.24-Feb-2020 3430.51 4219.02 56.39 2.00 316.04 2723.35
   00:28:48.893.24-Feb-2020 3430.51 4219.02 56.39 2.00 316.24 2723.35
   00:28:49.093.24-Feb-2020 3430.51 4219.00 56.39 2.00 316.44 2723.35
   00:28:49.293.24-Feb-2020 3430.51 4219.10 56.39 2.00 316.64 2723.35
   00:28:49.493.24-Feb-2020 3430.51 4219.14 56.39 2.00 316.84 2723.35
   00:28:49.693.24-Feb-2020 3430.51 4218.62 56.39 2.00 317.04 2723.35
   00:28:49.893.24-Feb-2020 3430.51 4219.16 56.39 2.00 317.24 2723.35
   00:28:50.093.24-Feb-2020 3430.51 4219.01 56.39 2.00 317.44 2723.35
   00:28:50.293.24-Feb-2020 3430.51 4219.62 56.39 2.00 317.64 2723.35
   00:28:50.493.24-Feb-2020 3430.51 4218.71 56.39 2.00 317.84 2723.35
   00:28:50.693.24-Feb-2020 3430.51 4219.21 56.39 2.00 318.04 2723.35
   00:28:50.893.24-Feb-2020 3430.51 4219.21 56.39 2.00 318.24 2723.35
   00:28:51.093.24-Feb-2020 3430.51 4218.61 56.39 2.00 318.44 2723.35
   00:28:51.293.24-Feb-2020 3430.51 4219.17 56.39 2.00 318.64 2723.35
   00:28:51.493.24-Feb-2020 3430.51 4218.73 56.39 2.00 318.84 2723.35
   00:28:51.693.24-Feb-2020 3430.51 4219.19 56.39 2.00 319.04 2723.35
   00:28:51.893.24-Feb-2020 3430.51 4219.19 56.39 2.00 319.24 2723.35
   00:28:52.093.24-Feb-2020 3430.51 4218.71 56.39 2.00 319.44 2723.35
   00:28:52.293.24-Feb-2020 3430.51 4218.37 56.39 2.00 319.64 2723.35
   00:28:52.493.24-Feb-2020 3430.51 4219.44 56.39 2.00 319.84 2723.35
   00:28:52.694.24-Feb-2020 3430.51 4219.67 56.39 2.00 320.04 2723.35
   00:28:52.894.24-Feb-2020 3430.51 4219.67 56.39 2.00 320.24 2723.35
   00:28:53.094.24-Feb-2020 3430.51 4218.78 56.39 2.00 320.44 2723.35
   00:28:53.294.24-Feb-2020 3430.51 4219.03 56.39 2.00 320.64 2723.35
   00:28:53.494.24-Feb-2020 3430.51 4218.65 56.39 2.00 320.84 2723.35
   00:28:53.694.24-Feb-2020 3430.51 4219.53 56.39 2.00 321.04 2723.35
   00:28:53.894.24-Feb-2020 3430.51 4219.53 56.39 2.00 321.24 2723.35
   00:28:54.094.24-Feb-2020 3430.51 4219.63 56.39 2.00 321.44 2723.35
   00:28:54.294.24-Feb-2020 3430.51 4218.73 56.39 2.00 321.64 2723.35
   00:28:54.494.24-Feb-2020 3430.51 4219.20 56.39 2.00 321.84 2723.35
