~Version Information
 VERS.                  2.0:   CWLS log ASCII Standard -VERSION 2.0
 WRAP.                   NO:   One line per depth step
~Well Information Block
#MNEM.UNIT     VALUE/NAME     DESCRIPTION
#---------     -----------    ---------------------------
 STRT.S             05:02:14 24-Feb-20: START TIME 05:02:14 24-Feb-20
 STOP.S             05:09:32 24-Feb-20: STOP TIME  05:09:32 24-Feb-20
 STEP.S                   0.00: STEP TIME
 NULL.                 -999.25: NULL VALUE
 JOBN.        AZ-XX-0905059384:  JOB TICKET NUMB
 PDAT.          Mean Sea Level:  PERMANENT DATUM
 UNIT.                     N/A:  LOGGING EQUIPMENT ID
 DCON.         Sperry Drilling:  DIRECTNL CONTR
 DOE .                     N/A:  DOE NUMBER
 RIG .             West Chirag:  RIG NAME
 WELL.                     J22:  WELL NAME
 MWDS.                    Baku:  MWD SHOP
 SRVC.     TURAN Drilling & Engineering:  CONTRACTOR
 FLD .                     ACG:  FIELD NAME
 CTRY.              Azerbaijan:  COUNTRY NAME
 PROV.                    Baku:  PROVINCE
 STAT.                    Baku:  STATE NAME
 REGN.                   EESSA:  REGION
 BASE.              Azerbaijan:  LOGGING EQUIPMENT BASE LOCATION
 UWI .                     N/A:  UNIQUE WELL IDENTIFIER
 API .                     N/A:  API NUMBER
 COMP.     BP Exploration (Caspian Sea) Ltd.:  COMPANY
 WTYP.                Deviated:  WELL TYPE
 MDS .        Operator Entered:  MAG DATA SOURCE
 SON .        AZ-XX-0905059384:  JOB NUMBER
 FTOP.          Formation Tops:  FORM TOPS DESC
 ILTD.               Lithology:  INTERP LTH DESC
 SVYD.                  Survey:  SURVEY DESC
 DMOD.             Drill Model:  DRILL MOD DESC
 HPTY.       Minimum Curvature:  HOLE POS TYPE
 NREF.                    Grid:  NORTH REFERENCE
 SPUD.               09-Jan-20:  SPUD DATE
 DATE.      14.04.48 07-Feb-20:  END TIME
 STIM.      07.00.00 09-Jan-20:  START TIME
 DMF .             Drill Floor:  DRILL MEAS FROM
 DFST.                        :  DIST FSL TEXT
 DFWT.                        :  DIST FWL TEXT
 CNTY.                        :  COUNTY
 LOC .                        :  LOCATION
 LMF .             Drill Floor:  LOG MEASURED FROM
 DEP .m                   0.00:  DEPTH
 VSNS.m                  10.28:  VERT SEC N/S
 VSEW.m                  -6.24:  VERT SEC E/W
 AGAP.m                  43.00:  AIR GAP
 APD .m                  43.00:  DEPTH ABOVE PD
 WDMS.m                 169.80:  WD ELEV
 EGL .m                   0.00:  GROUND ELEVATION
 EPD .m                   0.00:  ELEVATION
 AZTC.deg                 6.27:  AZM TOTAL CORR
 GRDC.deg                 0.15:  GRID CORRECTION
 MDEC.deg                 6.42:  MAGNETIC DECL
 MDIP.deg                59.56:  MAGNETIC DIP
 MFLD.nT              50277.00:  MAGNETIC FIELD
 GVFD.g                   1.00:  GRAVITY FIELD
 VSDR.deg               148.53:  VERT SEC DIRECT
 TDD .m                3473.01:  TOTAL DEPTH (DRILLER)
 SDEP.m                 364.00:  START DEPTH
 DFSL.m                   0.00:  DISTANCE FSL
 DFWL.m                   0.00:  DISTANCE FWL
 UTMY.m             4443793.85:  UTM Y
 UTMX.m              519005.06:  UTM X
 WHEW.m                  -6.24:  WELL HEAD E/W
 WHNS.m                  10.28:  WELL HEAD N/S
 LONG.deg                51.22:  LONGITUDE
 LATI.deg                40.13:  LATITUDE
 TVDS.m                  43.00:  TVDSS CORRECTN
 EKB .m                   0.00:  KB ELEVATION
 EDF .m                  43.00:  DF ELEVATION
 TDL .m                 254.00:  TOTAL DEPTH (LOGGER)
 MAGU.                 1850021:  MAGUTM CHECKSUM
 VSC .                       0:  VS TO CLOSURE
~Parameter Information Block
#MNEM.UNIT       Value        Description
#---------     -----------    ---------------------------
 AV  .mps                 0.50:  Ann Velocity 
 AVMX.mps                 1.40:  Max Ann Veloc 
 AZIF.deg               144.94:  Azm, Final 
 BHAT.        Rotary Steerable:  BHA Type 
 BROT.°/30m               0.23:  Build Rotating 
 BS  .in                  8.50:  Bit Size 
 BTPL.psig              264.00:  Bit Press Loss 
 CABU.                     Yes:  Customer Abuse 
 TCS .hr                 87.30:  Time Ciculation Ended 
 CV  .mps                 2.45:  Crit Velocity 
 CVMX.mps                 2.74:  Max Crit Veloc 
 DD1 .             Aziz Aliyev:  Direct Drillr 1 
 DDSV.               Geo-Pilot:  DD Service 
 DEFF.%                 100.00:  % Det Eff 
 DLRX.°/30m               1.22:  Dogleg Rot Max 
 DLSO.°/30m               0.52:  Dogleg Oriented 
 DLSX.°/30m               1.22:  Dogleg Str Max 
 DRET.      12.59.00 23-Feb-20:  Drill End Time 
 DRST.      09.44.00 18-Feb-20:  Drill Start Tim 
 DTIM.hr                 23.03:  Time Drilling 
 EDEP.m                3473.01:  End Depth 
 ENG1.         Almaz Almadatov:  Engineer 1 
 ENG2.         Dair Mahammadov:  Engineer 2 
 ENG3.          Nazrin Asgarli:  Engineer 3 
 ETIM.      10.33.36 26-Feb-20:  End Time 
 FLOI.gpm               480.00:  Flow In 
 FLON.gpm               300.00:  Flow In Min 
 FLOS.cptm                1.00:  Fluid Loss 
 FLOX.gpm               550.00:  Flow In Max 
 HFLO.                      No:  High Flow 
 HPRE.                      No:  High Pressure 
 HTEM.                      No:  High Temp 
 HYDO.m                   1.80:  Hydro Offset 
 IFIN.deg                74.42:  Inc, Final 
 IMAX.deg                76.14:  Inc Max 
 IMIN.deg                74.42:  Inc Min 
 IMND.m                3462.72:  Inc Min Depth 
 IMXD.m                3235.69:  Inc Max Depth 
 JARR.                      No:  Jarring 
 LETM.      12.59.00 23-Feb-20:  Log End Time 
 LOST.hr                     0:  Lost Rig Time 
 LSTM.      09.44.00 18-Feb-20:  Log Start Time 
 MDCL.ppm             45000.00:  Mud Chlorides 
 MDES.     Inversion Oil/Synthetic:  Mud Desc 
 DFD .sg                  1.38:  Mud Density 
 MDMN.sg                  1.34:  Dens Mud Min 
 MDMX.sg                  1.49:  Dens Mud Max 
 MOIL.                      67:  Run Mud Oil % 
 MOWR.                   67:33:  Run Mud OWR 
 MSND.                    0.12:  Run Mud Sand % 
 MSOL.                      22:  Run Mud Solids% 
 DFV .spqt               81.00:  Mud Viscosity 
 MWOD.in                  6.75:  MWD Tool OD 
 MWSI.                      No:  Serv Intrp, MWD 
 OTIM.hr                231.44:  Time Operating 
 PCON.          Wear / Scratch:  Pad Condition 
 PMAX.psia             3400.00:  Press Op, Max 
 PV  .cP                 55.00:  Mud PV 
 RUN .                     800:  Run Number 
 ROPA.m/hr               12.00:  ROP Avg 
 ROPN.m/hr                5.00:  ROP Min 
 ROPX.m/hr               28.00:  ROP Max 
 RPMA.rpm               120.00:  RPM Surface Avg 
 RPMN.rpm                40.00:  RPM Surface Min 
 RPMX.rpm               130.00:  RPM Surface Max 
 RRUN.                    0800:  Rig Run Number 
 RTIM.hr                 45.00:  Time Reaming 
 SAZI.deg               145.38:  Azm, Start 
 SDEP.m                3219.01:  Start Depth 
 SIDD.                      No:  Serv Intrp, DD 
 SINC.deg                75.11:  Inc, Start 
 SPPA.psig             2400.00:  SPP Avg 
 SPPN.psig             2320.00:  SPP Min 
 SPPX.psig             3200.00:  SPP Max 
 STIM.      15.15.00 17-Feb-20:  Start Time 
 SVCS.                 DD, MWD:  Services 
 SVER.                    9.20:  Sperry Version 
 TDAT.m                 254.00:  Tot Depth Attmp 
 TDDF.                      No:  Trip for DD 
 TDLG.m                 254.00:  Tot Depth Loggd 
 TFF .                      No:  Trip for Fail 
 TQAA.f-kp               13.00:  Torque Abs Avg 
 TQAN.f-kp                7.00:  Torque Abs Min 
 TQAX.f-kp               15.00:  Torque Abs Max 
 TRRT.°/30m               0.21:  Turn Rotating 
 MRT .                  EWR-M5:  Maximum Recorded Temperature 
 TTMX.degC               64.00:  Max Tool Temp 
 VS01.                90586516:  Virtual Str1 SN 
 VS02.                90513691:  Virtual Str2 SN 
 VS03.                90586523:  Virtual Str3 SN 
 VS04.                90586520:  Virtual Str4 SN 
 VS05.                90590507:  Virtual Str5 SN 
 WBMN.klb                12.00:  WOB Min 
 WITN.           Rufat Babayev:  Customer Rep 2 
 WITN.         Alistair Sprott:  Customer Rep 
 WOBA.klb                18.00:  WOB Avg 
 WOBX.klb                30.00:  WOB Max 
 YP  .lhf2               41.00:  Yield Point 
~Curve Information Block
#MNEM.UNIT                 API CODE     Curve Description
#---------               -----------    ---------------------------
 TIME.HHMMSS            00 000 000 000:  GT Time & Date
 GTDEPTH.m              00 000 000 000:  GT Depth
 GTPQH.psia             00 000 000 000:  GT HR Quartz Pressure
 GTTQ.degC              00 000 000 000:  GT Quartz Temperature
 GTTN.NONE              00 000 000 000:  GT Test Number
 GTET.sec               00 000 000 000:  GT Elapsed Test Time
 GTTVD.m                00 000 000 000:  GT True Vertical Depth
#Other Information
#
#WARRANTY: Halliburton will use its best efforts to furnish customers with 
#accurate information and interpretations that are part of, and incident to, the services 
#provided.  However, Halliburton cannot and does not warrant the accuracy 
#or correctness of such information and interpretations.  Under no circumstances should any 
#such information or interpretation be relied upon as the sole basis for any drilling, 
#completion, production, or financial decision or any procedure involving any risk to the 
#safety of any drilling venture, drilling rig or its crew or any other third party.  The 
#Customer has full responsibility for all drilling, completion and production operation.  
#Halliburton makes no representations or warranties, either expressed or 
#implied, including, but not limited to, the implied warranties of merchantability or fitness 
#for a particular purpose, with respect to the services rendered.  In no event will 
#Halliburton be liable for failure to obtain any particular results or for 
#any damages, including, but not limited to, indirect, special or consequential damages, 
#resulting from the use of any information or interpretation provided by Halliburton.
#
~A           TIME           GTDEPTH  GTPQH  GTTQ  GTTN  GTET   GTTVD  
# ...
   05:04:55.795.24-Feb-2020 3303.51 4420.82 55.44 8.00 160.95 2690.98
   05:04:55.995.24-Feb-2020 3303.51 4420.82 55.44 8.00 161.15 2690.98
   05:04:56.195.24-Feb-2020 3303.51 4421.16 55.44 8.00 161.35 2690.98
   05:04:56.395.24-Feb-2020 3303.51 4421.10 55.44 8.00 161.55 2690.98
   05:04:56.595.24-Feb-2020 3303.51 4420.99 55.44 8.00 161.75 2690.98
   05:04:56.795.24-Feb-2020 3303.51 4421.24 55.44 8.00 161.95 2690.98
   05:04:56.995.24-Feb-2020 3303.51 4421.05 55.44 8.00 162.15 2690.98
   05:04:57.195.24-Feb-2020 3303.51 4420.99 55.44 8.00 162.35 2690.98
   05:04:57.395.24-Feb-2020 3303.51 4421.05 55.44 8.00 162.55 2690.98
   05:04:57.595.24-Feb-2020 3303.51 4421.06 55.44 8.00 162.75 2690.98
   05:04:57.795.24-Feb-2020 3303.51 4421.07 55.44 8.00 162.95 2690.98
   05:04:57.995.24-Feb-2020 3303.51 4421.07 55.44 8.00 163.15 2690.98
   05:04:58.195.24-Feb-2020 3303.51 4421.07 55.44 8.00 163.35 2690.98
   05:04:58.395.24-Feb-2020 3303.51 4421.07 55.44 8.00 163.55 2690.98
   05:04:58.595.24-Feb-2020 3303.51 4421.07 55.44 8.00 163.75 2690.98
   05:04:58.795.24-Feb-2020 3303.51 4421.08 55.44 8.00 163.95 2690.98
   05:04:58.995.24-Feb-2020 3303.51 4421.08 55.44 8.00 164.15 2690.98
   05:04:59.194.24-Feb-2020 3303.51 4421.08 55.44 8.00 164.35 2690.98
   05:04:59.394.24-Feb-2020 3303.51 4421.09 55.44 8.00 164.55 2690.98
   05:04:59.594.24-Feb-2020 3303.51 4421.49 55.44 8.00 164.75 2690.98
   05:04:59.794.24-Feb-2020 3303.51 4420.79 55.44 8.00 164.95 2690.98
   05:04:59.994.24-Feb-2020 3303.51 4420.79 55.44 8.00 165.15 2690.98
   05:05:00.194.24-Feb-2020 3303.51 4421.11 55.44 8.00 165.35 2690.98
   05:05:00.394.24-Feb-2020 3303.51 4421.07 55.44 8.00 165.55 2690.98
   05:05:00.594.24-Feb-2020 3303.51 4421.02 55.44 8.00 165.75 2690.98
   05:05:00.794.24-Feb-2020 3303.51 4421.02 55.44 8.00 165.95 2690.98
   05:05:00.994.24-Feb-2020 3303.51 4421.02 55.44 8.00 166.15 2690.98
   05:05:01.194.24-Feb-2020 3303.51 4421.05 55.44 8.00 166.35 2690.98
   05:05:01.394.24-Feb-2020 3303.51 4421.09 55.44 8.00 166.55 2690.98
   05:05:01.594.24-Feb-2020 3303.51 4421.08 55.44 8.00 166.75 2690.98
   05:05:01.794.24-Feb-2020 3303.51 4421.05 55.44 8.00 166.95 2690.98
   05:05:01.994.24-Feb-2020 3303.51 4421.05 55.44 8.00 167.15 2690.98
   05:05:02.194.24-Feb-2020 3303.51 4421.05 55.44 8.00 167.35 2690.98
   05:05:02.394.24-Feb-2020 3303.51 4421.07 55.44 8.00 167.55 2690.98
   05:05:02.593.24-Feb-2020 3303.51 4421.10 55.44 8.00 167.75 2690.98
   05:05:02.793.24-Feb-2020 3303.51 4421.02 55.44 8.00 167.95 2690.98
   05:05:02.993.24-Feb-2020 3303.51 4421.02 55.44 8.00 168.15 2690.98
   05:05:03.193.24-Feb-2020 3303.51 4421.08 55.44 8.00 168.35 2690.98
   05:05:03.393.24-Feb-2020 3303.51 4401.74 55.44 8.00 168.55 2690.98
   05:05:03.593.24-Feb-2020 3303.51 4402.45 55.44 8.00 168.75 2690.98
   05:05:03.793.24-Feb-2020 3303.51 4414.27 55.44 8.00 168.95 2690.98
   05:05:03.993.24-Feb-2020 3303.51 4414.27 55.44 8.00 169.15 2690.98
   05:05:04.193.24-Feb-2020 3303.51 4408.14 55.44 8.00 169.35 2690.98
   05:05:04.393.24-Feb-2020 3303.51 4407.11 55.44 8.00 169.55 2690.98
   05:05:04.593.24-Feb-2020 3303.51 4406.30 55.44 8.00 169.75 2690.98
   05:05:04.793.24-Feb-2020 3303.51 4407.28 55.44 8.00 169.95 2690.98
   05:05:04.993.24-Feb-2020 3303.51 4405.30 55.44 8.00 170.15 2690.98
   05:05:05.193.24-Feb-2020 3303.51 4405.38 55.44 8.00 170.35 2690.98
   05:05:05.393.24-Feb-2020 3303.51 4405.48 55.44 8.00 170.55 2690.98
   05:05:05.593.24-Feb-2020 3303.51 4405.46 55.44 8.00 170.75 2690.98
   05:05:05.793.24-Feb-2020 3303.51 4406.56 55.44 8.00 170.95 2690.98
   05:05:05.992.24-Feb-2020 3303.51 4406.56 55.44 8.00 171.15 2690.98
   05:05:06.192.24-Feb-2020 3303.51 4406.04 55.44 8.00 171.35 2690.98
   05:05:06.392.24-Feb-2020 3303.51 4406.40 55.44 8.00 171.55 2690.98
   05:05:06.592.24-Feb-2020 3303.51 4406.35 55.44 8.00 171.75 2690.98
   05:05:06.792.24-Feb-2020 3303.51 4406.57 55.44 8.00 171.95 2690.98
   05:05:06.992.24-Feb-2020 3303.51 4406.57 55.44 8.00 172.15 2690.98
   05:05:07.192.24-Feb-2020 3303.51 4406.55 55.44 8.00 172.35 2690.98
   05:05:07.392.24-Feb-2020 3303.51 4406.57 55.44 8.00 172.55 2690.98
   05:05:07.592.24-Feb-2020 3303.51 4406.95 55.44 8.00 172.75 2690.98
   05:05:07.792.24-Feb-2020 3303.51 4406.84 55.44 8.00 172.95 2690.98
   05:05:07.992.24-Feb-2020 3303.51 4406.84 55.44 8.00 173.15 2690.98
   05:05:08.192.24-Feb-2020 3303.51 4406.82 55.44 8.00 173.35 2690.98
   05:05:08.392.24-Feb-2020 3303.51 4406.88 55.44 8.00 173.55 2690.98
   05:05:08.592.24-Feb-2020 3303.51 4407.07 55.44 8.00 173.75 2690.98
   05:05:08.792.24-Feb-2020 3303.51 4407.29 55.44 8.00 173.95 2690.98
   05:05:08.992.24-Feb-2020 3303.51 4407.16 55.44 8.00 174.15 2690.98
   05:05:09.192.24-Feb-2020 3303.51 4407.79 55.44 8.00 174.35 2690.98
   05:05:09.391.24-Feb-2020 3303.51 4407.70 55.44 8.00 174.55 2690.98
   05:05:09.591.24-Feb-2020 3303.51 4407.37 55.44 8.00 174.75 2690.98
   05:05:09.791.24-Feb-2020 3303.51 4407.03 55.44 8.00 174.95 2690.98
   05:05:09.991.24-Feb-2020 3303.51 4407.03 55.44 8.00 175.15 2690.98
   05:05:10.191.24-Feb-2020 3303.51 4406.81 55.44 8.00 175.35 2690.98
   05:05:10.391.24-Feb-2020 3303.51 4407.91 55.44 8.00 175.55 2690.98
   05:05:10.591.24-Feb-2020 3303.51 4408.10 55.44 8.00 175.75 2690.98
   05:05:10.791.24-Feb-2020 3303.51 4407.92 55.44 8.00 175.95 2690.98
   05:05:10.991.24-Feb-2020 3303.51 4407.92 55.44 8.00 176.15 2690.98
   05:05:11.191.24-Feb-2020 3303.51 4407.83 55.44 8.00 176.35 2690.98
   05:05:11.391.24-Feb-2020 3303.51 4408.13 55.44 8.00 176.55 2690.98
   05:05:11.591.24-Feb-2020 3303.51 4408.15 55.44 8.00 176.75 2690.98
   05:05:11.791.24-Feb-2020 3303.51 4408.23 55.44 8.00 176.95 2690.98
   05:05:11.991.24-Feb-2020 3303.51 4408.23 55.44 8.00 177.15 2690.98
   05:05:12.191.24-Feb-2020 3303.51 4408.62 55.44 8.00 177.35 2690.98
   05:05:12.391.24-Feb-2020 3303.51 4408.01 55.44 8.00 177.55 2690.98
   05:05:12.591.24-Feb-2020 3303.51 4408.74 55.44 8.00 177.75 2690.98
   05:05:12.790.24-Feb-2020 3303.51 4408.05 55.44 8.00 177.95 2690.98
   05:05:12.990.24-Feb-2020 3303.51 4408.00 55.44 8.00 178.15 2690.98
   05:05:13.190.24-Feb-2020 3303.51 4408.63 55.44 8.00 178.35 2690.98
   05:05:13.390.24-Feb-2020 3303.51 4412.76 55.44 8.00 178.55 2690.98
   05:05:13.590.24-Feb-2020 3303.51 4420.92 55.44 8.00 178.75 2690.98
   05:05:13.790.24-Feb-2020 3303.51 4420.88 55.44 8.00 178.95 2690.98
   05:05:13.990.24-Feb-2020 3303.51 4420.88 55.44 8.00 179.15 2690.98
   05:05:14.190.24-Feb-2020 3303.51 4421.43 55.44 8.00 179.35 2690.98
   05:05:14.390.24-Feb-2020 3303.51 4420.73 55.44 8.00 179.55 2690.98
   05:05:14.590.24-Feb-2020 3303.51 4420.96 55.43 8.00 179.75 2690.98
   05:05:14.790.24-Feb-2020 3303.51 4421.06 55.43 8.00 179.95 2690.98
   05:05:14.990.24-Feb-2020 3303.51 4421.06 55.43 8.00 180.15 2690.98
   05:05:15.190.24-Feb-2020 3303.51 4420.91 55.43 8.00 180.35 2690.98
   05:05:15.390.24-Feb-2020 3303.51 4421.19 55.43 8.00 180.55 2690.98
   05:05:15.590.24-Feb-2020 3303.51 4421.02 55.43 8.00 180.75 2690.98
   05:05:15.790.24-Feb-2020 3303.51 4420.94 55.43 8.00 180.95 2690.98
   05:05:15.990.24-Feb-2020 3303.51 4420.94 55.43 8.00 181.15 2690.98
   05:05:16.189.24-Feb-2020 3303.51 4420.99 55.43 8.00 181.35 2690.98
   05:05:16.389.24-Feb-2020 3303.51 4421.01 55.43 8.00 181.55 2690.98
   05:05:16.589.24-Feb-2020 3303.51 4421.00 55.43 8.00 181.75 2690.98
   05:05:16.789.24-Feb-2020 3303.51 4421.00 55.43 8.00 181.95 2690.98
   05:05:16.989.24-Feb-2020 3303.51 4421.01 55.43 8.00 182.15 2690.98
   05:05:17.189.24-Feb-2020 3303.51 4421.02 55.43 8.00 182.35 2690.98
   05:05:17.389.24-Feb-2020 3303.51 4421.02 55.43 8.00 182.55 2690.98
   05:05:17.589.24-Feb-2020 3303.51 4421.03 55.43 8.00 182.75 2690.98
   05:05:17.789.24-Feb-2020 3303.51 4421.03 55.43 8.00 182.95 2690.98
   05:05:17.989.24-Feb-2020 3303.51 4421.03 55.43 8.00 183.15 2690.98
   05:05:18.189.24-Feb-2020 3303.51 4421.49 55.43 8.00 183.35 2690.98
   05:05:18.389.24-Feb-2020 3303.51 4420.79 55.43 8.00 183.55 2690.98
   05:05:18.589.24-Feb-2020 3303.51 4420.98 55.43 8.00 183.75 2690.98
