~Version Information
 VERS.                  2.0:   CWLS log ASCII Standard -VERSION 2.0
 WRAP.                   NO:   One line per depth step
~Well Information Block
#MNEM.UNIT     VALUE/NAME     DESCRIPTION
#---------     -----------    ---------------------------
 STRT.S             00:23:32 24-Feb-20: START TIME 00:23:32 24-Feb-20
 STOP.S             00:30:40 24-Feb-20: STOP TIME  00:30:40 24-Feb-20
 STEP.S                   0.00: STEP TIME
 NULL.                 -999.25: NULL VALUE
 JOBN.        AZ-XX-0905059384:  JOB TICKET NUMB
 PDAT.          Mean Sea Level:  PERMANENT DATUM
 UNIT.                     N/A:  LOGGING EQUIPMENT ID
 DCON.         Sperry Drilling:  DIRECTNL CONTR
 DOE .                     N/A:  DOE NUMBER
 RIG .             West Chirag:  RIG NAME
 WELL.                     J22:  WELL NAME
 MWDS.                    Baku:  MWD SHOP
 SRVC.     TURAN Drilling & Engineering:  CONTRACTOR
 FLD .                     ACG:  FIELD NAME
 CTRY.              Azerbaijan:  COUNTRY NAME
 PROV.                    Baku:  PROVINCE
 STAT.                    Baku:  STATE NAME
 REGN.                   EESSA:  REGION
 BASE.              Azerbaijan:  LOGGING EQUIPMENT BASE LOCATION
 UWI .                     N/A:  UNIQUE WELL IDENTIFIER
 API .                     N/A:  API NUMBER
 COMP.     BP Exploration (Caspian Sea) Ltd.:  COMPANY
 WTYP.                Deviated:  WELL TYPE
 MDS .        Operator Entered:  MAG DATA SOURCE
 SON .        AZ-XX-0905059384:  JOB NUMBER
 FTOP.          Formation Tops:  FORM TOPS DESC
 ILTD.               Lithology:  INTERP LTH DESC
 SVYD.                  Survey:  SURVEY DESC
 DMOD.             Drill Model:  DRILL MOD DESC
 HPTY.       Minimum Curvature:  HOLE POS TYPE
 NREF.                    Grid:  NORTH REFERENCE
 SPUD.               09-Jan-20:  SPUD DATE
 DATE.      14.04.48 07-Feb-20:  END TIME
 STIM.      07.00.00 09-Jan-20:  START TIME
 DMF .             Drill Floor:  DRILL MEAS FROM
 DFST.                        :  DIST FSL TEXT
 DFWT.                        :  DIST FWL TEXT
 CNTY.                        :  COUNTY
 LOC .                        :  LOCATION
 LMF .             Drill Floor:  LOG MEASURED FROM
 DEP .m                   0.00:  DEPTH
 VSNS.m                  10.28:  VERT SEC N/S
 VSEW.m                  -6.24:  VERT SEC E/W
 AGAP.m                  43.00:  AIR GAP
 APD .m                  43.00:  DEPTH ABOVE PD
 WDMS.m                 169.80:  WD ELEV
 EGL .m                   0.00:  GROUND ELEVATION
 EPD .m                   0.00:  ELEVATION
 AZTC.deg                 6.27:  AZM TOTAL CORR
 GRDC.deg                 0.15:  GRID CORRECTION
 MDEC.deg                 6.42:  MAGNETIC DECL
 MDIP.deg                59.56:  MAGNETIC DIP
 MFLD.nT              50277.00:  MAGNETIC FIELD
 GVFD.g                   1.00:  GRAVITY FIELD
 VSDR.deg               148.53:  VERT SEC DIRECT
 TDD .m                3473.01:  TOTAL DEPTH (DRILLER)
 SDEP.m                 364.00:  START DEPTH
 DFSL.m                   0.00:  DISTANCE FSL
 DFWL.m                   0.00:  DISTANCE FWL
 UTMY.m             4443793.85:  UTM Y
 UTMX.m              519005.06:  UTM X
 WHEW.m                  -6.24:  WELL HEAD E/W
 WHNS.m                  10.28:  WELL HEAD N/S
 LONG.deg                51.22:  LONGITUDE
 LATI.deg                40.13:  LATITUDE
 TVDS.m                  43.00:  TVDSS CORRECTN
 EKB .m                   0.00:  KB ELEVATION
 EDF .m                  43.00:  DF ELEVATION
 TDL .m                 254.00:  TOTAL DEPTH (LOGGER)
 MAGU.                 1850021:  MAGUTM CHECKSUM
 VSC .                       0:  VS TO CLOSURE
~Parameter Information Block
#MNEM.UNIT       Value        Description
#---------     -----------    ---------------------------
 AV  .mps                 0.50:  Ann Velocity 
 AVMX.mps                 1.40:  Max Ann Veloc 
 AZIF.deg               144.94:  Azm, Final 
 BHAT.        Rotary Steerable:  BHA Type 
 BROT.∞/30m               0.23:  Build Rotating 
 BS  .in                  8.50:  Bit Size 
 BTPL.psig              264.00:  Bit Press Loss 
 CABU.                     Yes:  Customer Abuse 
 COMM.                     ÙP`:  Run Comments 1 
 TCS .hr                 87.30:  Time Ciculation Ended 
 CV  .mps                 2.45:  Crit Velocity 
 CVMX.mps                 2.74:  Max Crit Veloc 
 DD1 .             Aziz Aliyev:  Direct Drillr 1 
 DDSV.               Geo-Pilot:  DD Service 
 DEFF.%                 100.00:  % Det Eff 
 DLRX.∞/30m               1.22:  Dogleg Rot Max 
 DLSO.∞/30m               0.52:  Dogleg Oriented 
 DLSX.∞/30m               1.22:  Dogleg Str Max 
 DRET.      12.59.00 23-Feb-20:  Drill End Time 
 DRST.      09.44.00 18-Feb-20:  Drill Start Tim 
 DTIM.hr                 23.03:  Time Drilling 
 EDEP.m                3473.01:  End Depth 
 ENG1.         Almaz Almadatov:  Engineer 1 
 ENG2.         Dair Mahammadov:  Engineer 2 
 ENG3.          Nazrin Asgarli:  Engineer 3 
 ETIM.      10.33.36 26-Feb-20:  End Time 
 FLOI.gpm               480.00:  Flow In 
 FLON.gpm               300.00:  Flow In Min 
 FLOS.cptm                1.00:  Fluid Loss 
 FLOX.gpm               550.00:  Flow In Max 
 HFLO.                      No:  High Flow 
 HPRE.                      No:  High Pressure 
 HTEM.                      No:  High Temp 
 HYDO.m                   1.80:  Hydro Offset 
 IFIN.deg                74.42:  Inc, Final 
 IMAX.deg                76.14:  Inc Max 
 IMIN.deg                74.42:  Inc Min 
 IMND.m                3462.72:  Inc Min Depth 
 IMXD.m                3235.69:  Inc Max Depth 
 JARR.                      No:  Jarring 
 LETM.      12.59.00 23-Feb-20:  Log End Time 
 LOST.hr                     0:  Lost Rig Time 
 LSTM.      09.44.00 18-Feb-20:  Log Start Time 
 MDCL.ppm             45000.00:  Mud Chlorides 
 MDES.     Inversion Oil/Synthetic:  Mud Desc 
 DFD .sg                  1.38:  Mud Density 
 MDMN.sg                  1.34:  Dens Mud Min 
 MDMX.sg                  1.49:  Dens Mud Max 
 MOIL.                      67:  Run Mud Oil % 
 MOWR.                   67:33:  Run Mud OWR 
 MSND.                    0.12:  Run Mud Sand % 
 MSOL.                      22:  Run Mud Solids% 
 DFV .spqt               81.00:  Mud Viscosity 
 MWOD.in                  6.75:  MWD Tool OD 
 MWSI.                      No:  Serv Intrp, MWD 
 OTIM.hr                231.44:  Time Operating 
 PCON.          Wear / Scratch:  Pad Condition 
 PMAX.psia             3400.00:  Press Op, Max 
 PV  .cP                 55.00:  Mud PV 
 RUN .                     800:  Run Number 
 ROPA.m/hr               12.00:  ROP Avg 
 ROPN.m/hr                5.00:  ROP Min 
 ROPX.m/hr               28.00:  ROP Max 
 RPMA.rpm               120.00:  RPM Surface Avg 
 RPMN.rpm                40.00:  RPM Surface Min 
 RPMX.rpm               130.00:  RPM Surface Max 
 RRUN.                    0800:  Rig Run Number 
 RTIM.hr                 45.00:  Time Reaming 
 SAZI.deg               145.38:  Azm, Start 
 SDEP.m                3219.01:  Start Depth 
 SIDD.                      No:  Serv Intrp, DD 
 SINC.deg                75.11:  Inc, Start 
 SPPA.psig             2400.00:  SPP Avg 
 SPPN.psig             2320.00:  SPP Min 
 SPPX.psig             3200.00:  SPP Max 
 STIM.      15.15.00 17-Feb-20:  Start Time 
 SVCS.                 DD, MWD:  Services 
 SVER.                    9.20:  Sperry Version 
 TDAT.m                 254.00:  Tot Depth Attmp 
 TDDF.                      No:  Trip for DD 
 TDLG.m                 254.00:  Tot Depth Loggd 
 TFF .                      No:  Trip for Fail 
 TQAA.f-kp               13.00:  Torque Abs Avg 
 TQAN.f-kp                7.00:  Torque Abs Min 
 TQAX.f-kp               15.00:  Torque Abs Max 
 TRRT.∞/30m               0.21:  Turn Rotating 
 MRT .                  EWR-M5:  Maximum Recorded Temperature 
 TTMX.degC               64.00:  Max Tool Temp 
 VS01.                90586516:  Virtual Str1 SN 
 VS02.                90513691:  Virtual Str2 SN 
 VS03.                90586523:  Virtual Str3 SN 
 VS04.                90586520:  Virtual Str4 SN 
 VS05.                90590507:  Virtual Str5 SN 
 WBMN.klb                12.00:  WOB Min 
 WITN.           Rufat Babayev:  Customer Rep 2 
 WITN.         Alistair Sprott:  Customer Rep 
 WOBA.klb                18.00:  WOB Avg 
 WOBX.klb                30.00:  WOB Max 
 YP  .lhf2               41.00:  Yield Point 
~Curve Information Block
#MNEM.UNIT                 API CODE     Curve Description
#---------               -----------    ---------------------------
 TIME.HHMMSS            00 000 000 000:  GT Time & Date
 GTDEPTH.m              00 000 000 000:  GT Depth
 GTPQH.psia             00 000 000 000:  GT HR Quartz Pressure
 GTTQ.degC              00 000 000 000:  GT Quartz Temperature
 GTTN.NONE              00 000 000 000:  GT Test Number
 GTET.sec               00 000 000 000:  GT Elapsed Test Time
 GTTVD.m                00 000 000 000:  GT True Vertical Depth
#Other Information
#
#WARRANTY: Halliburton will use its best efforts to furnish customers with 
#accurate information and interpretations that are part of, and incident to, the services 
#provided.  However, Halliburton cannot and does not warrant the accuracy 
#or correctness of such information and interpretations.  Under no circumstances should any 
#such information or interpretation be relied upon as the sole basis for any drilling, 
#completion, production, or financial decision or any procedure involving any risk to the 
#safety of any drilling venture, drilling rig or its crew or any other third party.  The 
#Customer has full responsibility for all drilling, completion and production operation.  
#Halliburton makes no representations or warranties, either expressed or 
#implied, including, but not limited to, the implied warranties of merchantability or fitness 
#for a particular purpose, with respect to the services rendered.  In no event will 
#Halliburton be liable for failure to obtain any particular results or for 
#any damages, including, but not limited to, indirect, special or consequential damages, 
#resulting from the use of any information or interpretation provided by Halliburton.
#
~A           TIME           GTDEPTH  GTPQH  GTTQ  GTTN  GTET   GTTVD  
# ...
   00:28:54.694.24-Feb-2020 3430.51 4219.28 56.39 2.00 322.04 2723.35
   00:28:54.894.24-Feb-2020 3430.51 4219.28 56.39 2.00 322.24 2723.35
   00:28:55.094.24-Feb-2020 3430.51 4219.22 56.39 2.00 322.44 2723.35
   00:28:55.294.24-Feb-2020 3430.51 4219.08 56.39 2.00 322.64 2723.35
   00:28:55.494.24-Feb-2020 3430.51 4219.21 56.39 2.00 322.84 2723.35
   00:28:55.694.24-Feb-2020 3430.51 4219.21 56.39 2.00 323.04 2723.35
   00:28:55.894.24-Feb-2020 3430.51 4219.10 56.39 2.00 323.24 2723.35
   00:28:56.094.24-Feb-2020 3430.51 4219.05 56.39 2.00 323.44 2723.35
   00:28:56.294.24-Feb-2020 3430.51 4218.95 56.39 2.00 323.64 2723.35
   00:28:56.494.24-Feb-2020 3430.51 4219.04 56.39 2.00 323.84 2723.35
   00:28:56.694.24-Feb-2020 3430.51 4219.75 56.39 2.00 324.04 2723.35
   00:28:56.894.24-Feb-2020 3430.51 4219.75 56.39 2.00 324.24 2723.35
   00:28:57.094.24-Feb-2020 3430.51 4219.39 56.39 2.00 324.44 2723.35
   00:28:57.294.24-Feb-2020 3430.51 4219.42 56.39 2.00 324.64 2723.35
   00:28:57.494.24-Feb-2020 3430.51 4219.21 56.39 2.00 324.84 2723.35
   00:28:57.694.24-Feb-2020 3430.51 4219.28 56.39 2.00 325.04 2723.35
   00:28:57.894.24-Feb-2020 3430.51 4219.28 56.39 2.00 325.24 2723.35
   00:28:58.094.24-Feb-2020 3430.51 4219.24 56.39 2.00 325.44 2723.35
   00:28:58.294.24-Feb-2020 3430.51 4219.33 56.39 2.00 325.64 2723.35
   00:28:58.494.24-Feb-2020 3430.51 4219.13 56.39 2.00 325.84 2723.35
   00:28:58.694.24-Feb-2020 3430.51 4218.97 56.39 2.00 326.04 2723.35
   00:28:58.894.24-Feb-2020 3430.51 4218.97 56.39 2.00 326.24 2723.35
   00:28:59.094.24-Feb-2020 3430.51 4219.14 56.39 2.00 326.44 2723.35
   00:28:59.294.24-Feb-2020 3430.51 4219.07 56.39 2.00 326.64 2723.35
   00:28:59.494.24-Feb-2020 3430.51 4219.21 56.39 2.00 326.84 2723.35
   00:28:59.694.24-Feb-2020 3430.51 4219.18 56.39 2.00 327.04 2723.35
   00:28:59.894.24-Feb-2020 3430.51 4219.18 56.39 2.00 327.24 2723.35
   00:29:00.094.24-Feb-2020 3430.51 4219.17 56.39 2.00 327.44 2723.35
   00:29:00.294.24-Feb-2020 3430.51 4218.92 56.39 2.00 327.64 2723.35
   00:29:00.494.24-Feb-2020 3430.51 4219.65 56.39 2.00 327.84 2723.35
   00:29:00.694.24-Feb-2020 3430.51 4218.83 56.39 2.00 328.04 2723.35
   00:29:00.894.24-Feb-2020 3430.51 4218.83 56.39 2.00 328.24 2723.35
   00:29:01.094.24-Feb-2020 3430.51 4219.68 56.39 2.00 328.44 2723.35
   00:29:01.294.24-Feb-2020 3430.51 4218.67 56.39 2.00 328.64 2723.35
   00:29:01.495.24-Feb-2020 3430.51 4219.20 56.39 2.00 328.84 2723.35
   00:29:01.695.24-Feb-2020 3430.51 4218.86 56.39 2.00 329.04 2723.35
   00:29:01.895.24-Feb-2020 3430.51 4218.86 56.39 2.00 329.24 2723.35
   00:29:02.095.24-Feb-2020 3430.51 4219.41 56.39 2.00 329.44 2723.35
   00:29:02.295.24-Feb-2020 3430.51 4218.53 56.39 2.00 329.64 2723.35
   00:29:02.495.24-Feb-2020 3430.51 4219.27 56.39 2.00 329.84 2723.35
   00:29:02.695.24-Feb-2020 3430.51 4219.13 56.39 2.00 330.04 2723.35
   00:29:02.895.24-Feb-2020 3430.51 4219.13 56.39 2.00 330.24 2723.35
   00:29:03.095.24-Feb-2020 3430.51 4218.77 56.39 2.00 330.44 2723.35
   00:29:03.295.24-Feb-2020 3430.51 4219.10 56.39 2.00 330.64 2723.35
   00:29:03.495.24-Feb-2020 3430.51 4219.28 56.39 2.00 330.84 2723.35
   00:29:03.695.24-Feb-2020 3430.51 4218.87 56.39 2.00 331.04 2723.35
   00:29:03.895.24-Feb-2020 3430.51 4218.87 56.39 2.00 331.24 2723.35
   00:29:04.095.24-Feb-2020 3430.51 4219.46 56.39 2.00 331.44 2723.35
   00:29:04.295.24-Feb-2020 3430.51 4219.91 56.39 2.00 331.64 2723.35
   00:29:04.495.24-Feb-2020 3430.51 4219.13 56.39 2.00 331.84 2723.35
   00:29:04.695.24-Feb-2020 3430.51 4219.27 56.39 2.00 332.04 2723.35
   00:29:04.895.24-Feb-2020 3430.51 4219.27 56.39 2.00 332.24 2723.35
   00:29:05.095.24-Feb-2020 3430.51 4219.27 56.39 2.00 332.44 2723.35
   00:29:05.295.24-Feb-2020 3430.51 4219.28 56.39 2.00 332.64 2723.35
   00:29:05.495.24-Feb-2020 3430.51 4219.19 56.39 2.00 332.84 2723.35
   00:29:05.695.24-Feb-2020 3430.51 4219.30 56.39 2.00 333.04 2723.35
   00:29:05.895.24-Feb-2020 3430.51 4219.30 56.39 2.00 333.24 2723.35
   00:29:06.095.24-Feb-2020 3430.51 4219.34 56.39 2.00 333.44 2723.35
   00:29:06.295.24-Feb-2020 3430.51 4219.31 56.39 2.00 333.64 2723.35
   00:29:06.495.24-Feb-2020 3430.51 4218.99 56.39 2.00 333.84 2723.35
   00:29:06.695.24-Feb-2020 3430.51 4219.02 56.39 2.00 334.04 2723.35
   00:29:06.895.24-Feb-2020 3430.51 4219.02 56.39 2.00 334.24 2723.35
   00:29:07.095.24-Feb-2020 3430.51 4218.79 56.39 2.00 334.44 2723.35
   00:29:07.295.24-Feb-2020 3430.51 4219.07 56.39 2.00 334.64 2723.35
   00:29:07.495.24-Feb-2020 3430.51 4218.62 56.39 2.00 334.84 2723.35
   00:29:07.695.24-Feb-2020 3430.51 4219.12 56.39 2.00 335.04 2723.35
   00:29:07.895.24-Feb-2020 3430.51 4219.12 56.39 2.00 335.24 2723.35
   00:29:08.095.24-Feb-2020 3430.51 4219.17 56.39 2.00 335.44 2723.35
   00:29:08.295.24-Feb-2020 3430.51 4219.38 56.39 2.00 335.64 2723.35
   00:29:08.495.24-Feb-2020 3430.51 4219.38 56.39 2.00 335.84 2723.35
   00:29:08.695.24-Feb-2020 3430.51 4219.36 56.39 2.00 336.04 2723.35
   00:29:08.895.24-Feb-2020 3430.51 4219.36 56.39 2.00 336.24 2723.35
   00:29:09.095.24-Feb-2020 3430.51 4219.11 56.39 2.00 336.44 2723.35
   00:29:09.295.24-Feb-2020 3430.51 4219.21 56.39 2.00 336.64 2723.35
   00:29:09.495.24-Feb-2020 3430.51 4219.23 56.39 2.00 336.84 2723.35
   00:29:09.695.24-Feb-2020 3430.51 4219.33 56.39 2.00 337.04 2723.35
   00:29:09.895.24-Feb-2020 3430.51 4219.33 56.39 2.00 337.24 2723.35
   00:29:10.096.24-Feb-2020 3430.51 4218.89 56.39 2.00 337.44 2723.35
   00:29:10.296.24-Feb-2020 3430.51 4218.37 56.39 2.00 337.64 2723.35
   00:29:10.496.24-Feb-2020 3430.51 4219.38 56.39 2.00 337.84 2723.35
   00:29:10.696.24-Feb-2020 3430.51 4219.82 56.39 2.00 338.04 2723.35
   00:29:10.896.24-Feb-2020 3430.51 4219.82 56.39 2.00 338.24 2723.35
   00:29:11.096.24-Feb-2020 3430.51 4218.75 56.39 2.00 338.44 2723.35
   00:29:11.296.24-Feb-2020 3430.51 4219.44 56.39 2.00 338.64 2723.35
   00:29:11.496.24-Feb-2020 3430.51 4219.07 56.39 2.00 338.84 2723.35
   00:29:11.696.24-Feb-2020 3430.51 4219.62 56.39 2.00 339.04 2723.35
   00:29:11.896.24-Feb-2020 3430.51 4219.62 56.39 2.00 339.24 2723.35
   00:29:12.096.24-Feb-2020 3430.51 4219.27 56.39 2.00 339.44 2723.35
   00:29:12.296.24-Feb-2020 3430.51 4219.30 56.39 2.00 339.64 2723.35
   00:29:12.496.24-Feb-2020 3430.51 4218.90 56.39 2.00 339.84 2723.35
   00:29:12.696.24-Feb-2020 3430.51 4218.57 56.39 2.00 340.04 2723.35
   00:29:12.896.24-Feb-2020 3430.51 4218.57 56.39 2.00 340.24 2723.35
   00:29:13.096.24-Feb-2020 3430.51 4219.93 56.39 2.00 340.44 2723.35
   00:29:13.296.24-Feb-2020 3430.51 4219.02 56.39 2.00 340.64 2723.35
   00:29:13.496.24-Feb-2020 3430.51 4219.09 56.39 2.00 340.84 2723.35
   00:29:13.696.24-Feb-2020 3430.51 4219.25 56.39 2.00 341.04 2723.35
   00:29:13.896.24-Feb-2020 3430.51 4219.25 56.39 2.00 341.24 2723.35
   00:29:14.096.24-Feb-2020 3430.51 4218.02 56.39 2.00 341.44 2723.35
   00:29:14.296.24-Feb-2020 3430.51 4219.54 56.39 2.00 341.64 2723.35
   00:29:14.496.24-Feb-2020 3430.51 4219.80 56.39 2.00 341.84 2723.35
   00:29:14.696.24-Feb-2020 3430.51 4219.36 56.39 2.00 342.04 2723.35
   00:29:14.896.24-Feb-2020 3430.51 4219.36 56.39 2.00 342.24 2723.35
   00:29:15.096.24-Feb-2020 3430.51 4219.16 56.39 2.00 342.44 2723.35
   00:29:15.296.24-Feb-2020 3430.51 4219.18 56.39 2.00 342.64 2723.35
   00:29:15.496.24-Feb-2020 3430.51 4219.19 56.39 2.00 342.84 2723.35
   00:29:15.696.24-Feb-2020 3430.51 4219.31 56.39 2.00 343.04 2723.35
   00:29:15.896.24-Feb-2020 3430.51 4219.31 56.39 2.00 343.24 2723.35
   00:29:16.096.24-Feb-2020 3430.51 4219.42 56.39 2.00 343.44 2723.35
   00:29:16.296.24-Feb-2020 3430.51 4219.36 56.39 2.00 343.64 2723.35
   00:29:16.496.24-Feb-2020 3430.51 4219.17 56.39 2.00 343.84 2723.35
   00:29:16.696.24-Feb-2020 3430.51 4218.94 56.39 2.00 344.04 2723.35
   00:29:16.896.24-Feb-2020 3430.51 4218.94 56.39 2.00 344.24 2723.35
   00:29:17.096.24-Feb-2020 3430.51 4219.73 56.39 2.00 344.44 2723.35
   00:29:17.296.24-Feb-2020 3430.51 4219.27 56.39 2.00 344.64 2723.35
   00:29:17.496.24-Feb-2020 3430.51 4219.73 56.39 2.00 344.84 2723.35
