~Version Information
 VERS.                  2.0:   CWLS log ASCII Standard -VERSION 2.0
 WRAP.                   NO:   One line per depth step
~Well Information Block
#MNEM.UNIT     VALUE/NAME     DESCRIPTION
#---------     -----------    ---------------------------
 STRT.S             23:48:42 23-Feb-20: START TIME 23:48:42 23-Feb-20
 STOP.S             23:55:42 23-Feb-20: STOP TIME  23:55:42 23-Feb-20
 STEP.S                   0.00: STEP TIME
 NULL.                 -999.25: NULL VALUE
 JOBN.        AZ-XX-0905059384:  JOB TICKET NUMB
 PDAT.          Mean Sea Level:  PERMANENT DATUM
 UNIT.                     N/A:  LOGGING EQUIPMENT ID
 DCON.         Sperry Drilling:  DIRECTNL CONTR
 DOE .                     N/A:  DOE NUMBER
 RIG .             West Chirag:  RIG NAME
 WELL.                     J22:  WELL NAME
 MWDS.                    Baku:  MWD SHOP
 SRVC.     TURAN Drilling & Engineering:  CONTRACTOR
 FLD .                     ACG:  FIELD NAME
 CTRY.              Azerbaijan:  COUNTRY NAME
 PROV.                    Baku:  PROVINCE
 STAT.                    Baku:  STATE NAME
 REGN.                   EESSA:  REGION
 BASE.              Azerbaijan:  LOGGING EQUIPMENT BASE LOCATION
 UWI .                     N/A:  UNIQUE WELL IDENTIFIER
 API .                     N/A:  API NUMBER
 COMP.     BP Exploration (Caspian Sea) Ltd.:  COMPANY
 WTYP.                Deviated:  WELL TYPE
 MDS .        Operator Entered:  MAG DATA SOURCE
 SON .        AZ-XX-0905059384:  JOB NUMBER
 FTOP.          Formation Tops:  FORM TOPS DESC
 ILTD.               Lithology:  INTERP LTH DESC
 SVYD.                  Survey:  SURVEY DESC
 DMOD.             Drill Model:  DRILL MOD DESC
 HPTY.       Minimum Curvature:  HOLE POS TYPE
 NREF.                    Grid:  NORTH REFERENCE
 SPUD.               09-Jan-20:  SPUD DATE
 DATE.      14.04.48 07-Feb-20:  END TIME
 STIM.      07.00.00 09-Jan-20:  START TIME
 DMF .             Drill Floor:  DRILL MEAS FROM
 DFST.                        :  DIST FSL TEXT
 DFWT.                        :  DIST FWL TEXT
 CNTY.                        :  COUNTY
 LOC .                        :  LOCATION
 LMF .             Drill Floor:  LOG MEASURED FROM
 DEP .m                   0.00:  DEPTH
 VSNS.m                  10.28:  VERT SEC N/S
 VSEW.m                  -6.24:  VERT SEC E/W
 AGAP.m                  43.00:  AIR GAP
 APD .m                  43.00:  DEPTH ABOVE PD
 WDMS.m                 169.80:  WD ELEV
 EGL .m                   0.00:  GROUND ELEVATION
 EPD .m                   0.00:  ELEVATION
 AZTC.deg                 6.27:  AZM TOTAL CORR
 GRDC.deg                 0.15:  GRID CORRECTION
 MDEC.deg                 6.42:  MAGNETIC DECL
 MDIP.deg                59.56:  MAGNETIC DIP
 MFLD.nT              50277.00:  MAGNETIC FIELD
 GVFD.g                   1.00:  GRAVITY FIELD
 VSDR.deg               148.53:  VERT SEC DIRECT
 TDD .m                3473.01:  TOTAL DEPTH (DRILLER)
 SDEP.m                 364.00:  START DEPTH
 DFSL.m                   0.00:  DISTANCE FSL
 DFWL.m                   0.00:  DISTANCE FWL
 UTMY.m             4443793.85:  UTM Y
 UTMX.m              519005.06:  UTM X
 WHEW.m                  -6.24:  WELL HEAD E/W
 WHNS.m                  10.28:  WELL HEAD N/S
 LONG.deg                51.22:  LONGITUDE
 LATI.deg                40.13:  LATITUDE
 TVDS.m                  43.00:  TVDSS CORRECTN
 EKB .m                   0.00:  KB ELEVATION
 EDF .m                  43.00:  DF ELEVATION
 TDL .m                 254.00:  TOTAL DEPTH (LOGGER)
 MAGU.                 1850021:  MAGUTM CHECKSUM
 VSC .                       0:  VS TO CLOSURE
~Parameter Information Block
#MNEM.UNIT       Value        Description
#---------     -----------    ---------------------------
 AV  .mps                 0.50:  Ann Velocity 
 AVMX.mps                 1.40:  Max Ann Veloc 
 AZIF.deg               144.94:  Azm, Final 
 BHAT.        Rotary Steerable:  BHA Type 
 BROT.°/30m               0.23:  Build Rotating 
 BS  .in                  8.50:  Bit Size 
 BTPL.psig              264.00:  Bit Press Loss 
 CABU.                     Yes:  Customer Abuse 
 COMM.                     ¼ýd:  Run Comments 1 
 TCS .hr                 87.30:  Time Ciculation Ended 
 CV  .mps                 2.45:  Crit Velocity 
 CVMX.mps                 2.74:  Max Crit Veloc 
 DD1 .             Aziz Aliyev:  Direct Drillr 1 
 DDSV.               Geo-Pilot:  DD Service 
 DEFF.%                 100.00:  % Det Eff 
 DLRX.°/30m               1.22:  Dogleg Rot Max 
 DLSO.°/30m               0.52:  Dogleg Oriented 
 DLSX.°/30m               1.22:  Dogleg Str Max 
 DRET.      12.59.00 23-Feb-20:  Drill End Time 
 DRST.      09.44.00 18-Feb-20:  Drill Start Tim 
 DTIM.hr                 23.03:  Time Drilling 
 EDEP.m                3473.01:  End Depth 
 ENG1.         Almaz Almadatov:  Engineer 1 
 ENG2.         Dair Mahammadov:  Engineer 2 
 ENG3.          Nazrin Asgarli:  Engineer 3 
 ETIM.      10.33.36 26-Feb-20:  End Time 
 FLOI.gpm               480.00:  Flow In 
 FLON.gpm               300.00:  Flow In Min 
 FLOS.cptm                1.00:  Fluid Loss 
 FLOX.gpm               550.00:  Flow In Max 
 HFLO.                      No:  High Flow 
 HPRE.                      No:  High Pressure 
 HTEM.                      No:  High Temp 
 HYDO.m                   1.80:  Hydro Offset 
 IFIN.deg                74.42:  Inc, Final 
 IMAX.deg                76.14:  Inc Max 
 IMIN.deg                74.42:  Inc Min 
 IMND.m                3462.72:  Inc Min Depth 
 IMXD.m                3235.69:  Inc Max Depth 
 JARR.                      No:  Jarring 
 LETM.      12.59.00 23-Feb-20:  Log End Time 
 LOST.hr                     0:  Lost Rig Time 
 LSTM.      09.44.00 18-Feb-20:  Log Start Time 
 MDCL.ppm             45000.00:  Mud Chlorides 
 MDES.     Inversion Oil/Synthetic:  Mud Desc 
 DFD .sg                  1.38:  Mud Density 
 MDMN.sg                  1.34:  Dens Mud Min 
 MDMX.sg                  1.49:  Dens Mud Max 
 MOIL.                      67:  Run Mud Oil % 
 MOWR.                   67:33:  Run Mud OWR 
 MSND.                    0.12:  Run Mud Sand % 
 MSOL.                      22:  Run Mud Solids% 
 DFV .spqt               81.00:  Mud Viscosity 
 MWOD.in                  6.75:  MWD Tool OD 
 MWSI.                      No:  Serv Intrp, MWD 
 OTIM.hr                231.44:  Time Operating 
 PCON.          Wear / Scratch:  Pad Condition 
 PMAX.psia             3400.00:  Press Op, Max 
 PV  .cP                 55.00:  Mud PV 
 RUN .                     800:  Run Number 
 ROPA.m/hr               12.00:  ROP Avg 
 ROPN.m/hr                5.00:  ROP Min 
 ROPX.m/hr               28.00:  ROP Max 
 RPMA.rpm               120.00:  RPM Surface Avg 
 RPMN.rpm                40.00:  RPM Surface Min 
 RPMX.rpm               130.00:  RPM Surface Max 
 RRUN.                    0800:  Rig Run Number 
 RTIM.hr                 45.00:  Time Reaming 
 SAZI.deg               145.38:  Azm, Start 
 SDEP.m                3219.01:  Start Depth 
 SIDD.                      No:  Serv Intrp, DD 
 SINC.deg                75.11:  Inc, Start 
 SPPA.psig             2400.00:  SPP Avg 
 SPPN.psig             2320.00:  SPP Min 
 SPPX.psig             3200.00:  SPP Max 
 STIM.      15.15.00 17-Feb-20:  Start Time 
 SVCS.                 DD, MWD:  Services 
 SVER.                    9.20:  Sperry Version 
 TDAT.m                 254.00:  Tot Depth Attmp 
 TDDF.                      No:  Trip for DD 
 TDLG.m                 254.00:  Tot Depth Loggd 
 TFF .                      No:  Trip for Fail 
 TQAA.f-kp               13.00:  Torque Abs Avg 
 TQAN.f-kp                7.00:  Torque Abs Min 
 TQAX.f-kp               15.00:  Torque Abs Max 
 TRRT.°/30m               0.21:  Turn Rotating 
 MRT .                  EWR-M5:  Maximum Recorded Temperature 
 TTMX.degC               64.00:  Max Tool Temp 
 VS01.                90586516:  Virtual Str1 SN 
 VS02.                90513691:  Virtual Str2 SN 
 VS03.                90586523:  Virtual Str3 SN 
 VS04.                90586520:  Virtual Str4 SN 
 VS05.                90590507:  Virtual Str5 SN 
 WBMN.klb                12.00:  WOB Min 
 WITN.           Rufat Babayev:  Customer Rep 2 
 WITN.         Alistair Sprott:  Customer Rep 
 WOBA.klb                18.00:  WOB Avg 
 WOBX.klb                30.00:  WOB Max 
 YP  .lhf2               41.00:  Yield Point 
~Curve Information Block
#MNEM.UNIT                 API CODE     Curve Description
#---------               -----------    ---------------------------
 TIME.HHMMSS            00 000 000 000:  GT Time & Date
 GTDEPTH.m              00 000 000 000:  GT Depth
 GTPQH.psia             00 000 000 000:  GT HR Quartz Pressure
 GTTQ.degC              00 000 000 000:  GT Quartz Temperature
 GTTN.NONE              00 000 000 000:  GT Test Number
 GTET.sec               00 000 000 000:  GT Elapsed Test Time
 GTTVD.m                00 000 000 000:  GT True Vertical Depth
#Other Information
#
#WARRANTY: Halliburton will use its best efforts to furnish customers with 
#accurate information and interpretations that are part of, and incident to, the services 
#provided.  However, Halliburton cannot and does not warrant the accuracy 
#or correctness of such information and interpretations.  Under no circumstances should any 
#such information or interpretation be relied upon as the sole basis for any drilling, 
#completion, production, or financial decision or any procedure involving any risk to the 
#safety of any drilling venture, drilling rig or its crew or any other third party.  The 
#Customer has full responsibility for all drilling, completion and production operation.  
#Halliburton makes no representations or warranties, either expressed or 
#implied, including, but not limited to, the implied warranties of merchantability or fitness 
#for a particular purpose, with respect to the services rendered.  In no event will 
#Halliburton be liable for failure to obtain any particular results or for 
#any damages, including, but not limited to, indirect, special or consequential damages, 
#resulting from the use of any information or interpretation provided by Halliburton.
#
~A           TIME           GTDEPTH  GTPQH  GTTQ  GTTN  GTET   GTTVD  
# ...
   23:49:51.424.23-Feb-2020 3441.51 4209.81 56.59 1.00  69.01 2726.26
   23:49:51.624.23-Feb-2020 3441.51 4209.81 56.59 1.00  69.21 2726.26
   23:49:51.824.23-Feb-2020 3441.51 4209.46 56.59 1.00  69.41 2726.26
   23:49:52.024.23-Feb-2020 3441.51 4209.20 56.59 1.00  69.61 2726.26
   23:49:52.224.23-Feb-2020 3441.51 4209.57 56.59 1.00  69.81 2726.26
   23:49:52.424.23-Feb-2020 3441.51 4209.06 56.59 1.00  70.01 2726.26
   23:49:52.624.23-Feb-2020 3441.51 4209.06 56.59 1.00  70.21 2726.26
   23:49:52.824.23-Feb-2020 3441.51 4209.20 56.59 1.00  70.41 2726.26
   23:49:53.024.23-Feb-2020 3441.51 4209.38 56.59 1.00  70.61 2726.26
   23:49:53.224.23-Feb-2020 3441.51 4209.35 56.59 1.00  70.81 2726.26
   23:49:53.424.23-Feb-2020 3441.51 4209.30 56.59 1.00  71.01 2726.26
   23:49:53.624.23-Feb-2020 3441.51 4209.30 56.59 1.00  71.21 2726.26
   23:49:53.824.23-Feb-2020 3441.51 4209.19 56.59 1.00  71.41 2726.26
   23:49:54.024.23-Feb-2020 3441.51 4209.61 56.59 1.00  71.61 2726.26
   23:49:54.224.23-Feb-2020 3441.51 4209.01 56.59 1.00  71.81 2726.26
   23:49:54.424.23-Feb-2020 3441.51 4209.86 56.59 1.00  72.01 2726.26
   23:49:54.624.23-Feb-2020 3441.51 4209.86 56.59 1.00  72.21 2726.26
   23:49:54.825.23-Feb-2020 3441.51 4209.46 56.59 1.00  72.41 2726.26
   23:49:55.025.23-Feb-2020 3441.51 4209.21 56.59 1.00  72.61 2726.26
   23:49:55.225.23-Feb-2020 3441.51 4209.42 56.59 1.00  72.81 2726.26
   23:49:55.425.23-Feb-2020 3441.51 4209.27 56.59 1.00  73.01 2726.26
   23:49:55.625.23-Feb-2020 3441.51 4209.36 56.59 1.00  73.21 2726.26
   23:49:55.825.23-Feb-2020 3441.51 4209.33 56.59 1.00  73.41 2726.26
   23:49:56.025.23-Feb-2020 3441.51 4209.32 56.59 1.00  73.61 2726.26
   23:49:56.225.23-Feb-2020 3441.51 4209.35 56.59 1.00  73.81 2726.26
   23:49:56.425.23-Feb-2020 3441.51 4209.35 56.59 1.00  74.01 2726.26
   23:49:56.625.23-Feb-2020 3441.51 4209.32 56.59 1.00  74.21 2726.26
   23:49:56.825.23-Feb-2020 3441.51 4209.34 56.59 1.00  74.41 2726.26
   23:49:57.025.23-Feb-2020 3441.51 4209.35 56.59 1.00  74.61 2726.26
   23:49:57.225.23-Feb-2020 3441.51 4209.35 56.59 1.00  74.81 2726.26
   23:49:57.425.23-Feb-2020 3441.51 4209.47 56.59 1.00  75.01 2726.26
   23:49:57.625.23-Feb-2020 3441.51 4209.12 56.59 1.00  75.21 2726.26
   23:49:57.825.23-Feb-2020 3441.51 4209.67 56.59 1.00  75.41 2726.26
   23:49:58.025.23-Feb-2020 3441.51 4209.27 56.59 1.00  75.61 2726.26
   23:49:58.225.23-Feb-2020 3441.51 4209.41 56.59 1.00  75.81 2726.26
   23:49:58.425.23-Feb-2020 3441.51 4209.33 56.59 1.00  76.01 2726.26
   23:49:58.625.23-Feb-2020 3441.51 4209.33 56.59 1.00  76.21 2726.26
   23:49:58.825.23-Feb-2020 3441.51 4209.35 56.59 1.00  76.41 2726.26
   23:49:59.025.23-Feb-2020 3441.51 4209.35 56.59 1.00  76.61 2726.26
   23:49:59.225.23-Feb-2020 3441.51 4209.33 56.59 1.00  76.81 2726.26
   23:49:59.425.23-Feb-2020 3441.51 4209.38 56.59 1.00  77.01 2726.26
   23:49:59.625.23-Feb-2020 3441.51 4209.38 56.59 1.00  77.21 2726.26
   23:49:59.825.23-Feb-2020 3441.51 4209.33 56.59 1.00  77.41 2726.26
   23:50:00.025.23-Feb-2020 3441.51 4209.32 56.59 1.00  77.61 2726.26
   23:50:00.225.23-Feb-2020 3441.51 4209.38 56.59 1.00  77.81 2726.26
   23:50:00.425.23-Feb-2020 3441.51 4209.35 56.59 1.00  78.01 2726.26
   23:50:00.625.23-Feb-2020 3441.51 4209.35 56.59 1.00  78.21 2726.26
   23:50:00.825.23-Feb-2020 3441.51 4209.76 56.59 1.00  78.41 2726.26
   23:50:01.025.23-Feb-2020 3441.51 4209.20 56.59 1.00  78.61 2726.26
   23:50:01.225.23-Feb-2020 3441.51 4209.46 56.59 1.00  78.81 2726.26
   23:50:01.425.23-Feb-2020 3441.51 4209.23 56.59 1.00  79.01 2726.26
   23:50:01.625.23-Feb-2020 3441.51 4209.23 56.59 1.00  79.21 2726.26
   23:50:01.825.23-Feb-2020 3441.51 4209.03 56.59 1.00  79.41 2726.26
   23:50:02.025.23-Feb-2020 3441.51 4209.77 56.59 1.00  79.61 2726.26
   23:50:02.225.23-Feb-2020 3441.51 4209.21 56.59 1.00  79.81 2726.26
   23:50:02.425.23-Feb-2020 3441.51 4209.39 56.59 1.00  80.01 2726.26
   23:50:02.625.23-Feb-2020 3441.51 4209.39 56.59 1.00  80.21 2726.26
   23:50:02.825.23-Feb-2020 3441.51 4209.32 56.59 1.00  80.41 2726.26
   23:50:03.025.23-Feb-2020 3441.51 4209.60 56.59 1.00  80.61 2726.26
   23:50:03.225.23-Feb-2020 3441.51 4209.18 56.59 1.00  80.81 2726.26
   23:50:03.425.23-Feb-2020 3441.51 4209.62 56.59 1.00  81.01 2726.26
   23:50:03.626.23-Feb-2020 3441.51 4209.62 56.59 1.00  81.21 2726.26
   23:50:03.826.23-Feb-2020 3441.51 4209.83 56.59 1.00  81.41 2726.26
   23:50:04.026.23-Feb-2020 3441.51 4209.12 56.59 1.00  81.61 2726.26
   23:50:04.226.23-Feb-2020 3441.51 4209.46 56.59 1.00  81.81 2726.26
   23:50:04.426.23-Feb-2020 3441.51 4209.23 56.59 1.00  82.01 2726.26
   23:50:04.626.23-Feb-2020 3441.51 4209.23 56.59 1.00  82.21 2726.26
   23:50:04.826.23-Feb-2020 3441.51 4209.29 56.59 1.00  82.41 2726.26
   23:50:05.026.23-Feb-2020 3441.51 4209.37 56.59 1.00  82.61 2726.26
   23:50:05.226.23-Feb-2020 3441.51 4209.36 56.59 1.00  82.81 2726.26
   23:50:05.426.23-Feb-2020 3441.51 4209.34 56.59 1.00  83.01 2726.26
   23:50:05.626.23-Feb-2020 3441.51 4209.34 56.59 1.00  83.21 2726.26
   23:50:05.826.23-Feb-2020 3441.51 4209.36 56.59 1.00  83.41 2726.26
   23:50:06.026.23-Feb-2020 3441.51 4209.34 56.59 1.00  83.61 2726.26
   23:50:06.226.23-Feb-2020 3441.51 4209.36 56.59 1.00  83.81 2726.26
   23:50:06.426.23-Feb-2020 3441.51 4209.37 56.59 1.00  84.01 2726.26
   23:50:06.626.23-Feb-2020 3441.51 4209.37 56.59 1.00  84.21 2726.26
   23:50:06.826.23-Feb-2020 3441.51 4209.47 56.59 1.00  84.41 2726.26
   23:50:07.026.23-Feb-2020 3441.51 4209.18 56.59 1.00  84.61 2726.26
   23:50:07.226.23-Feb-2020 3441.51 4209.67 56.59 1.00  84.81 2726.26
   23:50:07.426.23-Feb-2020 3441.51 4209.28 56.59 1.00  85.01 2726.26
   23:50:07.626.23-Feb-2020 3441.51 4209.28 56.59 1.00  85.21 2726.26
   23:50:07.826.23-Feb-2020 3441.51 4209.34 56.59 1.00  85.41 2726.26
   23:50:08.026.23-Feb-2020 3441.51 4209.32 56.59 1.00  85.61 2726.26
   23:50:08.226.23-Feb-2020 3441.51 4209.36 56.59 1.00  85.81 2726.26
   23:50:08.426.23-Feb-2020 3441.51 4209.36 56.59 1.00  86.01 2726.26
   23:50:08.626.23-Feb-2020 3441.51 4209.36 56.59 1.00  86.21 2726.26
   23:50:08.826.23-Feb-2020 3441.51 4209.39 56.59 1.00  86.41 2726.26
   23:50:09.026.23-Feb-2020 3441.51 4209.36 56.59 1.00  86.61 2726.26
   23:50:09.226.23-Feb-2020 3441.51 4209.35 56.59 1.00  86.81 2726.26
   23:50:09.426.23-Feb-2020 3441.51 4209.33 56.59 1.00  87.01 2726.26
   23:50:09.626.23-Feb-2020 3441.51 4209.33 56.59 1.00  87.21 2726.26
   23:50:09.826.23-Feb-2020 3441.51 4209.35 56.59 1.00  87.41 2726.26
   23:50:10.026.23-Feb-2020 3441.51 4209.25 56.59 1.00  87.61 2726.26
   23:50:10.226.23-Feb-2020 3441.51 4209.72 56.59 1.00  87.81 2726.26
   23:50:10.426.23-Feb-2020 3441.51 4209.19 56.59 1.00  88.01 2726.26
   23:50:10.626.23-Feb-2020 3441.51 4209.19 56.59 1.00  88.21 2726.26
   23:50:10.826.23-Feb-2020 3441.51 4209.24 56.59 1.00  88.41 2726.26
   23:50:11.026.23-Feb-2020 3441.51 4209.55 56.59 1.00  88.61 2726.26
   23:50:11.226.23-Feb-2020 3441.51 4209.01 56.59 1.00  88.81 2726.26
   23:50:11.426.23-Feb-2020 3441.51 4209.86 56.59 1.00  89.01 2726.26
   23:50:11.626.23-Feb-2020 3441.51 4209.86 56.59 1.00  89.21 2726.26
   23:50:11.826.23-Feb-2020 3441.51 4209.39 56.59 1.00  89.41 2726.26
   23:50:12.026.23-Feb-2020 3441.51 4209.38 56.59 1.00  89.61 2726.26
   23:50:12.227.23-Feb-2020 3441.51 4209.33 56.59 1.00  89.81 2726.26
   23:50:12.427.23-Feb-2020 3441.51 4209.60 56.59 1.00  90.01 2726.26
   23:50:12.627.23-Feb-2020 3441.51 4209.60 56.59 1.00  90.21 2726.26
   23:50:12.827.23-Feb-2020 3441.51 4209.61 56.59 1.00  90.41 2726.26
   23:50:13.027.23-Feb-2020 3441.51 4209.02 56.59 1.00  90.61 2726.26
   23:50:13.227.23-Feb-2020 3441.51 4209.82 56.59 1.00  90.81 2726.26
   23:50:13.427.23-Feb-2020 3441.51 4209.11 56.59 1.00  91.01 2726.26
   23:50:13.627.23-Feb-2020 3441.51 4209.11 56.59 1.00  91.21 2726.26
   23:50:13.827.23-Feb-2020 3441.51 4209.22 56.59 1.00  91.41 2726.26
   23:50:14.027.23-Feb-2020 3441.51 4209.45 56.59 1.00  91.61 2726.26
   23:50:14.227.23-Feb-2020 3441.51 4209.29 56.59 1.00  91.81 2726.26
