~Version Information
 VERS.                  2.0:   CWLS log ASCII Standard -VERSION 2.0
 WRAP.                   NO:   One line per depth step
~Well Information Block
#MNEM.UNIT     VALUE/NAME     DESCRIPTION
#---------     -----------    ---------------------------
 STRT.S             05:02:14 24-Feb-20: START TIME 05:02:14 24-Feb-20
 STOP.S             05:09:32 24-Feb-20: STOP TIME  05:09:32 24-Feb-20
 STEP.S                   0.00: STEP TIME
 NULL.                 -999.25: NULL VALUE
 JOBN.        AZ-XX-0905059384:  JOB TICKET NUMB
 PDAT.          Mean Sea Level:  PERMANENT DATUM
 UNIT.                     N/A:  LOGGING EQUIPMENT ID
 DCON.         Sperry Drilling:  DIRECTNL CONTR
 DOE .                     N/A:  DOE NUMBER
 RIG .             West Chirag:  RIG NAME
 WELL.                     J22:  WELL NAME
 MWDS.                    Baku:  MWD SHOP
 SRVC.     TURAN Drilling & Engineering:  CONTRACTOR
 FLD .                     ACG:  FIELD NAME
 CTRY.              Azerbaijan:  COUNTRY NAME
 PROV.                    Baku:  PROVINCE
 STAT.                    Baku:  STATE NAME
 REGN.                   EESSA:  REGION
 BASE.              Azerbaijan:  LOGGING EQUIPMENT BASE LOCATION
 UWI .                     N/A:  UNIQUE WELL IDENTIFIER
 API .                     N/A:  API NUMBER
 COMP.     BP Exploration (Caspian Sea) Ltd.:  COMPANY
 WTYP.                Deviated:  WELL TYPE
 MDS .        Operator Entered:  MAG DATA SOURCE
 SON .        AZ-XX-0905059384:  JOB NUMBER
 FTOP.          Formation Tops:  FORM TOPS DESC
 ILTD.               Lithology:  INTERP LTH DESC
 SVYD.                  Survey:  SURVEY DESC
 DMOD.             Drill Model:  DRILL MOD DESC
 HPTY.       Minimum Curvature:  HOLE POS TYPE
 NREF.                    Grid:  NORTH REFERENCE
 SPUD.               09-Jan-20:  SPUD DATE
 DATE.      14.04.48 07-Feb-20:  END TIME
 STIM.      07.00.00 09-Jan-20:  START TIME
 DMF .             Drill Floor:  DRILL MEAS FROM
 DFST.                        :  DIST FSL TEXT
 DFWT.                        :  DIST FWL TEXT
 CNTY.                        :  COUNTY
 LOC .                        :  LOCATION
 LMF .             Drill Floor:  LOG MEASURED FROM
 DEP .m                   0.00:  DEPTH
 VSNS.m                  10.28:  VERT SEC N/S
 VSEW.m                  -6.24:  VERT SEC E/W
 AGAP.m                  43.00:  AIR GAP
 APD .m                  43.00:  DEPTH ABOVE PD
 WDMS.m                 169.80:  WD ELEV
 EGL .m                   0.00:  GROUND ELEVATION
 EPD .m                   0.00:  ELEVATION
 AZTC.deg                 6.27:  AZM TOTAL CORR
 GRDC.deg                 0.15:  GRID CORRECTION
 MDEC.deg                 6.42:  MAGNETIC DECL
 MDIP.deg                59.56:  MAGNETIC DIP
 MFLD.nT              50277.00:  MAGNETIC FIELD
 GVFD.g                   1.00:  GRAVITY FIELD
 VSDR.deg               148.53:  VERT SEC DIRECT
 TDD .m                3473.01:  TOTAL DEPTH (DRILLER)
 SDEP.m                 364.00:  START DEPTH
 DFSL.m                   0.00:  DISTANCE FSL
 DFWL.m                   0.00:  DISTANCE FWL
 UTMY.m             4443793.85:  UTM Y
 UTMX.m              519005.06:  UTM X
 WHEW.m                  -6.24:  WELL HEAD E/W
 WHNS.m                  10.28:  WELL HEAD N/S
 LONG.deg                51.22:  LONGITUDE
 LATI.deg                40.13:  LATITUDE
 TVDS.m                  43.00:  TVDSS CORRECTN
 EKB .m                   0.00:  KB ELEVATION
 EDF .m                  43.00:  DF ELEVATION
 TDL .m                 254.00:  TOTAL DEPTH (LOGGER)
 MAGU.                 1850021:  MAGUTM CHECKSUM
 VSC .                       0:  VS TO CLOSURE
~Parameter Information Block
#MNEM.UNIT       Value        Description
#---------     -----------    ---------------------------
 AV  .mps                 0.50:  Ann Velocity 
 AVMX.mps                 1.40:  Max Ann Veloc 
 AZIF.deg               144.94:  Azm, Final 
 BHAT.        Rotary Steerable:  BHA Type 
 BROT.°/30m               0.23:  Build Rotating 
 BS  .in                  8.50:  Bit Size 
 BTPL.psig              264.00:  Bit Press Loss 
 CABU.                     Yes:  Customer Abuse 
 TCS .hr                 87.30:  Time Ciculation Ended 
 CV  .mps                 2.45:  Crit Velocity 
 CVMX.mps                 2.74:  Max Crit Veloc 
 DD1 .             Aziz Aliyev:  Direct Drillr 1 
 DDSV.               Geo-Pilot:  DD Service 
 DEFF.%                 100.00:  % Det Eff 
 DLRX.°/30m               1.22:  Dogleg Rot Max 
 DLSO.°/30m               0.52:  Dogleg Oriented 
 DLSX.°/30m               1.22:  Dogleg Str Max 
 DRET.      12.59.00 23-Feb-20:  Drill End Time 
 DRST.      09.44.00 18-Feb-20:  Drill Start Tim 
 DTIM.hr                 23.03:  Time Drilling 
 EDEP.m                3473.01:  End Depth 
 ENG1.         Almaz Almadatov:  Engineer 1 
 ENG2.         Dair Mahammadov:  Engineer 2 
 ENG3.          Nazrin Asgarli:  Engineer 3 
 ETIM.      10.33.36 26-Feb-20:  End Time 
 FLOI.gpm               480.00:  Flow In 
 FLON.gpm               300.00:  Flow In Min 
 FLOS.cptm                1.00:  Fluid Loss 
 FLOX.gpm               550.00:  Flow In Max 
 HFLO.                      No:  High Flow 
 HPRE.                      No:  High Pressure 
 HTEM.                      No:  High Temp 
 HYDO.m                   1.80:  Hydro Offset 
 IFIN.deg                74.42:  Inc, Final 
 IMAX.deg                76.14:  Inc Max 
 IMIN.deg                74.42:  Inc Min 
 IMND.m                3462.72:  Inc Min Depth 
 IMXD.m                3235.69:  Inc Max Depth 
 JARR.                      No:  Jarring 
 LETM.      12.59.00 23-Feb-20:  Log End Time 
 LOST.hr                     0:  Lost Rig Time 
 LSTM.      09.44.00 18-Feb-20:  Log Start Time 
 MDCL.ppm             45000.00:  Mud Chlorides 
 MDES.     Inversion Oil/Synthetic:  Mud Desc 
 DFD .sg                  1.38:  Mud Density 
 MDMN.sg                  1.34:  Dens Mud Min 
 MDMX.sg                  1.49:  Dens Mud Max 
 MOIL.                      67:  Run Mud Oil % 
 MOWR.                   67:33:  Run Mud OWR 
 MSND.                    0.12:  Run Mud Sand % 
 MSOL.                      22:  Run Mud Solids% 
 DFV .spqt               81.00:  Mud Viscosity 
 MWOD.in                  6.75:  MWD Tool OD 
 MWSI.                      No:  Serv Intrp, MWD 
 OTIM.hr                231.44:  Time Operating 
 PCON.          Wear / Scratch:  Pad Condition 
 PMAX.psia             3400.00:  Press Op, Max 
 PV  .cP                 55.00:  Mud PV 
 RUN .                     800:  Run Number 
 ROPA.m/hr               12.00:  ROP Avg 
 ROPN.m/hr                5.00:  ROP Min 
 ROPX.m/hr               28.00:  ROP Max 
 RPMA.rpm               120.00:  RPM Surface Avg 
 RPMN.rpm                40.00:  RPM Surface Min 
 RPMX.rpm               130.00:  RPM Surface Max 
 RRUN.                    0800:  Rig Run Number 
 RTIM.hr                 45.00:  Time Reaming 
 SAZI.deg               145.38:  Azm, Start 
 SDEP.m                3219.01:  Start Depth 
 SIDD.                      No:  Serv Intrp, DD 
 SINC.deg                75.11:  Inc, Start 
 SPPA.psig             2400.00:  SPP Avg 
 SPPN.psig             2320.00:  SPP Min 
 SPPX.psig             3200.00:  SPP Max 
 STIM.      15.15.00 17-Feb-20:  Start Time 
 SVCS.                 DD, MWD:  Services 
 SVER.                    9.20:  Sperry Version 
 TDAT.m                 254.00:  Tot Depth Attmp 
 TDDF.                      No:  Trip for DD 
 TDLG.m                 254.00:  Tot Depth Loggd 
 TFF .                      No:  Trip for Fail 
 TQAA.f-kp               13.00:  Torque Abs Avg 
 TQAN.f-kp                7.00:  Torque Abs Min 
 TQAX.f-kp               15.00:  Torque Abs Max 
 TRRT.°/30m               0.21:  Turn Rotating 
 MRT .                  EWR-M5:  Maximum Recorded Temperature 
 TTMX.degC               64.00:  Max Tool Temp 
 VS01.                90586516:  Virtual Str1 SN 
 VS02.                90513691:  Virtual Str2 SN 
 VS03.                90586523:  Virtual Str3 SN 
 VS04.                90586520:  Virtual Str4 SN 
 VS05.                90590507:  Virtual Str5 SN 
 WBMN.klb                12.00:  WOB Min 
 WITN.           Rufat Babayev:  Customer Rep 2 
 WITN.         Alistair Sprott:  Customer Rep 
 WOBA.klb                18.00:  WOB Avg 
 WOBX.klb                30.00:  WOB Max 
 YP  .lhf2               41.00:  Yield Point 
~Curve Information Block
#MNEM.UNIT                 API CODE     Curve Description
#---------               -----------    ---------------------------
 TIME.HHMMSS            00 000 000 000:  GT Time & Date
 GTDEPTH.m              00 000 000 000:  GT Depth
 GTPQH.psia             00 000 000 000:  GT HR Quartz Pressure
 GTTQ.degC              00 000 000 000:  GT Quartz Temperature
 GTTN.NONE              00 000 000 000:  GT Test Number
 GTET.sec               00 000 000 000:  GT Elapsed Test Time
 GTTVD.m                00 000 000 000:  GT True Vertical Depth
#Other Information
#
#WARRANTY: Halliburton will use its best efforts to furnish customers with 
#accurate information and interpretations that are part of, and incident to, the services 
#provided.  However, Halliburton cannot and does not warrant the accuracy 
#or correctness of such information and interpretations.  Under no circumstances should any 
#such information or interpretation be relied upon as the sole basis for any drilling, 
#completion, production, or financial decision or any procedure involving any risk to the 
#safety of any drilling venture, drilling rig or its crew or any other third party.  The 
#Customer has full responsibility for all drilling, completion and production operation.  
#Halliburton makes no representations or warranties, either expressed or 
#implied, including, but not limited to, the implied warranties of merchantability or fitness 
#for a particular purpose, with respect to the services rendered.  In no event will 
#Halliburton be liable for failure to obtain any particular results or for 
#any damages, including, but not limited to, indirect, special or consequential damages, 
#resulting from the use of any information or interpretation provided by Halliburton.
#
~A           TIME           GTDEPTH  GTPQH  GTTQ  GTTN  GTET   GTTVD  
# ...
   05:04:09.809.24-Feb-2020 3303.51 4421.07 55.46 8.00 114.97 2690.98
   05:04:10.009.24-Feb-2020 3303.51 4421.07 55.46 8.00 115.17 2690.98
   05:04:10.209.24-Feb-2020 3303.51 4420.88 55.46 8.00 115.37 2690.98
   05:04:10.409.24-Feb-2020 3303.51 4421.04 55.46 8.00 115.57 2690.98
   05:04:10.609.24-Feb-2020 3303.51 4421.16 55.46 8.00 115.77 2690.98
   05:04:10.809.24-Feb-2020 3303.51 4421.09 55.46 8.00 115.97 2690.98
   05:04:11.009.24-Feb-2020 3303.51 4421.09 55.46 8.00 116.17 2690.98
   05:04:11.209.24-Feb-2020 3303.51 4421.08 55.46 8.00 116.37 2690.98
   05:04:11.408.24-Feb-2020 3303.51 4421.09 55.46 8.00 116.57 2690.98
   05:04:11.608.24-Feb-2020 3303.51 4421.10 55.46 8.00 116.77 2690.98
   05:04:11.808.24-Feb-2020 3303.51 4421.10 55.46 8.00 116.97 2690.98
   05:04:12.008.24-Feb-2020 3303.51 4421.10 55.46 8.00 117.17 2690.98
   05:04:12.208.24-Feb-2020 3303.51 4421.10 55.46 8.00 117.37 2690.98
   05:04:12.408.24-Feb-2020 3303.51 4421.11 55.46 8.00 117.57 2690.98
   05:04:12.608.24-Feb-2020 3303.51 4421.09 55.46 8.00 117.77 2690.98
   05:04:12.808.24-Feb-2020 3303.51 4421.11 55.46 8.00 117.97 2690.98
   05:04:13.008.24-Feb-2020 3303.51 4421.11 55.46 8.00 118.17 2690.98
   05:04:13.208.24-Feb-2020 3303.51 4421.12 55.46 8.00 118.37 2690.98
   05:04:13.408.24-Feb-2020 3303.51 4421.33 55.46 8.00 118.57 2690.98
   05:04:13.608.24-Feb-2020 3303.51 4421.15 55.46 8.00 118.77 2690.98
   05:04:13.808.24-Feb-2020 3303.51 4421.01 55.46 8.00 118.97 2690.98
   05:04:14.008.24-Feb-2020 3303.51 4421.01 55.46 8.00 119.16 2690.98
   05:04:14.208.24-Feb-2020 3303.51 4421.07 55.46 8.00 119.36 2690.98
   05:04:14.408.24-Feb-2020 3303.51 4421.08 55.46 8.00 119.56 2690.98
   05:04:14.608.24-Feb-2020 3303.51 4421.07 55.46 8.00 119.76 2690.98
   05:04:14.807.24-Feb-2020 3303.51 4421.10 55.46 8.00 119.96 2690.98
   05:04:15.007.24-Feb-2020 3303.51 4421.10 55.46 8.00 120.16 2690.98
   05:04:15.207.24-Feb-2020 3303.51 4421.12 55.46 8.00 120.36 2690.98
   05:04:15.407.24-Feb-2020 3303.51 4421.05 55.46 8.00 120.56 2690.98
   05:04:15.607.24-Feb-2020 3303.51 4421.10 55.46 8.00 120.76 2690.98
   05:04:15.807.24-Feb-2020 3303.51 4421.10 55.46 8.00 120.96 2690.98
   05:04:16.007.24-Feb-2020 3303.51 4421.10 55.46 8.00 121.16 2690.98
   05:04:16.207.24-Feb-2020 3303.51 4421.09 55.46 8.00 121.36 2690.98
   05:04:16.407.24-Feb-2020 3303.51 4421.25 55.46 8.00 121.56 2690.98
   05:04:16.607.24-Feb-2020 3303.51 4420.86 55.46 8.00 121.76 2690.98
   05:04:16.807.24-Feb-2020 3303.51 4421.38 55.46 8.00 121.96 2690.98
   05:04:17.007.24-Feb-2020 3303.51 4421.11 55.46 8.00 122.16 2690.98
   05:04:17.207.24-Feb-2020 3303.51 4421.35 55.46 8.00 122.36 2690.98
   05:04:17.407.24-Feb-2020 3303.51 4421.15 55.46 8.00 122.56 2690.98
   05:04:17.607.24-Feb-2020 3303.51 4420.97 55.46 8.00 122.76 2690.98
   05:04:17.807.24-Feb-2020 3303.51 4421.18 55.46 8.00 122.96 2690.98
   05:04:18.007.24-Feb-2020 3303.51 4421.18 55.46 8.00 123.16 2690.98
   05:04:18.206.24-Feb-2020 3303.51 4421.13 55.46 8.00 123.36 2690.98
   05:04:18.406.24-Feb-2020 3303.51 4421.51 55.46 8.00 123.56 2690.98
   05:04:18.606.24-Feb-2020 3303.51 4420.88 55.45 8.00 123.76 2690.98
   05:04:18.806.24-Feb-2020 3303.51 4421.11 55.45 8.00 123.96 2690.98
   05:04:19.006.24-Feb-2020 3303.51 4421.11 55.45 8.00 124.16 2690.98
   05:04:19.206.24-Feb-2020 3303.51 4421.15 55.45 8.00 124.36 2690.98
   05:04:19.406.24-Feb-2020 3303.51 4421.06 55.45 8.00 124.56 2690.98
   05:04:19.606.24-Feb-2020 3303.51 4421.32 55.45 8.00 124.76 2690.98
   05:04:19.806.24-Feb-2020 3303.51 4421.10 55.45 8.00 124.96 2690.98
   05:04:20.006.24-Feb-2020 3303.51 4421.10 55.45 8.00 125.16 2690.98
   05:04:20.206.24-Feb-2020 3303.51 4421.07 55.45 8.00 125.36 2690.98
   05:04:20.406.24-Feb-2020 3303.51 4421.08 55.45 8.00 125.56 2690.98
   05:04:20.606.24-Feb-2020 3303.51 4421.11 55.45 8.00 125.76 2690.98
   05:04:20.806.24-Feb-2020 3303.51 4421.07 55.45 8.00 125.96 2690.98
   05:04:21.006.24-Feb-2020 3303.51 4421.10 55.45 8.00 126.16 2690.98
   05:04:21.206.24-Feb-2020 3303.51 4421.10 55.45 8.00 126.36 2690.98
   05:04:21.406.24-Feb-2020 3303.51 4421.10 55.45 8.00 126.56 2690.98
   05:04:21.605.24-Feb-2020 3303.51 4421.09 55.45 8.00 126.76 2690.98
   05:04:21.805.24-Feb-2020 3303.51 4421.11 55.45 8.00 126.96 2690.98
   05:04:22.005.24-Feb-2020 3303.51 4421.11 55.45 8.00 127.16 2690.98
   05:04:22.205.24-Feb-2020 3303.51 4421.11 55.45 8.00 127.36 2690.98
   05:04:22.405.24-Feb-2020 3303.51 4421.54 55.45 8.00 127.56 2690.98
   05:04:22.605.24-Feb-2020 3303.51 4420.88 55.45 8.00 127.76 2690.98
   05:04:22.805.24-Feb-2020 3303.51 4421.03 55.45 8.00 127.96 2690.98
   05:04:23.005.24-Feb-2020 3303.51 4421.03 55.45 8.00 128.16 2690.98
   05:04:23.205.24-Feb-2020 3303.51 4421.11 55.45 8.00 128.36 2690.98
   05:04:23.405.24-Feb-2020 3303.51 4421.04 55.45 8.00 128.56 2690.98
   05:04:23.605.24-Feb-2020 3303.51 4421.05 55.45 8.00 128.76 2690.98
   05:04:23.805.24-Feb-2020 3303.51 4421.05 55.45 8.00 128.96 2690.98
   05:04:24.005.24-Feb-2020 3303.51 4421.05 55.45 8.00 129.16 2690.98
   05:04:24.205.24-Feb-2020 3303.51 4421.12 55.45 8.00 129.36 2690.98
   05:04:24.405.24-Feb-2020 3303.51 4421.10 55.45 8.00 129.56 2690.98
   05:04:24.605.24-Feb-2020 3303.51 4421.08 55.45 8.00 129.76 2690.98
   05:04:24.805.24-Feb-2020 3303.51 4421.08 55.45 8.00 129.96 2690.98
   05:04:25.004.24-Feb-2020 3303.51 4421.08 55.45 8.00 130.16 2690.98
   05:04:25.204.24-Feb-2020 3303.51 4421.09 55.45 8.00 130.36 2690.98
   05:04:25.404.24-Feb-2020 3303.51 4421.12 55.45 8.00 130.56 2690.98
   05:04:25.604.24-Feb-2020 3303.51 4421.07 55.45 8.00 130.76 2690.98
   05:04:25.804.24-Feb-2020 3303.51 4421.35 55.45 8.00 130.96 2690.98
   05:04:26.004.24-Feb-2020 3303.51 4421.35 55.45 8.00 131.16 2690.98
   05:04:26.204.24-Feb-2020 3303.51 4420.96 55.45 8.00 131.36 2690.98
   05:04:26.404.24-Feb-2020 3303.51 4421.33 55.45 8.00 131.56 2690.98
   05:04:26.604.24-Feb-2020 3303.51 4420.84 55.45 8.00 131.76 2690.98
   05:04:26.804.24-Feb-2020 3303.51 4421.38 55.45 8.00 131.96 2690.98
   05:04:27.004.24-Feb-2020 3303.51 4421.38 55.45 8.00 132.16 2690.98
   05:04:27.204.24-Feb-2020 3303.51 4421.07 55.45 8.00 132.36 2690.98
   05:04:27.404.24-Feb-2020 3303.51 4421.08 55.45 8.00 132.56 2690.98
   05:04:27.604.24-Feb-2020 3303.51 4421.07 55.45 8.00 132.76 2690.98
   05:04:27.804.24-Feb-2020 3303.51 4421.10 55.45 8.00 132.96 2690.98
   05:04:28.004.24-Feb-2020 3303.51 4421.10 55.45 8.00 133.16 2690.98
   05:04:28.204.24-Feb-2020 3303.51 4421.14 55.45 8.00 133.36 2690.98
   05:04:28.403.24-Feb-2020 3303.51 4421.03 55.45 8.00 133.56 2690.98
   05:04:28.603.24-Feb-2020 3303.51 4421.48 55.45 8.00 133.76 2690.98
   05:04:28.803.24-Feb-2020 3303.51 4420.85 55.45 8.00 133.96 2690.98
   05:04:29.003.24-Feb-2020 3303.51 4420.99 55.45 8.00 134.16 2690.98
   05:04:29.203.24-Feb-2020 3303.51 4421.13 55.45 8.00 134.36 2690.98
   05:04:29.403.24-Feb-2020 3303.51 4421.10 55.45 8.00 134.56 2690.98
   05:04:29.603.24-Feb-2020 3303.51 4421.07 55.45 8.00 134.76 2690.98
   05:04:29.803.24-Feb-2020 3303.51 4421.06 55.45 8.00 134.96 2690.98
   05:04:30.003.24-Feb-2020 3303.51 4421.06 55.45 8.00 135.16 2690.98
   05:04:30.203.24-Feb-2020 3303.51 4421.10 55.45 8.00 135.36 2690.98
   05:04:30.403.24-Feb-2020 3303.51 4421.09 55.45 8.00 135.56 2690.98
   05:04:30.603.24-Feb-2020 3303.51 4421.09 55.45 8.00 135.76 2690.98
   05:04:30.803.24-Feb-2020 3303.51 4421.09 55.45 8.00 135.96 2690.98
   05:04:31.003.24-Feb-2020 3303.51 4421.09 55.45 8.00 136.16 2690.98
   05:04:31.203.24-Feb-2020 3303.51 4421.09 55.45 8.00 136.36 2690.98
   05:04:31.403.24-Feb-2020 3303.51 4421.10 55.45 8.00 136.56 2690.98
   05:04:31.603.24-Feb-2020 3303.51 4421.10 55.45 8.00 136.76 2690.98
   05:04:31.802.24-Feb-2020 3303.51 4421.09 55.45 8.00 136.96 2690.98
   05:04:32.002.24-Feb-2020 3303.51 4421.09 55.45 8.00 137.16 2690.98
   05:04:32.202.24-Feb-2020 3303.51 4421.12 55.45 8.00 137.36 2690.98
   05:04:32.402.24-Feb-2020 3303.51 4420.98 55.45 8.00 137.56 2690.98
   05:04:32.602.24-Feb-2020 3303.51 4421.05 55.45 8.00 137.76 2690.98
