~Version Information
 VERS.                  2.0:   CWLS log ASCII Standard -VERSION 2.0
 WRAP.                   NO:   One line per depth step
~Well Information Block
#MNEM.UNIT     VALUE/NAME     DESCRIPTION
#---------     -----------    ---------------------------
 STRT.S             19:23:23 18-Jan-20: START TIME 19:23:23 18-Jan-20
 STOP.S             19:31:15 18-Jan-20: STOP TIME  19:31:15 18-Jan-20
 STEP.S                   0.00: STEP TIME
 NULL.                 -999.25: NULL VALUE
 DFWT.                        :  DIST FWL TEXT
 DFST.                        :  DIST FSL TEXT
 DMF .             Drill Floor:  DRILL MEAS FROM
 STIM.      17.57.20 21-Dec-19:  START TIME
 DATE.      17.57.20 21-Dec-19:  END TIME
 SPUD.               21-Dec-19:  SPUD DATE
 NREF.                    Grid:  NORTH REFERENCE
 HPTY.       Minimum Curvature:  HOLE POS TYPE
 DMOD.             Drill Model:  DRILL MOD DESC
 SVYD.                  Survey:  SURVEY DESC
 ILTD.               Lithology:  INTERP LTH DESC
 FTOP.          Formation Tops:  FORM TOPS DESC
 PDAT.          Mean Sea Level:  PERMANENT DATUM
 FLD .                     ACG:  FIELD NAME
 SON .        AZ-XX-0905715376:  JOB NUMBER
 CTRY.              Azerbaijan:  COUNTRY NAME
 WELL.                    E04Y:  WELL NAME
 SRVC.          TURAN DRILLING:  CONTRACTOR
 COMP.     BP Exploration (Caspian Sea) Ltd.:  COMPANY
 WTYP.                Deviated:  WELL TYPE
 UWI .                     N/a:  UNIQUE WELL IDENTIFIER
 API .                     N/a:  API NUMBER
 BASE.              Azerbaijan:  LOGGING EQUIPMENT BASE LOCATION
 REGN.                   EESSA:  REGION
 MWDS.                    Baku:  MWD SHOP
 RIG .                     DWG:  RIG NAME
 DOE .                     N/a:  DOE NUMBER
 CNTY.                    Baku:  COUNTY NAME
 DCON.         Sperry Drilling:  DIRECTNL CONTR
 UNIT.                     N/a:  LOGGING EQUIPMENT ID
 MDS .        Operator Entered:  MAG DATA SOURCE
 PROV.                        :  PROVINCE
 STAT.                        :  STATE
 LOC .                        :  LOCATION
 LMF .             Drill Floor:  LOG MEASURED FROM
 TVDS.m                  43.16:  TVDSS CORRECTN
 LATI.deg                40.17:  LATITUDE
 LONG.deg                51.17:  LONGITUDE
 WHNS.m                  -0.12:  WELL HEAD N/S
 WHEW.m                  -5.41:  WELL HEAD E/W
 UTMX.m              514337.95:  UTM X
 UTMY.m             4448627.46:  UTM Y
 DFWL.m                   0.00:  DISTANCE FWL
 DFSL.m                   0.00:  DISTANCE FSL
 SDEP.m                   0.00:  START DEPTH
 TDD .m                   0.00:  TOTAL DEPTH (DRILLER)
 VSDR.deg               235.12:  VERT SEC DIRECT
 GVFD.g                   1.00:  GRAVITY FIELD
 MFLD.nT              50294.00:  MAGNETIC FIELD
 MDIP.deg                59.61:  MAGNETIC DIP
 MDEC.deg                 6.58:  MAGNETIC DECL
 GRDC.deg                 0.09:  GRID CORRECTION
 AZTC.deg                 6.49:  AZM TOTAL CORR
 EPD .m                   0.00:  ELEVATION
 EGL .m                   0.00:  GROUND ELEVATION
 WDMS.m                 176.20:  WD ELEV
 APD .m                  43.16:  DEPTH ABOVE PD
 DEP .m                3172.61:  DEPTH
 AGAP.m                  43.16:  AIR GAP
 VSEW.m                  -5.41:  VERT SEC E/W
 VSNS.m                  -0.12:  VERT SEC N/S
 EKB .m                  43.16:  KB ELEVATION
 EDF .m                  43.16:  DF ELEVATION
 TDL .m                 295.00:  TOTAL DEPTH (LOGGER)
 VSC .                       0:  VS TO CLOSURE
 MAGU.                 1852276:  MAGUTM CHECKSUM
~Parameter Information Block
#MNEM.UNIT       Value        Description
#---------     -----------    ---------------------------
 AV  .mps                 1.60:  Ann Velocity 
 AVMX.mps                 2.10:  Max Ann Veloc 
 AZIF.deg               290.59:  Azm, Final 
 BHAT.        Rotary Steerable:  BHA Type 
 BROT.°/30m               1.00:  Build Rotating 
 BS  .in                  6.50:  Bit Size 
 BSZ .in                  6.50:  Bit Size 
 BTPL.psig              120.00:  Bit Press Loss 
 CABU.                     Yes:  Customer Abuse 
 CGEO.          Eldar Huseynov:  Customer Geo 
 COMM.                     ”%\:  Run Comments 1 
 TCS .hr                 87.00:  Time Ciculation Ended 
 CV  .mps                 4.01:  Crit Velocity 
 CVMX.mps                 5.06:  Max Crit Veloc 
 DD1 .             Aziz Aliyev:  Direct Drillr 1 
 DD2 .            Sanan Aliyev:  Direct Drillr 2 
 DDSV.               Geo-Pilot:  DD Service 
 DEFF.%                  95.00:  % Det Eff 
 DLRX.°/30m               0.75:  Dogleg Rot Max 
 DLSO.°/30m               0.65:  Dogleg Oriented 
 DLSX.°/30m               1.39:  Dogleg Str Max 
 DRET.      18.25.00 19-Jan-20:  Drill End Time 
 DRST.      11.56.48 17-Jan-20:  Drill Start Tim 
 DTIM.hr                 27.16:  Time Drilling 
 EDEP.m                5161.01:  End Depth 
 ENG1.          Rasim Hashimov:  Engineer 1 
 ENG2.      Bakhtiyar Jabbarli:  Engineer 2 
 ETIM.      11.56.48 21-Jan-20:  End Time 
 FLOI.gpm               350.00:  Flow In 
 FLON.gpm               300.00:  Flow In Min 
 FLOS.cptm                0.00:  Fluid Loss 
 FLOX.gpm               400.00:  Flow In Max 
 HFLO.                      No:  High Flow 
 HPRE.                      No:  High Pressure 
 HTEM.                      No:  High Temp 
 HYDO.m                   1.85:  Hydro Offset 
 IFIN.deg                71.58:  Inc, Final 
 IMAX.deg                71.83:  Inc Max 
 IMIN.deg                71.12:  Inc Min 
 IMND.m                5099.48:  Inc Min Depth 
 IMXD.m                5071.08:  Inc Max Depth 
 JARR.                      No:  Jarring 
 LETM.      18.25.00 19-Jan-20:  Log End Time 
 LOST.hr                     0:  Lost Rig Time 
 LSTM.      11.56.48 17-Jan-20:  Log Start Time 
 MDCL.ppm             37000.00:  Mud Chlorides 
 MDES.     Inversion Oil/Synthetic:  Mud Desc 
 DFD .sg                  1.34:  Mud Density 
 MDMN.sg                  1.34:  Dens Mud Min 
 MDMX.sg                  1.34:  Dens Mud Max 
 MOIL.                      69:  Run Mud Oil % 
 MOWR.                   69:31:  Run Mud OWR 
 MSND.                     0.1:  Run Mud Sand % 
 MSOL.                    17.6:  Run Mud Solids% 
 DFV .spqt               79.00:  Mud Viscosity 
 MWOD.in                  4.75:  MWD Tool OD 
 MWSI.                      No:  Serv Intrp, MWD 
 OTIM.hr                126.10:  Time Operating 
 PMAX.psia             6000.00:  Press Op, Max 
 PV  .cP                 29.00:  Mud PV 
 RUN .                     400:  Run Number 
 ROPA.m/hr               11.00:  ROP Avg 
 ROPN.m/hr                5.00:  ROP Min 
 ROPX.m/hr               18.00:  ROP Max 
 RPMA.rpm               139.00:  RPM Surface Avg 
 RPMN.rpm               100.00:  RPM Surface Min 
 RPMX.rpm               140.00:  RPM Surface Max 
 RRUN.                     400:  Rig Run Number 
 SAZI.deg               290.22:  Azm, Start 
 SDEP.m                4868.01:  Start Depth 
 SIDD.                      No:  Serv Intrp, DD 
 SINC.deg                71.77:  Inc, Start 
 SPPA.psig             5550.00:  SPP Avg 
 SPPN.psig             4300.00:  SPP Min 
 SPPX.psig             5600.00:  SPP Max 
 STIM.      23.45.48 15-Jan-20:  Start Time 
 SVCS.                 DD, MWD:  Services 
 SVER.                    9.20:  Sperry Version 
 TDAT.m                5161.01:  Tot Depth Attmp 
 TDDF.                      No:  Trip for DD 
 TDLG.m                 295.00:  Tot Depth Loggd 
 TFF .                      No:  Trip for Fail 
 TQAA.f-kp               13.00:  Torque Abs Avg 
 TQAN.f-kp               13.00:  Torque Abs Min 
 TQAX.f-kp               16.00:  Torque Abs Max 
 TRRT.°/30m               0.25:  Turn Rotating 
 MRT .                     ADR:  Maximum Recorded Temperature 
 TTMX.degC               88.00:  Max Tool Temp 
 VS01.                90577859:  Virtual Str1 SN 
 VS02.                90521879:  Virtual Str2 SN 
 VS03.                90580299:  Virtual Str3 SN 
 VS04.                90515982:  Virtual Str4 SN 
 VS05.                90547765:  Virtual Str5 SN 
 WBMN.klb                 2.00:  WOB Min 
 WITN.           Adil Mammadov:  Customer Rep 
 WITN.        Elmaddin Rahimov:  Customer Rep 2 
 WOBA.klb                 3.00:  WOB Avg 
 WOBX.klb                 5.00:  WOB Max 
 YP  .lhf2               30.00:  Yield Point 
~Curve Information Block
#MNEM.UNIT                 API CODE     Curve Description
#---------               -----------    ---------------------------
 TIME.HHMMSS            00 000 000 000:  GT Time & Date
 GTDEPTH.m              00 000 000 000:  GT Depth
 GTPQH.psia             00 000 000 000:  GT HR Quartz Pressure
 GTTQ.degC              00 000 000 000:  GT Quartz Temperature
 GTTN.NONE              00 000 000 000:  GT Test Number
 GTET.sec               00 000 000 000:  GT Elapsed Test Time
 GTTVD.m                00 000 000 000:  GT True Vertical Depth
#Other Information
#
#WARRANTY: Halliburton will use its best efforts to furnish customers with 
#accurate information and interpretations that are part of, and incident to, the services 
#provided.  However, Halliburton cannot and does not warrant the accuracy 
#or correctness of such information and interpretations.  Under no circumstances should any 
#such information or interpretation be relied upon as the sole basis for any drilling, 
#completion, production, or financial decision or any procedure involving any risk to the 
#safety of any drilling venture, drilling rig or its crew or any other third party.  The 
#Customer has full responsibility for all drilling, completion and production operation.  
#Halliburton makes no representations or warranties, either expressed or 
#implied, including, but not limited to, the implied warranties of merchantability or fitness 
#for a particular purpose, with respect to the services rendered.  In no event will 
#Halliburton be liable for failure to obtain any particular results or for 
#any damages, including, but not limited to, indirect, special or consequential damages, 
#resulting from the use of any information or interpretation provided by Halliburton.
#
~A           TIME           GTDEPTH  GTPQH  GTTQ  GTTN  GTET   GTTVD  
# ...
   19:23:46.144.18-Jan-2020 4980.01 7292.38 81.80 3.00  23.00 2836.95
   19:23:46.344.18-Jan-2020 4980.01 7292.38 81.80 3.00  23.20 2836.95
   19:23:46.544.18-Jan-2020 4980.01 7299.02 81.80 3.00  23.40 2836.95
   19:23:46.744.18-Jan-2020 4980.01 7300.83 81.80 3.00  23.60 2836.95
   19:23:46.944.18-Jan-2020 4980.01 7302.02 81.80 3.00  23.80 2836.95
   19:23:47.144.18-Jan-2020 4980.01 7304.27 81.80 3.00  24.00 2836.95
   19:23:47.344.18-Jan-2020 4980.01 7304.27 81.80 3.00  24.20 2836.95
   19:23:47.544.18-Jan-2020 4980.01 7304.55 81.80 3.00  24.40 2836.95
   19:23:47.744.18-Jan-2020 4980.01 7305.07 81.80 3.00  24.60 2836.95
   19:23:47.944.18-Jan-2020 4980.01 7305.02 81.80 3.00  24.80 2836.95
   19:23:48.144.18-Jan-2020 4980.01 7305.61 81.80 3.00  25.00 2836.95
   19:23:48.344.18-Jan-2020 4980.01 7305.61 81.80 3.00  25.20 2836.95
   19:23:48.544.18-Jan-2020 4980.01 6457.27 81.80 3.00  25.40 2836.95
   19:23:48.744.18-Jan-2020 4980.01 6143.46 81.80 3.00  25.60 2836.95
   19:23:48.944.18-Jan-2020 4980.01 5986.62 81.80 3.00  25.81 2836.95
   19:23:49.144.18-Jan-2020 4980.01 5810.30 81.80 3.00  26.01 2836.95
   19:23:49.344.18-Jan-2020 4980.01 5810.30 81.80 3.00  26.21 2836.95
   19:23:49.544.18-Jan-2020 4980.01 5296.62 81.80 3.00  26.41 2836.95
   19:23:49.744.18-Jan-2020 4980.01 4941.80 81.80 3.00  26.61 2836.95
   19:23:49.944.18-Jan-2020 4980.01 4564.97 81.80 3.00  26.81 2836.95
   19:23:50.144.18-Jan-2020 4980.01 4428.57 81.80 3.00  27.01 2836.95
   19:23:50.344.18-Jan-2020 4980.01 4428.57 81.80 3.00  27.21 2836.95
   19:23:50.545.18-Jan-2020 4980.01 4427.83 81.79 3.00  27.41 2836.95
   19:23:50.745.18-Jan-2020 4980.01 4427.36 81.79 3.00  27.61 2836.95
   19:23:50.945.18-Jan-2020 4980.01 4427.00 81.79 3.00  27.81 2836.95
   19:23:51.145.18-Jan-2020 4980.01 4426.33 81.79 3.00  28.01 2836.95
   19:23:51.345.18-Jan-2020 4980.01 4426.33 81.79 3.00  28.21 2836.95
   19:23:51.545.18-Jan-2020 4980.01 4425.48 81.79 3.00  28.41 2836.95
   19:23:51.745.18-Jan-2020 4980.01 4425.17 81.79 3.00  28.61 2836.95
   19:23:51.945.18-Jan-2020 4980.01 4424.88 81.79 3.00  28.81 2836.95
   19:23:52.145.18-Jan-2020 4980.01 4424.42 81.79 3.00  29.01 2836.95
   19:23:52.345.18-Jan-2020 4980.01 4424.42 81.79 3.00  29.21 2836.95
   19:23:52.545.18-Jan-2020 4980.01 4424.02 81.78 3.00  29.41 2836.95
   19:23:52.745.18-Jan-2020 4980.01 4423.71 81.78 3.00  29.61 2836.95
   19:23:52.945.18-Jan-2020 4980.01 4423.71 81.78 3.00  29.81 2836.95
   19:23:53.145.18-Jan-2020 4980.01 4423.65 81.78 3.00  30.01 2836.95
   19:23:53.345.18-Jan-2020 4980.01 4423.65 81.78 3.00  30.21 2836.95
   19:23:53.545.18-Jan-2020 4980.01 4423.34 81.78 3.00  30.41 2836.95
   19:23:53.745.18-Jan-2020 4980.01 4422.93 81.78 3.00  30.61 2836.95
   19:23:53.945.18-Jan-2020 4980.01 4423.16 81.78 3.00  30.81 2836.95
   19:23:54.145.18-Jan-2020 4980.01 4423.02 81.78 3.00  31.01 2836.95
   19:23:54.345.18-Jan-2020 4980.01 4423.02 81.78 3.00  31.21 2836.95
   19:23:54.545.18-Jan-2020 4980.01 4422.91 81.77 3.00  31.41 2836.95
   19:23:54.745.18-Jan-2020 4980.01 4422.93 81.77 3.00  31.61 2836.95
   19:23:54.945.18-Jan-2020 4980.01 4422.74 81.77 3.00  31.81 2836.95
   19:23:55.145.18-Jan-2020 4980.01 4422.40 81.77 3.00  32.01 2836.95
   19:23:55.345.18-Jan-2020 4980.01 4422.40 81.77 3.00  32.21 2836.95
   19:23:55.545.18-Jan-2020 4980.01 4422.69 81.77 3.00  32.41 2836.95
   19:23:55.746.18-Jan-2020 4980.01 4422.80 81.77 3.00  32.61 2836.95
   19:23:55.946.18-Jan-2020 4980.01 4422.70 81.76 3.00  32.81 2836.95
   19:23:56.146.18-Jan-2020 4980.01 4422.61 81.76 3.00  33.01 2836.95
   19:23:56.346.18-Jan-2020 4980.01 4422.61 81.76 3.00  33.21 2836.95
   19:23:56.546.18-Jan-2020 4980.01 4422.77 81.76 3.00  33.41 2836.95
   19:23:56.746.18-Jan-2020 4980.01 4422.72 81.76 3.00  33.61 2836.95
   19:23:56.946.18-Jan-2020 4980.01 4422.55 81.76 3.00  33.81 2836.95
   19:23:57.146.18-Jan-2020 4980.01 4422.56 81.76 3.00  34.01 2836.95
   19:23:57.346.18-Jan-2020 4980.01 4422.56 81.76 3.00  34.21 2836.95
   19:23:57.546.18-Jan-2020 4980.01 4422.76 81.75 3.00  34.41 2836.95
   19:23:57.746.18-Jan-2020 4980.01 4422.62 81.75 3.00  34.61 2836.95
   19:23:57.946.18-Jan-2020 4980.01 4422.61 81.75 3.00  34.81 2836.95
   19:23:58.146.18-Jan-2020 4980.01 4426.32 81.75 3.00  35.01 2836.95
   19:23:58.346.18-Jan-2020 4980.01 4426.32 81.75 3.00  35.21 2836.95
   19:23:58.546.18-Jan-2020 4980.01 4428.34 81.75 3.00  35.41 2836.95
   19:23:58.746.18-Jan-2020 4980.01 4428.40 81.75 3.00  35.61 2836.95
   19:23:58.946.18-Jan-2020 4980.01 4428.41 81.75 3.00  35.81 2836.95
   19:23:59.146.18-Jan-2020 4980.01 4428.45 81.75 3.00  36.01 2836.95
   19:23:59.346.18-Jan-2020 4980.01 4428.45 81.75 3.00  36.21 2836.95
   19:23:59.546.18-Jan-2020 4980.01 4428.48 81.74 3.00  36.41 2836.95
   19:23:59.746.18-Jan-2020 4980.01 4428.50 81.74 3.00  36.61 2836.95
   19:23:59.946.18-Jan-2020 4980.01 4428.40 81.74 3.00  36.81 2836.95
   19:24:00.146.18-Jan-2020 4980.01 4428.53 81.74 3.00  37.01 2836.95
   19:24:00.346.18-Jan-2020 4980.01 4428.53 81.74 3.00  37.21 2836.95
   19:24:00.546.18-Jan-2020 4980.01 4428.57 81.74 3.00  37.41 2836.95
   19:24:00.747.18-Jan-2020 4980.01 4428.57 81.74 3.00  37.61 2836.95
   19:24:00.947.18-Jan-2020 4980.01 4428.60 81.74 3.00  37.81 2836.95
   19:24:01.147.18-Jan-2020 4980.01 4428.60 81.73 3.00  38.01 2836.95
   19:24:01.347.18-Jan-2020 4980.01 4428.60 81.73 3.00  38.21 2836.95
   19:24:01.547.18-Jan-2020 4980.01 4428.63 81.73 3.00  38.41 2836.95
   19:24:01.747.18-Jan-2020 4980.01 4428.65 81.73 3.00  38.61 2836.95
   19:24:01.947.18-Jan-2020 4980.01 4428.66 81.73 3.00  38.81 2836.95
   19:24:02.147.18-Jan-2020 4980.01 4428.66 81.73 3.00  39.01 2836.95
   19:24:02.347.18-Jan-2020 4980.01 4428.66 81.73 3.00  39.21 2836.95
   19:24:02.547.18-Jan-2020 4980.01 4428.67 81.73 3.00  39.41 2836.95
   19:24:02.747.18-Jan-2020 4980.01 4428.70 81.73 3.00  39.61 2836.95
   19:24:02.947.18-Jan-2020 4980.01 4428.67 81.73 3.00  39.81 2836.95
   19:24:03.147.18-Jan-2020 4980.01 4428.72 81.72 3.00  40.01 2836.95
   19:24:03.347.18-Jan-2020 4980.01 4428.72 81.72 3.00  40.21 2836.95
   19:24:03.547.18-Jan-2020 4980.01 4428.72 81.72 3.00  40.41 2836.95
   19:24:03.747.18-Jan-2020 4980.01 4428.50 81.72 3.00  40.61 2836.95
   19:24:03.947.18-Jan-2020 4980.01 4428.74 81.72 3.00  40.81 2836.95
   19:24:04.147.18-Jan-2020 4980.01 4428.65 81.72 3.00  41.01 2836.95
   19:24:04.347.18-Jan-2020 4980.01 4428.65 81.72 3.00  41.21 2836.95
   19:24:04.547.18-Jan-2020 4980.01 4428.70 81.72 3.00  41.41 2836.95
   19:24:04.747.18-Jan-2020 4980.01 4428.70 81.72 3.00  41.61 2836.95
   19:24:04.947.18-Jan-2020 4980.01 4428.53 81.72 3.00  41.81 2836.95
   19:24:05.147.18-Jan-2020 4980.01 4428.74 81.71 3.00  42.01 2836.95
   19:24:05.347.18-Jan-2020 4980.01 4428.74 81.71 3.00  42.21 2836.95
   19:24:05.547.18-Jan-2020 4980.01 4428.69 81.71 3.00  42.41 2836.95
   19:24:05.747.18-Jan-2020 4980.01 4428.70 81.71 3.00  42.61 2836.95
   19:24:05.948.18-Jan-2020 4980.01 4428.57 81.71 3.00  42.81 2836.95
   19:24:06.148.18-Jan-2020 4980.01 4428.69 81.71 3.00  43.01 2836.95
   19:24:06.348.18-Jan-2020 4980.01 4428.69 81.71 3.00  43.21 2836.95
   19:24:06.548.18-Jan-2020 4980.01 4428.68 81.71 3.00  43.41 2836.95
   19:24:06.748.18-Jan-2020 4980.01 4428.61 81.71 3.00  43.61 2836.95
   19:24:06.948.18-Jan-2020 4980.01 4428.68 81.71 3.00  43.81 2836.95
   19:24:07.148.18-Jan-2020 4980.01 4428.71 81.71 3.00  44.01 2836.95
   19:24:07.348.18-Jan-2020 4980.01 4428.71 81.71 3.00  44.21 2836.95
   19:24:07.548.18-Jan-2020 4980.01 4428.55 81.70 3.00  44.41 2836.95
   19:24:07.748.18-Jan-2020 4980.01 4428.77 81.70 3.00  44.61 2836.95
   19:24:07.948.18-Jan-2020 4980.01 4428.69 81.70 3.00  44.81 2836.95
   19:24:08.148.18-Jan-2020 4980.01 4428.71 81.70 3.00  45.01 2836.95
   19:24:08.348.18-Jan-2020 4980.01 4428.71 81.70 3.00  45.21 2836.95
   19:24:08.548.18-Jan-2020 4980.01 4428.72 81.70 3.00  45.41 2836.95
   19:24:08.748.18-Jan-2020 4980.01 4428.57 81.70 3.00  45.61 2836.95
   19:24:08.948.18-Jan-2020 4980.01 4428.79 81.70 3.00  45.81 2836.95
