~Version Information
 VERS.                  2.0:   CWLS log ASCII Standard -VERSION 2.0
 WRAP.                   NO:   One line per depth step
~Well Information Block
#MNEM.UNIT     VALUE/NAME     DESCRIPTION
#---------     -----------    ---------------------------
 STRT.S             19:23:23 18-Jan-20: START TIME 19:23:23 18-Jan-20
 STOP.S             19:31:15 18-Jan-20: STOP TIME  19:31:15 18-Jan-20
 STEP.S                   0.00: STEP TIME
 NULL.                 -999.25: NULL VALUE
 DFWT.                        :  DIST FWL TEXT
 DFST.                        :  DIST FSL TEXT
 DMF .             Drill Floor:  DRILL MEAS FROM
 STIM.      17.57.20 21-Dec-19:  START TIME
 DATE.      17.57.20 21-Dec-19:  END TIME
 SPUD.               21-Dec-19:  SPUD DATE
 NREF.                    Grid:  NORTH REFERENCE
 HPTY.       Minimum Curvature:  HOLE POS TYPE
 DMOD.             Drill Model:  DRILL MOD DESC
 SVYD.                  Survey:  SURVEY DESC
 ILTD.               Lithology:  INTERP LTH DESC
 FTOP.          Formation Tops:  FORM TOPS DESC
 PDAT.          Mean Sea Level:  PERMANENT DATUM
 FLD .                     ACG:  FIELD NAME
 SON .        AZ-XX-0905715376:  JOB NUMBER
 CTRY.              Azerbaijan:  COUNTRY NAME
 WELL.                    E04Y:  WELL NAME
 SRVC.          TURAN DRILLING:  CONTRACTOR
 COMP.     BP Exploration (Caspian Sea) Ltd.:  COMPANY
 WTYP.                Deviated:  WELL TYPE
 UWI .                     N/a:  UNIQUE WELL IDENTIFIER
 API .                     N/a:  API NUMBER
 BASE.              Azerbaijan:  LOGGING EQUIPMENT BASE LOCATION
 REGN.                   EESSA:  REGION
 MWDS.                    Baku:  MWD SHOP
 RIG .                     DWG:  RIG NAME
 DOE .                     N/a:  DOE NUMBER
 CNTY.                    Baku:  COUNTY NAME
 DCON.         Sperry Drilling:  DIRECTNL CONTR
 UNIT.                     N/a:  LOGGING EQUIPMENT ID
 MDS .        Operator Entered:  MAG DATA SOURCE
 PROV.                        :  PROVINCE
 STAT.                        :  STATE
 LOC .                        :  LOCATION
 LMF .             Drill Floor:  LOG MEASURED FROM
 TVDS.m                  43.16:  TVDSS CORRECTN
 LATI.deg                40.17:  LATITUDE
 LONG.deg                51.17:  LONGITUDE
 WHNS.m                  -0.12:  WELL HEAD N/S
 WHEW.m                  -5.41:  WELL HEAD E/W
 UTMX.m              514337.95:  UTM X
 UTMY.m             4448627.46:  UTM Y
 DFWL.m                   0.00:  DISTANCE FWL
 DFSL.m                   0.00:  DISTANCE FSL
 SDEP.m                   0.00:  START DEPTH
 TDD .m                   0.00:  TOTAL DEPTH (DRILLER)
 VSDR.deg               235.12:  VERT SEC DIRECT
 GVFD.g                   1.00:  GRAVITY FIELD
 MFLD.nT              50294.00:  MAGNETIC FIELD
 MDIP.deg                59.61:  MAGNETIC DIP
 MDEC.deg                 6.58:  MAGNETIC DECL
 GRDC.deg                 0.09:  GRID CORRECTION
 AZTC.deg                 6.49:  AZM TOTAL CORR
 EPD .m                   0.00:  ELEVATION
 EGL .m                   0.00:  GROUND ELEVATION
 WDMS.m                 176.20:  WD ELEV
 APD .m                  43.16:  DEPTH ABOVE PD
 DEP .m                3172.61:  DEPTH
 AGAP.m                  43.16:  AIR GAP
 VSEW.m                  -5.41:  VERT SEC E/W
 VSNS.m                  -0.12:  VERT SEC N/S
 EKB .m                  43.16:  KB ELEVATION
 EDF .m                  43.16:  DF ELEVATION
 TDL .m                 295.00:  TOTAL DEPTH (LOGGER)
 VSC .                       0:  VS TO CLOSURE
 MAGU.                 1852276:  MAGUTM CHECKSUM
~Parameter Information Block
#MNEM.UNIT       Value        Description
#---------     -----------    ---------------------------
 AV  .mps                 1.60:  Ann Velocity 
 AVMX.mps                 2.10:  Max Ann Veloc 
 AZIF.deg               290.59:  Azm, Final 
 BHAT.        Rotary Steerable:  BHA Type 
 BROT.°/30m               1.00:  Build Rotating 
 BS  .in                  6.50:  Bit Size 
 BSZ .in                  6.50:  Bit Size 
 BTPL.psig              120.00:  Bit Press Loss 
 CABU.                     Yes:  Customer Abuse 
 CGEO.          Eldar Huseynov:  Customer Geo 
 COMM.                     ”%\:  Run Comments 1 
 TCS .hr                 87.00:  Time Ciculation Ended 
 CV  .mps                 4.01:  Crit Velocity 
 CVMX.mps                 5.06:  Max Crit Veloc 
 DD1 .             Aziz Aliyev:  Direct Drillr 1 
 DD2 .            Sanan Aliyev:  Direct Drillr 2 
 DDSV.               Geo-Pilot:  DD Service 
 DEFF.%                  95.00:  % Det Eff 
 DLRX.°/30m               0.75:  Dogleg Rot Max 
 DLSO.°/30m               0.65:  Dogleg Oriented 
 DLSX.°/30m               1.39:  Dogleg Str Max 
 DRET.      18.25.00 19-Jan-20:  Drill End Time 
 DRST.      11.56.48 17-Jan-20:  Drill Start Tim 
 DTIM.hr                 27.16:  Time Drilling 
 EDEP.m                5161.01:  End Depth 
 ENG1.          Rasim Hashimov:  Engineer 1 
 ENG2.      Bakhtiyar Jabbarli:  Engineer 2 
 ETIM.      11.56.48 21-Jan-20:  End Time 
 FLOI.gpm               350.00:  Flow In 
 FLON.gpm               300.00:  Flow In Min 
 FLOS.cptm                0.00:  Fluid Loss 
 FLOX.gpm               400.00:  Flow In Max 
 HFLO.                      No:  High Flow 
 HPRE.                      No:  High Pressure 
 HTEM.                      No:  High Temp 
 HYDO.m                   1.85:  Hydro Offset 
 IFIN.deg                71.58:  Inc, Final 
 IMAX.deg                71.83:  Inc Max 
 IMIN.deg                71.12:  Inc Min 
 IMND.m                5099.48:  Inc Min Depth 
 IMXD.m                5071.08:  Inc Max Depth 
 JARR.                      No:  Jarring 
 LETM.      18.25.00 19-Jan-20:  Log End Time 
 LOST.hr                     0:  Lost Rig Time 
 LSTM.      11.56.48 17-Jan-20:  Log Start Time 
 MDCL.ppm             37000.00:  Mud Chlorides 
 MDES.     Inversion Oil/Synthetic:  Mud Desc 
 DFD .sg                  1.34:  Mud Density 
 MDMN.sg                  1.34:  Dens Mud Min 
 MDMX.sg                  1.34:  Dens Mud Max 
 MOIL.                      69:  Run Mud Oil % 
 MOWR.                   69:31:  Run Mud OWR 
 MSND.                     0.1:  Run Mud Sand % 
 MSOL.                    17.6:  Run Mud Solids% 
 DFV .spqt               79.00:  Mud Viscosity 
 MWOD.in                  4.75:  MWD Tool OD 
 MWSI.                      No:  Serv Intrp, MWD 
 OTIM.hr                126.10:  Time Operating 
 PMAX.psia             6000.00:  Press Op, Max 
 PV  .cP                 29.00:  Mud PV 
 RUN .                     400:  Run Number 
 ROPA.m/hr               11.00:  ROP Avg 
 ROPN.m/hr                5.00:  ROP Min 
 ROPX.m/hr               18.00:  ROP Max 
 RPMA.rpm               139.00:  RPM Surface Avg 
 RPMN.rpm               100.00:  RPM Surface Min 
 RPMX.rpm               140.00:  RPM Surface Max 
 RRUN.                     400:  Rig Run Number 
 SAZI.deg               290.22:  Azm, Start 
 SDEP.m                4868.01:  Start Depth 
 SIDD.                      No:  Serv Intrp, DD 
 SINC.deg                71.77:  Inc, Start 
 SPPA.psig             5550.00:  SPP Avg 
 SPPN.psig             4300.00:  SPP Min 
 SPPX.psig             5600.00:  SPP Max 
 STIM.      23.45.48 15-Jan-20:  Start Time 
 SVCS.                 DD, MWD:  Services 
 SVER.                    9.20:  Sperry Version 
 TDAT.m                5161.01:  Tot Depth Attmp 
 TDDF.                      No:  Trip for DD 
 TDLG.m                 295.00:  Tot Depth Loggd 
 TFF .                      No:  Trip for Fail 
 TQAA.f-kp               13.00:  Torque Abs Avg 
 TQAN.f-kp               13.00:  Torque Abs Min 
 TQAX.f-kp               16.00:  Torque Abs Max 
 TRRT.°/30m               0.25:  Turn Rotating 
 MRT .                     ADR:  Maximum Recorded Temperature 
 TTMX.degC               88.00:  Max Tool Temp 
 VS01.                90577859:  Virtual Str1 SN 
 VS02.                90521879:  Virtual Str2 SN 
 VS03.                90580299:  Virtual Str3 SN 
 VS04.                90515982:  Virtual Str4 SN 
 VS05.                90547765:  Virtual Str5 SN 
 WBMN.klb                 2.00:  WOB Min 
 WITN.           Adil Mammadov:  Customer Rep 
 WITN.        Elmaddin Rahimov:  Customer Rep 2 
 WOBA.klb                 3.00:  WOB Avg 
 WOBX.klb                 5.00:  WOB Max 
 YP  .lhf2               30.00:  Yield Point 
~Curve Information Block
#MNEM.UNIT                 API CODE     Curve Description
#---------               -----------    ---------------------------
 TIME.HHMMSS            00 000 000 000:  GT Time & Date
 GTDEPTH.m              00 000 000 000:  GT Depth
 GTPQH.psia             00 000 000 000:  GT HR Quartz Pressure
 GTTQ.degC              00 000 000 000:  GT Quartz Temperature
 GTTN.NONE              00 000 000 000:  GT Test Number
 GTET.sec               00 000 000 000:  GT Elapsed Test Time
 GTTVD.m                00 000 000 000:  GT True Vertical Depth
#Other Information
#
#WARRANTY: Halliburton will use its best efforts to furnish customers with 
#accurate information and interpretations that are part of, and incident to, the services 
#provided.  However, Halliburton cannot and does not warrant the accuracy 
#or correctness of such information and interpretations.  Under no circumstances should any 
#such information or interpretation be relied upon as the sole basis for any drilling, 
#completion, production, or financial decision or any procedure involving any risk to the 
#safety of any drilling venture, drilling rig or its crew or any other third party.  The 
#Customer has full responsibility for all drilling, completion and production operation.  
#Halliburton makes no representations or warranties, either expressed or 
#implied, including, but not limited to, the implied warranties of merchantability or fitness 
#for a particular purpose, with respect to the services rendered.  In no event will 
#Halliburton be liable for failure to obtain any particular results or for 
#any damages, including, but not limited to, indirect, special or consequential damages, 
#resulting from the use of any information or interpretation provided by Halliburton.
#
~A           TIME           GTDEPTH  GTPQH  GTTQ  GTTN  GTET   GTTVD  
# ...
   19:24:55.157.18-Jan-2020 4980.01 4428.58 81.53 3.00  92.02 2836.95
   19:24:55.357.18-Jan-2020 4980.01 4428.58 81.53 3.00  92.22 2836.95
   19:24:55.557.18-Jan-2020 4980.01 4428.59 81.53 3.00  92.42 2836.95
   19:24:55.757.18-Jan-2020 4980.01 4428.61 81.53 3.00  92.62 2836.95
   19:24:55.957.18-Jan-2020 4980.01 4428.59 81.53 3.00  92.82 2836.95
   19:24:56.157.18-Jan-2020 4980.01 4428.60 81.53 3.00  93.02 2836.95
   19:24:56.357.18-Jan-2020 4980.01 4428.60 81.53 3.00  93.22 2836.95
   19:24:56.557.18-Jan-2020 4980.01 4428.59 81.53 3.00  93.42 2836.95
   19:24:56.757.18-Jan-2020 4980.01 4428.48 81.53 3.00  93.62 2836.95
   19:24:56.957.18-Jan-2020 4980.01 4428.68 81.53 3.00  93.82 2836.95
   19:24:57.157.18-Jan-2020 4980.01 4428.57 81.53 3.00  94.02 2836.95
   19:24:57.357.18-Jan-2020 4980.01 4428.57 81.53 3.00  94.22 2836.95
   19:24:57.558.18-Jan-2020 4980.01 4428.59 81.52 3.00  94.42 2836.95
   19:24:57.758.18-Jan-2020 4980.01 4428.52 81.52 3.00  94.62 2836.95
   19:24:57.958.18-Jan-2020 4980.01 4428.62 81.52 3.00  94.82 2836.95
   19:24:58.158.18-Jan-2020 4980.01 4428.61 81.52 3.00  95.02 2836.95
   19:24:58.358.18-Jan-2020 4980.01 4428.61 81.52 3.00  95.22 2836.95
   19:24:58.558.18-Jan-2020 4980.01 4428.60 81.52 3.00  95.42 2836.95
   19:24:58.758.18-Jan-2020 4980.01 4428.60 81.52 3.00  95.62 2836.95
   19:24:58.958.18-Jan-2020 4980.01 4428.48 81.52 3.00  95.82 2836.95
   19:24:59.158.18-Jan-2020 4980.01 4428.68 81.52 3.00  96.02 2836.95
   19:24:59.358.18-Jan-2020 4980.01 4428.68 81.52 3.00  96.22 2836.95
   19:24:59.558.18-Jan-2020 4980.01 4428.61 81.52 3.00  96.42 2836.95
   19:24:59.758.18-Jan-2020 4980.01 4428.60 81.52 3.00  96.62 2836.95
   19:24:59.958.18-Jan-2020 4980.01 4428.58 81.52 3.00  96.82 2836.95
   19:25:00.158.18-Jan-2020 4980.01 4428.59 81.52 3.00  97.02 2836.95
   19:25:00.358.18-Jan-2020 4980.01 4428.59 81.52 3.00  97.22 2836.95
   19:25:00.558.18-Jan-2020 4980.01 4428.52 81.51 3.00  97.42 2836.95
   19:25:00.758.18-Jan-2020 4980.01 4428.57 81.51 3.00  97.62 2836.95
   19:25:00.958.18-Jan-2020 4980.01 4428.61 81.51 3.00  97.82 2836.95
   19:25:01.158.18-Jan-2020 4980.01 4428.58 81.51 3.00  98.02 2836.95
   19:25:01.358.18-Jan-2020 4980.01 4428.58 81.51 3.00  98.22 2836.95
   19:25:01.558.18-Jan-2020 4980.01 4428.57 81.51 3.00  98.42 2836.95
   19:25:01.758.18-Jan-2020 4980.01 4428.56 81.51 3.00  98.62 2836.95
   19:25:01.958.18-Jan-2020 4980.01 4428.58 81.51 3.00  98.82 2836.95
   19:25:02.158.18-Jan-2020 4980.01 4428.55 81.51 3.00  99.02 2836.95
   19:25:02.358.18-Jan-2020 4980.01 4428.55 81.51 3.00  99.22 2836.95
   19:25:02.558.18-Jan-2020 4980.01 4428.55 81.51 3.00  99.42 2836.95
   19:25:02.759.18-Jan-2020 4980.01 4428.58 81.51 3.00  99.62 2836.95
   19:25:02.959.18-Jan-2020 4980.01 4428.54 81.51 3.00  99.82 2836.95
   19:25:03.159.18-Jan-2020 4980.01 4428.56 81.51 3.00 100.02 2836.95
   19:25:03.359.18-Jan-2020 4980.01 4428.56 81.51 3.00 100.22 2836.95
   19:25:03.559.18-Jan-2020 4980.01 4428.55 81.50 3.00 100.42 2836.95
   19:25:03.759.18-Jan-2020 4980.01 4428.48 81.50 3.00 100.62 2836.95
   19:25:03.959.18-Jan-2020 4980.01 4428.56 81.50 3.00 100.82 2836.95
   19:25:04.159.18-Jan-2020 4980.01 4428.59 81.50 3.00 101.02 2836.95
   19:25:04.359.18-Jan-2020 4980.01 4428.59 81.50 3.00 101.22 2836.95
   19:25:04.559.18-Jan-2020 4980.01 4428.57 81.50 3.00 101.42 2836.95
   19:25:04.759.18-Jan-2020 4980.01 4428.54 81.50 3.00 101.62 2836.95
   19:25:04.959.18-Jan-2020 4980.01 4428.57 81.50 3.00 101.82 2836.95
   19:25:05.159.18-Jan-2020 4980.01 4428.53 81.50 3.00 102.02 2836.95
   19:25:05.359.18-Jan-2020 4980.01 4428.53 81.50 3.00 102.22 2836.95
   19:25:05.559.18-Jan-2020 4980.01 4428.53 81.50 3.00 102.42 2836.95
   19:25:05.759.18-Jan-2020 4980.01 4428.56 81.50 3.00 102.62 2836.95
   19:25:05.959.18-Jan-2020 4980.01 4428.52 81.50 3.00 102.82 2836.95
   19:25:06.159.18-Jan-2020 4980.01 4428.55 81.50 3.00 103.02 2836.95
   19:25:06.359.18-Jan-2020 4980.01 4428.55 81.50 3.00 103.22 2836.95
   19:25:06.559.18-Jan-2020 4980.01 4428.53 81.49 3.00 103.42 2836.95
   19:25:06.759.18-Jan-2020 4980.01 4428.54 81.49 3.00 103.62 2836.95
   19:25:06.959.18-Jan-2020 4980.01 4428.51 81.49 3.00 103.82 2836.95
   19:25:07.159.18-Jan-2020 4980.01 4428.38 81.49 3.00 104.02 2836.95
   19:25:07.359.18-Jan-2020 4980.01 4428.38 81.49 3.00 104.22 2836.95
   19:25:07.559.18-Jan-2020 4980.01 4428.55 81.49 3.00 104.42 2836.95
   19:25:07.759.18-Jan-2020 4980.01 4428.54 81.49 3.00 104.62 2836.95
   19:25:07.960.18-Jan-2020 4980.01 4428.50 81.49 3.00 104.82 2836.95
   19:25:08.160.18-Jan-2020 4980.01 4428.54 81.49 3.00 105.02 2836.95
   19:25:08.360.18-Jan-2020 4980.01 4428.54 81.49 3.00 105.22 2836.95
   19:25:08.560.18-Jan-2020 4980.01 4428.57 81.49 3.00 105.42 2836.95
   19:25:08.760.18-Jan-2020 4980.01 4428.52 81.49 3.00 105.62 2836.95
   19:25:08.960.18-Jan-2020 4980.01 4428.54 81.49 3.00 105.82 2836.95
   19:25:09.160.18-Jan-2020 4980.01 4428.53 81.49 3.00 106.02 2836.95
   19:25:09.360.18-Jan-2020 4980.01 4428.53 81.49 3.00 106.22 2836.95
   19:25:09.560.18-Jan-2020 4980.01 4428.62 81.49 3.00 106.42 2836.95
   19:25:09.760.18-Jan-2020 4980.01 4428.54 81.48 3.00 106.62 2836.95
   19:25:09.960.18-Jan-2020 4980.01 4428.52 81.48 3.00 106.82 2836.95
   19:25:10.160.18-Jan-2020 4980.01 4428.54 81.48 3.00 107.02 2836.95
   19:25:10.360.18-Jan-2020 4980.01 4428.54 81.48 3.00 107.22 2836.95
   19:25:10.560.18-Jan-2020 4980.01 4428.53 81.48 3.00 107.42 2836.95
   19:25:10.760.18-Jan-2020 4980.01 4428.46 81.48 3.00 107.62 2836.95
   19:25:10.960.18-Jan-2020 4980.01 4428.55 81.48 3.00 107.82 2836.95
   19:25:11.160.18-Jan-2020 4980.01 4428.49 81.48 3.00 108.02 2836.95
   19:25:11.360.18-Jan-2020 4980.01 4428.49 81.48 3.00 108.22 2836.95
   19:25:11.560.18-Jan-2020 4980.01 4428.52 81.48 3.00 108.42 2836.95
   19:25:11.760.18-Jan-2020 4980.01 4428.53 81.48 3.00 108.62 2836.95
   19:25:11.960.18-Jan-2020 4980.01 4428.53 81.48 3.00 108.82 2836.95
   19:25:12.160.18-Jan-2020 4980.01 4428.50 81.48 3.00 109.02 2836.95
   19:25:12.360.18-Jan-2020 4980.01 4428.50 81.48 3.00 109.22 2836.95
   19:25:12.560.18-Jan-2020 4980.01 4428.50 81.48 3.00 109.42 2836.95
   19:25:12.760.18-Jan-2020 4980.01 4428.51 81.47 3.00 109.62 2836.95
   19:25:12.960.18-Jan-2020 4980.01 4428.49 81.47 3.00 109.82 2836.95
   19:25:13.161.18-Jan-2020 4980.01 4428.52 81.47 3.00 110.02 2836.95
   19:25:13.361.18-Jan-2020 4980.01 4428.52 81.47 3.00 110.22 2836.95
   19:25:13.561.18-Jan-2020 4980.01 4428.50 81.47 3.00 110.42 2836.95
   19:25:13.761.18-Jan-2020 4980.01 4428.50 81.47 3.00 110.62 2836.95
   19:25:13.961.18-Jan-2020 4980.01 4428.44 81.47 3.00 110.82 2836.95
   19:25:14.161.18-Jan-2020 4980.01 4428.51 81.47 3.00 111.02 2836.95
   19:25:14.361.18-Jan-2020 4980.01 4428.51 81.47 3.00 111.22 2836.95
   19:25:14.561.18-Jan-2020 4980.01 4428.55 81.47 3.00 111.42 2836.95
   19:25:14.761.18-Jan-2020 4980.01 4428.49 81.47 3.00 111.62 2836.95
   19:25:14.961.18-Jan-2020 4980.01 4428.53 81.47 3.00 111.82 2836.95
   19:25:15.161.18-Jan-2020 4980.01 4428.49 81.47 3.00 112.02 2836.95
   19:25:15.361.18-Jan-2020 4980.01 4428.49 81.47 3.00 112.22 2836.95
   19:25:15.561.18-Jan-2020 4980.01 4428.48 81.47 3.00 112.42 2836.95
   19:25:15.761.18-Jan-2020 4980.01 4428.50 81.47 3.00 112.62 2836.95
   19:25:15.961.18-Jan-2020 4980.01 4428.49 81.46 3.00 112.82 2836.95
   19:25:16.161.18-Jan-2020 4980.01 4428.49 81.46 3.00 113.02 2836.95
   19:25:16.361.18-Jan-2020 4980.01 4428.49 81.46 3.00 113.22 2836.95
   19:25:16.561.18-Jan-2020 4980.01 4428.47 81.46 3.00 113.42 2836.95
   19:25:16.761.18-Jan-2020 4980.01 4428.49 81.46 3.00 113.62 2836.95
   19:25:16.961.18-Jan-2020 4980.01 4428.47 81.46 3.00 113.82 2836.95
   19:25:17.161.18-Jan-2020 4980.01 4428.49 81.46 3.00 114.02 2836.95
   19:25:17.361.18-Jan-2020 4980.01 4428.49 81.46 3.00 114.22 2836.95
   19:25:17.561.18-Jan-2020 4980.01 4428.43 81.46 3.00 114.42 2836.95
   19:25:17.761.18-Jan-2020 4980.01 4428.48 81.46 3.00 114.62 2836.95
   19:25:17.961.18-Jan-2020 4980.01 4428.54 81.46 3.00 114.82 2836.95
