~Version Information
 VERS.                  2.0:   CWLS log ASCII Standard -VERSION 2.0
 WRAP.                   NO:   One line per depth step
~Well Information Block
#MNEM.UNIT     VALUE/NAME     DESCRIPTION
#---------     -----------    ---------------------------
 STRT.S             16:13:28 18-Jan-20: START TIME 16:13:28 18-Jan-20
 STOP.S             16:21:32 18-Jan-20: STOP TIME  16:21:32 18-Jan-20
 STEP.S                   0.00: STEP TIME
 NULL.                 -999.25: NULL VALUE
 DFWT.                        :  DIST FWL TEXT
 DFST.                        :  DIST FSL TEXT
 DMF .             Drill Floor:  DRILL MEAS FROM
 STIM.      17.57.20 21-Dec-19:  START TIME
 DATE.      17.57.20 21-Dec-19:  END TIME
 SPUD.               21-Dec-19:  SPUD DATE
 NREF.                    Grid:  NORTH REFERENCE
 HPTY.       Minimum Curvature:  HOLE POS TYPE
 DMOD.             Drill Model:  DRILL MOD DESC
 SVYD.                  Survey:  SURVEY DESC
 ILTD.               Lithology:  INTERP LTH DESC
 FTOP.          Formation Tops:  FORM TOPS DESC
 PDAT.          Mean Sea Level:  PERMANENT DATUM
 FLD .                     ACG:  FIELD NAME
 SON .        AZ-XX-0905715376:  JOB NUMBER
 CTRY.              Azerbaijan:  COUNTRY NAME
 WELL.                    E04Y:  WELL NAME
 SRVC.          TURAN DRILLING:  CONTRACTOR
 COMP.     BP Exploration (Caspian Sea) Ltd.:  COMPANY
 WTYP.                Deviated:  WELL TYPE
 UWI .                     N/a:  UNIQUE WELL IDENTIFIER
 API .                     N/a:  API NUMBER
 BASE.              Azerbaijan:  LOGGING EQUIPMENT BASE LOCATION
 REGN.                   EESSA:  REGION
 MWDS.                    Baku:  MWD SHOP
 RIG .                     DWG:  RIG NAME
 DOE .                     N/a:  DOE NUMBER
 CNTY.                    Baku:  COUNTY NAME
 DCON.         Sperry Drilling:  DIRECTNL CONTR
 UNIT.                     N/a:  LOGGING EQUIPMENT ID
 MDS .        Operator Entered:  MAG DATA SOURCE
 PROV.                        :  PROVINCE
 STAT.                        :  STATE
 LOC .                        :  LOCATION
 LMF .             Drill Floor:  LOG MEASURED FROM
 TVDS.m                  43.16:  TVDSS CORRECTN
 LATI.deg                40.17:  LATITUDE
 LONG.deg                51.17:  LONGITUDE
 WHNS.m                  -0.12:  WELL HEAD N/S
 WHEW.m                  -5.41:  WELL HEAD E/W
 UTMX.m              514337.95:  UTM X
 UTMY.m             4448627.46:  UTM Y
 DFWL.m                   0.00:  DISTANCE FWL
 DFSL.m                   0.00:  DISTANCE FSL
 SDEP.m                   0.00:  START DEPTH
 TDD .m                   0.00:  TOTAL DEPTH (DRILLER)
 VSDR.deg               235.12:  VERT SEC DIRECT
 GVFD.g                   1.00:  GRAVITY FIELD
 MFLD.nT              50294.00:  MAGNETIC FIELD
 MDIP.deg                59.61:  MAGNETIC DIP
 MDEC.deg                 6.58:  MAGNETIC DECL
 GRDC.deg                 0.09:  GRID CORRECTION
 AZTC.deg                 6.49:  AZM TOTAL CORR
 EPD .m                   0.00:  ELEVATION
 EGL .m                   0.00:  GROUND ELEVATION
 WDMS.m                 176.20:  WD ELEV
 APD .m                  43.16:  DEPTH ABOVE PD
 DEP .m                3172.61:  DEPTH
 AGAP.m                  43.16:  AIR GAP
 VSEW.m                  -5.41:  VERT SEC E/W
 VSNS.m                  -0.12:  VERT SEC N/S
 EKB .m                  43.16:  KB ELEVATION
 EDF .m                  43.16:  DF ELEVATION
 TDL .m                 295.00:  TOTAL DEPTH (LOGGER)
 VSC .                       0:  VS TO CLOSURE
 MAGU.                 1852276:  MAGUTM CHECKSUM
~Parameter Information Block
#MNEM.UNIT       Value        Description
#---------     -----------    ---------------------------
 AV  .mps                 1.60:  Ann Velocity 
 AVMX.mps                 2.10:  Max Ann Veloc 
 AZIF.deg               290.59:  Azm, Final 
 BHAT.        Rotary Steerable:  BHA Type 
 BROT.°/30m               1.00:  Build Rotating 
 BS  .in                  6.50:  Bit Size 
 BSZ .in                  6.50:  Bit Size 
 BTPL.psig              120.00:  Bit Press Loss 
 CABU.                     Yes:  Customer Abuse 
 CGEO.          Eldar Huseynov:  Customer Geo 
 COMM.                     Ôs:  Run Comments 1 
 TCS .hr                 87.00:  Time Ciculation Ended 
 CV  .mps                 4.01:  Crit Velocity 
 CVMX.mps                 5.06:  Max Crit Veloc 
 DD1 .             Aziz Aliyev:  Direct Drillr 1 
 DD2 .            Sanan Aliyev:  Direct Drillr 2 
 DDSV.               Geo-Pilot:  DD Service 
 DEFF.%                  95.00:  % Det Eff 
 DLRX.°/30m               0.75:  Dogleg Rot Max 
 DLSO.°/30m               0.65:  Dogleg Oriented 
 DLSX.°/30m               1.39:  Dogleg Str Max 
 DRET.      18.25.00 19-Jan-20:  Drill End Time 
 DRST.      11.56.48 17-Jan-20:  Drill Start Tim 
 DTIM.hr                 27.16:  Time Drilling 
 EDEP.m                5161.01:  End Depth 
 ENG1.          Rasim Hashimov:  Engineer 1 
 ENG2.      Bakhtiyar Jabbarli:  Engineer 2 
 ETIM.      11.56.48 21-Jan-20:  End Time 
 FLOI.gpm               350.00:  Flow In 
 FLON.gpm               300.00:  Flow In Min 
 FLOS.cptm                0.00:  Fluid Loss 
 FLOX.gpm               400.00:  Flow In Max 
 HFLO.                      No:  High Flow 
 HPRE.                      No:  High Pressure 
 HTEM.                      No:  High Temp 
 HYDO.m                   1.85:  Hydro Offset 
 IFIN.deg                71.58:  Inc, Final 
 IMAX.deg                71.83:  Inc Max 
 IMIN.deg                71.12:  Inc Min 
 IMND.m                5099.48:  Inc Min Depth 
 IMXD.m                5071.08:  Inc Max Depth 
 JARR.                      No:  Jarring 
 LETM.      18.25.00 19-Jan-20:  Log End Time 
 LOST.hr                     0:  Lost Rig Time 
 LSTM.      11.56.48 17-Jan-20:  Log Start Time 
 MDCL.ppm             37000.00:  Mud Chlorides 
 MDES.     Inversion Oil/Synthetic:  Mud Desc 
 DFD .sg                  1.34:  Mud Density 
 MDMN.sg                  1.34:  Dens Mud Min 
 MDMX.sg                  1.34:  Dens Mud Max 
 MOIL.                      69:  Run Mud Oil % 
 MOWR.                   69:31:  Run Mud OWR 
 MSND.                     0.1:  Run Mud Sand % 
 MSOL.                    17.6:  Run Mud Solids% 
 DFV .spqt               79.00:  Mud Viscosity 
 MWOD.in                  4.75:  MWD Tool OD 
 MWSI.                      No:  Serv Intrp, MWD 
 OTIM.hr                126.10:  Time Operating 
 PMAX.psia             6000.00:  Press Op, Max 
 PV  .cP                 29.00:  Mud PV 
 RUN .                     400:  Run Number 
 ROPA.m/hr               11.00:  ROP Avg 
 ROPN.m/hr                5.00:  ROP Min 
 ROPX.m/hr               18.00:  ROP Max 
 RPMA.rpm               139.00:  RPM Surface Avg 
 RPMN.rpm               100.00:  RPM Surface Min 
 RPMX.rpm               140.00:  RPM Surface Max 
 RRUN.                     400:  Rig Run Number 
 SAZI.deg               290.22:  Azm, Start 
 SDEP.m                4868.01:  Start Depth 
 SIDD.                      No:  Serv Intrp, DD 
 SINC.deg                71.77:  Inc, Start 
 SPPA.psig             5550.00:  SPP Avg 
 SPPN.psig             4300.00:  SPP Min 
 SPPX.psig             5600.00:  SPP Max 
 STIM.      23.45.48 15-Jan-20:  Start Time 
 SVCS.                 DD, MWD:  Services 
 SVER.                    9.20:  Sperry Version 
 TDAT.m                5161.01:  Tot Depth Attmp 
 TDDF.                      No:  Trip for DD 
 TDLG.m                 295.00:  Tot Depth Loggd 
 TFF .                      No:  Trip for Fail 
 TQAA.f-kp               13.00:  Torque Abs Avg 
 TQAN.f-kp               13.00:  Torque Abs Min 
 TQAX.f-kp               16.00:  Torque Abs Max 
 TRRT.°/30m               0.25:  Turn Rotating 
 MRT .                     ADR:  Maximum Recorded Temperature 
 TTMX.degC               88.00:  Max Tool Temp 
 VS01.                90577859:  Virtual Str1 SN 
 VS02.                90521879:  Virtual Str2 SN 
 VS03.                90580299:  Virtual Str3 SN 
 VS04.                90515982:  Virtual Str4 SN 
 VS05.                90547765:  Virtual Str5 SN 
 WBMN.klb                 2.00:  WOB Min 
 WITN.           Adil Mammadov:  Customer Rep 
 WITN.        Elmaddin Rahimov:  Customer Rep 2 
 WOBA.klb                 3.00:  WOB Avg 
 WOBX.klb                 5.00:  WOB Max 
 YP  .lhf2               30.00:  Yield Point 
~Curve Information Block
#MNEM.UNIT                 API CODE     Curve Description
#---------               -----------    ---------------------------
 TIME.HHMMSS            00 000 000 000:  GT Time & Date
 GTDEPTH.m              00 000 000 000:  GT Depth
 GTPQH.psia             00 000 000 000:  GT HR Quartz Pressure
 GTTQ.degC              00 000 000 000:  GT Quartz Temperature
 GTTN.NONE              00 000 000 000:  GT Test Number
 GTET.sec               00 000 000 000:  GT Elapsed Test Time
 GTTVD.m                00 000 000 000:  GT True Vertical Depth
#Other Information
#
#WARRANTY: Halliburton will use its best efforts to furnish customers with 
#accurate information and interpretations that are part of, and incident to, the services 
#provided.  However, Halliburton cannot and does not warrant the accuracy 
#or correctness of such information and interpretations.  Under no circumstances should any 
#such information or interpretation be relied upon as the sole basis for any drilling, 
#completion, production, or financial decision or any procedure involving any risk to the 
#safety of any drilling venture, drilling rig or its crew or any other third party.  The 
#Customer has full responsibility for all drilling, completion and production operation.  
#Halliburton makes no representations or warranties, either expressed or 
#implied, including, but not limited to, the implied warranties of merchantability or fitness 
#for a particular purpose, with respect to the services rendered.  In no event will 
#Halliburton be liable for failure to obtain any particular results or for 
#any damages, including, but not limited to, indirect, special or consequential damages, 
#resulting from the use of any information or interpretation provided by Halliburton.
#
~A           TIME           GTDEPTH  GTPQH  GTTQ  GTTN  GTET   GTTVD  
# ...
   16:16:55.565.18-Jan-2020 4958.01 4406.91 80.39 2.00 207.02 2829.97
   16:16:55.765.18-Jan-2020 4958.01 4406.91 80.39 2.00 207.22 2829.97
   16:16:55.965.18-Jan-2020 4958.01 4406.98 80.39 2.00 207.42 2829.97
   16:16:56.165.18-Jan-2020 4958.01 4406.90 80.39 2.00 207.62 2829.97
   16:16:56.365.18-Jan-2020 4958.01 4406.93 80.39 2.00 207.82 2829.97
   16:16:56.565.18-Jan-2020 4958.01 4406.94 80.39 2.00 208.02 2829.97
   16:16:56.765.18-Jan-2020 4958.01 4406.94 80.39 2.00 208.22 2829.97
   16:16:56.965.18-Jan-2020 4958.01 4406.92 80.39 2.00 208.42 2829.97
   16:16:57.165.18-Jan-2020 4958.01 4406.83 80.39 2.00 208.62 2829.97
   16:16:57.365.18-Jan-2020 4958.01 4406.93 80.39 2.00 208.82 2829.97
   16:16:57.565.18-Jan-2020 4958.01 4406.96 80.38 2.00 209.02 2829.97
   16:16:57.765.18-Jan-2020 4958.01 4406.96 80.38 2.00 209.22 2829.97
   16:16:57.965.18-Jan-2020 4958.01 4406.95 80.38 2.00 209.42 2829.97
   16:16:58.165.18-Jan-2020 4958.01 4406.90 80.38 2.00 209.62 2829.97
   16:16:58.365.18-Jan-2020 4958.01 4406.93 80.38 2.00 209.82 2829.97
   16:16:58.565.18-Jan-2020 4958.01 4406.90 80.38 2.00 210.02 2829.97
   16:16:58.765.18-Jan-2020 4958.01 4406.90 80.38 2.00 210.22 2829.97
   16:16:58.965.18-Jan-2020 4958.01 4406.91 80.38 2.00 210.42 2829.97
   16:16:59.165.18-Jan-2020 4958.01 4406.91 80.38 2.00 210.62 2829.97
   16:16:59.365.18-Jan-2020 4958.01 4406.89 80.38 2.00 210.82 2829.97
   16:16:59.566.18-Jan-2020 4958.01 4406.91 80.38 2.00 211.02 2829.97
   16:16:59.766.18-Jan-2020 4958.01 4406.91 80.38 2.00 211.22 2829.97
   16:16:59.966.18-Jan-2020 4958.01 4406.89 80.38 2.00 211.42 2829.97
   16:17:00.166.18-Jan-2020 4958.01 4406.90 80.38 2.00 211.62 2829.97
   16:17:00.366.18-Jan-2020 4958.01 4406.78 80.38 2.00 211.82 2829.97
   16:17:00.566.18-Jan-2020 4958.01 4406.95 80.38 2.00 212.02 2829.97
   16:17:00.766.18-Jan-2020 4958.01 4406.95 80.38 2.00 212.22 2829.97
   16:17:00.966.18-Jan-2020 4958.01 4406.93 80.38 2.00 212.42 2829.97
   16:17:01.166.18-Jan-2020 4958.01 4406.91 80.37 2.00 212.62 2829.97
   16:17:01.366.18-Jan-2020 4958.01 4406.92 80.37 2.00 212.82 2829.97
   16:17:01.566.18-Jan-2020 4958.01 4406.90 80.37 2.00 213.02 2829.97
   16:17:01.766.18-Jan-2020 4958.01 4406.90 80.37 2.00 213.22 2829.97
   16:17:01.966.18-Jan-2020 4958.01 4406.89 80.37 2.00 213.42 2829.97
   16:17:02.166.18-Jan-2020 4958.01 4406.89 80.37 2.00 213.62 2829.97
   16:17:02.366.18-Jan-2020 4958.01 4406.91 80.37 2.00 213.82 2829.97
   16:17:02.566.18-Jan-2020 4958.01 4406.88 80.37 2.00 214.02 2829.97
   16:17:02.766.18-Jan-2020 4958.01 4406.88 80.37 2.00 214.22 2829.97
   16:17:02.966.18-Jan-2020 4958.01 4406.88 80.37 2.00 214.42 2829.97
   16:17:03.166.18-Jan-2020 4958.01 4406.90 80.37 2.00 214.62 2829.97
   16:17:03.366.18-Jan-2020 4958.01 4406.87 80.37 2.00 214.82 2829.97
   16:17:03.566.18-Jan-2020 4958.01 4406.91 80.37 2.00 215.02 2829.97
   16:17:03.766.18-Jan-2020 4958.01 4406.91 80.37 2.00 215.22 2829.97
   16:17:03.966.18-Jan-2020 4958.01 4407.02 80.37 2.00 215.42 2829.97
   16:17:04.166.18-Jan-2020 4958.01 4406.94 80.37 2.00 215.62 2829.97
   16:17:04.366.18-Jan-2020 4958.01 4406.92 80.37 2.00 215.82 2829.97
   16:17:04.566.18-Jan-2020 4958.01 4406.91 80.37 2.00 216.02 2829.97
   16:17:04.766.18-Jan-2020 4958.01 4406.91 80.37 2.00 216.22 2829.97
   16:17:04.966.18-Jan-2020 4958.01 4406.99 80.36 2.00 216.42 2829.97
   16:17:05.166.18-Jan-2020 4958.01 4406.85 80.36 2.00 216.62 2829.97
   16:17:05.366.18-Jan-2020 4958.01 4406.93 80.36 2.00 216.82 2829.97
   16:17:05.566.18-Jan-2020 4958.01 4406.90 80.36 2.00 217.02 2829.97
   16:17:05.766.18-Jan-2020 4958.01 4406.90 80.36 2.00 217.22 2829.97
   16:17:05.966.18-Jan-2020 4958.01 4406.80 80.36 2.00 217.42 2829.97
   16:17:06.166.18-Jan-2020 4958.01 4406.92 80.36 2.00 217.62 2829.97
   16:17:06.366.18-Jan-2020 4958.01 4406.94 80.36 2.00 217.82 2829.97
   16:17:06.566.18-Jan-2020 4958.01 4406.91 80.36 2.00 218.02 2829.97
   16:17:06.766.18-Jan-2020 4958.01 4406.91 80.36 2.00 218.22 2829.97
   16:17:06.966.18-Jan-2020 4958.01 4406.91 80.36 2.00 218.42 2829.97
   16:17:07.166.18-Jan-2020 4958.01 4406.80 80.36 2.00 218.62 2829.97
   16:17:07.366.18-Jan-2020 4958.01 4406.97 80.36 2.00 218.82 2829.97
   16:17:07.566.18-Jan-2020 4958.01 4406.88 80.36 2.00 219.02 2829.97
   16:17:07.766.18-Jan-2020 4958.01 4406.88 80.36 2.00 219.22 2829.97
   16:17:07.966.18-Jan-2020 4958.01 4406.92 80.36 2.00 219.42 2829.97
   16:17:08.166.18-Jan-2020 4958.01 4406.89 80.35 2.00 219.62 2829.97
   16:17:08.366.18-Jan-2020 4958.01 4406.92 80.35 2.00 219.82 2829.97
   16:17:08.566.18-Jan-2020 4958.01 4406.88 80.35 2.00 220.02 2829.97
   16:17:08.766.18-Jan-2020 4958.01 4406.88 80.35 2.00 220.22 2829.97
   16:17:08.966.18-Jan-2020 4958.01 4406.88 80.35 2.00 220.42 2829.97
   16:17:09.166.18-Jan-2020 4958.01 4406.90 80.35 2.00 220.62 2829.97
   16:17:09.366.18-Jan-2020 4958.01 4406.89 80.35 2.00 220.82 2829.97
   16:17:09.566.18-Jan-2020 4958.01 4406.88 80.35 2.00 221.02 2829.97
   16:17:09.766.18-Jan-2020 4958.01 4406.88 80.35 2.00 221.22 2829.97
   16:17:09.966.18-Jan-2020 4958.01 4406.87 80.35 2.00 221.42 2829.97
   16:17:10.166.18-Jan-2020 4958.01 4406.90 80.35 2.00 221.62 2829.97
   16:17:10.366.18-Jan-2020 4958.01 4406.76 80.35 2.00 221.82 2829.97
   16:17:10.566.18-Jan-2020 4958.01 4406.98 80.35 2.00 222.02 2829.97
   16:17:10.766.18-Jan-2020 4958.01 4406.98 80.35 2.00 222.22 2829.97
   16:17:10.966.18-Jan-2020 4958.01 4406.94 80.35 2.00 222.42 2829.97
   16:17:11.166.18-Jan-2020 4958.01 4406.90 80.35 2.00 222.62 2829.97
   16:17:11.366.18-Jan-2020 4958.01 4406.90 80.35 2.00 222.82 2829.97
   16:17:11.566.18-Jan-2020 4958.01 4406.89 80.35 2.00 223.02 2829.97
   16:17:11.767.18-Jan-2020 4958.01 4406.89 80.35 2.00 223.22 2829.97
   16:17:11.967.18-Jan-2020 4958.01 4406.87 80.34 2.00 223.42 2829.97
   16:17:12.167.18-Jan-2020 4958.01 4406.89 80.34 2.00 223.62 2829.97
   16:17:12.367.18-Jan-2020 4958.01 4406.88 80.34 2.00 223.82 2829.97
   16:17:12.567.18-Jan-2020 4958.01 4406.87 80.34 2.00 224.02 2829.97
   16:17:12.767.18-Jan-2020 4958.01 4406.87 80.34 2.00 224.22 2829.97
   16:17:12.967.18-Jan-2020 4958.01 4406.87 80.34 2.00 224.42 2829.97
   16:17:13.167.18-Jan-2020 4958.01 4406.89 80.34 2.00 224.62 2829.97
   16:17:13.367.18-Jan-2020 4958.01 4406.85 80.34 2.00 224.82 2829.97
   16:17:13.567.18-Jan-2020 4958.01 4406.88 80.34 2.00 225.02 2829.97
   16:17:13.767.18-Jan-2020 4958.01 4406.88 80.34 2.00 225.22 2829.97
   16:17:13.967.18-Jan-2020 4958.01 4406.87 80.34 2.00 225.42 2829.97
   16:17:14.167.18-Jan-2020 4958.01 4406.87 80.34 2.00 225.62 2829.97
   16:17:14.367.18-Jan-2020 4958.01 4406.92 80.34 2.00 225.82 2829.97
   16:17:14.567.18-Jan-2020 4958.01 4406.90 80.34 2.00 226.02 2829.97
   16:17:14.767.18-Jan-2020 4958.01 4406.90 80.34 2.00 226.22 2829.97
   16:17:14.967.18-Jan-2020 4958.01 4406.79 80.34 2.00 226.42 2829.97
   16:17:15.167.18-Jan-2020 4958.01 4406.90 80.34 2.00 226.62 2829.97
   16:17:15.367.18-Jan-2020 4958.01 4406.94 80.33 2.00 226.82 2829.97
   16:17:15.567.18-Jan-2020 4958.01 4406.87 80.33 2.00 227.02 2829.97
   16:17:15.767.18-Jan-2020 4958.01 4406.87 80.33 2.00 227.22 2829.97
   16:17:15.967.18-Jan-2020 4958.01 4406.77 80.33 2.00 227.42 2829.97
   16:17:16.167.18-Jan-2020 4958.01 4407.00 80.33 2.00 227.62 2829.97
   16:17:16.367.18-Jan-2020 4958.01 4406.84 80.33 2.00 227.82 2829.97
   16:17:16.567.18-Jan-2020 4958.01 4406.92 80.33 2.00 228.02 2829.97
   16:17:16.767.18-Jan-2020 4958.01 4406.92 80.33 2.00 228.22 2829.97
   16:17:16.967.18-Jan-2020 4958.01 4406.90 80.33 2.00 228.42 2829.97
   16:17:17.167.18-Jan-2020 4958.01 4406.89 80.33 2.00 228.62 2829.97
   16:17:17.367.18-Jan-2020 4958.01 4406.79 80.33 2.00 228.82 2829.97
   16:17:17.567.18-Jan-2020 4958.01 4406.92 80.33 2.00 229.02 2829.97
   16:17:17.767.18-Jan-2020 4958.01 4406.92 80.33 2.00 229.22 2829.97
   16:17:17.967.18-Jan-2020 4958.01 4406.91 80.33 2.00 229.42 2829.97
   16:17:18.167.18-Jan-2020 4958.01 4406.88 80.33 2.00 229.62 2829.97
   16:17:18.367.18-Jan-2020 4958.01 4406.91 80.33 2.00 229.82 2829.97
