~Version Information
 VERS.                  2.0:   CWLS log ASCII Standard -VERSION 2.0
 WRAP.                   NO:   One line per depth step
~Well Information Block
#MNEM.UNIT     VALUE/NAME     DESCRIPTION
#---------     -----------    ---------------------------
 STRT.S             19:23:23 18-Jan-20: START TIME 19:23:23 18-Jan-20
 STOP.S             19:31:15 18-Jan-20: STOP TIME  19:31:15 18-Jan-20
 STEP.S                   0.00: STEP TIME
 NULL.                 -999.25: NULL VALUE
 DFWT.                        :  DIST FWL TEXT
 DFST.                        :  DIST FSL TEXT
 DMF .             Drill Floor:  DRILL MEAS FROM
 STIM.      17.57.20 21-Dec-19:  START TIME
 DATE.      17.57.20 21-Dec-19:  END TIME
 SPUD.               21-Dec-19:  SPUD DATE
 NREF.                    Grid:  NORTH REFERENCE
 HPTY.       Minimum Curvature:  HOLE POS TYPE
 DMOD.             Drill Model:  DRILL MOD DESC
 SVYD.                  Survey:  SURVEY DESC
 ILTD.               Lithology:  INTERP LTH DESC
 FTOP.          Formation Tops:  FORM TOPS DESC
 PDAT.          Mean Sea Level:  PERMANENT DATUM
 FLD .                     ACG:  FIELD NAME
 SON .        AZ-XX-0905715376:  JOB NUMBER
 CTRY.              Azerbaijan:  COUNTRY NAME
 WELL.                    E04Y:  WELL NAME
 SRVC.          TURAN DRILLING:  CONTRACTOR
 COMP.     BP Exploration (Caspian Sea) Ltd.:  COMPANY
 WTYP.                Deviated:  WELL TYPE
 UWI .                     N/a:  UNIQUE WELL IDENTIFIER
 API .                     N/a:  API NUMBER
 BASE.              Azerbaijan:  LOGGING EQUIPMENT BASE LOCATION
 REGN.                   EESSA:  REGION
 MWDS.                    Baku:  MWD SHOP
 RIG .                     DWG:  RIG NAME
 DOE .                     N/a:  DOE NUMBER
 CNTY.                    Baku:  COUNTY NAME
 DCON.         Sperry Drilling:  DIRECTNL CONTR
 UNIT.                     N/a:  LOGGING EQUIPMENT ID
 MDS .        Operator Entered:  MAG DATA SOURCE
 PROV.                        :  PROVINCE
 STAT.                        :  STATE
 LOC .                        :  LOCATION
 LMF .             Drill Floor:  LOG MEASURED FROM
 TVDS.m                  43.16:  TVDSS CORRECTN
 LATI.deg                40.17:  LATITUDE
 LONG.deg                51.17:  LONGITUDE
 WHNS.m                  -0.12:  WELL HEAD N/S
 WHEW.m                  -5.41:  WELL HEAD E/W
 UTMX.m              514337.95:  UTM X
 UTMY.m             4448627.46:  UTM Y
 DFWL.m                   0.00:  DISTANCE FWL
 DFSL.m                   0.00:  DISTANCE FSL
 SDEP.m                   0.00:  START DEPTH
 TDD .m                   0.00:  TOTAL DEPTH (DRILLER)
 VSDR.deg               235.12:  VERT SEC DIRECT
 GVFD.g                   1.00:  GRAVITY FIELD
 MFLD.nT              50294.00:  MAGNETIC FIELD
 MDIP.deg                59.61:  MAGNETIC DIP
 MDEC.deg                 6.58:  MAGNETIC DECL
 GRDC.deg                 0.09:  GRID CORRECTION
 AZTC.deg                 6.49:  AZM TOTAL CORR
 EPD .m                   0.00:  ELEVATION
 EGL .m                   0.00:  GROUND ELEVATION
 WDMS.m                 176.20:  WD ELEV
 APD .m                  43.16:  DEPTH ABOVE PD
 DEP .m                3172.61:  DEPTH
 AGAP.m                  43.16:  AIR GAP
 VSEW.m                  -5.41:  VERT SEC E/W
 VSNS.m                  -0.12:  VERT SEC N/S
 EKB .m                  43.16:  KB ELEVATION
 EDF .m                  43.16:  DF ELEVATION
 TDL .m                 295.00:  TOTAL DEPTH (LOGGER)
 VSC .                       0:  VS TO CLOSURE
 MAGU.                 1852276:  MAGUTM CHECKSUM
~Parameter Information Block
#MNEM.UNIT       Value        Description
#---------     -----------    ---------------------------
 AV  .mps                 1.60:  Ann Velocity 
 AVMX.mps                 2.10:  Max Ann Veloc 
 AZIF.deg               290.59:  Azm, Final 
 BHAT.        Rotary Steerable:  BHA Type 
 BROT.°/30m               1.00:  Build Rotating 
 BS  .in                  6.50:  Bit Size 
 BSZ .in                  6.50:  Bit Size 
 BTPL.psig              120.00:  Bit Press Loss 
 CABU.                     Yes:  Customer Abuse 
 CGEO.          Eldar Huseynov:  Customer Geo 
 COMM.                     ”%\:  Run Comments 1 
 TCS .hr                 87.00:  Time Ciculation Ended 
 CV  .mps                 4.01:  Crit Velocity 
 CVMX.mps                 5.06:  Max Crit Veloc 
 DD1 .             Aziz Aliyev:  Direct Drillr 1 
 DD2 .            Sanan Aliyev:  Direct Drillr 2 
 DDSV.               Geo-Pilot:  DD Service 
 DEFF.%                  95.00:  % Det Eff 
 DLRX.°/30m               0.75:  Dogleg Rot Max 
 DLSO.°/30m               0.65:  Dogleg Oriented 
 DLSX.°/30m               1.39:  Dogleg Str Max 
 DRET.      18.25.00 19-Jan-20:  Drill End Time 
 DRST.      11.56.48 17-Jan-20:  Drill Start Tim 
 DTIM.hr                 27.16:  Time Drilling 
 EDEP.m                5161.01:  End Depth 
 ENG1.          Rasim Hashimov:  Engineer 1 
 ENG2.      Bakhtiyar Jabbarli:  Engineer 2 
 ETIM.      11.56.48 21-Jan-20:  End Time 
 FLOI.gpm               350.00:  Flow In 
 FLON.gpm               300.00:  Flow In Min 
 FLOS.cptm                0.00:  Fluid Loss 
 FLOX.gpm               400.00:  Flow In Max 
 HFLO.                      No:  High Flow 
 HPRE.                      No:  High Pressure 
 HTEM.                      No:  High Temp 
 HYDO.m                   1.85:  Hydro Offset 
 IFIN.deg                71.58:  Inc, Final 
 IMAX.deg                71.83:  Inc Max 
 IMIN.deg                71.12:  Inc Min 
 IMND.m                5099.48:  Inc Min Depth 
 IMXD.m                5071.08:  Inc Max Depth 
 JARR.                      No:  Jarring 
 LETM.      18.25.00 19-Jan-20:  Log End Time 
 LOST.hr                     0:  Lost Rig Time 
 LSTM.      11.56.48 17-Jan-20:  Log Start Time 
 MDCL.ppm             37000.00:  Mud Chlorides 
 MDES.     Inversion Oil/Synthetic:  Mud Desc 
 DFD .sg                  1.34:  Mud Density 
 MDMN.sg                  1.34:  Dens Mud Min 
 MDMX.sg                  1.34:  Dens Mud Max 
 MOIL.                      69:  Run Mud Oil % 
 MOWR.                   69:31:  Run Mud OWR 
 MSND.                     0.1:  Run Mud Sand % 
 MSOL.                    17.6:  Run Mud Solids% 
 DFV .spqt               79.00:  Mud Viscosity 
 MWOD.in                  4.75:  MWD Tool OD 
 MWSI.                      No:  Serv Intrp, MWD 
 OTIM.hr                126.10:  Time Operating 
 PMAX.psia             6000.00:  Press Op, Max 
 PV  .cP                 29.00:  Mud PV 
 RUN .                     400:  Run Number 
 ROPA.m/hr               11.00:  ROP Avg 
 ROPN.m/hr                5.00:  ROP Min 
 ROPX.m/hr               18.00:  ROP Max 
 RPMA.rpm               139.00:  RPM Surface Avg 
 RPMN.rpm               100.00:  RPM Surface Min 
 RPMX.rpm               140.00:  RPM Surface Max 
 RRUN.                     400:  Rig Run Number 
 SAZI.deg               290.22:  Azm, Start 
 SDEP.m                4868.01:  Start Depth 
 SIDD.                      No:  Serv Intrp, DD 
 SINC.deg                71.77:  Inc, Start 
 SPPA.psig             5550.00:  SPP Avg 
 SPPN.psig             4300.00:  SPP Min 
 SPPX.psig             5600.00:  SPP Max 
 STIM.      23.45.48 15-Jan-20:  Start Time 
 SVCS.                 DD, MWD:  Services 
 SVER.                    9.20:  Sperry Version 
 TDAT.m                5161.01:  Tot Depth Attmp 
 TDDF.                      No:  Trip for DD 
 TDLG.m                 295.00:  Tot Depth Loggd 
 TFF .                      No:  Trip for Fail 
 TQAA.f-kp               13.00:  Torque Abs Avg 
 TQAN.f-kp               13.00:  Torque Abs Min 
 TQAX.f-kp               16.00:  Torque Abs Max 
 TRRT.°/30m               0.25:  Turn Rotating 
 MRT .                     ADR:  Maximum Recorded Temperature 
 TTMX.degC               88.00:  Max Tool Temp 
 VS01.                90577859:  Virtual Str1 SN 
 VS02.                90521879:  Virtual Str2 SN 
 VS03.                90580299:  Virtual Str3 SN 
 VS04.                90515982:  Virtual Str4 SN 
 VS05.                90547765:  Virtual Str5 SN 
 WBMN.klb                 2.00:  WOB Min 
 WITN.           Adil Mammadov:  Customer Rep 
 WITN.        Elmaddin Rahimov:  Customer Rep 2 
 WOBA.klb                 3.00:  WOB Avg 
 WOBX.klb                 5.00:  WOB Max 
 YP  .lhf2               30.00:  Yield Point 
~Curve Information Block
#MNEM.UNIT                 API CODE     Curve Description
#---------               -----------    ---------------------------
 TIME.HHMMSS            00 000 000 000:  GT Time & Date
 GTDEPTH.m              00 000 000 000:  GT Depth
 GTPQH.psia             00 000 000 000:  GT HR Quartz Pressure
 GTTQ.degC              00 000 000 000:  GT Quartz Temperature
 GTTN.NONE              00 000 000 000:  GT Test Number
 GTET.sec               00 000 000 000:  GT Elapsed Test Time
 GTTVD.m                00 000 000 000:  GT True Vertical Depth
#Other Information
#
#WARRANTY: Halliburton will use its best efforts to furnish customers with 
#accurate information and interpretations that are part of, and incident to, the services 
#provided.  However, Halliburton cannot and does not warrant the accuracy 
#or correctness of such information and interpretations.  Under no circumstances should any 
#such information or interpretation be relied upon as the sole basis for any drilling, 
#completion, production, or financial decision or any procedure involving any risk to the 
#safety of any drilling venture, drilling rig or its crew or any other third party.  The 
#Customer has full responsibility for all drilling, completion and production operation.  
#Halliburton makes no representations or warranties, either expressed or 
#implied, including, but not limited to, the implied warranties of merchantability or fitness 
#for a particular purpose, with respect to the services rendered.  In no event will 
#Halliburton be liable for failure to obtain any particular results or for 
#any damages, including, but not limited to, indirect, special or consequential damages, 
#resulting from the use of any information or interpretation provided by Halliburton.
#
~A           TIME           GTDEPTH  GTPQH  GTTQ  GTTN  GTET   GTTVD  
# ...
   19:31:03.228.18-Jan-2020 4980.01 6059.29 80.55 3.00 460.09 2836.95
   19:31:03.428.18-Jan-2020 4980.01 6059.29 80.55 3.00 460.29 2836.95
   19:31:03.628.18-Jan-2020 4980.01 6060.63 80.55 3.00 460.49 2836.95
   19:31:03.828.18-Jan-2020 4980.01 6060.70 80.55 3.00 460.69 2836.95
   19:31:04.029.18-Jan-2020 4980.01 6062.01 80.54 3.00 460.89 2836.95
   19:31:04.229.18-Jan-2020 4980.01 6060.22 80.54 3.00 461.09 2836.95
   19:31:04.429.18-Jan-2020 4980.01 6060.22 80.54 3.00 461.29 2836.95
   19:31:04.629.18-Jan-2020 4980.01 6059.83 80.54 3.00 461.49 2836.95
   19:31:04.829.18-Jan-2020 4980.01 6062.20 80.54 3.00 461.69 2836.95
   19:31:05.029.18-Jan-2020 4980.01 6049.26 80.54 3.00 461.89 2836.95
   19:31:05.229.18-Jan-2020 4980.01 6061.18 80.54 3.00 462.09 2836.95
   19:31:05.429.18-Jan-2020 4980.01 6061.18 80.54 3.00 462.29 2836.95
   19:31:05.629.18-Jan-2020 4980.01 6060.61 80.54 3.00 462.49 2836.95
   19:31:05.829.18-Jan-2020 4980.01 6059.88 80.54 3.00 462.69 2836.95
   19:31:06.029.18-Jan-2020 4980.01 6059.50 80.54 3.00 462.89 2836.95
   19:31:06.229.18-Jan-2020 4980.01 6060.19 80.54 3.00 463.09 2836.95
   19:31:06.429.18-Jan-2020 4980.01 6060.19 80.54 3.00 463.29 2836.95
   19:31:06.629.18-Jan-2020 4980.01 6059.90 80.54 3.00 463.49 2836.95
   19:31:06.829.18-Jan-2020 4980.01 6057.64 80.54 3.00 463.69 2836.95
   19:31:07.029.18-Jan-2020 4980.01 6060.08 80.54 3.00 463.89 2836.95
   19:31:07.229.18-Jan-2020 4980.01 6057.62 80.54 3.00 464.09 2836.95
   19:31:07.429.18-Jan-2020 4980.01 6057.62 80.54 3.00 464.29 2836.95
   19:31:07.629.18-Jan-2020 4980.01 6057.63 80.54 3.00 464.49 2836.95
   19:31:07.829.18-Jan-2020 4980.01 6059.18 80.54 3.00 464.69 2836.95
   19:31:08.029.18-Jan-2020 4980.01 6058.53 80.54 3.00 464.89 2836.95
   19:31:08.229.18-Jan-2020 4980.01 6058.95 80.54 3.00 465.09 2836.95
   19:31:08.429.18-Jan-2020 4980.01 6058.95 80.54 3.00 465.29 2836.95
   19:31:08.629.18-Jan-2020 4980.01 6049.44 80.53 3.00 465.49 2836.95
   19:31:08.829.18-Jan-2020 4980.01 6058.33 80.53 3.00 465.69 2836.95
   19:31:09.029.18-Jan-2020 4980.01 6057.62 80.53 3.00 465.89 2836.95
   19:31:09.230.18-Jan-2020 4980.01 6060.30 80.53 3.00 466.09 2836.95
   19:31:09.430.18-Jan-2020 4980.01 6060.30 80.53 3.00 466.29 2836.95
   19:31:09.630.18-Jan-2020 4980.01 6060.46 80.53 3.00 466.49 2836.95
   19:31:09.830.18-Jan-2020 4980.01 6058.31 80.53 3.00 466.69 2836.95
   19:31:10.030.18-Jan-2020 4980.01 6056.98 80.53 3.00 466.89 2836.95
   19:31:10.230.18-Jan-2020 4980.01 6053.93 80.53 3.00 467.09 2836.95
   19:31:10.430.18-Jan-2020 4980.01 6053.93 80.53 3.00 467.29 2836.95
   19:31:10.630.18-Jan-2020 4980.01 6059.54 80.53 3.00 467.49 2836.95
   19:31:10.830.18-Jan-2020 4980.01 6058.74 80.53 3.00 467.69 2836.95
   19:31:11.030.18-Jan-2020 4980.01 6051.63 80.53 3.00 467.89 2836.95
   19:31:11.230.18-Jan-2020 4980.01 6056.55 80.53 3.00 468.09 2836.95
   19:31:11.430.18-Jan-2020 4980.01 6056.55 80.53 3.00 468.29 2836.95
   19:31:11.630.18-Jan-2020 4980.01 6057.39 80.53 3.00 468.49 2836.95
   19:31:11.830.18-Jan-2020 4980.01 6060.29 80.53 3.00 468.69 2836.95
   19:31:12.030.18-Jan-2020 4980.01 6058.15 80.53 3.00 468.89 2836.95
   19:31:12.230.18-Jan-2020 4980.01 6061.28 80.53 3.00 469.09 2836.95
   19:31:12.430.18-Jan-2020 4980.01 6061.28 80.53 3.00 469.29 2836.95
   19:31:12.630.18-Jan-2020 4980.01 6063.37 80.52 3.00 469.49 2836.95
   19:31:12.830.18-Jan-2020 4980.01 6054.28 80.52 3.00 469.69 2836.95
   19:31:13.030.18-Jan-2020 4980.01 6060.44 80.52 3.00 469.89 2836.95
   19:31:13.230.18-Jan-2020 4980.01 6058.60 80.52 3.00 470.09 2836.95
   19:31:13.430.18-Jan-2020 4980.01 6058.60 80.52 3.00 470.29 2836.95
   19:31:13.630.18-Jan-2020 4980.01 6059.49 80.52 3.00 470.49 2836.95
   19:31:13.830.18-Jan-2020 4980.01 6058.33 80.52 3.00 470.69 2836.95
   19:31:14.030.18-Jan-2020 4980.01 6060.96 80.52 3.00 470.89 2836.95
   19:31:14.231.18-Jan-2020 4980.01 6058.34 80.52 3.00 471.09 2836.95
   19:31:14.431.18-Jan-2020 4980.01 6058.34 80.52 3.00 471.29 2836.95
   19:31:14.631.18-Jan-2020 4980.01 6058.32 80.52 3.00 471.49 2836.95
   19:31:14.831.18-Jan-2020 4980.01 6060.95 80.52 3.00 471.69 2836.95
   19:31:15.031.18-Jan-2020 4980.01 6058.68 80.52 3.00 471.89 2836.95
