~Version Information
 VERS.                  2.0:   CWLS log ASCII Standard -VERSION 2.0
 WRAP.                   NO:   One line per depth step
~Well Information Block
#MNEM.UNIT     VALUE/NAME     DESCRIPTION
#---------     -----------    ---------------------------
 STRT.S             19:23:23 18-Jan-20: START TIME 19:23:23 18-Jan-20
 STOP.S             19:31:15 18-Jan-20: STOP TIME  19:31:15 18-Jan-20
 STEP.S                   0.00: STEP TIME
 NULL.                 -999.25: NULL VALUE
 DFWT.                        :  DIST FWL TEXT
 DFST.                        :  DIST FSL TEXT
 DMF .             Drill Floor:  DRILL MEAS FROM
 STIM.      17.57.20 21-Dec-19:  START TIME
 DATE.      17.57.20 21-Dec-19:  END TIME
 SPUD.               21-Dec-19:  SPUD DATE
 NREF.                    Grid:  NORTH REFERENCE
 HPTY.       Minimum Curvature:  HOLE POS TYPE
 DMOD.             Drill Model:  DRILL MOD DESC
 SVYD.                  Survey:  SURVEY DESC
 ILTD.               Lithology:  INTERP LTH DESC
 FTOP.          Formation Tops:  FORM TOPS DESC
 PDAT.          Mean Sea Level:  PERMANENT DATUM
 FLD .                     ACG:  FIELD NAME
 SON .        AZ-XX-0905715376:  JOB NUMBER
 CTRY.              Azerbaijan:  COUNTRY NAME
 WELL.                    E04Y:  WELL NAME
 SRVC.          TURAN DRILLING:  CONTRACTOR
 COMP.     BP Exploration (Caspian Sea) Ltd.:  COMPANY
 WTYP.                Deviated:  WELL TYPE
 UWI .                     N/a:  UNIQUE WELL IDENTIFIER
 API .                     N/a:  API NUMBER
 BASE.              Azerbaijan:  LOGGING EQUIPMENT BASE LOCATION
 REGN.                   EESSA:  REGION
 MWDS.                    Baku:  MWD SHOP
 RIG .                     DWG:  RIG NAME
 DOE .                     N/a:  DOE NUMBER
 CNTY.                    Baku:  COUNTY NAME
 DCON.         Sperry Drilling:  DIRECTNL CONTR
 UNIT.                     N/a:  LOGGING EQUIPMENT ID
 MDS .        Operator Entered:  MAG DATA SOURCE
 PROV.                        :  PROVINCE
 STAT.                        :  STATE
 LOC .                        :  LOCATION
 LMF .             Drill Floor:  LOG MEASURED FROM
 TVDS.m                  43.16:  TVDSS CORRECTN
 LATI.deg                40.17:  LATITUDE
 LONG.deg                51.17:  LONGITUDE
 WHNS.m                  -0.12:  WELL HEAD N/S
 WHEW.m                  -5.41:  WELL HEAD E/W
 UTMX.m              514337.95:  UTM X
 UTMY.m             4448627.46:  UTM Y
 DFWL.m                   0.00:  DISTANCE FWL
 DFSL.m                   0.00:  DISTANCE FSL
 SDEP.m                   0.00:  START DEPTH
 TDD .m                   0.00:  TOTAL DEPTH (DRILLER)
 VSDR.deg               235.12:  VERT SEC DIRECT
 GVFD.g                   1.00:  GRAVITY FIELD
 MFLD.nT              50294.00:  MAGNETIC FIELD
 MDIP.deg                59.61:  MAGNETIC DIP
 MDEC.deg                 6.58:  MAGNETIC DECL
 GRDC.deg                 0.09:  GRID CORRECTION
 AZTC.deg                 6.49:  AZM TOTAL CORR
 EPD .m                   0.00:  ELEVATION
 EGL .m                   0.00:  GROUND ELEVATION
 WDMS.m                 176.20:  WD ELEV
 APD .m                  43.16:  DEPTH ABOVE PD
 DEP .m                3172.61:  DEPTH
 AGAP.m                  43.16:  AIR GAP
 VSEW.m                  -5.41:  VERT SEC E/W
 VSNS.m                  -0.12:  VERT SEC N/S
 EKB .m                  43.16:  KB ELEVATION
 EDF .m                  43.16:  DF ELEVATION
 TDL .m                 295.00:  TOTAL DEPTH (LOGGER)
 VSC .                       0:  VS TO CLOSURE
 MAGU.                 1852276:  MAGUTM CHECKSUM
~Parameter Information Block
#MNEM.UNIT       Value        Description
#---------     -----------    ---------------------------
 AV  .mps                 1.60:  Ann Velocity 
 AVMX.mps                 2.10:  Max Ann Veloc 
 AZIF.deg               290.59:  Azm, Final 
 BHAT.        Rotary Steerable:  BHA Type 
 BROT.°/30m               1.00:  Build Rotating 
 BS  .in                  6.50:  Bit Size 
 BSZ .in                  6.50:  Bit Size 
 BTPL.psig              120.00:  Bit Press Loss 
 CABU.                     Yes:  Customer Abuse 
 CGEO.          Eldar Huseynov:  Customer Geo 
 COMM.                     ”%\:  Run Comments 1 
 TCS .hr                 87.00:  Time Ciculation Ended 
 CV  .mps                 4.01:  Crit Velocity 
 CVMX.mps                 5.06:  Max Crit Veloc 
 DD1 .             Aziz Aliyev:  Direct Drillr 1 
 DD2 .            Sanan Aliyev:  Direct Drillr 2 
 DDSV.               Geo-Pilot:  DD Service 
 DEFF.%                  95.00:  % Det Eff 
 DLRX.°/30m               0.75:  Dogleg Rot Max 
 DLSO.°/30m               0.65:  Dogleg Oriented 
 DLSX.°/30m               1.39:  Dogleg Str Max 
 DRET.      18.25.00 19-Jan-20:  Drill End Time 
 DRST.      11.56.48 17-Jan-20:  Drill Start Tim 
 DTIM.hr                 27.16:  Time Drilling 
 EDEP.m                5161.01:  End Depth 
 ENG1.          Rasim Hashimov:  Engineer 1 
 ENG2.      Bakhtiyar Jabbarli:  Engineer 2 
 ETIM.      11.56.48 21-Jan-20:  End Time 
 FLOI.gpm               350.00:  Flow In 
 FLON.gpm               300.00:  Flow In Min 
 FLOS.cptm                0.00:  Fluid Loss 
 FLOX.gpm               400.00:  Flow In Max 
 HFLO.                      No:  High Flow 
 HPRE.                      No:  High Pressure 
 HTEM.                      No:  High Temp 
 HYDO.m                   1.85:  Hydro Offset 
 IFIN.deg                71.58:  Inc, Final 
 IMAX.deg                71.83:  Inc Max 
 IMIN.deg                71.12:  Inc Min 
 IMND.m                5099.48:  Inc Min Depth 
 IMXD.m                5071.08:  Inc Max Depth 
 JARR.                      No:  Jarring 
 LETM.      18.25.00 19-Jan-20:  Log End Time 
 LOST.hr                     0:  Lost Rig Time 
 LSTM.      11.56.48 17-Jan-20:  Log Start Time 
 MDCL.ppm             37000.00:  Mud Chlorides 
 MDES.     Inversion Oil/Synthetic:  Mud Desc 
 DFD .sg                  1.34:  Mud Density 
 MDMN.sg                  1.34:  Dens Mud Min 
 MDMX.sg                  1.34:  Dens Mud Max 
 MOIL.                      69:  Run Mud Oil % 
 MOWR.                   69:31:  Run Mud OWR 
 MSND.                     0.1:  Run Mud Sand % 
 MSOL.                    17.6:  Run Mud Solids% 
 DFV .spqt               79.00:  Mud Viscosity 
 MWOD.in                  4.75:  MWD Tool OD 
 MWSI.                      No:  Serv Intrp, MWD 
 OTIM.hr                126.10:  Time Operating 
 PMAX.psia             6000.00:  Press Op, Max 
 PV  .cP                 29.00:  Mud PV 
 RUN .                     400:  Run Number 
 ROPA.m/hr               11.00:  ROP Avg 
 ROPN.m/hr                5.00:  ROP Min 
 ROPX.m/hr               18.00:  ROP Max 
 RPMA.rpm               139.00:  RPM Surface Avg 
 RPMN.rpm               100.00:  RPM Surface Min 
 RPMX.rpm               140.00:  RPM Surface Max 
 RRUN.                     400:  Rig Run Number 
 SAZI.deg               290.22:  Azm, Start 
 SDEP.m                4868.01:  Start Depth 
 SIDD.                      No:  Serv Intrp, DD 
 SINC.deg                71.77:  Inc, Start 
 SPPA.psig             5550.00:  SPP Avg 
 SPPN.psig             4300.00:  SPP Min 
 SPPX.psig             5600.00:  SPP Max 
 STIM.      23.45.48 15-Jan-20:  Start Time 
 SVCS.                 DD, MWD:  Services 
 SVER.                    9.20:  Sperry Version 
 TDAT.m                5161.01:  Tot Depth Attmp 
 TDDF.                      No:  Trip for DD 
 TDLG.m                 295.00:  Tot Depth Loggd 
 TFF .                      No:  Trip for Fail 
 TQAA.f-kp               13.00:  Torque Abs Avg 
 TQAN.f-kp               13.00:  Torque Abs Min 
 TQAX.f-kp               16.00:  Torque Abs Max 
 TRRT.°/30m               0.25:  Turn Rotating 
 MRT .                     ADR:  Maximum Recorded Temperature 
 TTMX.degC               88.00:  Max Tool Temp 
 VS01.                90577859:  Virtual Str1 SN 
 VS02.                90521879:  Virtual Str2 SN 
 VS03.                90580299:  Virtual Str3 SN 
 VS04.                90515982:  Virtual Str4 SN 
 VS05.                90547765:  Virtual Str5 SN 
 WBMN.klb                 2.00:  WOB Min 
 WITN.           Adil Mammadov:  Customer Rep 
 WITN.        Elmaddin Rahimov:  Customer Rep 2 
 WOBA.klb                 3.00:  WOB Avg 
 WOBX.klb                 5.00:  WOB Max 
 YP  .lhf2               30.00:  Yield Point 
~Curve Information Block
#MNEM.UNIT                 API CODE     Curve Description
#---------               -----------    ---------------------------
 TIME.HHMMSS            00 000 000 000:  GT Time & Date
 GTDEPTH.m              00 000 000 000:  GT Depth
 GTPQH.psia             00 000 000 000:  GT HR Quartz Pressure
 GTTQ.degC              00 000 000 000:  GT Quartz Temperature
 GTTN.NONE              00 000 000 000:  GT Test Number
 GTET.sec               00 000 000 000:  GT Elapsed Test Time
 GTTVD.m                00 000 000 000:  GT True Vertical Depth
#Other Information
#
#WARRANTY: Halliburton will use its best efforts to furnish customers with 
#accurate information and interpretations that are part of, and incident to, the services 
#provided.  However, Halliburton cannot and does not warrant the accuracy 
#or correctness of such information and interpretations.  Under no circumstances should any 
#such information or interpretation be relied upon as the sole basis for any drilling, 
#completion, production, or financial decision or any procedure involving any risk to the 
#safety of any drilling venture, drilling rig or its crew or any other third party.  The 
#Customer has full responsibility for all drilling, completion and production operation.  
#Halliburton makes no representations or warranties, either expressed or 
#implied, including, but not limited to, the implied warranties of merchantability or fitness 
#for a particular purpose, with respect to the services rendered.  In no event will 
#Halliburton be liable for failure to obtain any particular results or for 
#any damages, including, but not limited to, indirect, special or consequential damages, 
#resulting from the use of any information or interpretation provided by Halliburton.
#
~A           TIME           GTDEPTH  GTPQH  GTTQ  GTTN  GTET   GTTVD  
# ...
   19:29:08.206.18-Jan-2020 4980.01 4428.22 80.82 3.00 345.07 2836.95
   19:29:08.406.18-Jan-2020 4980.01 4428.22 80.82 3.00 345.27 2836.95
   19:29:08.606.18-Jan-2020 4980.01 4428.19 80.82 3.00 345.47 2836.95
   19:29:08.806.18-Jan-2020 4980.01 4428.15 80.82 3.00 345.67 2836.95
   19:29:09.006.18-Jan-2020 4980.01 4428.18 80.82 3.00 345.87 2836.95
   19:29:09.206.18-Jan-2020 4980.01 4428.15 80.81 3.00 346.07 2836.95
   19:29:09.406.18-Jan-2020 4980.01 4428.15 80.81 3.00 346.27 2836.95
   19:29:09.606.18-Jan-2020 4980.01 4428.15 80.81 3.00 346.47 2836.95
   19:29:09.806.18-Jan-2020 4980.01 4428.16 80.81 3.00 346.67 2836.95
   19:29:10.006.18-Jan-2020 4980.01 4428.15 80.81 3.00 346.87 2836.95
   19:29:10.206.18-Jan-2020 4980.01 4428.15 80.81 3.00 347.07 2836.95
   19:29:10.407.18-Jan-2020 4980.01 4428.15 80.81 3.00 347.27 2836.95
   19:29:10.607.18-Jan-2020 4980.01 4428.13 80.81 3.00 347.47 2836.95
   19:29:10.807.18-Jan-2020 4980.01 4428.03 80.81 3.00 347.67 2836.95
   19:29:11.007.18-Jan-2020 4980.01 4428.24 80.81 3.00 347.87 2836.95
   19:29:11.207.18-Jan-2020 4980.01 4428.14 80.81 3.00 348.07 2836.95
   19:29:11.407.18-Jan-2020 4980.01 4428.14 80.81 3.00 348.27 2836.95
   19:29:11.607.18-Jan-2020 4980.01 4428.18 80.81 3.00 348.47 2836.95
   19:29:11.807.18-Jan-2020 4980.01 4428.15 80.81 3.00 348.67 2836.95
   19:29:12.007.18-Jan-2020 4980.01 4428.17 80.81 3.00 348.87 2836.95
   19:29:12.207.18-Jan-2020 4980.01 4428.15 80.81 3.00 349.07 2836.95
   19:29:12.407.18-Jan-2020 4980.01 4428.15 80.81 3.00 349.27 2836.95
   19:29:12.607.18-Jan-2020 4980.01 4428.15 80.81 3.00 349.47 2836.95
   19:29:12.807.18-Jan-2020 4980.01 4428.13 80.81 3.00 349.67 2836.95
   19:29:13.007.18-Jan-2020 4980.01 4428.16 80.81 3.00 349.87 2836.95
   19:29:13.207.18-Jan-2020 4980.01 4428.12 80.80 3.00 350.07 2836.95
   19:29:13.407.18-Jan-2020 4980.01 4428.12 80.80 3.00 350.27 2836.95
   19:29:13.607.18-Jan-2020 4980.01 4428.12 80.80 3.00 350.47 2836.95
   19:29:13.807.18-Jan-2020 4980.01 4428.15 80.80 3.00 350.67 2836.95
   19:29:14.007.18-Jan-2020 4980.01 4428.12 80.80 3.00 350.87 2836.95
   19:29:14.207.18-Jan-2020 4980.01 4428.06 80.80 3.00 351.07 2836.95
   19:29:14.407.18-Jan-2020 4980.01 4428.06 80.80 3.00 351.27 2836.95
   19:29:14.607.18-Jan-2020 4980.01 4428.15 80.80 3.00 351.47 2836.95
   19:29:14.807.18-Jan-2020 4980.01 4428.20 80.80 3.00 351.67 2836.95
   19:29:15.007.18-Jan-2020 4980.01 4428.15 80.80 3.00 351.87 2836.95
   19:29:15.207.18-Jan-2020 4980.01 4428.01 80.80 3.00 352.07 2836.95
   19:29:15.407.18-Jan-2020 4980.01 4428.01 80.80 3.00 352.27 2836.95
   19:29:15.608.18-Jan-2020 4980.01 4428.18 80.80 3.00 352.47 2836.95
   19:29:15.808.18-Jan-2020 4980.01 4428.16 80.80 3.00 352.67 2836.95
   19:29:16.008.18-Jan-2020 4980.01 4428.19 80.80 3.00 352.87 2836.95
   19:29:16.208.18-Jan-2020 4980.01 4428.15 80.80 3.00 353.07 2836.95
   19:29:16.408.18-Jan-2020 4980.01 4428.15 80.80 3.00 353.27 2836.95
   19:29:16.608.18-Jan-2020 4980.01 4428.18 80.80 3.00 353.47 2836.95
   19:29:16.808.18-Jan-2020 4980.01 4428.15 80.80 3.00 353.67 2836.95
   19:29:17.008.18-Jan-2020 4980.01 4428.20 80.79 3.00 353.87 2836.95
   19:29:17.208.18-Jan-2020 4980.01 4428.16 80.79 3.00 354.07 2836.95
   19:29:17.408.18-Jan-2020 4980.01 4428.16 80.79 3.00 354.27 2836.95
   19:29:17.608.18-Jan-2020 4980.01 4428.16 80.79 3.00 354.47 2836.95
   19:29:17.808.18-Jan-2020 4980.01 4428.17 80.79 3.00 354.67 2836.95
   19:29:18.008.18-Jan-2020 4980.01 4427.98 80.79 3.00 354.87 2836.95
   19:29:18.208.18-Jan-2020 4980.01 4428.30 80.79 3.00 355.07 2836.95
   19:29:18.408.18-Jan-2020 4980.01 4428.30 80.79 3.00 355.27 2836.95
   19:29:18.608.18-Jan-2020 4980.01 4428.20 80.79 3.00 355.47 2836.95
   19:29:18.808.18-Jan-2020 4980.01 4428.15 80.79 3.00 355.67 2836.95
   19:29:19.008.18-Jan-2020 4980.01 4428.17 80.79 3.00 355.87 2836.95
   19:29:19.208.18-Jan-2020 4980.01 4428.16 80.79 3.00 356.07 2836.95
   19:29:19.408.18-Jan-2020 4980.01 4428.16 80.79 3.00 356.27 2836.95
   19:29:19.608.18-Jan-2020 4980.01 4428.14 80.79 3.00 356.47 2836.95
   19:29:19.808.18-Jan-2020 4980.01 4428.14 80.79 3.00 356.67 2836.95
   19:29:20.008.18-Jan-2020 4980.01 4428.15 80.79 3.00 356.87 2836.95
   19:29:20.208.18-Jan-2020 4980.01 4428.13 80.79 3.00 357.07 2836.95
   19:29:20.408.18-Jan-2020 4980.01 4428.13 80.79 3.00 357.27 2836.95
   19:29:20.608.18-Jan-2020 4980.01 4428.13 80.79 3.00 357.47 2836.95
   19:29:20.809.18-Jan-2020 4980.01 4428.16 80.79 3.00 357.67 2836.95
   19:29:21.009.18-Jan-2020 4980.01 4428.12 80.78 3.00 357.87 2836.95
   19:29:21.209.18-Jan-2020 4980.01 4427.99 80.78 3.00 358.07 2836.95
   19:29:21.409.18-Jan-2020 4980.01 4427.99 80.78 3.00 358.27 2836.95
   19:29:21.609.18-Jan-2020 4980.01 4428.16 80.78 3.00 358.47 2836.95
   19:29:21.809.18-Jan-2020 4980.01 4428.16 80.78 3.00 358.67 2836.95
   19:29:22.009.18-Jan-2020 4980.01 4428.17 80.78 3.00 358.87 2836.95
   19:29:22.209.18-Jan-2020 4980.01 4428.16 80.78 3.00 359.07 2836.95
   19:29:22.409.18-Jan-2020 4980.01 4428.16 80.78 3.00 359.27 2836.95
   19:29:22.609.18-Jan-2020 4980.01 4428.16 80.78 3.00 359.47 2836.95
   19:29:22.809.18-Jan-2020 4980.01 4428.12 80.78 3.00 359.67 2836.95
   19:29:23.009.18-Jan-2020 4980.01 4428.16 80.78 3.00 359.87 2836.95
   19:29:23.209.18-Jan-2020 4980.01 4428.13 80.78 3.00 360.07 2836.95
   19:29:23.409.18-Jan-2020 4980.01 4428.13 80.78 3.00 360.27 2836.95
   19:29:23.609.18-Jan-2020 4980.01 4428.11 80.78 3.00 360.47 2836.95
   19:29:23.809.18-Jan-2020 4980.01 4428.15 80.78 3.00 360.67 2836.95
   19:29:24.009.18-Jan-2020 4980.01 4428.10 80.78 3.00 360.87 2836.95
   19:29:24.209.18-Jan-2020 4980.01 4428.14 80.78 3.00 361.07 2836.95
   19:29:24.409.18-Jan-2020 4980.01 4428.14 80.78 3.00 361.27 2836.95
   19:29:24.609.18-Jan-2020 4980.01 4427.99 80.78 3.00 361.47 2836.95
   19:29:24.809.18-Jan-2020 4980.01 4428.26 80.77 3.00 361.67 2836.95
   19:29:25.009.18-Jan-2020 4980.01 4428.12 80.77 3.00 361.87 2836.95
   19:29:25.209.18-Jan-2020 4980.01 4428.20 80.77 3.00 362.07 2836.95
   19:29:25.409.18-Jan-2020 4980.01 4428.20 80.77 3.00 362.27 2836.95
   19:29:25.609.18-Jan-2020 4980.01 4428.10 80.77 3.00 362.47 2836.95
   19:29:25.809.18-Jan-2020 4980.01 4428.16 80.77 3.00 362.67 2836.95
   19:29:26.010.18-Jan-2020 4980.01 4428.21 80.77 3.00 362.87 2836.95
   19:29:26.210.18-Jan-2020 4980.01 4428.14 80.77 3.00 363.07 2836.95
   19:29:26.410.18-Jan-2020 4980.01 4428.14 80.77 3.00 363.27 2836.95
   19:29:26.610.18-Jan-2020 4980.01 4428.15 80.77 3.00 363.47 2836.95
   19:29:26.810.18-Jan-2020 4980.01 4428.02 80.77 3.00 363.67 2836.95
   19:29:27.010.18-Jan-2020 4980.01 4428.26 80.77 3.00 363.87 2836.95
   19:29:27.210.18-Jan-2020 4980.01 4428.13 80.77 3.00 364.07 2836.95
   19:29:27.410.18-Jan-2020 4980.01 4428.13 80.77 3.00 364.27 2836.95
   19:29:27.610.18-Jan-2020 4980.01 4428.16 80.77 3.00 364.47 2836.95
   19:29:27.810.18-Jan-2020 4980.01 4428.18 80.77 3.00 364.67 2836.95
   19:29:28.010.18-Jan-2020 4980.01 4428.14 80.77 3.00 364.87 2836.95
   19:29:28.210.18-Jan-2020 4980.01 4428.15 80.77 3.00 365.07 2836.95
   19:29:28.410.18-Jan-2020 4980.01 4428.15 80.77 3.00 365.27 2836.95
   19:29:28.610.18-Jan-2020 4980.01 4428.19 80.77 3.00 365.47 2836.95
   19:29:28.810.18-Jan-2020 4980.01 4428.18 80.76 3.00 365.67 2836.95
   19:29:29.010.18-Jan-2020 4980.01 4428.19 80.76 3.00 365.87 2836.95
   19:29:29.210.18-Jan-2020 4980.01 4428.16 80.76 3.00 366.07 2836.95
   19:29:29.410.18-Jan-2020 4980.01 4428.16 80.76 3.00 366.27 2836.95
   19:29:29.610.18-Jan-2020 4980.01 4428.15 80.76 3.00 366.47 2836.95
   19:29:29.810.18-Jan-2020 4980.01 4428.15 80.76 3.00 366.67 2836.95
   19:29:30.010.18-Jan-2020 4980.01 4428.15 80.76 3.00 366.87 2836.95
   19:29:30.210.18-Jan-2020 4980.01 4428.14 80.76 3.00 367.07 2836.95
   19:29:30.410.18-Jan-2020 4980.01 4428.14 80.76 3.00 367.27 2836.95
   19:29:30.610.18-Jan-2020 4980.01 4428.12 80.76 3.00 367.47 2836.95
   19:29:30.810.18-Jan-2020 4980.01 4428.16 80.76 3.00 367.67 2836.95
   19:29:31.011.18-Jan-2020 4980.01 4428.13 80.76 3.00 367.87 2836.95
