~Version Information
 VERS.                  2.0:   CWLS log ASCII Standard -VERSION 2.0
 WRAP.                   NO:   One line per depth step
~Well Information Block
#MNEM.UNIT     VALUE/NAME     DESCRIPTION
#---------     -----------    ---------------------------
 STRT.S             19:23:23 18-Jan-20: START TIME 19:23:23 18-Jan-20
 STOP.S             19:31:15 18-Jan-20: STOP TIME  19:31:15 18-Jan-20
 STEP.S                   0.00: STEP TIME
 NULL.                 -999.25: NULL VALUE
 DFWT.                        :  DIST FWL TEXT
 DFST.                        :  DIST FSL TEXT
 DMF .             Drill Floor:  DRILL MEAS FROM
 STIM.      17.57.20 21-Dec-19:  START TIME
 DATE.      17.57.20 21-Dec-19:  END TIME
 SPUD.               21-Dec-19:  SPUD DATE
 NREF.                    Grid:  NORTH REFERENCE
 HPTY.       Minimum Curvature:  HOLE POS TYPE
 DMOD.             Drill Model:  DRILL MOD DESC
 SVYD.                  Survey:  SURVEY DESC
 ILTD.               Lithology:  INTERP LTH DESC
 FTOP.          Formation Tops:  FORM TOPS DESC
 PDAT.          Mean Sea Level:  PERMANENT DATUM
 FLD .                     ACG:  FIELD NAME
 SON .        AZ-XX-0905715376:  JOB NUMBER
 CTRY.              Azerbaijan:  COUNTRY NAME
 WELL.                    E04Y:  WELL NAME
 SRVC.          TURAN DRILLING:  CONTRACTOR
 COMP.     BP Exploration (Caspian Sea) Ltd.:  COMPANY
 WTYP.                Deviated:  WELL TYPE
 UWI .                     N/a:  UNIQUE WELL IDENTIFIER
 API .                     N/a:  API NUMBER
 BASE.              Azerbaijan:  LOGGING EQUIPMENT BASE LOCATION
 REGN.                   EESSA:  REGION
 MWDS.                    Baku:  MWD SHOP
 RIG .                     DWG:  RIG NAME
 DOE .                     N/a:  DOE NUMBER
 CNTY.                    Baku:  COUNTY NAME
 DCON.         Sperry Drilling:  DIRECTNL CONTR
 UNIT.                     N/a:  LOGGING EQUIPMENT ID
 MDS .        Operator Entered:  MAG DATA SOURCE
 PROV.                        :  PROVINCE
 STAT.                        :  STATE
 LOC .                        :  LOCATION
 LMF .             Drill Floor:  LOG MEASURED FROM
 TVDS.m                  43.16:  TVDSS CORRECTN
 LATI.deg                40.17:  LATITUDE
 LONG.deg                51.17:  LONGITUDE
 WHNS.m                  -0.12:  WELL HEAD N/S
 WHEW.m                  -5.41:  WELL HEAD E/W
 UTMX.m              514337.95:  UTM X
 UTMY.m             4448627.46:  UTM Y
 DFWL.m                   0.00:  DISTANCE FWL
 DFSL.m                   0.00:  DISTANCE FSL
 SDEP.m                   0.00:  START DEPTH
 TDD .m                   0.00:  TOTAL DEPTH (DRILLER)
 VSDR.deg               235.12:  VERT SEC DIRECT
 GVFD.g                   1.00:  GRAVITY FIELD
 MFLD.nT              50294.00:  MAGNETIC FIELD
 MDIP.deg                59.61:  MAGNETIC DIP
 MDEC.deg                 6.58:  MAGNETIC DECL
 GRDC.deg                 0.09:  GRID CORRECTION
 AZTC.deg                 6.49:  AZM TOTAL CORR
 EPD .m                   0.00:  ELEVATION
 EGL .m                   0.00:  GROUND ELEVATION
 WDMS.m                 176.20:  WD ELEV
 APD .m                  43.16:  DEPTH ABOVE PD
 DEP .m                3172.61:  DEPTH
 AGAP.m                  43.16:  AIR GAP
 VSEW.m                  -5.41:  VERT SEC E/W
 VSNS.m                  -0.12:  VERT SEC N/S
 EKB .m                  43.16:  KB ELEVATION
 EDF .m                  43.16:  DF ELEVATION
 TDL .m                 295.00:  TOTAL DEPTH (LOGGER)
 VSC .                       0:  VS TO CLOSURE
 MAGU.                 1852276:  MAGUTM CHECKSUM
~Parameter Information Block
#MNEM.UNIT       Value        Description
#---------     -----------    ---------------------------
 AV  .mps                 1.60:  Ann Velocity 
 AVMX.mps                 2.10:  Max Ann Veloc 
 AZIF.deg               290.59:  Azm, Final 
 BHAT.        Rotary Steerable:  BHA Type 
 BROT.°/30m               1.00:  Build Rotating 
 BS  .in                  6.50:  Bit Size 
 BSZ .in                  6.50:  Bit Size 
 BTPL.psig              120.00:  Bit Press Loss 
 CABU.                     Yes:  Customer Abuse 
 CGEO.          Eldar Huseynov:  Customer Geo 
 COMM.                     ”%\:  Run Comments 1 
 TCS .hr                 87.00:  Time Ciculation Ended 
 CV  .mps                 4.01:  Crit Velocity 
 CVMX.mps                 5.06:  Max Crit Veloc 
 DD1 .             Aziz Aliyev:  Direct Drillr 1 
 DD2 .            Sanan Aliyev:  Direct Drillr 2 
 DDSV.               Geo-Pilot:  DD Service 
 DEFF.%                  95.00:  % Det Eff 
 DLRX.°/30m               0.75:  Dogleg Rot Max 
 DLSO.°/30m               0.65:  Dogleg Oriented 
 DLSX.°/30m               1.39:  Dogleg Str Max 
 DRET.      18.25.00 19-Jan-20:  Drill End Time 
 DRST.      11.56.48 17-Jan-20:  Drill Start Tim 
 DTIM.hr                 27.16:  Time Drilling 
 EDEP.m                5161.01:  End Depth 
 ENG1.          Rasim Hashimov:  Engineer 1 
 ENG2.      Bakhtiyar Jabbarli:  Engineer 2 
 ETIM.      11.56.48 21-Jan-20:  End Time 
 FLOI.gpm               350.00:  Flow In 
 FLON.gpm               300.00:  Flow In Min 
 FLOS.cptm                0.00:  Fluid Loss 
 FLOX.gpm               400.00:  Flow In Max 
 HFLO.                      No:  High Flow 
 HPRE.                      No:  High Pressure 
 HTEM.                      No:  High Temp 
 HYDO.m                   1.85:  Hydro Offset 
 IFIN.deg                71.58:  Inc, Final 
 IMAX.deg                71.83:  Inc Max 
 IMIN.deg                71.12:  Inc Min 
 IMND.m                5099.48:  Inc Min Depth 
 IMXD.m                5071.08:  Inc Max Depth 
 JARR.                      No:  Jarring 
 LETM.      18.25.00 19-Jan-20:  Log End Time 
 LOST.hr                     0:  Lost Rig Time 
 LSTM.      11.56.48 17-Jan-20:  Log Start Time 
 MDCL.ppm             37000.00:  Mud Chlorides 
 MDES.     Inversion Oil/Synthetic:  Mud Desc 
 DFD .sg                  1.34:  Mud Density 
 MDMN.sg                  1.34:  Dens Mud Min 
 MDMX.sg                  1.34:  Dens Mud Max 
 MOIL.                      69:  Run Mud Oil % 
 MOWR.                   69:31:  Run Mud OWR 
 MSND.                     0.1:  Run Mud Sand % 
 MSOL.                    17.6:  Run Mud Solids% 
 DFV .spqt               79.00:  Mud Viscosity 
 MWOD.in                  4.75:  MWD Tool OD 
 MWSI.                      No:  Serv Intrp, MWD 
 OTIM.hr                126.10:  Time Operating 
 PMAX.psia             6000.00:  Press Op, Max 
 PV  .cP                 29.00:  Mud PV 
 RUN .                     400:  Run Number 
 ROPA.m/hr               11.00:  ROP Avg 
 ROPN.m/hr                5.00:  ROP Min 
 ROPX.m/hr               18.00:  ROP Max 
 RPMA.rpm               139.00:  RPM Surface Avg 
 RPMN.rpm               100.00:  RPM Surface Min 
 RPMX.rpm               140.00:  RPM Surface Max 
 RRUN.                     400:  Rig Run Number 
 SAZI.deg               290.22:  Azm, Start 
 SDEP.m                4868.01:  Start Depth 
 SIDD.                      No:  Serv Intrp, DD 
 SINC.deg                71.77:  Inc, Start 
 SPPA.psig             5550.00:  SPP Avg 
 SPPN.psig             4300.00:  SPP Min 
 SPPX.psig             5600.00:  SPP Max 
 STIM.      23.45.48 15-Jan-20:  Start Time 
 SVCS.                 DD, MWD:  Services 
 SVER.                    9.20:  Sperry Version 
 TDAT.m                5161.01:  Tot Depth Attmp 
 TDDF.                      No:  Trip for DD 
 TDLG.m                 295.00:  Tot Depth Loggd 
 TFF .                      No:  Trip for Fail 
 TQAA.f-kp               13.00:  Torque Abs Avg 
 TQAN.f-kp               13.00:  Torque Abs Min 
 TQAX.f-kp               16.00:  Torque Abs Max 
 TRRT.°/30m               0.25:  Turn Rotating 
 MRT .                     ADR:  Maximum Recorded Temperature 
 TTMX.degC               88.00:  Max Tool Temp 
 VS01.                90577859:  Virtual Str1 SN 
 VS02.                90521879:  Virtual Str2 SN 
 VS03.                90580299:  Virtual Str3 SN 
 VS04.                90515982:  Virtual Str4 SN 
 VS05.                90547765:  Virtual Str5 SN 
 WBMN.klb                 2.00:  WOB Min 
 WITN.           Adil Mammadov:  Customer Rep 
 WITN.        Elmaddin Rahimov:  Customer Rep 2 
 WOBA.klb                 3.00:  WOB Avg 
 WOBX.klb                 5.00:  WOB Max 
 YP  .lhf2               30.00:  Yield Point 
~Curve Information Block
#MNEM.UNIT                 API CODE     Curve Description
#---------               -----------    ---------------------------
 TIME.HHMMSS            00 000 000 000:  GT Time & Date
 GTDEPTH.m              00 000 000 000:  GT Depth
 GTPQH.psia             00 000 000 000:  GT HR Quartz Pressure
 GTTQ.degC              00 000 000 000:  GT Quartz Temperature
 GTTN.NONE              00 000 000 000:  GT Test Number
 GTET.sec               00 000 000 000:  GT Elapsed Test Time
 GTTVD.m                00 000 000 000:  GT True Vertical Depth
#Other Information
#
#WARRANTY: Halliburton will use its best efforts to furnish customers with 
#accurate information and interpretations that are part of, and incident to, the services 
#provided.  However, Halliburton cannot and does not warrant the accuracy 
#or correctness of such information and interpretations.  Under no circumstances should any 
#such information or interpretation be relied upon as the sole basis for any drilling, 
#completion, production, or financial decision or any procedure involving any risk to the 
#safety of any drilling venture, drilling rig or its crew or any other third party.  The 
#Customer has full responsibility for all drilling, completion and production operation.  
#Halliburton makes no representations or warranties, either expressed or 
#implied, including, but not limited to, the implied warranties of merchantability or fitness 
#for a particular purpose, with respect to the services rendered.  In no event will 
#Halliburton be liable for failure to obtain any particular results or for 
#any damages, including, but not limited to, indirect, special or consequential damages, 
#resulting from the use of any information or interpretation provided by Halliburton.
#
~A           TIME           GTDEPTH  GTPQH  GTTQ  GTTN  GTET   GTTVD  
# ...
   19:28:22.197.18-Jan-2020 4980.01 4428.17 80.94 3.00 299.06 2836.95
   19:28:22.397.18-Jan-2020 4980.01 4428.17 80.94 3.00 299.26 2836.95
   19:28:22.597.18-Jan-2020 4980.01 4428.17 80.94 3.00 299.46 2836.95
   19:28:22.797.18-Jan-2020 4980.01 4428.16 80.94 3.00 299.66 2836.95
   19:28:22.997.18-Jan-2020 4980.01 4428.18 80.93 3.00 299.86 2836.95
   19:28:23.197.18-Jan-2020 4980.01 4427.99 80.93 3.00 300.06 2836.95
   19:28:23.397.18-Jan-2020 4980.01 4427.99 80.93 3.00 300.26 2836.95
   19:28:23.597.18-Jan-2020 4980.01 4428.18 80.93 3.00 300.46 2836.95
   19:28:23.797.18-Jan-2020 4980.01 4428.22 80.93 3.00 300.66 2836.95
   19:28:23.998.18-Jan-2020 4980.01 4428.12 80.93 3.00 300.86 2836.95
   19:28:24.198.18-Jan-2020 4980.01 4424.65 80.93 3.00 301.06 2836.95
   19:28:24.398.18-Jan-2020 4980.01 4424.65 80.93 3.00 301.26 2836.95
   19:28:24.598.18-Jan-2020 4980.01 4422.69 80.93 3.00 301.46 2836.95
   19:28:24.798.18-Jan-2020 4980.01 4422.65 80.93 3.00 301.66 2836.95
   19:28:24.998.18-Jan-2020 4980.01 4422.60 80.93 3.00 301.86 2836.95
   19:28:25.198.18-Jan-2020 4980.01 4422.52 80.93 3.00 302.06 2836.95
   19:28:25.398.18-Jan-2020 4980.01 4422.52 80.93 3.00 302.26 2836.95
   19:28:25.598.18-Jan-2020 4980.01 4422.79 80.93 3.00 302.46 2836.95
   19:28:25.798.18-Jan-2020 4980.01 4422.50 80.93 3.00 302.66 2836.95
   19:28:25.998.18-Jan-2020 4980.01 4422.59 80.93 3.00 302.86 2836.95
   19:28:26.198.18-Jan-2020 4980.01 4422.36 80.93 3.00 303.06 2836.95
   19:28:26.398.18-Jan-2020 4980.01 4422.36 80.93 3.00 303.26 2836.95
   19:28:26.598.18-Jan-2020 4980.01 4422.49 80.92 3.00 303.46 2836.95
   19:28:26.798.18-Jan-2020 4980.01 4422.38 80.92 3.00 303.66 2836.95
   19:28:26.998.18-Jan-2020 4980.01 4422.44 80.92 3.00 303.86 2836.95
   19:28:27.198.18-Jan-2020 4980.01 4422.45 80.92 3.00 304.06 2836.95
   19:28:27.398.18-Jan-2020 4980.01 4422.45 80.92 3.00 304.26 2836.95
   19:28:27.598.18-Jan-2020 4980.01 4422.50 80.92 3.00 304.46 2836.95
   19:28:27.798.18-Jan-2020 4980.01 4422.49 80.92 3.00 304.66 2836.95
   19:28:27.998.18-Jan-2020 4980.01 4422.39 80.92 3.00 304.86 2836.95
   19:28:28.198.18-Jan-2020 4980.01 4422.48 80.92 3.00 305.06 2836.95
   19:28:28.398.18-Jan-2020 4980.01 4422.48 80.92 3.00 305.26 2836.95
   19:28:28.598.18-Jan-2020 4980.01 4422.53 80.92 3.00 305.46 2836.95
   19:28:28.798.18-Jan-2020 4980.01 4422.26 80.92 3.00 305.66 2836.95
   19:28:28.998.18-Jan-2020 4980.01 4422.44 80.92 3.00 305.86 2836.95
   19:28:29.199.18-Jan-2020 4980.01 4422.51 80.92 3.00 306.06 2836.95
   19:28:29.399.18-Jan-2020 4980.01 4422.51 80.92 3.00 306.26 2836.95
   19:28:29.599.18-Jan-2020 4980.01 4422.37 80.92 3.00 306.46 2836.95
   19:28:29.799.18-Jan-2020 4980.01 4422.45 80.92 3.00 306.66 2836.95
   19:28:29.999.18-Jan-2020 4980.01 4422.34 80.92 3.00 306.86 2836.95
   19:28:30.199.18-Jan-2020 4980.01 4422.43 80.92 3.00 307.06 2836.95
   19:28:30.399.18-Jan-2020 4980.01 4422.43 80.92 3.00 307.26 2836.95
   19:28:30.599.18-Jan-2020 4980.01 4422.53 80.91 3.00 307.46 2836.95
   19:28:30.799.18-Jan-2020 4980.01 4422.33 80.91 3.00 307.66 2836.95
   19:28:30.999.18-Jan-2020 4980.01 4422.55 80.91 3.00 307.86 2836.95
   19:28:31.199.18-Jan-2020 4980.01 4422.48 80.91 3.00 308.06 2836.95
   19:28:31.399.18-Jan-2020 4980.01 4422.48 80.91 3.00 308.26 2836.95
   19:28:31.599.18-Jan-2020 4980.01 4422.46 80.91 3.00 308.46 2836.95
   19:28:31.799.18-Jan-2020 4980.01 4422.43 80.91 3.00 308.66 2836.95
   19:28:31.999.18-Jan-2020 4980.01 4422.51 80.91 3.00 308.86 2836.95
   19:28:32.199.18-Jan-2020 4980.01 4422.33 80.91 3.00 309.06 2836.95
   19:28:32.399.18-Jan-2020 4980.01 4422.33 80.91 3.00 309.26 2836.95
   19:28:32.599.18-Jan-2020 4980.01 4422.43 80.91 3.00 309.46 2836.95
   19:28:32.799.18-Jan-2020 4980.01 4422.47 80.91 3.00 309.66 2836.95
   19:28:32.999.18-Jan-2020 4980.01 4422.47 80.91 3.00 309.86 2836.95
   19:28:33.199.18-Jan-2020 4980.01 4422.33 80.91 3.00 310.06 2836.95
   19:28:33.399.18-Jan-2020 4980.01 4422.33 80.91 3.00 310.26 2836.95
   19:28:33.599.18-Jan-2020 4980.01 4422.25 80.91 3.00 310.46 2836.95
   19:28:33.799.18-Jan-2020 4980.01 4422.58 80.91 3.00 310.66 2836.95
   19:28:33.999.18-Jan-2020 4980.01 4422.51 80.91 3.00 310.86 2836.95
   19:28:34.199.18-Jan-2020 4980.01 4422.43 80.91 3.00 311.06 2836.95
   19:28:34.400.18-Jan-2020 4980.01 4422.43 80.91 3.00 311.26 2836.95
   19:28:34.600.18-Jan-2020 4980.01 4428.04 80.90 3.00 311.46 2836.95
   19:28:34.800.18-Jan-2020 4980.01 4428.04 80.90 3.00 311.66 2836.95
   19:28:35.000.18-Jan-2020 4980.01 4428.15 80.90 3.00 311.86 2836.95
   19:28:35.200.18-Jan-2020 4980.01 4428.11 80.90 3.00 312.06 2836.95
   19:28:35.400.18-Jan-2020 4980.01 4428.11 80.90 3.00 312.26 2836.95
   19:28:35.600.18-Jan-2020 4980.01 4428.12 80.90 3.00 312.46 2836.95
   19:28:35.800.18-Jan-2020 4980.01 4428.06 80.90 3.00 312.66 2836.95
   19:28:36.000.18-Jan-2020 4980.01 4428.18 80.90 3.00 312.86 2836.95
   19:28:36.200.18-Jan-2020 4980.01 4428.17 80.90 3.00 313.06 2836.95
   19:28:36.400.18-Jan-2020 4980.01 4428.17 80.90 3.00 313.26 2836.95
   19:28:36.600.18-Jan-2020 4980.01 4428.16 80.90 3.00 313.46 2836.95
   19:28:36.800.18-Jan-2020 4980.01 4428.17 80.90 3.00 313.66 2836.95
   19:28:37.000.18-Jan-2020 4980.01 4428.16 80.90 3.00 313.86 2836.95
   19:28:37.200.18-Jan-2020 4980.01 4428.04 80.90 3.00 314.06 2836.95
   19:28:37.400.18-Jan-2020 4980.01 4428.04 80.90 3.00 314.26 2836.95
   19:28:37.600.18-Jan-2020 4980.01 4428.13 80.90 3.00 314.46 2836.95
   19:28:37.800.18-Jan-2020 4980.01 4428.23 80.90 3.00 314.66 2836.95
   19:28:38.000.18-Jan-2020 4980.01 4428.16 80.90 3.00 314.86 2836.95
   19:28:38.200.18-Jan-2020 4980.01 4428.20 80.89 3.00 315.06 2836.95
   19:28:38.400.18-Jan-2020 4980.01 4428.20 80.89 3.00 315.26 2836.95
   19:28:38.600.18-Jan-2020 4980.01 4428.19 80.89 3.00 315.46 2836.95
   19:28:38.800.18-Jan-2020 4980.01 4428.16 80.89 3.00 315.66 2836.95
   19:28:39.000.18-Jan-2020 4980.01 4428.18 80.89 3.00 315.86 2836.95
   19:28:39.200.18-Jan-2020 4980.01 4428.15 80.89 3.00 316.06 2836.95
   19:28:39.401.18-Jan-2020 4980.01 4428.15 80.89 3.00 316.26 2836.95
   19:28:39.601.18-Jan-2020 4980.01 4428.15 80.89 3.00 316.46 2836.95
   19:28:39.801.18-Jan-2020 4980.01 4428.17 80.89 3.00 316.66 2836.95
   19:28:40.001.18-Jan-2020 4980.01 4428.16 80.89 3.00 316.86 2836.95
   19:28:40.201.18-Jan-2020 4980.01 4428.15 80.89 3.00 317.06 2836.95
   19:28:40.401.18-Jan-2020 4980.01 4428.15 80.89 3.00 317.26 2836.95
   19:28:40.601.18-Jan-2020 4980.01 4428.26 80.89 3.00 317.46 2836.95
   19:28:40.801.18-Jan-2020 4980.01 4428.15 80.89 3.00 317.66 2836.95
   19:28:41.001.18-Jan-2020 4980.01 4428.20 80.89 3.00 317.86 2836.95
   19:28:41.201.18-Jan-2020 4980.01 4428.20 80.89 3.00 318.06 2836.95
   19:28:41.401.18-Jan-2020 4980.01 4428.20 80.89 3.00 318.26 2836.95
   19:28:41.601.18-Jan-2020 4980.01 4428.19 80.89 3.00 318.46 2836.95
   19:28:41.801.18-Jan-2020 4980.01 4428.16 80.89 3.00 318.66 2836.95
   19:28:42.001.18-Jan-2020 4980.01 4428.18 80.88 3.00 318.86 2836.95
   19:28:42.201.18-Jan-2020 4980.01 4428.15 80.88 3.00 319.06 2836.95
   19:28:42.401.18-Jan-2020 4980.01 4428.15 80.88 3.00 319.26 2836.95
   19:28:42.601.18-Jan-2020 4980.01 4428.16 80.88 3.00 319.46 2836.95
   19:28:42.801.18-Jan-2020 4980.01 4428.15 80.88 3.00 319.66 2836.95
   19:28:43.001.18-Jan-2020 4980.01 4428.17 80.88 3.00 319.86 2836.95
   19:28:43.201.18-Jan-2020 4980.01 4428.14 80.88 3.00 320.06 2836.95
   19:28:43.401.18-Jan-2020 4980.01 4428.14 80.88 3.00 320.26 2836.95
   19:28:43.601.18-Jan-2020 4980.01 4428.14 80.88 3.00 320.46 2836.95
   19:28:43.801.18-Jan-2020 4980.01 4428.10 80.88 3.00 320.66 2836.95
   19:28:44.001.18-Jan-2020 4980.01 4428.17 80.88 3.00 320.86 2836.95
   19:28:44.201.18-Jan-2020 4980.01 4428.17 80.88 3.00 321.06 2836.95
   19:28:44.401.18-Jan-2020 4980.01 4428.17 80.88 3.00 321.26 2836.95
   19:28:44.602.18-Jan-2020 4980.01 4428.17 80.88 3.00 321.46 2836.95
   19:28:44.802.18-Jan-2020 4980.01 4428.11 80.88 3.00 321.66 2836.95
   19:28:45.002.18-Jan-2020 4980.01 4428.19 80.88 3.00 321.86 2836.95
