~Version Information
 VERS.                  2.0:   CWLS log ASCII Standard -VERSION 2.0
 WRAP.                   NO:   One line per depth step
~Well Information Block
#MNEM.UNIT     VALUE/NAME     DESCRIPTION
#---------     -----------    ---------------------------
 STRT.S             10:03:43 19-Jan-20: START TIME 10:03:43 19-Jan-20
 STOP.S             10:11:36 19-Jan-20: STOP TIME  10:11:36 19-Jan-20
 STEP.S                   0.00: STEP TIME
 NULL.                 -999.25: NULL VALUE
 DFWT.                        :  DIST FWL TEXT
 DFST.                        :  DIST FSL TEXT
 DMF .             Drill Floor:  DRILL MEAS FROM
 STIM.      17.57.20 21-Dec-19:  START TIME
 DATE.      17.57.20 21-Dec-19:  END TIME
 SPUD.               21-Dec-19:  SPUD DATE
 NREF.                    Grid:  NORTH REFERENCE
 HPTY.       Minimum Curvature:  HOLE POS TYPE
 DMOD.             Drill Model:  DRILL MOD DESC
 SVYD.                  Survey:  SURVEY DESC
 ILTD.               Lithology:  INTERP LTH DESC
 FTOP.          Formation Tops:  FORM TOPS DESC
 PDAT.          Mean Sea Level:  PERMANENT DATUM
 FLD .                     ACG:  FIELD NAME
 SON .        AZ-XX-0905715376:  JOB NUMBER
 CTRY.              Azerbaijan:  COUNTRY NAME
 WELL.                    E04Y:  WELL NAME
 SRVC.          TURAN DRILLING:  CONTRACTOR
 COMP.     BP Exploration (Caspian Sea) Ltd.:  COMPANY
 WTYP.                Deviated:  WELL TYPE
 UWI .                     N/a:  UNIQUE WELL IDENTIFIER
 API .                     N/a:  API NUMBER
 BASE.              Azerbaijan:  LOGGING EQUIPMENT BASE LOCATION
 REGN.                   EESSA:  REGION
 MWDS.                    Baku:  MWD SHOP
 RIG .                     DWG:  RIG NAME
 DOE .                     N/a:  DOE NUMBER
 CNTY.                    Baku:  COUNTY NAME
 DCON.         Sperry Drilling:  DIRECTNL CONTR
 UNIT.                     N/a:  LOGGING EQUIPMENT ID
 MDS .        Operator Entered:  MAG DATA SOURCE
 PROV.                        :  PROVINCE
 STAT.                        :  STATE
 LOC .                        :  LOCATION
 LMF .             Drill Floor:  LOG MEASURED FROM
 TVDS.m                  43.16:  TVDSS CORRECTN
 LATI.deg                40.17:  LATITUDE
 LONG.deg                51.17:  LONGITUDE
 WHNS.m                  -0.12:  WELL HEAD N/S
 WHEW.m                  -5.41:  WELL HEAD E/W
 UTMX.m              514337.95:  UTM X
 UTMY.m             4448627.46:  UTM Y
 DFWL.m                   0.00:  DISTANCE FWL
 DFSL.m                   0.00:  DISTANCE FSL
 SDEP.m                   0.00:  START DEPTH
 TDD .m                   0.00:  TOTAL DEPTH (DRILLER)
 VSDR.deg               235.12:  VERT SEC DIRECT
 GVFD.g                   1.00:  GRAVITY FIELD
 MFLD.nT              50294.00:  MAGNETIC FIELD
 MDIP.deg                59.61:  MAGNETIC DIP
 MDEC.deg                 6.58:  MAGNETIC DECL
 GRDC.deg                 0.09:  GRID CORRECTION
 AZTC.deg                 6.49:  AZM TOTAL CORR
 EPD .m                   0.00:  ELEVATION
 EGL .m                   0.00:  GROUND ELEVATION
 WDMS.m                 176.20:  WD ELEV
 APD .m                  43.16:  DEPTH ABOVE PD
 DEP .m                3172.61:  DEPTH
 AGAP.m                  43.16:  AIR GAP
 VSEW.m                  -5.41:  VERT SEC E/W
 VSNS.m                  -0.12:  VERT SEC N/S
 EKB .m                  43.16:  KB ELEVATION
 EDF .m                  43.16:  DF ELEVATION
 TDL .m                 295.00:  TOTAL DEPTH (LOGGER)
 VSC .                       0:  VS TO CLOSURE
 MAGU.                 1852276:  MAGUTM CHECKSUM
~Parameter Information Block
#MNEM.UNIT       Value        Description
#---------     -----------    ---------------------------
 AV  .mps                 1.60:  Ann Velocity 
 AVMX.mps                 2.10:  Max Ann Veloc 
 AZIF.deg               290.59:  Azm, Final 
 BHAT.        Rotary Steerable:  BHA Type 
 BROT.°/30m               1.00:  Build Rotating 
 BS  .in                  6.50:  Bit Size 
 BSZ .in                  6.50:  Bit Size 
 BTPL.psig              120.00:  Bit Press Loss 
 CABU.                     Yes:  Customer Abuse 
 CGEO.          Eldar Huseynov:  Customer Geo 
 COMM.                     Œòk:  Run Comments 1 
 TCS .hr                 87.00:  Time Ciculation Ended 
 CV  .mps                 4.01:  Crit Velocity 
 CVMX.mps                 5.06:  Max Crit Veloc 
 DD1 .             Aziz Aliyev:  Direct Drillr 1 
 DD2 .            Sanan Aliyev:  Direct Drillr 2 
 DDSV.               Geo-Pilot:  DD Service 
 DEFF.%                  95.00:  % Det Eff 
 DLRX.°/30m               0.75:  Dogleg Rot Max 
 DLSO.°/30m               0.65:  Dogleg Oriented 
 DLSX.°/30m               1.39:  Dogleg Str Max 
 DRET.      18.25.00 19-Jan-20:  Drill End Time 
 DRST.      11.56.48 17-Jan-20:  Drill Start Tim 
 DTIM.hr                 27.16:  Time Drilling 
 EDEP.m                5161.01:  End Depth 
 ENG1.          Rasim Hashimov:  Engineer 1 
 ENG2.      Bakhtiyar Jabbarli:  Engineer 2 
 ETIM.      11.56.48 21-Jan-20:  End Time 
 FLOI.gpm               350.00:  Flow In 
 FLON.gpm               300.00:  Flow In Min 
 FLOS.cptm                0.00:  Fluid Loss 
 FLOX.gpm               400.00:  Flow In Max 
 HFLO.                      No:  High Flow 
 HPRE.                      No:  High Pressure 
 HTEM.                      No:  High Temp 
 HYDO.m                   1.85:  Hydro Offset 
 IFIN.deg                71.58:  Inc, Final 
 IMAX.deg                71.83:  Inc Max 
 IMIN.deg                71.12:  Inc Min 
 IMND.m                5099.48:  Inc Min Depth 
 IMXD.m                5071.08:  Inc Max Depth 
 JARR.                      No:  Jarring 
 LETM.      18.25.00 19-Jan-20:  Log End Time 
 LOST.hr                     0:  Lost Rig Time 
 LSTM.      11.56.48 17-Jan-20:  Log Start Time 
 MDCL.ppm             37000.00:  Mud Chlorides 
 MDES.     Inversion Oil/Synthetic:  Mud Desc 
 DFD .sg                  1.34:  Mud Density 
 MDMN.sg                  1.34:  Dens Mud Min 
 MDMX.sg                  1.34:  Dens Mud Max 
 MOIL.                      69:  Run Mud Oil % 
 MOWR.                   69:31:  Run Mud OWR 
 MSND.                     0.1:  Run Mud Sand % 
 MSOL.                    17.6:  Run Mud Solids% 
 DFV .spqt               79.00:  Mud Viscosity 
 MWOD.in                  4.75:  MWD Tool OD 
 MWSI.                      No:  Serv Intrp, MWD 
 OTIM.hr                126.10:  Time Operating 
 PMAX.psia             6000.00:  Press Op, Max 
 PV  .cP                 29.00:  Mud PV 
 RUN .                     400:  Run Number 
 ROPA.m/hr               11.00:  ROP Avg 
 ROPN.m/hr                5.00:  ROP Min 
 ROPX.m/hr               18.00:  ROP Max 
 RPMA.rpm               139.00:  RPM Surface Avg 
 RPMN.rpm               100.00:  RPM Surface Min 
 RPMX.rpm               140.00:  RPM Surface Max 
 RRUN.                     400:  Rig Run Number 
 SAZI.deg               290.22:  Azm, Start 
 SDEP.m                4868.01:  Start Depth 
 SIDD.                      No:  Serv Intrp, DD 
 SINC.deg                71.77:  Inc, Start 
 SPPA.psig             5550.00:  SPP Avg 
 SPPN.psig             4300.00:  SPP Min 
 SPPX.psig             5600.00:  SPP Max 
 STIM.      23.45.48 15-Jan-20:  Start Time 
 SVCS.                 DD, MWD:  Services 
 SVER.                    9.20:  Sperry Version 
 TDAT.m                5161.01:  Tot Depth Attmp 
 TDDF.                      No:  Trip for DD 
 TDLG.m                 295.00:  Tot Depth Loggd 
 TFF .                      No:  Trip for Fail 
 TQAA.f-kp               13.00:  Torque Abs Avg 
 TQAN.f-kp               13.00:  Torque Abs Min 
 TQAX.f-kp               16.00:  Torque Abs Max 
 TRRT.°/30m               0.25:  Turn Rotating 
 MRT .                     ADR:  Maximum Recorded Temperature 
 TTMX.degC               88.00:  Max Tool Temp 
 VS01.                90577859:  Virtual Str1 SN 
 VS02.                90521879:  Virtual Str2 SN 
 VS03.                90580299:  Virtual Str3 SN 
 VS04.                90515982:  Virtual Str4 SN 
 VS05.                90547765:  Virtual Str5 SN 
 WBMN.klb                 2.00:  WOB Min 
 WITN.           Adil Mammadov:  Customer Rep 
 WITN.        Elmaddin Rahimov:  Customer Rep 2 
 WOBA.klb                 3.00:  WOB Avg 
 WOBX.klb                 5.00:  WOB Max 
 YP  .lhf2               30.00:  Yield Point 
~Curve Information Block
#MNEM.UNIT                 API CODE     Curve Description
#---------               -----------    ---------------------------
 TIME.HHMMSS            00 000 000 000:  GT Time & Date
 GTDEPTH.m              00 000 000 000:  GT Depth
 GTPQH.psia             00 000 000 000:  GT HR Quartz Pressure
 GTTQ.degC              00 000 000 000:  GT Quartz Temperature
 GTTN.NONE              00 000 000 000:  GT Test Number
 GTET.sec               00 000 000 000:  GT Elapsed Test Time
 GTTVD.m                00 000 000 000:  GT True Vertical Depth
#Other Information
#
#WARRANTY: Halliburton will use its best efforts to furnish customers with 
#accurate information and interpretations that are part of, and incident to, the services 
#provided.  However, Halliburton cannot and does not warrant the accuracy 
#or correctness of such information and interpretations.  Under no circumstances should any 
#such information or interpretation be relied upon as the sole basis for any drilling, 
#completion, production, or financial decision or any procedure involving any risk to the 
#safety of any drilling venture, drilling rig or its crew or any other third party.  The 
#Customer has full responsibility for all drilling, completion and production operation.  
#Halliburton makes no representations or warranties, either expressed or 
#implied, including, but not limited to, the implied warranties of merchantability or fitness 
#for a particular purpose, with respect to the services rendered.  In no event will 
#Halliburton be liable for failure to obtain any particular results or for 
#any damages, including, but not limited to, indirect, special or consequential damages, 
#resulting from the use of any information or interpretation provided by Halliburton.
#
~A           TIME           GTDEPTH  GTPQH  GTTQ  GTTN  GTET   GTTVD  
# ...
   10:08:19.817.19-Jan-2020 5081.51 4213.66 81.73 5.00 276.03 2869.15
   10:08:20.017.19-Jan-2020 5081.51 4213.66 81.73 5.00 276.23 2869.15
   10:08:20.217.19-Jan-2020 5081.51 4213.93 81.73 5.00 276.43 2869.15
   10:08:20.417.19-Jan-2020 5081.51 4213.88 81.73 5.00 276.63 2869.15
   10:08:20.617.19-Jan-2020 5081.51 4213.95 81.73 5.00 276.83 2869.15
   10:08:20.817.19-Jan-2020 5081.51 4213.90 81.73 5.00 277.03 2869.15
   10:08:21.017.19-Jan-2020 5081.51 4213.90 81.73 5.00 277.23 2869.15
   10:08:21.217.19-Jan-2020 5081.51 4213.90 81.73 5.00 277.44 2869.15
   10:08:21.417.19-Jan-2020 5081.51 4213.80 81.73 5.00 277.64 2869.15
   10:08:21.617.19-Jan-2020 5081.51 4213.96 81.73 5.00 277.84 2869.15
   10:08:21.817.19-Jan-2020 5081.51 4213.89 81.73 5.00 278.04 2869.15
   10:08:22.017.19-Jan-2020 5081.51 4213.89 81.73 5.00 278.24 2869.15
   10:08:22.217.19-Jan-2020 5081.51 4213.92 81.73 5.00 278.44 2869.15
   10:08:22.417.19-Jan-2020 5081.51 4213.70 81.73 5.00 278.64 2869.15
   10:08:22.617.19-Jan-2020 5081.51 4214.06 81.73 5.00 278.84 2869.15
   10:08:22.817.19-Jan-2020 5081.51 4213.98 81.72 5.00 279.04 2869.15
   10:08:23.017.19-Jan-2020 5081.51 4213.98 81.72 5.00 279.24 2869.15
   10:08:23.217.19-Jan-2020 5081.51 4213.96 81.72 5.00 279.44 2869.15
   10:08:23.417.19-Jan-2020 5081.51 4213.93 81.72 5.00 279.64 2869.15
   10:08:23.617.19-Jan-2020 5081.51 4213.94 81.72 5.00 279.84 2869.15
   10:08:23.817.19-Jan-2020 5081.51 4213.93 81.72 5.00 280.04 2869.15
   10:08:24.017.19-Jan-2020 5081.51 4213.93 81.72 5.00 280.24 2869.15
   10:08:24.217.19-Jan-2020 5081.51 4213.92 81.72 5.00 280.44 2869.15
   10:08:24.417.19-Jan-2020 5081.51 4213.92 81.72 5.00 280.64 2869.15
   10:08:24.617.19-Jan-2020 5081.51 4213.93 81.72 5.00 280.84 2869.15
   10:08:24.817.19-Jan-2020 5081.51 4213.90 81.72 5.00 281.04 2869.15
   10:08:25.018.19-Jan-2020 5081.51 4213.90 81.72 5.00 281.24 2869.15
   10:08:25.218.19-Jan-2020 5081.51 4213.90 81.72 5.00 281.44 2869.15
   10:08:25.418.19-Jan-2020 5081.51 4213.91 81.72 5.00 281.64 2869.15
   10:08:25.618.19-Jan-2020 5081.51 4213.68 81.72 5.00 281.84 2869.15
   10:08:25.818.19-Jan-2020 5081.51 4214.08 81.72 5.00 282.04 2869.15
   10:08:26.018.19-Jan-2020 5081.51 4214.08 81.72 5.00 282.24 2869.15
   10:08:26.218.19-Jan-2020 5081.51 4213.90 81.72 5.00 282.44 2869.15
   10:08:26.418.19-Jan-2020 5081.51 4213.95 81.72 5.00 282.64 2869.15
   10:08:26.618.19-Jan-2020 5081.51 4213.94 81.72 5.00 282.84 2869.15
   10:08:26.818.19-Jan-2020 5081.51 4213.93 81.72 5.00 283.04 2869.15
   10:08:27.018.19-Jan-2020 5081.51 4213.93 81.72 5.00 283.24 2869.15
   10:08:27.218.19-Jan-2020 5081.51 4213.93 81.72 5.00 283.44 2869.15
   10:08:27.418.19-Jan-2020 5081.51 4213.93 81.72 5.00 283.64 2869.15
   10:08:27.618.19-Jan-2020 5081.51 4213.92 81.72 5.00 283.84 2869.15
   10:08:27.818.19-Jan-2020 5081.51 4213.91 81.72 5.00 284.04 2869.15
   10:08:28.018.19-Jan-2020 5081.51 4213.91 81.72 5.00 284.24 2869.15
   10:08:28.218.19-Jan-2020 5081.51 4213.90 81.71 5.00 284.44 2869.15
   10:08:28.418.19-Jan-2020 5081.51 4213.92 81.71 5.00 284.64 2869.15
   10:08:28.618.19-Jan-2020 5081.51 4213.91 81.71 5.00 284.84 2869.15
   10:08:28.818.19-Jan-2020 5081.51 4213.90 81.71 5.00 285.04 2869.15
   10:08:29.018.19-Jan-2020 5081.51 4213.90 81.71 5.00 285.24 2869.15
   10:08:29.218.19-Jan-2020 5081.51 4214.07 81.71 5.00 285.44 2869.15
   10:08:29.418.19-Jan-2020 5081.51 4213.95 81.71 5.00 285.64 2869.15
   10:08:29.618.19-Jan-2020 5081.51 4213.92 81.71 5.00 285.84 2869.15
   10:08:29.818.19-Jan-2020 5081.51 4213.98 81.71 5.00 286.04 2869.15
   10:08:30.018.19-Jan-2020 5081.51 4213.98 81.71 5.00 286.24 2869.15
   10:08:30.218.19-Jan-2020 5081.51 4214.11 81.71 5.00 286.44 2869.15
   10:08:30.418.19-Jan-2020 5081.51 4213.96 81.71 5.00 286.64 2869.15
   10:08:30.618.19-Jan-2020 5081.51 4213.91 81.71 5.00 286.84 2869.15
   10:08:30.818.19-Jan-2020 5081.51 4213.96 81.71 5.00 287.04 2869.15
   10:08:31.018.19-Jan-2020 5081.51 4213.96 81.71 5.00 287.24 2869.15
   10:08:31.218.19-Jan-2020 5081.51 4213.94 81.71 5.00 287.44 2869.15
   10:08:31.418.19-Jan-2020 5081.51 4213.94 81.71 5.00 287.64 2869.15
   10:08:31.618.19-Jan-2020 5081.51 4213.82 81.71 5.00 287.84 2869.15
   10:08:31.818.19-Jan-2020 5081.51 4213.98 81.71 5.00 288.04 2869.15
   10:08:32.018.19-Jan-2020 5081.51 4213.98 81.71 5.00 288.24 2869.15
   10:08:32.218.19-Jan-2020 5081.51 4213.99 81.71 5.00 288.44 2869.15
   10:08:32.418.19-Jan-2020 5081.51 4213.96 81.71 5.00 288.64 2869.15
   10:08:32.618.19-Jan-2020 5081.51 4213.71 81.71 5.00 288.84 2869.15
   10:08:32.819.19-Jan-2020 5081.51 4214.13 81.71 5.00 289.04 2869.15
   10:08:33.019.19-Jan-2020 5081.51 4214.13 81.71 5.00 289.24 2869.15
   10:08:33.219.19-Jan-2020 5081.51 4213.94 81.71 5.00 289.44 2869.15
   10:08:33.419.19-Jan-2020 5081.51 4213.98 81.71 5.00 289.64 2869.15
   10:08:33.619.19-Jan-2020 5081.51 4213.97 81.70 5.00 289.84 2869.15
   10:08:33.819.19-Jan-2020 5081.51 4213.95 81.70 5.00 290.04 2869.15
   10:08:34.019.19-Jan-2020 5081.51 4213.95 81.70 5.00 290.24 2869.15
   10:08:34.219.19-Jan-2020 5081.51 4213.95 81.70 5.00 290.44 2869.15
   10:08:34.419.19-Jan-2020 5081.51 4213.95 81.70 5.00 290.64 2869.15
   10:08:34.619.19-Jan-2020 5081.51 4213.96 81.70 5.00 290.84 2869.15
   10:08:34.819.19-Jan-2020 5081.51 4213.94 81.70 5.00 291.04 2869.15
   10:08:35.019.19-Jan-2020 5081.51 4213.94 81.70 5.00 291.24 2869.15
   10:08:35.219.19-Jan-2020 5081.51 4213.93 81.70 5.00 291.44 2869.15
   10:08:35.419.19-Jan-2020 5081.51 4213.95 81.70 5.00 291.64 2869.15
   10:08:35.619.19-Jan-2020 5081.51 4213.93 81.70 5.00 291.84 2869.15
   10:08:35.819.19-Jan-2020 5081.51 4213.72 81.70 5.00 292.04 2869.15
   10:08:36.019.19-Jan-2020 5081.51 4213.72 81.70 5.00 292.24 2869.15
   10:08:36.219.19-Jan-2020 5081.51 4213.99 81.70 5.00 292.44 2869.15
   10:08:36.419.19-Jan-2020 5081.51 4213.93 81.70 5.00 292.64 2869.15
   10:08:36.619.19-Jan-2020 5081.51 4214.00 81.70 5.00 292.84 2869.15
   10:08:36.819.19-Jan-2020 5081.51 4213.96 81.70 5.00 293.04 2869.15
   10:08:37.019.19-Jan-2020 5081.51 4213.96 81.70 5.00 293.24 2869.15
   10:08:37.219.19-Jan-2020 5081.51 4213.97 81.70 5.00 293.44 2869.15
   10:08:37.419.19-Jan-2020 5081.51 4213.93 81.70 5.00 293.64 2869.15
   10:08:37.619.19-Jan-2020 5081.51 4213.96 81.70 5.00 293.84 2869.15
   10:08:37.819.19-Jan-2020 5081.51 4213.94 81.70 5.00 294.04 2869.15
   10:08:38.019.19-Jan-2020 5081.51 4213.94 81.70 5.00 294.24 2869.15
   10:08:38.219.19-Jan-2020 5081.51 4213.93 81.70 5.00 294.44 2869.15
   10:08:38.419.19-Jan-2020 5081.51 4213.96 81.70 5.00 294.64 2869.15
   10:08:38.619.19-Jan-2020 5081.51 4213.92 81.70 5.00 294.84 2869.15
   10:08:38.819.19-Jan-2020 5081.51 4213.94 81.70 5.00 295.04 2869.15
   10:08:39.019.19-Jan-2020 5081.51 4213.94 81.70 5.00 295.24 2869.15
   10:08:39.219.19-Jan-2020 5081.51 4213.72 81.69 5.00 295.44 2869.15
   10:08:39.419.19-Jan-2020 5081.51 4214.09 81.69 5.00 295.64 2869.15
   10:08:39.619.19-Jan-2020 5081.51 4214.00 81.69 5.00 295.84 2869.15
   10:08:39.819.19-Jan-2020 5081.51 4213.95 81.69 5.00 296.04 2869.15
   10:08:40.019.19-Jan-2020 5081.51 4213.95 81.69 5.00 296.24 2869.15
   10:08:40.219.19-Jan-2020 5081.51 4213.75 81.69 5.00 296.44 2869.15
   10:08:40.419.19-Jan-2020 5081.51 4214.11 81.69 5.00 296.64 2869.15
   10:08:40.619.19-Jan-2020 5081.51 4214.02 81.69 5.00 296.84 2869.15
   10:08:40.820.19-Jan-2020 5081.51 4213.94 81.69 5.00 297.04 2869.15
   10:08:41.020.19-Jan-2020 5081.51 4213.94 81.69 5.00 297.24 2869.15
   10:08:41.220.19-Jan-2020 5081.51 4213.98 81.69 5.00 297.44 2869.15
   10:08:41.420.19-Jan-2020 5081.51 4213.98 81.69 5.00 297.64 2869.15
   10:08:41.620.19-Jan-2020 5081.51 4213.98 81.69 5.00 297.84 2869.15
   10:08:41.820.19-Jan-2020 5081.51 4213.86 81.69 5.00 298.04 2869.15
   10:08:42.020.19-Jan-2020 5081.51 4213.86 81.69 5.00 298.24 2869.15
   10:08:42.220.19-Jan-2020 5081.51 4213.94 81.69 5.00 298.44 2869.15
   10:08:42.420.19-Jan-2020 5081.51 4214.04 81.69 5.00 298.64 2869.15
   10:08:42.620.19-Jan-2020 5081.51 4213.99 81.69 5.00 298.84 2869.15
