~Version Information
 VERS.                  2.0:   CWLS log ASCII Standard -VERSION 2.0
 WRAP.                   NO:   One line per depth step
~Well Information Block
#MNEM.UNIT     VALUE/NAME     DESCRIPTION
#---------     -----------    ---------------------------
 STRT.S             14:05:37 19-Jan-20: START TIME 14:05:37 19-Jan-20
 STOP.S             14:13:29 19-Jan-20: STOP TIME  14:13:29 19-Jan-20
 STEP.S                   0.00: STEP TIME
 NULL.                 -999.25: NULL VALUE
 DFWT.                        :  DIST FWL TEXT
 DFST.                        :  DIST FSL TEXT
 DMF .             Drill Floor:  DRILL MEAS FROM
 STIM.      17.57.20 21-Dec-19:  START TIME
 DATE.      17.57.20 21-Dec-19:  END TIME
 SPUD.               21-Dec-19:  SPUD DATE
 NREF.                    Grid:  NORTH REFERENCE
 HPTY.       Minimum Curvature:  HOLE POS TYPE
 DMOD.             Drill Model:  DRILL MOD DESC
 SVYD.                  Survey:  SURVEY DESC
 ILTD.               Lithology:  INTERP LTH DESC
 FTOP.          Formation Tops:  FORM TOPS DESC
 PDAT.          Mean Sea Level:  PERMANENT DATUM
 FLD .                     ACG:  FIELD NAME
 SON .        AZ-XX-0905715376:  JOB NUMBER
 CTRY.              Azerbaijan:  COUNTRY NAME
 WELL.                    E04Y:  WELL NAME
 SRVC.          TURAN DRILLING:  CONTRACTOR
 COMP.     BP Exploration (Caspian Sea) Ltd.:  COMPANY
 WTYP.                Deviated:  WELL TYPE
 UWI .                     N/a:  UNIQUE WELL IDENTIFIER
 API .                     N/a:  API NUMBER
 BASE.              Azerbaijan:  LOGGING EQUIPMENT BASE LOCATION
 REGN.                   EESSA:  REGION
 MWDS.                    Baku:  MWD SHOP
 RIG .                     DWG:  RIG NAME
 DOE .                     N/a:  DOE NUMBER
 CNTY.                    Baku:  COUNTY NAME
 DCON.         Sperry Drilling:  DIRECTNL CONTR
 UNIT.                     N/a:  LOGGING EQUIPMENT ID
 MDS .        Operator Entered:  MAG DATA SOURCE
 PROV.                        :  PROVINCE
 STAT.                        :  STATE
 LOC .                        :  LOCATION
 LMF .             Drill Floor:  LOG MEASURED FROM
 TVDS.m                  43.16:  TVDSS CORRECTN
 LATI.deg                40.17:  LATITUDE
 LONG.deg                51.17:  LONGITUDE
 WHNS.m                  -0.12:  WELL HEAD N/S
 WHEW.m                  -5.41:  WELL HEAD E/W
 UTMX.m              514337.95:  UTM X
 UTMY.m             4448627.46:  UTM Y
 DFWL.m                   0.00:  DISTANCE FWL
 DFSL.m                   0.00:  DISTANCE FSL
 SDEP.m                   0.00:  START DEPTH
 TDD .m                   0.00:  TOTAL DEPTH (DRILLER)
 VSDR.deg               235.12:  VERT SEC DIRECT
 GVFD.g                   1.00:  GRAVITY FIELD
 MFLD.nT              50294.00:  MAGNETIC FIELD
 MDIP.deg                59.61:  MAGNETIC DIP
 MDEC.deg                 6.58:  MAGNETIC DECL
 GRDC.deg                 0.09:  GRID CORRECTION
 AZTC.deg                 6.49:  AZM TOTAL CORR
 EPD .m                   0.00:  ELEVATION
 EGL .m                   0.00:  GROUND ELEVATION
 WDMS.m                 176.20:  WD ELEV
 APD .m                  43.16:  DEPTH ABOVE PD
 DEP .m                3172.61:  DEPTH
 AGAP.m                  43.16:  AIR GAP
 VSEW.m                  -5.41:  VERT SEC E/W
 VSNS.m                  -0.12:  VERT SEC N/S
 EKB .m                  43.16:  KB ELEVATION
 EDF .m                  43.16:  DF ELEVATION
 TDL .m                 295.00:  TOTAL DEPTH (LOGGER)
 VSC .                       0:  VS TO CLOSURE
 MAGU.                 1852276:  MAGUTM CHECKSUM
~Parameter Information Block
#MNEM.UNIT       Value        Description
#---------     -----------    ---------------------------
 AV  .mps                 1.60:  Ann Velocity 
 AVMX.mps                 2.10:  Max Ann Veloc 
 AZIF.deg               290.59:  Azm, Final 
 BHAT.        Rotary Steerable:  BHA Type 
 BROT.°/30m               1.00:  Build Rotating 
 BS  .in                  6.50:  Bit Size 
 BSZ .in                  6.50:  Bit Size 
 BTPL.psig              120.00:  Bit Press Loss 
 CABU.                     Yes:  Customer Abuse 
 CGEO.          Eldar Huseynov:  Customer Geo 
 COMM.                     Tì‚:  Run Comments 1 
 TCS .hr                 87.00:  Time Ciculation Ended 
 CV  .mps                 4.01:  Crit Velocity 
 CVMX.mps                 5.06:  Max Crit Veloc 
 DD1 .             Aziz Aliyev:  Direct Drillr 1 
 DD2 .            Sanan Aliyev:  Direct Drillr 2 
 DDSV.               Geo-Pilot:  DD Service 
 DEFF.%                  95.00:  % Det Eff 
 DLRX.°/30m               0.75:  Dogleg Rot Max 
 DLSO.°/30m               0.65:  Dogleg Oriented 
 DLSX.°/30m               1.39:  Dogleg Str Max 
 DRET.      18.25.00 19-Jan-20:  Drill End Time 
 DRST.      11.56.48 17-Jan-20:  Drill Start Tim 
 DTIM.hr                 27.16:  Time Drilling 
 EDEP.m                5161.01:  End Depth 
 ENG1.          Rasim Hashimov:  Engineer 1 
 ENG2.      Bakhtiyar Jabbarli:  Engineer 2 
 ETIM.      11.56.48 21-Jan-20:  End Time 
 FLOI.gpm               350.00:  Flow In 
 FLON.gpm               300.00:  Flow In Min 
 FLOS.cptm                0.00:  Fluid Loss 
 FLOX.gpm               400.00:  Flow In Max 
 HFLO.                      No:  High Flow 
 HPRE.                      No:  High Pressure 
 HTEM.                      No:  High Temp 
 HYDO.m                   1.85:  Hydro Offset 
 IFIN.deg                71.58:  Inc, Final 
 IMAX.deg                71.83:  Inc Max 
 IMIN.deg                71.12:  Inc Min 
 IMND.m                5099.48:  Inc Min Depth 
 IMXD.m                5071.08:  Inc Max Depth 
 JARR.                      No:  Jarring 
 LETM.      18.25.00 19-Jan-20:  Log End Time 
 LOST.hr                     0:  Lost Rig Time 
 LSTM.      11.56.48 17-Jan-20:  Log Start Time 
 MDCL.ppm             37000.00:  Mud Chlorides 
 MDES.     Inversion Oil/Synthetic:  Mud Desc 
 DFD .sg                  1.34:  Mud Density 
 MDMN.sg                  1.34:  Dens Mud Min 
 MDMX.sg                  1.34:  Dens Mud Max 
 MOIL.                      69:  Run Mud Oil % 
 MOWR.                   69:31:  Run Mud OWR 
 MSND.                     0.1:  Run Mud Sand % 
 MSOL.                    17.6:  Run Mud Solids% 
 DFV .spqt               79.00:  Mud Viscosity 
 MWOD.in                  4.75:  MWD Tool OD 
 MWSI.                      No:  Serv Intrp, MWD 
 OTIM.hr                126.10:  Time Operating 
 PMAX.psia             6000.00:  Press Op, Max 
 PV  .cP                 29.00:  Mud PV 
 RUN .                     400:  Run Number 
 ROPA.m/hr               11.00:  ROP Avg 
 ROPN.m/hr                5.00:  ROP Min 
 ROPX.m/hr               18.00:  ROP Max 
 RPMA.rpm               139.00:  RPM Surface Avg 
 RPMN.rpm               100.00:  RPM Surface Min 
 RPMX.rpm               140.00:  RPM Surface Max 
 RRUN.                     400:  Rig Run Number 
 SAZI.deg               290.22:  Azm, Start 
 SDEP.m                4868.01:  Start Depth 
 SIDD.                      No:  Serv Intrp, DD 
 SINC.deg                71.77:  Inc, Start 
 SPPA.psig             5550.00:  SPP Avg 
 SPPN.psig             4300.00:  SPP Min 
 SPPX.psig             5600.00:  SPP Max 
 STIM.      23.45.48 15-Jan-20:  Start Time 
 SVCS.                 DD, MWD:  Services 
 SVER.                    9.20:  Sperry Version 
 TDAT.m                5161.01:  Tot Depth Attmp 
 TDDF.                      No:  Trip for DD 
 TDLG.m                 295.00:  Tot Depth Loggd 
 TFF .                      No:  Trip for Fail 
 TQAA.f-kp               13.00:  Torque Abs Avg 
 TQAN.f-kp               13.00:  Torque Abs Min 
 TQAX.f-kp               16.00:  Torque Abs Max 
 TRRT.°/30m               0.25:  Turn Rotating 
 MRT .                     ADR:  Maximum Recorded Temperature 
 TTMX.degC               88.00:  Max Tool Temp 
 VS01.                90577859:  Virtual Str1 SN 
 VS02.                90521879:  Virtual Str2 SN 
 VS03.                90580299:  Virtual Str3 SN 
 VS04.                90515982:  Virtual Str4 SN 
 VS05.                90547765:  Virtual Str5 SN 
 WBMN.klb                 2.00:  WOB Min 
 WITN.           Adil Mammadov:  Customer Rep 
 WITN.        Elmaddin Rahimov:  Customer Rep 2 
 WOBA.klb                 3.00:  WOB Avg 
 WOBX.klb                 5.00:  WOB Max 
 YP  .lhf2               30.00:  Yield Point 
~Curve Information Block
#MNEM.UNIT                 API CODE     Curve Description
#---------               -----------    ---------------------------
 TIME.HHMMSS            00 000 000 000:  GT Time & Date
 GTDEPTH.m              00 000 000 000:  GT Depth
 GTPQH.psia             00 000 000 000:  GT HR Quartz Pressure
 GTTQ.degC              00 000 000 000:  GT Quartz Temperature
 GTTN.NONE              00 000 000 000:  GT Test Number
 GTET.sec               00 000 000 000:  GT Elapsed Test Time
 GTTVD.m                00 000 000 000:  GT True Vertical Depth
#Other Information
#
#WARRANTY: Halliburton will use its best efforts to furnish customers with 
#accurate information and interpretations that are part of, and incident to, the services 
#provided.  However, Halliburton cannot and does not warrant the accuracy 
#or correctness of such information and interpretations.  Under no circumstances should any 
#such information or interpretation be relied upon as the sole basis for any drilling, 
#completion, production, or financial decision or any procedure involving any risk to the 
#safety of any drilling venture, drilling rig or its crew or any other third party.  The 
#Customer has full responsibility for all drilling, completion and production operation.  
#Halliburton makes no representations or warranties, either expressed or 
#implied, including, but not limited to, the implied warranties of merchantability or fitness 
#for a particular purpose, with respect to the services rendered.  In no event will 
#Halliburton be liable for failure to obtain any particular results or for 
#any damages, including, but not limited to, indirect, special or consequential damages, 
#resulting from the use of any information or interpretation provided by Halliburton.
#
~A           TIME           GTDEPTH  GTPQH  GTTQ  GTTN  GTET   GTTVD  
# ...
   14:08:18.660.19-Jan-2020 5113.51 4117.01 81.70 6.00 161.03 2879.41
   14:08:18.860.19-Jan-2020 5113.51 4117.01 81.70 6.00 161.23 2879.41
   14:08:19.060.19-Jan-2020 5113.51 4117.03 81.70 6.00 161.43 2879.41
   14:08:19.261.19-Jan-2020 5113.51 4117.06 81.70 6.00 161.63 2879.41
   14:08:19.461.19-Jan-2020 5113.51 4117.02 81.70 6.00 161.83 2879.41
   14:08:19.661.19-Jan-2020 5113.51 4117.05 81.70 6.00 162.03 2879.41
   14:08:19.861.19-Jan-2020 5113.51 4117.05 81.70 6.00 162.23 2879.41
   14:08:20.061.19-Jan-2020 5113.51 4117.04 81.70 6.00 162.43 2879.41
   14:08:20.261.19-Jan-2020 5113.51 4117.03 81.70 6.00 162.63 2879.41
   14:08:20.461.19-Jan-2020 5113.51 4117.03 81.70 6.00 162.83 2879.41
   14:08:20.661.19-Jan-2020 5113.51 4117.02 81.70 6.00 163.03 2879.41
   14:08:20.861.19-Jan-2020 5113.51 4117.02 81.70 6.00 163.23 2879.41
   14:08:21.061.19-Jan-2020 5113.51 4104.12 81.70 6.00 163.43 2879.41
   14:08:21.261.19-Jan-2020 5113.51 4104.33 81.70 6.00 163.63 2879.41
   14:08:21.461.19-Jan-2020 5113.51 4104.13 81.70 6.00 163.83 2879.41
   14:08:21.661.19-Jan-2020 5113.51 4104.54 81.70 6.00 164.03 2879.41
   14:08:21.861.19-Jan-2020 5113.51 4104.54 81.70 6.00 164.23 2879.41
   14:08:22.061.19-Jan-2020 5113.51 4104.25 81.70 6.00 164.43 2879.41
   14:08:22.261.19-Jan-2020 5113.51 4103.61 81.70 6.00 164.63 2879.41
   14:08:22.461.19-Jan-2020 5113.51 4104.38 81.69 6.00 164.83 2879.41
   14:08:22.661.19-Jan-2020 5113.51 4104.11 81.69 6.00 165.03 2879.41
   14:08:22.861.19-Jan-2020 5113.51 4104.11 81.69 6.00 165.23 2879.41
   14:08:23.061.19-Jan-2020 5113.51 4104.07 81.69 6.00 165.43 2879.41
   14:08:23.261.19-Jan-2020 5113.51 4104.02 81.69 6.00 165.63 2879.41
   14:08:23.461.19-Jan-2020 5113.51 4103.26 81.69 6.00 165.83 2879.41
   14:08:23.661.19-Jan-2020 5113.51 4104.25 81.69 6.00 166.03 2879.41
   14:08:23.861.19-Jan-2020 5113.51 4104.25 81.69 6.00 166.23 2879.41
   14:08:24.062.19-Jan-2020 5113.51 4103.89 81.69 6.00 166.43 2879.41
   14:08:24.262.19-Jan-2020 5113.51 4104.00 81.69 6.00 166.63 2879.41
   14:08:24.462.19-Jan-2020 5113.51 4103.60 81.69 6.00 166.83 2879.41
   14:08:24.662.19-Jan-2020 5113.51 4104.14 81.69 6.00 167.03 2879.41
   14:08:24.862.19-Jan-2020 5113.51 4104.14 81.69 6.00 167.23 2879.41
   14:08:25.062.19-Jan-2020 5113.51 4103.81 81.69 6.00 167.43 2879.41
   14:08:25.262.19-Jan-2020 5113.51 4103.95 81.69 6.00 167.63 2879.41
   14:08:25.462.19-Jan-2020 5113.51 4103.93 81.69 6.00 167.83 2879.41
   14:08:25.662.19-Jan-2020 5113.51 4103.96 81.69 6.00 168.03 2879.41
   14:08:25.862.19-Jan-2020 5113.51 4103.96 81.69 6.00 168.23 2879.41
   14:08:26.062.19-Jan-2020 5113.51 4103.99 81.69 6.00 168.43 2879.41
   14:08:26.262.19-Jan-2020 5113.51 4103.91 81.69 6.00 168.63 2879.41
   14:08:26.462.19-Jan-2020 5113.51 4103.90 81.69 6.00 168.83 2879.41
   14:08:26.662.19-Jan-2020 5113.51 4103.86 81.69 6.00 169.03 2879.41
   14:08:26.862.19-Jan-2020 5113.51 4103.86 81.69 6.00 169.23 2879.41
   14:08:27.062.19-Jan-2020 5113.51 4103.78 81.69 6.00 169.43 2879.41
   14:08:27.262.19-Jan-2020 5113.51 4103.81 81.69 6.00 169.63 2879.41
   14:08:27.462.19-Jan-2020 5113.51 4104.02 81.69 6.00 169.83 2879.41
   14:08:27.662.19-Jan-2020 5113.51 4103.64 81.69 6.00 170.03 2879.41
   14:08:27.862.19-Jan-2020 5113.51 4103.64 81.69 6.00 170.23 2879.41
   14:08:28.062.19-Jan-2020 5113.51 4104.16 81.69 6.00 170.44 2879.41
   14:08:28.262.19-Jan-2020 5113.51 4103.90 81.69 6.00 170.64 2879.41
   14:08:28.462.19-Jan-2020 5113.51 4104.09 81.69 6.00 170.84 2879.41
   14:08:28.662.19-Jan-2020 5113.51 4103.96 81.69 6.00 171.04 2879.41
   14:08:28.862.19-Jan-2020 5113.51 4103.96 81.69 6.00 171.24 2879.41
   14:08:29.063.19-Jan-2020 5113.51 4104.02 81.68 6.00 171.44 2879.41
   14:08:29.263.19-Jan-2020 5113.51 4104.09 81.68 6.00 171.64 2879.41
   14:08:29.463.19-Jan-2020 5113.51 4104.00 81.68 6.00 171.84 2879.41
   14:08:29.663.19-Jan-2020 5113.51 4103.79 81.68 6.00 172.04 2879.41
   14:08:29.863.19-Jan-2020 5113.51 4103.79 81.68 6.00 172.24 2879.41
   14:08:30.063.19-Jan-2020 5113.51 4103.92 81.68 6.00 172.44 2879.41
   14:08:30.263.19-Jan-2020 5113.51 4104.09 81.68 6.00 172.64 2879.41
   14:08:30.463.19-Jan-2020 5113.51 4103.90 81.68 6.00 172.84 2879.41
   14:08:30.663.19-Jan-2020 5113.51 4103.81 81.68 6.00 173.04 2879.41
   14:08:30.863.19-Jan-2020 5113.51 4103.81 81.68 6.00 173.24 2879.41
   14:08:31.063.19-Jan-2020 5113.51 4115.04 81.68 6.00 173.44 2879.41
   14:08:31.263.19-Jan-2020 5113.51 4116.45 81.68 6.00 173.64 2879.41
   14:08:31.463.19-Jan-2020 5113.51 4116.51 81.68 6.00 173.84 2879.41
   14:08:31.663.19-Jan-2020 5113.51 4116.52 81.68 6.00 174.04 2879.41
   14:08:31.863.19-Jan-2020 5113.51 4116.52 81.68 6.00 174.24 2879.41
   14:08:32.063.19-Jan-2020 5113.51 4116.74 81.68 6.00 174.44 2879.41
   14:08:32.263.19-Jan-2020 5113.51 4116.68 81.68 6.00 174.64 2879.41
   14:08:32.463.19-Jan-2020 5113.51 4116.67 81.68 6.00 174.84 2879.41
   14:08:32.663.19-Jan-2020 5113.51 4116.71 81.68 6.00 175.04 2879.41
   14:08:32.863.19-Jan-2020 5113.51 4116.71 81.68 6.00 175.24 2879.41
   14:08:33.063.19-Jan-2020 5113.51 4116.57 81.68 6.00 175.44 2879.41
   14:08:33.263.19-Jan-2020 5113.51 4116.82 81.68 6.00 175.64 2879.41
   14:08:33.463.19-Jan-2020 5113.51 4116.76 81.68 6.00 175.84 2879.41
   14:08:33.663.19-Jan-2020 5113.51 4116.75 81.68 6.00 176.04 2879.41
   14:08:33.864.19-Jan-2020 5113.51 4116.75 81.68 6.00 176.24 2879.41
   14:08:34.064.19-Jan-2020 5113.51 4116.62 81.68 6.00 176.44 2879.41
   14:08:34.264.19-Jan-2020 5113.51 4116.89 81.68 6.00 176.64 2879.41
   14:08:34.464.19-Jan-2020 5113.51 4116.81 81.68 6.00 176.84 2879.41
   14:08:34.664.19-Jan-2020 5113.51 4116.77 81.68 6.00 177.04 2879.41
   14:08:34.864.19-Jan-2020 5113.51 4116.77 81.68 6.00 177.24 2879.41
   14:08:35.064.19-Jan-2020 5113.51 4116.81 81.68 6.00 177.44 2879.41
   14:08:35.264.19-Jan-2020 5113.51 4116.83 81.68 6.00 177.64 2879.41
   14:08:35.464.19-Jan-2020 5113.51 4116.87 81.68 6.00 177.84 2879.41
   14:08:35.664.19-Jan-2020 5113.51 4116.83 81.68 6.00 178.04 2879.41
   14:08:35.864.19-Jan-2020 5113.51 4116.83 81.68 6.00 178.24 2879.41
   14:08:36.064.19-Jan-2020 5113.51 4116.83 81.67 6.00 178.44 2879.41
   14:08:36.264.19-Jan-2020 5113.51 4116.85 81.67 6.00 178.64 2879.41
   14:08:36.464.19-Jan-2020 5113.51 4116.83 81.67 6.00 178.84 2879.41
   14:08:36.664.19-Jan-2020 5113.51 4116.85 81.67 6.00 179.04 2879.41
   14:08:36.864.19-Jan-2020 5113.51 4116.85 81.67 6.00 179.24 2879.41
   14:08:37.064.19-Jan-2020 5113.51 4116.86 81.67 6.00 179.44 2879.41
   14:08:37.264.19-Jan-2020 5113.51 4116.68 81.67 6.00 179.64 2879.41
   14:08:37.464.19-Jan-2020 5113.51 4116.98 81.67 6.00 179.84 2879.41
   14:08:37.664.19-Jan-2020 5113.51 4116.86 81.67 6.00 180.04 2879.41
   14:08:37.864.19-Jan-2020 5113.51 4116.86 81.67 6.00 180.24 2879.41
   14:08:38.064.19-Jan-2020 5113.51 4116.85 81.67 6.00 180.44 2879.41
   14:08:38.264.19-Jan-2020 5113.51 4116.88 81.67 6.00 180.64 2879.41
   14:08:38.464.19-Jan-2020 5113.51 4116.89 81.67 6.00 180.84 2879.41
   14:08:38.665.19-Jan-2020 5113.51 4116.87 81.67 6.00 181.04 2879.41
   14:08:38.865.19-Jan-2020 5113.51 4116.87 81.67 6.00 181.24 2879.41
   14:08:39.065.19-Jan-2020 5113.51 4116.89 81.67 6.00 181.44 2879.41
   14:08:39.265.19-Jan-2020 5113.51 4116.91 81.67 6.00 181.64 2879.41
   14:08:39.465.19-Jan-2020 5113.51 4116.91 81.67 6.00 181.84 2879.41
   14:08:39.665.19-Jan-2020 5113.51 4116.92 81.67 6.00 182.04 2879.41
   14:08:39.865.19-Jan-2020 5113.51 4116.92 81.67 6.00 182.24 2879.41
   14:08:40.065.19-Jan-2020 5113.51 4116.92 81.67 6.00 182.44 2879.41
   14:08:40.265.19-Jan-2020 5113.51 4116.92 81.67 6.00 182.64 2879.41
   14:08:40.465.19-Jan-2020 5113.51 4116.93 81.67 6.00 182.84 2879.41
   14:08:40.665.19-Jan-2020 5113.51 4116.82 81.67 6.00 183.04 2879.41
   14:08:40.865.19-Jan-2020 5113.51 4116.82 81.67 6.00 183.24 2879.41
   14:08:41.065.19-Jan-2020 5113.51 4117.15 81.67 6.00 183.44 2879.41
   14:08:41.265.19-Jan-2020 5113.51 4117.51 81.67 6.00 183.64 2879.41
   14:08:41.465.19-Jan-2020 5113.51 4117.51 81.67 6.00 183.84 2879.41
