~Version Information
 VERS.                  2.0:   CWLS log ASCII Standard -VERSION 2.0
 WRAP.                   NO:   One line per depth step
~Well Information Block
#MNEM.UNIT     VALUE/NAME     DESCRIPTION
#---------     -----------    ---------------------------
 STRT.S             10:27:46 18-Jan-20: START TIME 10:27:46 18-Jan-20
 STOP.S             10:35:37 18-Jan-20: STOP TIME  10:35:37 18-Jan-20
 STEP.S                   0.00: STEP TIME
 NULL.                 -999.25: NULL VALUE
 DFWT.                        :  DIST FWL TEXT
 DFST.                        :  DIST FSL TEXT
 DMF .             Drill Floor:  DRILL MEAS FROM
 STIM.      17.57.20 21-Dec-19:  START TIME
 DATE.      17.57.20 21-Dec-19:  END TIME
 SPUD.               21-Dec-19:  SPUD DATE
 NREF.                    Grid:  NORTH REFERENCE
 HPTY.       Minimum Curvature:  HOLE POS TYPE
 DMOD.             Drill Model:  DRILL MOD DESC
 SVYD.                  Survey:  SURVEY DESC
 ILTD.               Lithology:  INTERP LTH DESC
 FTOP.          Formation Tops:  FORM TOPS DESC
 PDAT.          Mean Sea Level:  PERMANENT DATUM
 FLD .                     ACG:  FIELD NAME
 SON .        AZ-XX-0905715376:  JOB NUMBER
 CTRY.              Azerbaijan:  COUNTRY NAME
 WELL.                    E04Y:  WELL NAME
 SRVC.          TURAN DRILLING:  CONTRACTOR
 COMP.     BP Exploration (Caspian Sea) Ltd.:  COMPANY
 WTYP.                Deviated:  WELL TYPE
 UWI .                     N/a:  UNIQUE WELL IDENTIFIER
 API .                     N/a:  API NUMBER
 BASE.              Azerbaijan:  LOGGING EQUIPMENT BASE LOCATION
 REGN.                   EESSA:  REGION
 MWDS.                    Baku:  MWD SHOP
 RIG .                     DWG:  RIG NAME
 DOE .                     N/a:  DOE NUMBER
 CNTY.                    Baku:  COUNTY NAME
 DCON.         Sperry Drilling:  DIRECTNL CONTR
 UNIT.                     N/a:  LOGGING EQUIPMENT ID
 MDS .        Operator Entered:  MAG DATA SOURCE
 PROV.                        :  PROVINCE
 STAT.                        :  STATE
 LOC .                        :  LOCATION
 LMF .             Drill Floor:  LOG MEASURED FROM
 TVDS.m                  43.16:  TVDSS CORRECTN
 LATI.deg                40.17:  LATITUDE
 LONG.deg                51.17:  LONGITUDE
 WHNS.m                  -0.12:  WELL HEAD N/S
 WHEW.m                  -5.41:  WELL HEAD E/W
 UTMX.m              514337.95:  UTM X
 UTMY.m             4448627.46:  UTM Y
 DFWL.m                   0.00:  DISTANCE FWL
 DFSL.m                   0.00:  DISTANCE FSL
 SDEP.m                   0.00:  START DEPTH
 TDD .m                   0.00:  TOTAL DEPTH (DRILLER)
 VSDR.deg               235.12:  VERT SEC DIRECT
 GVFD.g                   1.00:  GRAVITY FIELD
 MFLD.nT              50294.00:  MAGNETIC FIELD
 MDIP.deg                59.61:  MAGNETIC DIP
 MDEC.deg                 6.58:  MAGNETIC DECL
 GRDC.deg                 0.09:  GRID CORRECTION
 AZTC.deg                 6.49:  AZM TOTAL CORR
 EPD .m                   0.00:  ELEVATION
 EGL .m                   0.00:  GROUND ELEVATION
 WDMS.m                 176.20:  WD ELEV
 APD .m                  43.16:  DEPTH ABOVE PD
 DEP .m                3172.61:  DEPTH
 AGAP.m                  43.16:  AIR GAP
 VSEW.m                  -5.41:  VERT SEC E/W
 VSNS.m                  -0.12:  VERT SEC N/S
 EKB .m                  43.16:  KB ELEVATION
 EDF .m                  43.16:  DF ELEVATION
 TDL .m                 295.00:  TOTAL DEPTH (LOGGER)
 VSC .                       0:  VS TO CLOSURE
 MAGU.                 1852276:  MAGUTM CHECKSUM
~Parameter Information Block
#MNEM.UNIT       Value        Description
#---------     -----------    ---------------------------
 AV  .mps                 1.60:  Ann Velocity 
 AVMX.mps                 2.10:  Max Ann Veloc 
 AZIF.deg               290.59:  Azm, Final 
 BHAT.        Rotary Steerable:  BHA Type 
 BROT.°/30m               1.00:  Build Rotating 
 BS  .in                  6.50:  Bit Size 
 BSZ .in                  6.50:  Bit Size 
 BTPL.psig              120.00:  Bit Press Loss 
 CABU.                     Yes:  Customer Abuse 
 CGEO.          Eldar Huseynov:  Customer Geo 
 COMM.                     ¬Øj:  Run Comments 1 
 TCS .hr                 87.00:  Time Ciculation Ended 
 CV  .mps                 4.01:  Crit Velocity 
 CVMX.mps                 5.06:  Max Crit Veloc 
 DD1 .             Aziz Aliyev:  Direct Drillr 1 
 DD2 .            Sanan Aliyev:  Direct Drillr 2 
 DDSV.               Geo-Pilot:  DD Service 
 DEFF.%                  95.00:  % Det Eff 
 DLRX.°/30m               0.75:  Dogleg Rot Max 
 DLSO.°/30m               0.65:  Dogleg Oriented 
 DLSX.°/30m               1.39:  Dogleg Str Max 
 DRET.      18.25.00 19-Jan-20:  Drill End Time 
 DRST.      11.56.48 17-Jan-20:  Drill Start Tim 
 DTIM.hr                 27.16:  Time Drilling 
 EDEP.m                5161.01:  End Depth 
 ENG1.          Rasim Hashimov:  Engineer 1 
 ENG2.      Bakhtiyar Jabbarli:  Engineer 2 
 ETIM.      11.56.48 21-Jan-20:  End Time 
 FLOI.gpm               350.00:  Flow In 
 FLON.gpm               300.00:  Flow In Min 
 FLOS.cptm                0.00:  Fluid Loss 
 FLOX.gpm               400.00:  Flow In Max 
 HFLO.                      No:  High Flow 
 HPRE.                      No:  High Pressure 
 HTEM.                      No:  High Temp 
 HYDO.m                   1.85:  Hydro Offset 
 IFIN.deg                71.58:  Inc, Final 
 IMAX.deg                71.83:  Inc Max 
 IMIN.deg                71.12:  Inc Min 
 IMND.m                5099.48:  Inc Min Depth 
 IMXD.m                5071.08:  Inc Max Depth 
 JARR.                      No:  Jarring 
 LETM.      18.25.00 19-Jan-20:  Log End Time 
 LOST.hr                     0:  Lost Rig Time 
 LSTM.      11.56.48 17-Jan-20:  Log Start Time 
 MDCL.ppm             37000.00:  Mud Chlorides 
 MDES.     Inversion Oil/Synthetic:  Mud Desc 
 DFD .sg                  1.34:  Mud Density 
 MDMN.sg                  1.34:  Dens Mud Min 
 MDMX.sg                  1.34:  Dens Mud Max 
 MOIL.                      69:  Run Mud Oil % 
 MOWR.                   69:31:  Run Mud OWR 
 MSND.                     0.1:  Run Mud Sand % 
 MSOL.                    17.6:  Run Mud Solids% 
 DFV .spqt               79.00:  Mud Viscosity 
 MWOD.in                  4.75:  MWD Tool OD 
 MWSI.                      No:  Serv Intrp, MWD 
 OTIM.hr                126.10:  Time Operating 
 PMAX.psia             6000.00:  Press Op, Max 
 PV  .cP                 29.00:  Mud PV 
 RUN .                     400:  Run Number 
 ROPA.m/hr               11.00:  ROP Avg 
 ROPN.m/hr                5.00:  ROP Min 
 ROPX.m/hr               18.00:  ROP Max 
 RPMA.rpm               139.00:  RPM Surface Avg 
 RPMN.rpm               100.00:  RPM Surface Min 
 RPMX.rpm               140.00:  RPM Surface Max 
 RRUN.                     400:  Rig Run Number 
 SAZI.deg               290.22:  Azm, Start 
 SDEP.m                4868.01:  Start Depth 
 SIDD.                      No:  Serv Intrp, DD 
 SINC.deg                71.77:  Inc, Start 
 SPPA.psig             5550.00:  SPP Avg 
 SPPN.psig             4300.00:  SPP Min 
 SPPX.psig             5600.00:  SPP Max 
 STIM.      23.45.48 15-Jan-20:  Start Time 
 SVCS.                 DD, MWD:  Services 
 SVER.                    9.20:  Sperry Version 
 TDAT.m                5161.01:  Tot Depth Attmp 
 TDDF.                      No:  Trip for DD 
 TDLG.m                 295.00:  Tot Depth Loggd 
 TFF .                      No:  Trip for Fail 
 TQAA.f-kp               13.00:  Torque Abs Avg 
 TQAN.f-kp               13.00:  Torque Abs Min 
 TQAX.f-kp               16.00:  Torque Abs Max 
 TRRT.°/30m               0.25:  Turn Rotating 
 MRT .                     ADR:  Maximum Recorded Temperature 
 TTMX.degC               88.00:  Max Tool Temp 
 VS01.                90577859:  Virtual Str1 SN 
 VS02.                90521879:  Virtual Str2 SN 
 VS03.                90580299:  Virtual Str3 SN 
 VS04.                90515982:  Virtual Str4 SN 
 VS05.                90547765:  Virtual Str5 SN 
 WBMN.klb                 2.00:  WOB Min 
 WITN.           Adil Mammadov:  Customer Rep 
 WITN.        Elmaddin Rahimov:  Customer Rep 2 
 WOBA.klb                 3.00:  WOB Avg 
 WOBX.klb                 5.00:  WOB Max 
 YP  .lhf2               30.00:  Yield Point 
~Curve Information Block
#MNEM.UNIT                 API CODE     Curve Description
#---------               -----------    ---------------------------
 TIME.HHMMSS            00 000 000 000:  GT Time & Date
 GTDEPTH.m              00 000 000 000:  GT Depth
 GTPQH.psia             00 000 000 000:  GT HR Quartz Pressure
 GTTQ.degC              00 000 000 000:  GT Quartz Temperature
 GTTN.NONE              00 000 000 000:  GT Test Number
 GTET.sec               00 000 000 000:  GT Elapsed Test Time
 GTTVD.m                00 000 000 000:  GT True Vertical Depth
#Other Information
#
#WARRANTY: Halliburton will use its best efforts to furnish customers with 
#accurate information and interpretations that are part of, and incident to, the services 
#provided.  However, Halliburton cannot and does not warrant the accuracy 
#or correctness of such information and interpretations.  Under no circumstances should any 
#such information or interpretation be relied upon as the sole basis for any drilling, 
#completion, production, or financial decision or any procedure involving any risk to the 
#safety of any drilling venture, drilling rig or its crew or any other third party.  The 
#Customer has full responsibility for all drilling, completion and production operation.  
#Halliburton makes no representations or warranties, either expressed or 
#implied, including, but not limited to, the implied warranties of merchantability or fitness 
#for a particular purpose, with respect to the services rendered.  In no event will 
#Halliburton be liable for failure to obtain any particular results or for 
#any damages, including, but not limited to, indirect, special or consequential damages, 
#resulting from the use of any information or interpretation provided by Halliburton.
#
~A           TIME           GTDEPTH  GTPQH  GTTQ  GTTN  GTET   GTTVD  
# ...
   10:34:40.342.18-Jan-2020 4898.01 4078.79 73.10 1.00 414.05 2811.04
   10:34:40.542.18-Jan-2020 4898.01 4078.79 73.10 1.00 414.25 2811.04
   10:34:40.742.18-Jan-2020 4898.01 4078.76 73.10 1.00 414.45 2811.04
   10:34:40.942.18-Jan-2020 4898.01 4078.79 73.10 1.00 414.65 2811.04
   10:34:41.142.18-Jan-2020 4898.01 4078.67 73.10 1.00 414.85 2811.04
   10:34:41.342.18-Jan-2020 4898.01 4078.67 73.10 1.00 415.05 2811.04
   10:34:41.542.18-Jan-2020 4898.01 4078.67 73.10 1.00 415.25 2811.04
   10:34:41.742.18-Jan-2020 4898.01 4078.82 73.10 1.00 415.45 2811.04
   10:34:41.942.18-Jan-2020 4898.01 4078.83 73.10 1.00 415.65 2811.04
   10:34:42.142.18-Jan-2020 4898.01 4078.78 73.10 1.00 415.85 2811.04
   10:34:42.342.18-Jan-2020 4898.01 4078.82 73.10 1.00 416.05 2811.04
   10:34:42.542.18-Jan-2020 4898.01 4078.82 73.10 1.00 416.25 2811.04
   10:34:42.742.18-Jan-2020 4898.01 4078.60 73.09 1.00 416.45 2811.04
   10:34:42.942.18-Jan-2020 4898.01 4078.81 73.09 1.00 416.65 2811.04
   10:34:43.142.18-Jan-2020 4898.01 4078.83 73.09 1.00 416.85 2811.04
   10:34:43.342.18-Jan-2020 4898.01 4078.84 73.09 1.00 417.05 2811.04
   10:34:43.542.18-Jan-2020 4898.01 4078.84 73.09 1.00 417.25 2811.04
   10:34:43.742.18-Jan-2020 4898.01 4078.83 73.09 1.00 417.45 2811.04
   10:34:43.942.18-Jan-2020 4898.01 4078.78 73.09 1.00 417.65 2811.04
   10:34:44.142.18-Jan-2020 4898.01 4078.58 73.09 1.00 417.85 2811.04
   10:34:44.342.18-Jan-2020 4898.01 4078.87 73.09 1.00 418.05 2811.04
   10:34:44.542.18-Jan-2020 4898.01 4078.87 73.09 1.00 418.25 2811.04
   10:34:44.742.18-Jan-2020 4898.01 4078.86 73.09 1.00 418.45 2811.04
   10:34:44.942.18-Jan-2020 4898.01 4078.80 73.09 1.00 418.65 2811.04
   10:34:45.142.18-Jan-2020 4898.01 4078.82 73.09 1.00 418.85 2811.04
   10:34:45.342.18-Jan-2020 4898.01 4078.52 73.09 1.00 419.05 2811.04
   10:34:45.542.18-Jan-2020 4898.01 4078.52 73.09 1.00 419.25 2811.04
   10:34:45.742.18-Jan-2020 4898.01 4078.85 73.09 1.00 419.45 2811.04
   10:34:45.942.18-Jan-2020 4898.01 4078.80 73.09 1.00 419.65 2811.04
   10:34:46.142.18-Jan-2020 4898.01 4078.82 73.09 1.00 419.85 2811.04
   10:34:46.342.18-Jan-2020 4898.01 4078.80 73.09 1.00 420.05 2811.04
   10:34:46.542.18-Jan-2020 4898.01 4078.80 73.09 1.00 420.25 2811.04
   10:34:46.742.18-Jan-2020 4898.01 4078.80 73.09 1.00 420.45 2811.04
   10:34:46.943.18-Jan-2020 4898.01 4078.78 73.09 1.00 420.65 2811.04
   10:34:47.143.18-Jan-2020 4898.01 4078.80 73.09 1.00 420.85 2811.04
   10:34:47.343.18-Jan-2020 4898.01 4078.76 73.09 1.00 421.05 2811.04
   10:34:47.543.18-Jan-2020 4898.01 4078.76 73.09 1.00 421.25 2811.04
   10:34:47.743.18-Jan-2020 4898.01 4078.78 73.09 1.00 421.45 2811.04
   10:34:47.943.18-Jan-2020 4898.01 4078.79 73.09 1.00 421.65 2811.04
   10:34:48.143.18-Jan-2020 4898.01 4078.79 73.09 1.00 421.85 2811.04
   10:34:48.343.18-Jan-2020 4898.01 4078.77 73.09 1.00 422.05 2811.04
   10:34:48.543.18-Jan-2020 4898.01 4078.77 73.09 1.00 422.25 2811.04
   10:34:48.743.18-Jan-2020 4898.01 4078.55 73.09 1.00 422.45 2811.04
   10:34:48.943.18-Jan-2020 4898.01 4078.87 73.09 1.00 422.65 2811.04
   10:34:49.143.18-Jan-2020 4898.01 4078.84 73.09 1.00 422.85 2811.04
   10:34:49.343.18-Jan-2020 4898.01 4078.81 73.09 1.00 423.05 2811.04
   10:34:49.543.18-Jan-2020 4898.01 4078.81 73.09 1.00 423.25 2811.04
   10:34:49.743.18-Jan-2020 4898.01 4078.78 73.09 1.00 423.45 2811.04
   10:34:49.943.18-Jan-2020 4898.01 4078.80 73.09 1.00 423.65 2811.04
   10:34:50.143.18-Jan-2020 4898.01 4078.77 73.09 1.00 423.85 2811.04
   10:34:50.343.18-Jan-2020 4898.01 4078.79 73.09 1.00 424.05 2811.04
   10:34:50.543.18-Jan-2020 4898.01 4078.79 73.09 1.00 424.25 2811.04
   10:34:50.743.18-Jan-2020 4898.01 4078.76 73.09 1.00 424.45 2811.04
   10:34:50.943.18-Jan-2020 4898.01 4078.79 73.09 1.00 424.65 2811.04
   10:34:51.143.18-Jan-2020 4898.01 4078.77 73.09 1.00 424.85 2811.04
   10:34:51.343.18-Jan-2020 4898.01 4078.79 73.09 1.00 425.05 2811.04
   10:34:51.543.18-Jan-2020 4898.01 4078.79 73.09 1.00 425.25 2811.04
   10:34:51.743.18-Jan-2020 4898.01 4078.76 73.08 1.00 425.45 2811.04
   10:34:51.943.18-Jan-2020 4898.01 4078.72 73.08 1.00 425.65 2811.04
   10:34:52.143.18-Jan-2020 4898.01 4078.65 73.08 1.00 425.85 2811.04
   10:34:52.343.18-Jan-2020 4898.01 4078.87 73.08 1.00 426.05 2811.04
   10:34:52.543.18-Jan-2020 4898.01 4078.87 73.08 1.00 426.25 2811.04
   10:34:52.743.18-Jan-2020 4898.01 4078.83 73.08 1.00 426.45 2811.04
   10:34:52.943.18-Jan-2020 4898.01 4078.80 73.08 1.00 426.65 2811.04
   10:34:53.143.18-Jan-2020 4898.01 4078.80 73.08 1.00 426.85 2811.04
   10:34:53.343.18-Jan-2020 4898.01 4078.80 73.08 1.00 427.05 2811.04
   10:34:53.543.18-Jan-2020 4898.01 4078.80 73.08 1.00 427.25 2811.04
   10:34:53.743.18-Jan-2020 4898.01 4078.82 73.08 1.00 427.45 2811.04
   10:34:53.943.18-Jan-2020 4898.01 4078.82 73.08 1.00 427.65 2811.04
   10:34:54.143.18-Jan-2020 4898.01 4078.83 73.08 1.00 427.85 2811.04
   10:34:54.343.18-Jan-2020 4898.01 4078.83 73.08 1.00 428.05 2811.04
   10:34:54.543.18-Jan-2020 4898.01 4078.83 73.08 1.00 428.25 2811.04
   10:34:54.743.18-Jan-2020 4898.01 4078.80 73.08 1.00 428.45 2811.04
   10:34:54.943.18-Jan-2020 4898.01 4078.57 73.08 1.00 428.65 2811.04
   10:34:55.144.18-Jan-2020 4898.01 4078.87 73.08 1.00 428.85 2811.04
   10:34:55.344.18-Jan-2020 4898.01 4078.84 73.08 1.00 429.05 2811.04
   10:34:55.544.18-Jan-2020 4898.01 4078.84 73.08 1.00 429.25 2811.04
   10:34:55.744.18-Jan-2020 4898.01 4078.85 73.08 1.00 429.45 2811.04
   10:34:55.944.18-Jan-2020 4898.01 4078.79 73.08 1.00 429.65 2811.04
   10:34:56.144.18-Jan-2020 4898.01 4078.54 73.08 1.00 429.85 2811.04
   10:34:56.344.18-Jan-2020 4898.01 4078.90 73.08 1.00 430.05 2811.04
   10:34:56.544.18-Jan-2020 4898.01 4078.90 73.08 1.00 430.25 2811.04
   10:34:56.744.18-Jan-2020 4898.01 4078.83 73.08 1.00 430.45 2811.04
   10:34:56.944.18-Jan-2020 4898.01 4078.79 73.08 1.00 430.65 2811.04
   10:34:57.144.18-Jan-2020 4898.01 4078.83 73.08 1.00 430.85 2811.04
   10:34:57.344.18-Jan-2020 4898.01 4078.80 73.08 1.00 431.05 2811.04
   10:34:57.544.18-Jan-2020 4898.01 4078.80 73.08 1.00 431.25 2811.04
   10:34:57.744.18-Jan-2020 4898.01 4078.80 73.08 1.00 431.45 2811.04
   10:34:57.944.18-Jan-2020 4898.01 4078.78 73.08 1.00 431.65 2811.04
   10:34:58.144.18-Jan-2020 4898.01 4078.80 73.08 1.00 431.85 2811.04
   10:34:58.344.18-Jan-2020 4898.01 4078.76 73.08 1.00 432.05 2811.04
   10:34:58.544.18-Jan-2020 4898.01 4078.76 73.08 1.00 432.25 2811.04
   10:34:58.744.18-Jan-2020 4898.01 4078.78 73.08 1.00 432.45 2811.04
   10:34:58.944.18-Jan-2020 4898.01 4078.80 73.08 1.00 432.65 2811.04
   10:34:59.144.18-Jan-2020 4898.01 4078.78 73.08 1.00 432.85 2811.04
   10:34:59.344.18-Jan-2020 4898.01 4078.75 73.08 1.00 433.05 2811.04
   10:34:59.544.18-Jan-2020 4898.01 4078.75 73.08 1.00 433.25 2811.04
   10:34:59.744.18-Jan-2020 4898.01 4078.85 73.08 1.00 433.45 2811.04
   10:34:59.944.18-Jan-2020 4898.01 4078.85 73.08 1.00 433.65 2811.04
   10:35:00.144.18-Jan-2020 4898.01 4078.83 73.07 1.00 433.85 2811.04
   10:35:00.344.18-Jan-2020 4898.01 4078.82 73.07 1.00 434.05 2811.04
   10:35:00.544.18-Jan-2020 4898.01 4078.82 73.07 1.00 434.25 2811.04
   10:35:00.744.18-Jan-2020 4898.01 4078.78 73.07 1.00 434.45 2811.04
   10:35:00.944.18-Jan-2020 4898.01 4078.80 73.07 1.00 434.65 2811.04
   10:35:01.144.18-Jan-2020 4898.01 4078.78 73.07 1.00 434.85 2811.04
   10:35:01.344.18-Jan-2020 4898.01 4078.79 73.07 1.00 435.05 2811.04
   10:35:01.544.18-Jan-2020 4898.01 4078.79 73.07 1.00 435.25 2811.04
   10:35:01.744.18-Jan-2020 4898.01 4078.77 73.07 1.00 435.45 2811.04
   10:35:01.944.18-Jan-2020 4898.01 4078.80 73.07 1.00 435.65 2811.04
   10:35:02.144.18-Jan-2020 4898.01 4078.77 73.07 1.00 435.85 2811.04
   10:35:02.344.18-Jan-2020 4898.01 4078.80 73.07 1.00 436.05 2811.04
   10:35:02.544.18-Jan-2020 4898.01 4078.80 73.07 1.00 436.25 2811.04
   10:35:02.744.18-Jan-2020 4898.01 4078.71 73.07 1.00 436.45 2811.04
   10:35:02.944.18-Jan-2020 4898.01 4078.67 73.07 1.00 436.65 2811.04
   10:35:03.144.18-Jan-2020 4898.01 4078.85 73.07 1.00 436.85 2811.04
