~Version Information
 VERS.                  2.0:   CWLS log ASCII Standard -VERSION 2.0
 WRAP.                   NO:   One line per depth step
~Well Information Block
#MNEM.UNIT     VALUE/NAME     DESCRIPTION
#---------     -----------    ---------------------------
 STRT.S             10:03:43 19-Jan-20: START TIME 10:03:43 19-Jan-20
 STOP.S             10:11:36 19-Jan-20: STOP TIME  10:11:36 19-Jan-20
 STEP.S                   0.00: STEP TIME
 NULL.                 -999.25: NULL VALUE
 DFWT.                        :  DIST FWL TEXT
 DFST.                        :  DIST FSL TEXT
 DMF .             Drill Floor:  DRILL MEAS FROM
 STIM.      17.57.20 21-Dec-19:  START TIME
 DATE.      17.57.20 21-Dec-19:  END TIME
 SPUD.               21-Dec-19:  SPUD DATE
 NREF.                    Grid:  NORTH REFERENCE
 HPTY.       Minimum Curvature:  HOLE POS TYPE
 DMOD.             Drill Model:  DRILL MOD DESC
 SVYD.                  Survey:  SURVEY DESC
 ILTD.               Lithology:  INTERP LTH DESC
 FTOP.          Formation Tops:  FORM TOPS DESC
 PDAT.          Mean Sea Level:  PERMANENT DATUM
 FLD .                     ACG:  FIELD NAME
 SON .        AZ-XX-0905715376:  JOB NUMBER
 CTRY.              Azerbaijan:  COUNTRY NAME
 WELL.                    E04Y:  WELL NAME
 SRVC.          TURAN DRILLING:  CONTRACTOR
 COMP.     BP Exploration (Caspian Sea) Ltd.:  COMPANY
 WTYP.                Deviated:  WELL TYPE
 UWI .                     N/a:  UNIQUE WELL IDENTIFIER
 API .                     N/a:  API NUMBER
 BASE.              Azerbaijan:  LOGGING EQUIPMENT BASE LOCATION
 REGN.                   EESSA:  REGION
 MWDS.                    Baku:  MWD SHOP
 RIG .                     DWG:  RIG NAME
 DOE .                     N/a:  DOE NUMBER
 CNTY.                    Baku:  COUNTY NAME
 DCON.         Sperry Drilling:  DIRECTNL CONTR
 UNIT.                     N/a:  LOGGING EQUIPMENT ID
 MDS .        Operator Entered:  MAG DATA SOURCE
 PROV.                        :  PROVINCE
 STAT.                        :  STATE
 LOC .                        :  LOCATION
 LMF .             Drill Floor:  LOG MEASURED FROM
 TVDS.m                  43.16:  TVDSS CORRECTN
 LATI.deg                40.17:  LATITUDE
 LONG.deg                51.17:  LONGITUDE
 WHNS.m                  -0.12:  WELL HEAD N/S
 WHEW.m                  -5.41:  WELL HEAD E/W
 UTMX.m              514337.95:  UTM X
 UTMY.m             4448627.46:  UTM Y
 DFWL.m                   0.00:  DISTANCE FWL
 DFSL.m                   0.00:  DISTANCE FSL
 SDEP.m                   0.00:  START DEPTH
 TDD .m                   0.00:  TOTAL DEPTH (DRILLER)
 VSDR.deg               235.12:  VERT SEC DIRECT
 GVFD.g                   1.00:  GRAVITY FIELD
 MFLD.nT              50294.00:  MAGNETIC FIELD
 MDIP.deg                59.61:  MAGNETIC DIP
 MDEC.deg                 6.58:  MAGNETIC DECL
 GRDC.deg                 0.09:  GRID CORRECTION
 AZTC.deg                 6.49:  AZM TOTAL CORR
 EPD .m                   0.00:  ELEVATION
 EGL .m                   0.00:  GROUND ELEVATION
 WDMS.m                 176.20:  WD ELEV
 APD .m                  43.16:  DEPTH ABOVE PD
 DEP .m                3172.61:  DEPTH
 AGAP.m                  43.16:  AIR GAP
 VSEW.m                  -5.41:  VERT SEC E/W
 VSNS.m                  -0.12:  VERT SEC N/S
 EKB .m                  43.16:  KB ELEVATION
 EDF .m                  43.16:  DF ELEVATION
 TDL .m                 295.00:  TOTAL DEPTH (LOGGER)
 VSC .                       0:  VS TO CLOSURE
 MAGU.                 1852276:  MAGUTM CHECKSUM
~Parameter Information Block
#MNEM.UNIT       Value        Description
#---------     -----------    ---------------------------
 AV  .mps                 1.60:  Ann Velocity 
 AVMX.mps                 2.10:  Max Ann Veloc 
 AZIF.deg               290.59:  Azm, Final 
 BHAT.        Rotary Steerable:  BHA Type 
 BROT.°/30m               1.00:  Build Rotating 
 BS  .in                  6.50:  Bit Size 
 BSZ .in                  6.50:  Bit Size 
 BTPL.psig              120.00:  Bit Press Loss 
 CABU.                     Yes:  Customer Abuse 
 CGEO.          Eldar Huseynov:  Customer Geo 
 COMM.                     Œòk:  Run Comments 1 
 TCS .hr                 87.00:  Time Ciculation Ended 
 CV  .mps                 4.01:  Crit Velocity 
 CVMX.mps                 5.06:  Max Crit Veloc 
 DD1 .             Aziz Aliyev:  Direct Drillr 1 
 DD2 .            Sanan Aliyev:  Direct Drillr 2 
 DDSV.               Geo-Pilot:  DD Service 
 DEFF.%                  95.00:  % Det Eff 
 DLRX.°/30m               0.75:  Dogleg Rot Max 
 DLSO.°/30m               0.65:  Dogleg Oriented 
 DLSX.°/30m               1.39:  Dogleg Str Max 
 DRET.      18.25.00 19-Jan-20:  Drill End Time 
 DRST.      11.56.48 17-Jan-20:  Drill Start Tim 
 DTIM.hr                 27.16:  Time Drilling 
 EDEP.m                5161.01:  End Depth 
 ENG1.          Rasim Hashimov:  Engineer 1 
 ENG2.      Bakhtiyar Jabbarli:  Engineer 2 
 ETIM.      11.56.48 21-Jan-20:  End Time 
 FLOI.gpm               350.00:  Flow In 
 FLON.gpm               300.00:  Flow In Min 
 FLOS.cptm                0.00:  Fluid Loss 
 FLOX.gpm               400.00:  Flow In Max 
 HFLO.                      No:  High Flow 
 HPRE.                      No:  High Pressure 
 HTEM.                      No:  High Temp 
 HYDO.m                   1.85:  Hydro Offset 
 IFIN.deg                71.58:  Inc, Final 
 IMAX.deg                71.83:  Inc Max 
 IMIN.deg                71.12:  Inc Min 
 IMND.m                5099.48:  Inc Min Depth 
 IMXD.m                5071.08:  Inc Max Depth 
 JARR.                      No:  Jarring 
 LETM.      18.25.00 19-Jan-20:  Log End Time 
 LOST.hr                     0:  Lost Rig Time 
 LSTM.      11.56.48 17-Jan-20:  Log Start Time 
 MDCL.ppm             37000.00:  Mud Chlorides 
 MDES.     Inversion Oil/Synthetic:  Mud Desc 
 DFD .sg                  1.34:  Mud Density 
 MDMN.sg                  1.34:  Dens Mud Min 
 MDMX.sg                  1.34:  Dens Mud Max 
 MOIL.                      69:  Run Mud Oil % 
 MOWR.                   69:31:  Run Mud OWR 
 MSND.                     0.1:  Run Mud Sand % 
 MSOL.                    17.6:  Run Mud Solids% 
 DFV .spqt               79.00:  Mud Viscosity 
 MWOD.in                  4.75:  MWD Tool OD 
 MWSI.                      No:  Serv Intrp, MWD 
 OTIM.hr                126.10:  Time Operating 
 PMAX.psia             6000.00:  Press Op, Max 
 PV  .cP                 29.00:  Mud PV 
 RUN .                     400:  Run Number 
 ROPA.m/hr               11.00:  ROP Avg 
 ROPN.m/hr                5.00:  ROP Min 
 ROPX.m/hr               18.00:  ROP Max 
 RPMA.rpm               139.00:  RPM Surface Avg 
 RPMN.rpm               100.00:  RPM Surface Min 
 RPMX.rpm               140.00:  RPM Surface Max 
 RRUN.                     400:  Rig Run Number 
 SAZI.deg               290.22:  Azm, Start 
 SDEP.m                4868.01:  Start Depth 
 SIDD.                      No:  Serv Intrp, DD 
 SINC.deg                71.77:  Inc, Start 
 SPPA.psig             5550.00:  SPP Avg 
 SPPN.psig             4300.00:  SPP Min 
 SPPX.psig             5600.00:  SPP Max 
 STIM.      23.45.48 15-Jan-20:  Start Time 
 SVCS.                 DD, MWD:  Services 
 SVER.                    9.20:  Sperry Version 
 TDAT.m                5161.01:  Tot Depth Attmp 
 TDDF.                      No:  Trip for DD 
 TDLG.m                 295.00:  Tot Depth Loggd 
 TFF .                      No:  Trip for Fail 
 TQAA.f-kp               13.00:  Torque Abs Avg 
 TQAN.f-kp               13.00:  Torque Abs Min 
 TQAX.f-kp               16.00:  Torque Abs Max 
 TRRT.°/30m               0.25:  Turn Rotating 
 MRT .                     ADR:  Maximum Recorded Temperature 
 TTMX.degC               88.00:  Max Tool Temp 
 VS01.                90577859:  Virtual Str1 SN 
 VS02.                90521879:  Virtual Str2 SN 
 VS03.                90580299:  Virtual Str3 SN 
 VS04.                90515982:  Virtual Str4 SN 
 VS05.                90547765:  Virtual Str5 SN 
 WBMN.klb                 2.00:  WOB Min 
 WITN.           Adil Mammadov:  Customer Rep 
 WITN.        Elmaddin Rahimov:  Customer Rep 2 
 WOBA.klb                 3.00:  WOB Avg 
 WOBX.klb                 5.00:  WOB Max 
 YP  .lhf2               30.00:  Yield Point 
~Curve Information Block
#MNEM.UNIT                 API CODE     Curve Description
#---------               -----------    ---------------------------
 TIME.HHMMSS            00 000 000 000:  GT Time & Date
 GTDEPTH.m              00 000 000 000:  GT Depth
 GTPQH.psia             00 000 000 000:  GT HR Quartz Pressure
 GTTQ.degC              00 000 000 000:  GT Quartz Temperature
 GTTN.NONE              00 000 000 000:  GT Test Number
 GTET.sec               00 000 000 000:  GT Elapsed Test Time
 GTTVD.m                00 000 000 000:  GT True Vertical Depth
#Other Information
#
#WARRANTY: Halliburton will use its best efforts to furnish customers with 
#accurate information and interpretations that are part of, and incident to, the services 
#provided.  However, Halliburton cannot and does not warrant the accuracy 
#or correctness of such information and interpretations.  Under no circumstances should any 
#such information or interpretation be relied upon as the sole basis for any drilling, 
#completion, production, or financial decision or any procedure involving any risk to the 
#safety of any drilling venture, drilling rig or its crew or any other third party.  The 
#Customer has full responsibility for all drilling, completion and production operation.  
#Halliburton makes no representations or warranties, either expressed or 
#implied, including, but not limited to, the implied warranties of merchantability or fitness 
#for a particular purpose, with respect to the services rendered.  In no event will 
#Halliburton be liable for failure to obtain any particular results or for 
#any damages, including, but not limited to, indirect, special or consequential damages, 
#resulting from the use of any information or interpretation provided by Halliburton.
#
~A           TIME           GTDEPTH  GTPQH  GTTQ  GTTN  GTET   GTTVD  
# ...
   10:07:10.808.19-Jan-2020 5081.51 4213.49 81.86 5.00 207.03 2869.15
   10:07:11.008.19-Jan-2020 5081.51 4213.49 81.86 5.00 207.23 2869.15
   10:07:11.208.19-Jan-2020 5081.51 4213.68 81.86 5.00 207.43 2869.15
   10:07:11.408.19-Jan-2020 5081.51 4213.56 81.86 5.00 207.63 2869.15
   10:07:11.608.19-Jan-2020 5081.51 4213.47 81.86 5.00 207.83 2869.15
   10:07:11.808.19-Jan-2020 5081.51 4213.54 81.86 5.00 208.03 2869.15
   10:07:12.008.19-Jan-2020 5081.51 4213.54 81.86 5.00 208.23 2869.15
   10:07:12.208.19-Jan-2020 5081.51 4213.51 81.86 5.00 208.43 2869.15
   10:07:12.408.19-Jan-2020 5081.51 4213.53 81.86 5.00 208.63 2869.15
   10:07:12.608.19-Jan-2020 5081.51 4213.52 81.86 5.00 208.83 2869.15
   10:07:12.808.19-Jan-2020 5081.51 4213.51 81.86 5.00 209.03 2869.15
   10:07:13.008.19-Jan-2020 5081.51 4213.51 81.86 5.00 209.23 2869.15
   10:07:13.208.19-Jan-2020 5081.51 4213.50 81.86 5.00 209.43 2869.15
   10:07:13.408.19-Jan-2020 5081.51 4213.51 81.86 5.00 209.63 2869.15
   10:07:13.609.19-Jan-2020 5081.51 4213.53 81.86 5.00 209.83 2869.15
   10:07:13.809.19-Jan-2020 5081.51 4213.49 81.86 5.00 210.03 2869.15
   10:07:14.009.19-Jan-2020 5081.51 4213.49 81.86 5.00 210.23 2869.15
   10:07:14.209.19-Jan-2020 5081.51 4213.28 81.86 5.00 210.43 2869.15
   10:07:14.409.19-Jan-2020 5081.51 4213.70 81.85 5.00 210.63 2869.15
   10:07:14.609.19-Jan-2020 5081.51 4213.55 81.85 5.00 210.83 2869.15
   10:07:14.809.19-Jan-2020 5081.51 4213.50 81.85 5.00 211.03 2869.15
   10:07:15.009.19-Jan-2020 5081.51 4213.50 81.85 5.00 211.23 2869.15
   10:07:15.209.19-Jan-2020 5081.51 4213.53 81.85 5.00 211.43 2869.15
   10:07:15.409.19-Jan-2020 5081.51 4213.53 81.85 5.00 211.63 2869.15
   10:07:15.609.19-Jan-2020 5081.51 4213.54 81.85 5.00 211.83 2869.15
   10:07:15.809.19-Jan-2020 5081.51 4213.55 81.85 5.00 212.03 2869.15
   10:07:16.009.19-Jan-2020 5081.51 4213.55 81.85 5.00 212.23 2869.15
   10:07:16.209.19-Jan-2020 5081.51 4213.55 81.85 5.00 212.43 2869.15
   10:07:16.409.19-Jan-2020 5081.51 4213.51 81.85 5.00 212.63 2869.15
   10:07:16.609.19-Jan-2020 5081.51 4213.54 81.85 5.00 212.83 2869.15
   10:07:16.809.19-Jan-2020 5081.51 4213.53 81.85 5.00 213.03 2869.15
   10:07:17.009.19-Jan-2020 5081.51 4213.53 81.85 5.00 213.23 2869.15
   10:07:17.209.19-Jan-2020 5081.51 4213.52 81.85 5.00 213.43 2869.15
   10:07:17.409.19-Jan-2020 5081.51 4213.54 81.85 5.00 213.63 2869.15
   10:07:17.609.19-Jan-2020 5081.51 4213.30 81.85 5.00 213.83 2869.15
   10:07:17.809.19-Jan-2020 5081.51 4213.72 81.85 5.00 214.03 2869.15
   10:07:18.009.19-Jan-2020 5081.51 4213.72 81.85 5.00 214.23 2869.15
   10:07:18.209.19-Jan-2020 5081.51 4213.53 81.85 5.00 214.43 2869.15
   10:07:18.409.19-Jan-2020 5081.51 4213.60 81.85 5.00 214.63 2869.15
   10:07:18.609.19-Jan-2020 5081.51 4213.32 81.85 5.00 214.83 2869.15
   10:07:18.809.19-Jan-2020 5081.51 4213.76 81.85 5.00 215.03 2869.15
   10:07:19.009.19-Jan-2020 5081.51 4213.76 81.85 5.00 215.23 2869.15
   10:07:19.209.19-Jan-2020 5081.51 4213.54 81.85 5.00 215.43 2869.15
   10:07:19.409.19-Jan-2020 5081.51 4213.60 81.85 5.00 215.63 2869.15
   10:07:19.609.19-Jan-2020 5081.51 4213.60 81.84 5.00 215.83 2869.15
   10:07:19.809.19-Jan-2020 5081.51 4213.57 81.84 5.00 216.03 2869.15
   10:07:20.009.19-Jan-2020 5081.51 4213.57 81.84 5.00 216.23 2869.15
   10:07:20.209.19-Jan-2020 5081.51 4213.58 81.84 5.00 216.43 2869.15
   10:07:20.409.19-Jan-2020 5081.51 4213.63 81.84 5.00 216.63 2869.15
   10:07:20.609.19-Jan-2020 5081.51 4213.57 81.84 5.00 216.83 2869.15
   10:07:20.809.19-Jan-2020 5081.51 4213.63 81.84 5.00 217.03 2869.15
   10:07:21.009.19-Jan-2020 5081.51 4213.63 81.84 5.00 217.23 2869.15
   10:07:21.209.19-Jan-2020 5081.51 4213.34 81.84 5.00 217.43 2869.15
   10:07:21.409.19-Jan-2020 5081.51 4213.79 81.84 5.00 217.63 2869.15
   10:07:21.610.19-Jan-2020 5081.51 4213.64 81.84 5.00 217.83 2869.15
   10:07:21.810.19-Jan-2020 5081.51 4213.59 81.84 5.00 218.03 2869.15
   10:07:22.010.19-Jan-2020 5081.51 4213.59 81.84 5.00 218.23 2869.15
   10:07:22.210.19-Jan-2020 5081.51 4213.60 81.84 5.00 218.43 2869.15
   10:07:22.410.19-Jan-2020 5081.51 4213.61 81.84 5.00 218.63 2869.15
   10:07:22.610.19-Jan-2020 5081.51 4213.62 81.84 5.00 218.83 2869.15
   10:07:22.810.19-Jan-2020 5081.51 4213.63 81.84 5.00 219.03 2869.15
   10:07:23.010.19-Jan-2020 5081.51 4213.63 81.84 5.00 219.23 2869.15
   10:07:23.210.19-Jan-2020 5081.51 4213.61 81.84 5.00 219.43 2869.15
   10:07:23.410.19-Jan-2020 5081.51 4213.59 81.84 5.00 219.63 2869.15
   10:07:23.610.19-Jan-2020 5081.51 4213.60 81.84 5.00 219.83 2869.15
   10:07:23.810.19-Jan-2020 5081.51 4213.59 81.84 5.00 220.03 2869.15
   10:07:24.010.19-Jan-2020 5081.51 4213.59 81.84 5.00 220.23 2869.15
   10:07:24.210.19-Jan-2020 5081.51 4213.60 81.84 5.00 220.43 2869.15
   10:07:24.410.19-Jan-2020 5081.51 4213.37 81.84 5.00 220.63 2869.15
   10:07:24.610.19-Jan-2020 5081.51 4213.78 81.83 5.00 220.83 2869.15
   10:07:24.810.19-Jan-2020 5081.51 4213.66 81.83 5.00 221.03 2869.15
   10:07:25.010.19-Jan-2020 5081.51 4213.66 81.83 5.00 221.23 2869.15
   10:07:25.210.19-Jan-2020 5081.51 4213.65 81.83 5.00 221.43 2869.15
   10:07:25.410.19-Jan-2020 5081.51 4213.62 81.83 5.00 221.63 2869.15
   10:07:25.610.19-Jan-2020 5081.51 4213.61 81.83 5.00 221.83 2869.15
   10:07:25.810.19-Jan-2020 5081.51 4213.64 81.83 5.00 222.03 2869.15
   10:07:26.010.19-Jan-2020 5081.51 4213.64 81.83 5.00 222.23 2869.15
   10:07:26.210.19-Jan-2020 5081.51 4213.63 81.83 5.00 222.43 2869.15
   10:07:26.410.19-Jan-2020 5081.51 4213.63 81.83 5.00 222.63 2869.15
   10:07:26.610.19-Jan-2020 5081.51 4213.62 81.83 5.00 222.83 2869.15
   10:07:26.810.19-Jan-2020 5081.51 4213.60 81.83 5.00 223.03 2869.15
   10:07:27.010.19-Jan-2020 5081.51 4213.60 81.83 5.00 223.23 2869.15
   10:07:27.210.19-Jan-2020 5081.51 4213.61 81.83 5.00 223.43 2869.15
   10:07:27.410.19-Jan-2020 5081.51 4213.60 81.83 5.00 223.63 2869.15
   10:07:27.610.19-Jan-2020 5081.51 4213.63 81.83 5.00 223.83 2869.15
   10:07:27.810.19-Jan-2020 5081.51 4213.37 81.83 5.00 224.03 2869.15
   10:07:28.010.19-Jan-2020 5081.51 4213.37 81.83 5.00 224.23 2869.15
   10:07:28.210.19-Jan-2020 5081.51 4213.67 81.83 5.00 224.43 2869.15
   10:07:28.410.19-Jan-2020 5081.51 4213.64 81.83 5.00 224.63 2869.15
   10:07:28.610.19-Jan-2020 5081.51 4213.67 81.83 5.00 224.83 2869.15
   10:07:28.810.19-Jan-2020 5081.51 4213.40 81.83 5.00 225.03 2869.15
   10:07:29.010.19-Jan-2020 5081.51 4213.40 81.83 5.00 225.23 2869.15
   10:07:29.210.19-Jan-2020 5081.51 4213.68 81.83 5.00 225.43 2869.15
   10:07:29.411.19-Jan-2020 5081.51 4213.61 81.83 5.00 225.63 2869.15
   10:07:29.611.19-Jan-2020 5081.51 4213.69 81.83 5.00 225.83 2869.15
   10:07:29.811.19-Jan-2020 5081.51 4213.65 81.82 5.00 226.03 2869.15
   10:07:30.011.19-Jan-2020 5081.51 4213.65 81.82 5.00 226.23 2869.15
   10:07:30.211.19-Jan-2020 5081.51 4213.67 81.82 5.00 226.43 2869.15
   10:07:30.411.19-Jan-2020 5081.51 4213.54 81.82 5.00 226.63 2869.15
   10:07:30.611.19-Jan-2020 5081.51 4213.72 81.82 5.00 226.83 2869.15
   10:07:30.811.19-Jan-2020 5081.51 4213.64 81.82 5.00 227.03 2869.15
   10:07:31.011.19-Jan-2020 5081.51 4213.64 81.82 5.00 227.23 2869.15
   10:07:31.211.19-Jan-2020 5081.51 4213.69 81.82 5.00 227.43 2869.15
   10:07:31.411.19-Jan-2020 5081.51 4213.43 81.82 5.00 227.63 2869.15
   10:07:31.611.19-Jan-2020 5081.51 4213.84 81.82 5.00 227.83 2869.15
   10:07:31.811.19-Jan-2020 5081.51 4213.73 81.82 5.00 228.03 2869.15
   10:07:32.011.19-Jan-2020 5081.51 4213.73 81.82 5.00 228.23 2869.15
   10:07:32.211.19-Jan-2020 5081.51 4213.70 81.82 5.00 228.43 2869.15
   10:07:32.411.19-Jan-2020 5081.51 4213.69 81.82 5.00 228.63 2869.15
   10:07:32.611.19-Jan-2020 5081.51 4213.66 81.82 5.00 228.83 2869.15
   10:07:32.811.19-Jan-2020 5081.51 4213.71 81.82 5.00 229.03 2869.15
   10:07:33.011.19-Jan-2020 5081.51 4213.71 81.82 5.00 229.23 2869.15
   10:07:33.211.19-Jan-2020 5081.51 4213.67 81.82 5.00 229.43 2869.15
   10:07:33.411.19-Jan-2020 5081.51 4213.69 81.82 5.00 229.63 2869.15
   10:07:33.611.19-Jan-2020 5081.51 4213.67 81.82 5.00 229.83 2869.15
