~Version Information
 VERS.                  2.0:   CWLS log ASCII Standard -VERSION 2.0
 WRAP.                   NO:   One line per depth step
~Well Information Block
#MNEM.UNIT     VALUE/NAME     DESCRIPTION
#---------     -----------    ---------------------------
 STRT.S             05:36:55 19-Jan-20: START TIME 05:36:55 19-Jan-20
 STOP.S             05:44:47 19-Jan-20: STOP TIME  05:44:47 19-Jan-20
 STEP.S                   0.00: STEP TIME
 NULL.                 -999.25: NULL VALUE
 DFWT.                        :  DIST FWL TEXT
 DFST.                        :  DIST FSL TEXT
 DMF .             Drill Floor:  DRILL MEAS FROM
 STIM.      17.57.20 21-Dec-19:  START TIME
 DATE.      17.57.20 21-Dec-19:  END TIME
 SPUD.               21-Dec-19:  SPUD DATE
 NREF.                    Grid:  NORTH REFERENCE
 HPTY.       Minimum Curvature:  HOLE POS TYPE
 DMOD.             Drill Model:  DRILL MOD DESC
 SVYD.                  Survey:  SURVEY DESC
 ILTD.               Lithology:  INTERP LTH DESC
 FTOP.          Formation Tops:  FORM TOPS DESC
 PDAT.          Mean Sea Level:  PERMANENT DATUM
 FLD .                     ACG:  FIELD NAME
 SON .        AZ-XX-0905715376:  JOB NUMBER
 CTRY.              Azerbaijan:  COUNTRY NAME
 WELL.                    E04Y:  WELL NAME
 SRVC.          TURAN DRILLING:  CONTRACTOR
 COMP.     BP Exploration (Caspian Sea) Ltd.:  COMPANY
 WTYP.                Deviated:  WELL TYPE
 UWI .                     N/a:  UNIQUE WELL IDENTIFIER
 API .                     N/a:  API NUMBER
 BASE.              Azerbaijan:  LOGGING EQUIPMENT BASE LOCATION
 REGN.                   EESSA:  REGION
 MWDS.                    Baku:  MWD SHOP
 RIG .                     DWG:  RIG NAME
 DOE .                     N/a:  DOE NUMBER
 CNTY.                    Baku:  COUNTY NAME
 DCON.         Sperry Drilling:  DIRECTNL CONTR
 UNIT.                     N/a:  LOGGING EQUIPMENT ID
 MDS .        Operator Entered:  MAG DATA SOURCE
 PROV.                        :  PROVINCE
 STAT.                        :  STATE
 LOC .                        :  LOCATION
 LMF .             Drill Floor:  LOG MEASURED FROM
 TVDS.m                  43.16:  TVDSS CORRECTN
 LATI.deg                40.17:  LATITUDE
 LONG.deg                51.17:  LONGITUDE
 WHNS.m                  -0.12:  WELL HEAD N/S
 WHEW.m                  -5.41:  WELL HEAD E/W
 UTMX.m              514337.95:  UTM X
 UTMY.m             4448627.46:  UTM Y
 DFWL.m                   0.00:  DISTANCE FWL
 DFSL.m                   0.00:  DISTANCE FSL
 SDEP.m                   0.00:  START DEPTH
 TDD .m                   0.00:  TOTAL DEPTH (DRILLER)
 VSDR.deg               235.12:  VERT SEC DIRECT
 GVFD.g                   1.00:  GRAVITY FIELD
 MFLD.nT              50294.00:  MAGNETIC FIELD
 MDIP.deg                59.61:  MAGNETIC DIP
 MDEC.deg                 6.58:  MAGNETIC DECL
 GRDC.deg                 0.09:  GRID CORRECTION
 AZTC.deg                 6.49:  AZM TOTAL CORR
 EPD .m                   0.00:  ELEVATION
 EGL .m                   0.00:  GROUND ELEVATION
 WDMS.m                 176.20:  WD ELEV
 APD .m                  43.16:  DEPTH ABOVE PD
 DEP .m                3172.61:  DEPTH
 AGAP.m                  43.16:  AIR GAP
 VSEW.m                  -5.41:  VERT SEC E/W
 VSNS.m                  -0.12:  VERT SEC N/S
 EKB .m                  43.16:  KB ELEVATION
 EDF .m                  43.16:  DF ELEVATION
 TDL .m                 295.00:  TOTAL DEPTH (LOGGER)
 VSC .                       0:  VS TO CLOSURE
 MAGU.                 1852276:  MAGUTM CHECKSUM
~Parameter Information Block
#MNEM.UNIT       Value        Description
#---------     -----------    ---------------------------
 AV  .mps                 1.60:  Ann Velocity 
 AVMX.mps                 2.10:  Max Ann Veloc 
 AZIF.deg               290.59:  Azm, Final 
 BHAT.        Rotary Steerable:  BHA Type 
 BROT.°/30m               1.00:  Build Rotating 
 BS  .in                  6.50:  Bit Size 
 BSZ .in                  6.50:  Bit Size 
 BTPL.psig              120.00:  Bit Press Loss 
 CABU.                     Yes:  Customer Abuse 
 CGEO.          Eldar Huseynov:  Customer Geo 
 COMM.                     Lì_:  Run Comments 1 
 TCS .hr                 87.00:  Time Ciculation Ended 
 CV  .mps                 4.01:  Crit Velocity 
 CVMX.mps                 5.06:  Max Crit Veloc 
 DD1 .             Aziz Aliyev:  Direct Drillr 1 
 DD2 .            Sanan Aliyev:  Direct Drillr 2 
 DDSV.               Geo-Pilot:  DD Service 
 DEFF.%                  95.00:  % Det Eff 
 DLRX.°/30m               0.75:  Dogleg Rot Max 
 DLSO.°/30m               0.65:  Dogleg Oriented 
 DLSX.°/30m               1.39:  Dogleg Str Max 
 DRET.      18.25.00 19-Jan-20:  Drill End Time 
 DRST.      11.56.48 17-Jan-20:  Drill Start Tim 
 DTIM.hr                 27.16:  Time Drilling 
 EDEP.m                5161.01:  End Depth 
 ENG1.          Rasim Hashimov:  Engineer 1 
 ENG2.      Bakhtiyar Jabbarli:  Engineer 2 
 ETIM.      11.56.48 21-Jan-20:  End Time 
 FLOI.gpm               350.00:  Flow In 
 FLON.gpm               300.00:  Flow In Min 
 FLOS.cptm                0.00:  Fluid Loss 
 FLOX.gpm               400.00:  Flow In Max 
 HFLO.                      No:  High Flow 
 HPRE.                      No:  High Pressure 
 HTEM.                      No:  High Temp 
 HYDO.m                   1.85:  Hydro Offset 
 IFIN.deg                71.58:  Inc, Final 
 IMAX.deg                71.83:  Inc Max 
 IMIN.deg                71.12:  Inc Min 
 IMND.m                5099.48:  Inc Min Depth 
 IMXD.m                5071.08:  Inc Max Depth 
 JARR.                      No:  Jarring 
 LETM.      18.25.00 19-Jan-20:  Log End Time 
 LOST.hr                     0:  Lost Rig Time 
 LSTM.      11.56.48 17-Jan-20:  Log Start Time 
 MDCL.ppm             37000.00:  Mud Chlorides 
 MDES.     Inversion Oil/Synthetic:  Mud Desc 
 DFD .sg                  1.34:  Mud Density 
 MDMN.sg                  1.34:  Dens Mud Min 
 MDMX.sg                  1.34:  Dens Mud Max 
 MOIL.                      69:  Run Mud Oil % 
 MOWR.                   69:31:  Run Mud OWR 
 MSND.                     0.1:  Run Mud Sand % 
 MSOL.                    17.6:  Run Mud Solids% 
 DFV .spqt               79.00:  Mud Viscosity 
 MWOD.in                  4.75:  MWD Tool OD 
 MWSI.                      No:  Serv Intrp, MWD 
 OTIM.hr                126.10:  Time Operating 
 PMAX.psia             6000.00:  Press Op, Max 
 PV  .cP                 29.00:  Mud PV 
 RUN .                     400:  Run Number 
 ROPA.m/hr               11.00:  ROP Avg 
 ROPN.m/hr                5.00:  ROP Min 
 ROPX.m/hr               18.00:  ROP Max 
 RPMA.rpm               139.00:  RPM Surface Avg 
 RPMN.rpm               100.00:  RPM Surface Min 
 RPMX.rpm               140.00:  RPM Surface Max 
 RRUN.                     400:  Rig Run Number 
 SAZI.deg               290.22:  Azm, Start 
 SDEP.m                4868.01:  Start Depth 
 SIDD.                      No:  Serv Intrp, DD 
 SINC.deg                71.77:  Inc, Start 
 SPPA.psig             5550.00:  SPP Avg 
 SPPN.psig             4300.00:  SPP Min 
 SPPX.psig             5600.00:  SPP Max 
 STIM.      23.45.48 15-Jan-20:  Start Time 
 SVCS.                 DD, MWD:  Services 
 SVER.                    9.20:  Sperry Version 
 TDAT.m                5161.01:  Tot Depth Attmp 
 TDDF.                      No:  Trip for DD 
 TDLG.m                 295.00:  Tot Depth Loggd 
 TFF .                      No:  Trip for Fail 
 TQAA.f-kp               13.00:  Torque Abs Avg 
 TQAN.f-kp               13.00:  Torque Abs Min 
 TQAX.f-kp               16.00:  Torque Abs Max 
 TRRT.°/30m               0.25:  Turn Rotating 
 MRT .                     ADR:  Maximum Recorded Temperature 
 TTMX.degC               88.00:  Max Tool Temp 
 VS01.                90577859:  Virtual Str1 SN 
 VS02.                90521879:  Virtual Str2 SN 
 VS03.                90580299:  Virtual Str3 SN 
 VS04.                90515982:  Virtual Str4 SN 
 VS05.                90547765:  Virtual Str5 SN 
 WBMN.klb                 2.00:  WOB Min 
 WITN.           Adil Mammadov:  Customer Rep 
 WITN.        Elmaddin Rahimov:  Customer Rep 2 
 WOBA.klb                 3.00:  WOB Avg 
 WOBX.klb                 5.00:  WOB Max 
 YP  .lhf2               30.00:  Yield Point 
~Curve Information Block
#MNEM.UNIT                 API CODE     Curve Description
#---------               -----------    ---------------------------
 TIME.HHMMSS            00 000 000 000:  GT Time & Date
 GTDEPTH.m              00 000 000 000:  GT Depth
 GTPQH.psia             00 000 000 000:  GT HR Quartz Pressure
 GTTQ.degC              00 000 000 000:  GT Quartz Temperature
 GTTN.NONE              00 000 000 000:  GT Test Number
 GTET.sec               00 000 000 000:  GT Elapsed Test Time
 GTTVD.m                00 000 000 000:  GT True Vertical Depth
#Other Information
#
#WARRANTY: Halliburton will use its best efforts to furnish customers with 
#accurate information and interpretations that are part of, and incident to, the services 
#provided.  However, Halliburton cannot and does not warrant the accuracy 
#or correctness of such information and interpretations.  Under no circumstances should any 
#such information or interpretation be relied upon as the sole basis for any drilling, 
#completion, production, or financial decision or any procedure involving any risk to the 
#safety of any drilling venture, drilling rig or its crew or any other third party.  The 
#Customer has full responsibility for all drilling, completion and production operation.  
#Halliburton makes no representations or warranties, either expressed or 
#implied, including, but not limited to, the implied warranties of merchantability or fitness 
#for a particular purpose, with respect to the services rendered.  In no event will 
#Halliburton be liable for failure to obtain any particular results or for 
#any damages, including, but not limited to, indirect, special or consequential damages, 
#resulting from the use of any information or interpretation provided by Halliburton.
#
~A           TIME           GTDEPTH  GTPQH  GTTQ  GTTN  GTET   GTTVD  
# ...
   05:38:04.613.19-Jan-2020 5052.01 4086.31 81.77 4.00  69.01 2859.87
   05:38:04.813.19-Jan-2020 5052.01 4086.31 81.77 4.00  69.21 2859.87
   05:38:05.013.19-Jan-2020 5052.01 4086.34 81.77 4.00  69.41 2859.87
   05:38:05.213.19-Jan-2020 5052.01 4086.33 81.77 4.00  69.61 2859.87
   05:38:05.413.19-Jan-2020 5052.01 4086.20 81.77 4.00  69.81 2859.87
   05:38:05.613.19-Jan-2020 5052.01 4086.36 81.77 4.00  70.01 2859.87
   05:38:05.813.19-Jan-2020 5052.01 4086.36 81.77 4.00  70.21 2859.87
   05:38:06.013.19-Jan-2020 5052.01 4086.30 81.77 4.00  70.42 2859.87
   05:38:06.213.19-Jan-2020 5052.01 4086.34 81.76 4.00  70.62 2859.87
   05:38:06.413.19-Jan-2020 5052.01 4086.31 81.76 4.00  70.82 2859.87
   05:38:06.613.19-Jan-2020 5052.01 4086.20 81.76 4.00  71.02 2859.87
   05:38:06.813.19-Jan-2020 5052.01 4086.20 81.76 4.00  71.22 2859.87
   05:38:07.013.19-Jan-2020 5052.01 4086.32 81.76 4.00  71.42 2859.87
   05:38:07.214.19-Jan-2020 5052.01 4086.28 81.76 4.00  71.62 2859.87
   05:38:07.414.19-Jan-2020 5052.01 4086.33 81.76 4.00  71.82 2859.87
   05:38:07.614.19-Jan-2020 5052.01 4086.31 81.76 4.00  72.02 2859.87
   05:38:07.814.19-Jan-2020 5052.01 4086.31 81.76 4.00  72.22 2859.87
   05:38:08.014.19-Jan-2020 5052.01 4086.33 81.76 4.00  72.42 2859.87
   05:38:08.214.19-Jan-2020 5052.01 4086.31 81.76 4.00  72.62 2859.87
   05:38:08.414.19-Jan-2020 5052.01 4086.33 81.76 4.00  72.82 2859.87
   05:38:08.614.19-Jan-2020 5052.01 4086.32 81.76 4.00  73.02 2859.87
   05:38:08.814.19-Jan-2020 5052.01 4086.32 81.76 4.00  73.22 2859.87
   05:38:09.014.19-Jan-2020 5052.01 4086.34 81.76 4.00  73.42 2859.87
   05:38:09.214.19-Jan-2020 5052.01 4086.35 81.76 4.00  73.62 2859.87
   05:38:09.414.19-Jan-2020 5052.01 4086.32 81.76 4.00  73.82 2859.87
   05:38:09.614.19-Jan-2020 5052.01 4086.33 81.76 4.00  74.02 2859.87
   05:38:09.814.19-Jan-2020 5052.01 4086.33 81.76 4.00  74.22 2859.87
   05:38:10.014.19-Jan-2020 5052.01 4086.17 81.75 4.00  74.42 2859.87
   05:38:10.214.19-Jan-2020 5052.01 4086.34 81.75 4.00  74.62 2859.87
   05:38:10.414.19-Jan-2020 5052.01 4086.27 81.75 4.00  74.82 2859.87
   05:38:10.614.19-Jan-2020 5052.01 4086.30 81.75 4.00  75.02 2859.87
   05:38:10.814.19-Jan-2020 5052.01 4086.30 81.75 4.00  75.22 2859.87
   05:38:11.014.19-Jan-2020 5052.01 4086.31 81.75 4.00  75.42 2859.87
   05:38:11.214.19-Jan-2020 5052.01 4086.29 81.75 4.00  75.62 2859.87
   05:38:11.414.19-Jan-2020 5052.01 4086.31 81.75 4.00  75.82 2859.87
   05:38:11.614.19-Jan-2020 5052.01 4086.29 81.75 4.00  76.02 2859.87
   05:38:11.815.19-Jan-2020 5052.01 4086.29 81.75 4.00  76.22 2859.87
   05:38:12.015.19-Jan-2020 5052.01 4086.29 81.75 4.00  76.42 2859.87
   05:38:12.215.19-Jan-2020 5052.01 4086.30 81.75 4.00  76.62 2859.87
   05:38:12.415.19-Jan-2020 5052.01 4086.31 81.75 4.00  76.82 2859.87
   05:38:12.615.19-Jan-2020 5052.01 4086.30 81.75 4.00  77.02 2859.87
   05:38:12.815.19-Jan-2020 5052.01 4086.30 81.75 4.00  77.22 2859.87
   05:38:13.015.19-Jan-2020 5052.01 4086.31 81.75 4.00  77.42 2859.87
   05:38:13.215.19-Jan-2020 5052.01 4086.28 81.75 4.00  77.62 2859.87
   05:38:13.415.19-Jan-2020 5052.01 4086.21 81.75 4.00  77.82 2859.87
   05:38:13.615.19-Jan-2020 5052.01 4086.32 81.75 4.00  78.02 2859.87
   05:38:13.815.19-Jan-2020 5052.01 4086.32 81.75 4.00  78.22 2859.87
   05:38:14.015.19-Jan-2020 5052.01 4086.31 81.74 4.00  78.42 2859.87
   05:38:14.215.19-Jan-2020 5052.01 4086.27 81.74 4.00  78.62 2859.87
   05:38:14.415.19-Jan-2020 5052.01 4086.29 81.74 4.00  78.82 2859.87
   05:38:14.615.19-Jan-2020 5052.01 4086.28 81.74 4.00  79.02 2859.87
   05:38:14.815.19-Jan-2020 5052.01 4086.28 81.74 4.00  79.22 2859.87
   05:38:15.015.19-Jan-2020 5052.01 4086.33 81.74 4.00  79.42 2859.87
   05:38:15.215.19-Jan-2020 5052.01 4086.25 81.74 4.00  79.62 2859.87
   05:38:15.415.19-Jan-2020 5052.01 4086.27 81.74 4.00  79.82 2859.87
   05:38:15.615.19-Jan-2020 5052.01 4086.27 81.74 4.00  80.02 2859.87
   05:38:15.815.19-Jan-2020 5052.01 4086.27 81.74 4.00  80.22 2859.87
   05:38:16.015.19-Jan-2020 5052.01 4086.26 81.74 4.00  80.42 2859.87
   05:38:16.215.19-Jan-2020 5052.01 4086.18 81.74 4.00  80.62 2859.87
   05:38:16.415.19-Jan-2020 5052.01 4086.29 81.74 4.00  80.82 2859.87
   05:38:16.616.19-Jan-2020 5052.01 4086.27 81.74 4.00  81.02 2859.87
   05:38:16.816.19-Jan-2020 5052.01 4086.27 81.74 4.00  81.22 2859.87
   05:38:17.016.19-Jan-2020 5052.01 4086.24 81.74 4.00  81.42 2859.87
   05:38:17.216.19-Jan-2020 5052.01 4086.26 81.74 4.00  81.62 2859.87
   05:38:17.416.19-Jan-2020 5052.01 4086.23 81.74 4.00  81.82 2859.87
   05:38:17.616.19-Jan-2020 5052.01 4086.21 81.74 4.00  82.02 2859.87
   05:38:17.816.19-Jan-2020 5052.01 4086.21 81.74 4.00  82.22 2859.87
   05:38:18.016.19-Jan-2020 5052.01 4086.24 81.73 4.00  82.42 2859.87
   05:38:18.216.19-Jan-2020 5052.01 4086.26 81.73 4.00  82.62 2859.87
   05:38:18.416.19-Jan-2020 5052.01 4086.26 81.73 4.00  82.82 2859.87
   05:38:18.616.19-Jan-2020 5052.01 4086.24 81.73 4.00  83.02 2859.87
   05:38:18.816.19-Jan-2020 5052.01 4086.24 81.73 4.00  83.22 2859.87
   05:38:19.016.19-Jan-2020 5052.01 4086.24 81.73 4.00  83.42 2859.87
   05:38:19.216.19-Jan-2020 5052.01 4086.26 81.73 4.00  83.62 2859.87
   05:38:19.416.19-Jan-2020 5052.01 4086.24 81.73 4.00  83.82 2859.87
   05:38:19.616.19-Jan-2020 5052.01 4086.25 81.73 4.00  84.02 2859.87
   05:38:19.816.19-Jan-2020 5052.01 4086.25 81.73 4.00  84.22 2859.87
   05:38:20.016.19-Jan-2020 5052.01 4086.23 81.73 4.00  84.42 2859.87
   05:38:20.216.19-Jan-2020 5052.01 4086.24 81.73 4.00  84.62 2859.87
   05:38:20.416.19-Jan-2020 5052.01 4086.23 81.73 4.00  84.82 2859.87
   05:38:20.616.19-Jan-2020 5052.01 4086.25 81.73 4.00  85.02 2859.87
   05:38:20.816.19-Jan-2020 5052.01 4086.25 81.73 4.00  85.22 2859.87
   05:38:21.016.19-Jan-2020 5052.01 4086.12 81.73 4.00  85.42 2859.87
   05:38:21.217.19-Jan-2020 5052.01 4086.23 81.73 4.00  85.62 2859.87
   05:38:21.417.19-Jan-2020 5052.01 4086.23 81.73 4.00  85.82 2859.87
   05:38:21.617.19-Jan-2020 5052.01 4086.22 81.73 4.00  86.02 2859.87
   05:38:21.817.19-Jan-2020 5052.01 4086.22 81.73 4.00  86.22 2859.87
   05:38:22.017.19-Jan-2020 5052.01 4086.21 81.72 4.00  86.42 2859.87
   05:38:22.217.19-Jan-2020 5052.01 4086.24 81.72 4.00  86.62 2859.87
   05:38:22.417.19-Jan-2020 5052.01 4086.23 81.72 4.00  86.82 2859.87
   05:38:22.617.19-Jan-2020 5052.01 4086.22 81.72 4.00  87.02 2859.87
   05:38:22.817.19-Jan-2020 5052.01 4086.22 81.72 4.00  87.22 2859.87
   05:38:23.017.19-Jan-2020 5052.01 4086.21 81.72 4.00  87.42 2859.87
   05:38:23.217.19-Jan-2020 5052.01 4086.23 81.72 4.00  87.62 2859.87
   05:38:23.417.19-Jan-2020 5052.01 4086.20 81.72 4.00  87.82 2859.87
   05:38:23.617.19-Jan-2020 5052.01 4086.22 81.72 4.00  88.02 2859.87
   05:38:23.817.19-Jan-2020 5052.01 4086.22 81.72 4.00  88.22 2859.87
   05:38:24.017.19-Jan-2020 5052.01 4086.23 81.72 4.00  88.42 2859.87
   05:38:24.217.19-Jan-2020 5052.01 4086.08 81.72 4.00  88.62 2859.87
   05:38:24.417.19-Jan-2020 5052.01 4086.27 81.72 4.00  88.82 2859.87
   05:38:24.617.19-Jan-2020 5052.01 4086.20 81.72 4.00  89.02 2859.87
   05:38:24.817.19-Jan-2020 5052.01 4086.20 81.72 4.00  89.22 2859.87
   05:38:25.017.19-Jan-2020 5052.01 4086.19 81.72 4.00  89.42 2859.87
   05:38:25.217.19-Jan-2020 5052.01 4086.19 81.72 4.00  89.62 2859.87
   05:38:25.417.19-Jan-2020 5052.01 4086.22 81.72 4.00  89.82 2859.87
   05:38:25.617.19-Jan-2020 5052.01 4086.09 81.72 4.00  90.02 2859.87
   05:38:25.817.19-Jan-2020 5052.01 4086.09 81.72 4.00  90.22 2859.87
   05:38:26.018.19-Jan-2020 5052.01 4086.19 81.71 4.00  90.42 2859.87
   05:38:26.218.19-Jan-2020 5052.01 4086.20 81.71 4.00  90.62 2859.87
   05:38:26.418.19-Jan-2020 5052.01 4086.20 81.71 4.00  90.82 2859.87
   05:38:26.618.19-Jan-2020 5052.01 4086.20 81.71 4.00  91.02 2859.87
   05:38:26.818.19-Jan-2020 5052.01 4086.20 81.71 4.00  91.22 2859.87
   05:38:27.018.19-Jan-2020 5052.01 4086.20 81.71 4.00  91.42 2859.87
   05:38:27.218.19-Jan-2020 5052.01 4086.07 81.71 4.00  91.62 2859.87
   05:38:27.418.19-Jan-2020 5052.01 4086.24 81.71 4.00  91.82 2859.87
