~Version Information
 VERS.                  2.0:   CWLS log ASCII Standard -VERSION 2.0
 WRAP.                   NO:   One line per depth step
~Well Information Block
#MNEM.UNIT     VALUE/NAME     DESCRIPTION
#---------     -----------    ---------------------------
 STRT.S             05:36:55 19-Jan-20: START TIME 05:36:55 19-Jan-20
 STOP.S             05:44:47 19-Jan-20: STOP TIME  05:44:47 19-Jan-20
 STEP.S                   0.00: STEP TIME
 NULL.                 -999.25: NULL VALUE
 DFWT.                        :  DIST FWL TEXT
 DFST.                        :  DIST FSL TEXT
 DMF .             Drill Floor:  DRILL MEAS FROM
 STIM.      17.57.20 21-Dec-19:  START TIME
 DATE.      17.57.20 21-Dec-19:  END TIME
 SPUD.               21-Dec-19:  SPUD DATE
 NREF.                    Grid:  NORTH REFERENCE
 HPTY.       Minimum Curvature:  HOLE POS TYPE
 DMOD.             Drill Model:  DRILL MOD DESC
 SVYD.                  Survey:  SURVEY DESC
 ILTD.               Lithology:  INTERP LTH DESC
 FTOP.          Formation Tops:  FORM TOPS DESC
 PDAT.          Mean Sea Level:  PERMANENT DATUM
 FLD .                     ACG:  FIELD NAME
 SON .        AZ-XX-0905715376:  JOB NUMBER
 CTRY.              Azerbaijan:  COUNTRY NAME
 WELL.                    E04Y:  WELL NAME
 SRVC.          TURAN DRILLING:  CONTRACTOR
 COMP.     BP Exploration (Caspian Sea) Ltd.:  COMPANY
 WTYP.                Deviated:  WELL TYPE
 UWI .                     N/a:  UNIQUE WELL IDENTIFIER
 API .                     N/a:  API NUMBER
 BASE.              Azerbaijan:  LOGGING EQUIPMENT BASE LOCATION
 REGN.                   EESSA:  REGION
 MWDS.                    Baku:  MWD SHOP
 RIG .                     DWG:  RIG NAME
 DOE .                     N/a:  DOE NUMBER
 CNTY.                    Baku:  COUNTY NAME
 DCON.         Sperry Drilling:  DIRECTNL CONTR
 UNIT.                     N/a:  LOGGING EQUIPMENT ID
 MDS .        Operator Entered:  MAG DATA SOURCE
 PROV.                        :  PROVINCE
 STAT.                        :  STATE
 LOC .                        :  LOCATION
 LMF .             Drill Floor:  LOG MEASURED FROM
 TVDS.m                  43.16:  TVDSS CORRECTN
 LATI.deg                40.17:  LATITUDE
 LONG.deg                51.17:  LONGITUDE
 WHNS.m                  -0.12:  WELL HEAD N/S
 WHEW.m                  -5.41:  WELL HEAD E/W
 UTMX.m              514337.95:  UTM X
 UTMY.m             4448627.46:  UTM Y
 DFWL.m                   0.00:  DISTANCE FWL
 DFSL.m                   0.00:  DISTANCE FSL
 SDEP.m                   0.00:  START DEPTH
 TDD .m                   0.00:  TOTAL DEPTH (DRILLER)
 VSDR.deg               235.12:  VERT SEC DIRECT
 GVFD.g                   1.00:  GRAVITY FIELD
 MFLD.nT              50294.00:  MAGNETIC FIELD
 MDIP.deg                59.61:  MAGNETIC DIP
 MDEC.deg                 6.58:  MAGNETIC DECL
 GRDC.deg                 0.09:  GRID CORRECTION
 AZTC.deg                 6.49:  AZM TOTAL CORR
 EPD .m                   0.00:  ELEVATION
 EGL .m                   0.00:  GROUND ELEVATION
 WDMS.m                 176.20:  WD ELEV
 APD .m                  43.16:  DEPTH ABOVE PD
 DEP .m                3172.61:  DEPTH
 AGAP.m                  43.16:  AIR GAP
 VSEW.m                  -5.41:  VERT SEC E/W
 VSNS.m                  -0.12:  VERT SEC N/S
 EKB .m                  43.16:  KB ELEVATION
 EDF .m                  43.16:  DF ELEVATION
 TDL .m                 295.00:  TOTAL DEPTH (LOGGER)
 VSC .                       0:  VS TO CLOSURE
 MAGU.                 1852276:  MAGUTM CHECKSUM
~Parameter Information Block
#MNEM.UNIT       Value        Description
#---------     -----------    ---------------------------
 AV  .mps                 1.60:  Ann Velocity 
 AVMX.mps                 2.10:  Max Ann Veloc 
 AZIF.deg               290.59:  Azm, Final 
 BHAT.        Rotary Steerable:  BHA Type 
 BROT.°/30m               1.00:  Build Rotating 
 BS  .in                  6.50:  Bit Size 
 BSZ .in                  6.50:  Bit Size 
 BTPL.psig              120.00:  Bit Press Loss 
 CABU.                     Yes:  Customer Abuse 
 CGEO.          Eldar Huseynov:  Customer Geo 
 COMM.                     Lì_:  Run Comments 1 
 TCS .hr                 87.00:  Time Ciculation Ended 
 CV  .mps                 4.01:  Crit Velocity 
 CVMX.mps                 5.06:  Max Crit Veloc 
 DD1 .             Aziz Aliyev:  Direct Drillr 1 
 DD2 .            Sanan Aliyev:  Direct Drillr 2 
 DDSV.               Geo-Pilot:  DD Service 
 DEFF.%                  95.00:  % Det Eff 
 DLRX.°/30m               0.75:  Dogleg Rot Max 
 DLSO.°/30m               0.65:  Dogleg Oriented 
 DLSX.°/30m               1.39:  Dogleg Str Max 
 DRET.      18.25.00 19-Jan-20:  Drill End Time 
 DRST.      11.56.48 17-Jan-20:  Drill Start Tim 
 DTIM.hr                 27.16:  Time Drilling 
 EDEP.m                5161.01:  End Depth 
 ENG1.          Rasim Hashimov:  Engineer 1 
 ENG2.      Bakhtiyar Jabbarli:  Engineer 2 
 ETIM.      11.56.48 21-Jan-20:  End Time 
 FLOI.gpm               350.00:  Flow In 
 FLON.gpm               300.00:  Flow In Min 
 FLOS.cptm                0.00:  Fluid Loss 
 FLOX.gpm               400.00:  Flow In Max 
 HFLO.                      No:  High Flow 
 HPRE.                      No:  High Pressure 
 HTEM.                      No:  High Temp 
 HYDO.m                   1.85:  Hydro Offset 
 IFIN.deg                71.58:  Inc, Final 
 IMAX.deg                71.83:  Inc Max 
 IMIN.deg                71.12:  Inc Min 
 IMND.m                5099.48:  Inc Min Depth 
 IMXD.m                5071.08:  Inc Max Depth 
 JARR.                      No:  Jarring 
 LETM.      18.25.00 19-Jan-20:  Log End Time 
 LOST.hr                     0:  Lost Rig Time 
 LSTM.      11.56.48 17-Jan-20:  Log Start Time 
 MDCL.ppm             37000.00:  Mud Chlorides 
 MDES.     Inversion Oil/Synthetic:  Mud Desc 
 DFD .sg                  1.34:  Mud Density 
 MDMN.sg                  1.34:  Dens Mud Min 
 MDMX.sg                  1.34:  Dens Mud Max 
 MOIL.                      69:  Run Mud Oil % 
 MOWR.                   69:31:  Run Mud OWR 
 MSND.                     0.1:  Run Mud Sand % 
 MSOL.                    17.6:  Run Mud Solids% 
 DFV .spqt               79.00:  Mud Viscosity 
 MWOD.in                  4.75:  MWD Tool OD 
 MWSI.                      No:  Serv Intrp, MWD 
 OTIM.hr                126.10:  Time Operating 
 PMAX.psia             6000.00:  Press Op, Max 
 PV  .cP                 29.00:  Mud PV 
 RUN .                     400:  Run Number 
 ROPA.m/hr               11.00:  ROP Avg 
 ROPN.m/hr                5.00:  ROP Min 
 ROPX.m/hr               18.00:  ROP Max 
 RPMA.rpm               139.00:  RPM Surface Avg 
 RPMN.rpm               100.00:  RPM Surface Min 
 RPMX.rpm               140.00:  RPM Surface Max 
 RRUN.                     400:  Rig Run Number 
 SAZI.deg               290.22:  Azm, Start 
 SDEP.m                4868.01:  Start Depth 
 SIDD.                      No:  Serv Intrp, DD 
 SINC.deg                71.77:  Inc, Start 
 SPPA.psig             5550.00:  SPP Avg 
 SPPN.psig             4300.00:  SPP Min 
 SPPX.psig             5600.00:  SPP Max 
 STIM.      23.45.48 15-Jan-20:  Start Time 
 SVCS.                 DD, MWD:  Services 
 SVER.                    9.20:  Sperry Version 
 TDAT.m                5161.01:  Tot Depth Attmp 
 TDDF.                      No:  Trip for DD 
 TDLG.m                 295.00:  Tot Depth Loggd 
 TFF .                      No:  Trip for Fail 
 TQAA.f-kp               13.00:  Torque Abs Avg 
 TQAN.f-kp               13.00:  Torque Abs Min 
 TQAX.f-kp               16.00:  Torque Abs Max 
 TRRT.°/30m               0.25:  Turn Rotating 
 MRT .                     ADR:  Maximum Recorded Temperature 
 TTMX.degC               88.00:  Max Tool Temp 
 VS01.                90577859:  Virtual Str1 SN 
 VS02.                90521879:  Virtual Str2 SN 
 VS03.                90580299:  Virtual Str3 SN 
 VS04.                90515982:  Virtual Str4 SN 
 VS05.                90547765:  Virtual Str5 SN 
 WBMN.klb                 2.00:  WOB Min 
 WITN.           Adil Mammadov:  Customer Rep 
 WITN.        Elmaddin Rahimov:  Customer Rep 2 
 WOBA.klb                 3.00:  WOB Avg 
 WOBX.klb                 5.00:  WOB Max 
 YP  .lhf2               30.00:  Yield Point 
~Curve Information Block
#MNEM.UNIT                 API CODE     Curve Description
#---------               -----------    ---------------------------
 TIME.HHMMSS            00 000 000 000:  GT Time & Date
 GTDEPTH.m              00 000 000 000:  GT Depth
 GTPQH.psia             00 000 000 000:  GT HR Quartz Pressure
 GTTQ.degC              00 000 000 000:  GT Quartz Temperature
 GTTN.NONE              00 000 000 000:  GT Test Number
 GTET.sec               00 000 000 000:  GT Elapsed Test Time
 GTTVD.m                00 000 000 000:  GT True Vertical Depth
#Other Information
#
#WARRANTY: Halliburton will use its best efforts to furnish customers with 
#accurate information and interpretations that are part of, and incident to, the services 
#provided.  However, Halliburton cannot and does not warrant the accuracy 
#or correctness of such information and interpretations.  Under no circumstances should any 
#such information or interpretation be relied upon as the sole basis for any drilling, 
#completion, production, or financial decision or any procedure involving any risk to the 
#safety of any drilling venture, drilling rig or its crew or any other third party.  The 
#Customer has full responsibility for all drilling, completion and production operation.  
#Halliburton makes no representations or warranties, either expressed or 
#implied, including, but not limited to, the implied warranties of merchantability or fitness 
#for a particular purpose, with respect to the services rendered.  In no event will 
#Halliburton be liable for failure to obtain any particular results or for 
#any damages, including, but not limited to, indirect, special or consequential damages, 
#resulting from the use of any information or interpretation provided by Halliburton.
#
~A           TIME           GTDEPTH  GTPQH  GTTQ  GTTN  GTET   GTTVD  
   05:36:55.598.19-Jan-2020 5052.01 6106.31 82.00 4.00   0.00 2859.87
   05:36:55.798.19-Jan-2020 5052.01 6106.31 82.00 4.00   0.20 2859.87
   05:36:55.998.19-Jan-2020 5052.01 6105.39 82.00 4.00   0.40 2859.87
   05:36:56.198.19-Jan-2020 5052.01 6107.96 82.00 4.00   0.60 2859.87
   05:36:56.398.19-Jan-2020 5052.01 6106.39 82.00 4.00   0.80 2859.87
   05:36:56.598.19-Jan-2020 5052.01 6107.79 82.00 4.00   1.00 2859.87
   05:36:56.799.19-Jan-2020 5052.01 6107.79 82.00 4.00   1.20 2859.87
   05:36:56.999.19-Jan-2020 5052.01 6106.99 82.00 4.00   1.40 2859.87
   05:36:57.199.19-Jan-2020 5052.01 6108.25 82.00 4.00   1.60 2859.87
   05:36:57.399.19-Jan-2020 5052.01 6102.89 81.99 4.00   1.80 2859.87
   05:36:57.599.19-Jan-2020 5052.01 6109.20 81.99 4.00   2.00 2859.87
   05:36:57.799.19-Jan-2020 5052.01 6109.20 81.99 4.00   2.20 2859.87
   05:36:57.999.19-Jan-2020 5052.01 6109.20 81.99 4.00   2.40 2859.87
   05:36:58.199.19-Jan-2020 5052.01 6106.70 81.99 4.00   2.60 2859.87
   05:36:58.399.19-Jan-2020 5052.01 6108.81 81.99 4.00   2.80 2859.87
   05:36:58.599.19-Jan-2020 5052.01 6107.53 81.99 4.00   3.00 2859.87
   05:36:58.799.19-Jan-2020 5052.01 6107.53 81.99 4.00   3.20 2859.87
   05:36:58.999.19-Jan-2020 5052.01 6107.53 81.99 4.00   3.40 2859.87
   05:36:59.199.19-Jan-2020 5052.01 6107.53 81.99 4.00   3.60 2859.87
   05:36:59.399.19-Jan-2020 5052.01 6109.38 81.99 4.00   3.80 2859.87
   05:36:59.599.19-Jan-2020 5052.01 6108.20 81.99 4.00   4.00 2859.87
   05:36:59.799.19-Jan-2020 5052.01 6109.09 81.99 4.00   4.20 2859.87
   05:36:59.999.19-Jan-2020 5052.01 6108.52 81.99 4.00   4.40 2859.87
   05:37:00.199.19-Jan-2020 5052.01 6109.85 81.99 4.00   4.60 2859.87
   05:37:00.399.19-Jan-2020 5052.01 6107.41 81.99 4.00   4.80 2859.87
   05:37:00.599.19-Jan-2020 5052.01 6109.69 81.98 4.00   5.00 2859.87
   05:37:00.799.19-Jan-2020 5052.01 6109.69 81.98 4.00   5.20 2859.87
   05:37:00.999.19-Jan-2020 5052.01 6110.22 81.98 4.00   5.40 2859.87
   05:37:01.199.19-Jan-2020 5052.01 6108.49 81.98 4.00   5.60 2859.87
   05:37:01.400.19-Jan-2020 5052.01 6109.29 81.98 4.00   5.80 2859.87
   05:37:01.600.19-Jan-2020 5052.01 6108.74 81.98 4.00   6.00 2859.87
   05:37:01.800.19-Jan-2020 5052.01 6108.74 81.98 4.00   6.20 2859.87
   05:37:02.000.19-Jan-2020 5052.01 6109.11 81.98 4.00   6.40 2859.87
   05:37:02.200.19-Jan-2020 5052.01 6106.97 81.98 4.00   6.60 2859.87
   05:37:02.400.19-Jan-2020 5052.01 6100.09 81.98 4.00   6.80 2859.87
   05:37:02.600.19-Jan-2020 5052.01 6108.12 81.98 4.00   7.00 2859.87
   05:37:02.800.19-Jan-2020 5052.01 6108.12 81.98 4.00   7.20 2859.87
   05:37:03.000.19-Jan-2020 5052.01 6105.82 81.98 4.00   7.40 2859.87
   05:37:03.200.19-Jan-2020 5052.01 6109.62 81.98 4.00   7.60 2859.87
   05:37:03.400.19-Jan-2020 5052.01 6106.38 81.98 4.00   7.80 2859.87
   05:37:03.600.19-Jan-2020 5052.01 6108.85 81.98 4.00   8.00 2859.87
   05:37:03.800.19-Jan-2020 5052.01 6108.85 81.98 4.00   8.20 2859.87
   05:37:04.000.19-Jan-2020 5052.01 6108.45 81.97 4.00   8.40 2859.87
   05:37:04.200.19-Jan-2020 5052.01 6108.47 81.97 4.00   8.60 2859.87
   05:37:04.400.19-Jan-2020 5052.01 6107.52 81.97 4.00   8.80 2859.87
   05:37:04.600.19-Jan-2020 5052.01 6108.94 81.97 4.00   9.00 2859.87
   05:37:04.800.19-Jan-2020 5052.01 6108.94 81.97 4.00   9.20 2859.87
   05:37:05.000.19-Jan-2020 5052.01 6109.34 81.97 4.00   9.40 2859.87
   05:37:05.200.19-Jan-2020 5052.01 6106.98 81.97 4.00   9.60 2859.87
   05:37:05.400.19-Jan-2020 5052.01 6109.40 81.97 4.00   9.80 2859.87
   05:37:05.600.19-Jan-2020 5052.01 6107.58 81.97 4.00  10.00 2859.87
   05:37:05.800.19-Jan-2020 5052.01 6107.58 81.97 4.00  10.20 2859.87
   05:37:06.000.19-Jan-2020 5052.01 6107.90 81.97 4.00  10.40 2859.87
   05:37:06.201.19-Jan-2020 5052.01 6101.59 81.97 4.00  10.60 2859.87
   05:37:06.401.19-Jan-2020 5052.01 6110.00 81.97 4.00  10.80 2859.87
   05:37:06.601.19-Jan-2020 5052.01 6109.15 81.97 4.00  11.00 2859.87
   05:37:06.801.19-Jan-2020 5052.01 6109.15 81.97 4.00  11.20 2859.87
   05:37:07.001.19-Jan-2020 5052.01 6109.04 81.97 4.00  11.40 2859.87
   05:37:07.201.19-Jan-2020 5052.01 6108.68 81.96 4.00  11.60 2859.87
   05:37:07.401.19-Jan-2020 5052.01 6099.43 81.96 4.00  11.80 2859.87
   05:37:07.601.19-Jan-2020 5052.01 6109.53 81.96 4.00  12.00 2859.87
   05:37:07.801.19-Jan-2020 5052.01 6109.53 81.96 4.00  12.20 2859.87
   05:37:08.001.19-Jan-2020 5052.01 6101.80 81.96 4.00  12.40 2859.87
   05:37:08.201.19-Jan-2020 5052.01 6099.67 81.96 4.00  12.60 2859.87
   05:37:08.401.19-Jan-2020 5052.01 6088.15 81.96 4.00  12.80 2859.87
   05:37:08.601.19-Jan-2020 5052.01 6092.38 81.96 4.00  13.00 2859.87
   05:37:08.801.19-Jan-2020 5052.01 6092.38 81.96 4.00  13.20 2859.87
   05:37:09.001.19-Jan-2020 5052.01 6079.44 81.96 4.00  13.40 2859.87
   05:37:09.201.19-Jan-2020 5052.01 6046.07 81.96 4.00  13.60 2859.87
   05:37:09.401.19-Jan-2020 5052.01 6054.56 81.96 4.00  13.80 2859.87
   05:37:09.601.19-Jan-2020 5052.01 6075.02 81.96 4.00  14.00 2859.87
   05:37:09.801.19-Jan-2020 5052.01 6075.02 81.96 4.00  14.20 2859.87
   05:37:10.001.19-Jan-2020 5052.01 6117.11 81.96 4.00  14.40 2859.87
   05:37:10.201.19-Jan-2020 5052.01 6108.47 81.96 4.00  14.60 2859.87
   05:37:10.401.19-Jan-2020 5052.01 6101.94 81.95 4.00  14.80 2859.87
   05:37:10.601.19-Jan-2020 5052.01 6064.52 81.95 4.00  15.00 2859.87
   05:37:10.802.19-Jan-2020 5052.01 6064.52 81.95 4.00  15.20 2859.87
   05:37:11.002.19-Jan-2020 5052.01 5999.44 81.95 4.00  15.40 2859.87
   05:37:11.202.19-Jan-2020 5052.01 5978.57 81.95 4.00  15.60 2859.87
   05:37:11.402.19-Jan-2020 5052.01 5939.81 81.95 4.00  15.80 2859.87
   05:37:11.602.19-Jan-2020 5052.01 5933.03 81.95 4.00  16.00 2859.87
   05:37:11.802.19-Jan-2020 5052.01 5933.03 81.95 4.00  16.20 2859.87
   05:37:12.002.19-Jan-2020 5052.01 6101.16 81.95 4.00  16.40 2859.87
   05:37:12.202.19-Jan-2020 5052.01 6059.67 81.95 4.00  16.60 2859.87
   05:37:12.402.19-Jan-2020 5052.01 6063.60 81.95 4.00  16.80 2859.87
   05:37:12.602.19-Jan-2020 5052.01 6104.46 81.95 4.00  17.00 2859.87
   05:37:12.802.19-Jan-2020 5052.01 6104.46 81.95 4.00  17.20 2859.87
   05:37:13.002.19-Jan-2020 5052.01 6088.58 81.95 4.00  17.40 2859.87
   05:37:13.202.19-Jan-2020 5052.01 6108.24 81.95 4.00  17.60 2859.87
   05:37:13.402.19-Jan-2020 5052.01 6115.85 81.94 4.00  17.80 2859.87
   05:37:13.602.19-Jan-2020 5052.01 6162.31 81.94 4.00  18.00 2859.87
   05:37:13.802.19-Jan-2020 5052.01 6162.31 81.94 4.00  18.20 2859.87
   05:37:14.002.19-Jan-2020 5052.01 6742.04 81.94 4.00  18.40 2859.87
   05:37:14.202.19-Jan-2020 5052.01 6886.27 81.94 4.00  18.60 2859.87
   05:37:14.402.19-Jan-2020 5052.01 7064.67 81.94 4.00  18.80 2859.87
   05:37:14.602.19-Jan-2020 5052.01 7229.24 81.94 4.00  19.00 2859.87
   05:37:14.802.19-Jan-2020 5052.01 7229.24 81.94 4.00  19.20 2859.87
   05:37:15.002.19-Jan-2020 5052.01 7478.52 81.94 4.00  19.40 2859.87
   05:37:15.202.19-Jan-2020 5052.01 7582.32 81.94 4.00  19.60 2859.87
   05:37:15.402.19-Jan-2020 5052.01 7634.46 81.94 4.00  19.80 2859.87
   05:37:15.603.19-Jan-2020 5052.01 7669.16 81.94 4.00  20.00 2859.87
   05:37:15.803.19-Jan-2020 5052.01 7669.16 81.94 4.00  20.20 2859.87
   05:37:16.003.19-Jan-2020 5052.01 7809.95 81.94 4.00  20.40 2859.87
   05:37:16.203.19-Jan-2020 5052.01 7869.79 81.94 4.00  20.60 2859.87
   05:37:16.403.19-Jan-2020 5052.01 7910.31 81.94 4.00  20.80 2859.87
   05:37:16.603.19-Jan-2020 5052.01 7916.49 81.94 4.00  21.00 2859.87
   05:37:16.803.19-Jan-2020 5052.01 7916.49 81.94 4.00  21.20 2859.87
   05:37:17.003.19-Jan-2020 5052.01 7983.11 81.94 4.00  21.40 2859.87
   05:37:17.203.19-Jan-2020 5052.01 8018.09 81.94 4.00  21.60 2859.87
   05:37:17.403.19-Jan-2020 5052.01 8031.28 81.94 4.00  21.80 2859.87
   05:37:17.603.19-Jan-2020 5052.01 8038.84 81.94 4.00  22.00 2859.87
   05:37:17.803.19-Jan-2020 5052.01 8038.84 81.94 4.00  22.20 2859.87
   05:37:18.003.19-Jan-2020 5052.01 8043.52 81.94 4.00  22.40 2859.87
   05:37:18.203.19-Jan-2020 5052.01 8046.25 81.94 4.00  22.60 2859.87
   05:37:18.403.19-Jan-2020 5052.01 8048.34 81.94 4.00  22.80 2859.87
