~Version Information
 VERS.                  2.0:   CWLS log ASCII Standard -VERSION 2.0
 WRAP.                   NO:   One line per depth step
~Well Information Block
#MNEM.UNIT     VALUE/NAME     DESCRIPTION
#---------     -----------    ---------------------------
 STRT.S             05:36:55 19-Jan-20: START TIME 05:36:55 19-Jan-20
 STOP.S             05:44:47 19-Jan-20: STOP TIME  05:44:47 19-Jan-20
 STEP.S                   0.00: STEP TIME
 NULL.                 -999.25: NULL VALUE
 DFWT.                        :  DIST FWL TEXT
 DFST.                        :  DIST FSL TEXT
 DMF .             Drill Floor:  DRILL MEAS FROM
 STIM.      17.57.20 21-Dec-19:  START TIME
 DATE.      17.57.20 21-Dec-19:  END TIME
 SPUD.               21-Dec-19:  SPUD DATE
 NREF.                    Grid:  NORTH REFERENCE
 HPTY.       Minimum Curvature:  HOLE POS TYPE
 DMOD.             Drill Model:  DRILL MOD DESC
 SVYD.                  Survey:  SURVEY DESC
 ILTD.               Lithology:  INTERP LTH DESC
 FTOP.          Formation Tops:  FORM TOPS DESC
 PDAT.          Mean Sea Level:  PERMANENT DATUM
 FLD .                     ACG:  FIELD NAME
 SON .        AZ-XX-0905715376:  JOB NUMBER
 CTRY.              Azerbaijan:  COUNTRY NAME
 WELL.                    E04Y:  WELL NAME
 SRVC.          TURAN DRILLING:  CONTRACTOR
 COMP.     BP Exploration (Caspian Sea) Ltd.:  COMPANY
 WTYP.                Deviated:  WELL TYPE
 UWI .                     N/a:  UNIQUE WELL IDENTIFIER
 API .                     N/a:  API NUMBER
 BASE.              Azerbaijan:  LOGGING EQUIPMENT BASE LOCATION
 REGN.                   EESSA:  REGION
 MWDS.                    Baku:  MWD SHOP
 RIG .                     DWG:  RIG NAME
 DOE .                     N/a:  DOE NUMBER
 CNTY.                    Baku:  COUNTY NAME
 DCON.         Sperry Drilling:  DIRECTNL CONTR
 UNIT.                     N/a:  LOGGING EQUIPMENT ID
 MDS .        Operator Entered:  MAG DATA SOURCE
 PROV.                        :  PROVINCE
 STAT.                        :  STATE
 LOC .                        :  LOCATION
 LMF .             Drill Floor:  LOG MEASURED FROM
 TVDS.m                  43.16:  TVDSS CORRECTN
 LATI.deg                40.17:  LATITUDE
 LONG.deg                51.17:  LONGITUDE
 WHNS.m                  -0.12:  WELL HEAD N/S
 WHEW.m                  -5.41:  WELL HEAD E/W
 UTMX.m              514337.95:  UTM X
 UTMY.m             4448627.46:  UTM Y
 DFWL.m                   0.00:  DISTANCE FWL
 DFSL.m                   0.00:  DISTANCE FSL
 SDEP.m                   0.00:  START DEPTH
 TDD .m                   0.00:  TOTAL DEPTH (DRILLER)
 VSDR.deg               235.12:  VERT SEC DIRECT
 GVFD.g                   1.00:  GRAVITY FIELD
 MFLD.nT              50294.00:  MAGNETIC FIELD
 MDIP.deg                59.61:  MAGNETIC DIP
 MDEC.deg                 6.58:  MAGNETIC DECL
 GRDC.deg                 0.09:  GRID CORRECTION
 AZTC.deg                 6.49:  AZM TOTAL CORR
 EPD .m                   0.00:  ELEVATION
 EGL .m                   0.00:  GROUND ELEVATION
 WDMS.m                 176.20:  WD ELEV
 APD .m                  43.16:  DEPTH ABOVE PD
 DEP .m                3172.61:  DEPTH
 AGAP.m                  43.16:  AIR GAP
 VSEW.m                  -5.41:  VERT SEC E/W
 VSNS.m                  -0.12:  VERT SEC N/S
 EKB .m                  43.16:  KB ELEVATION
 EDF .m                  43.16:  DF ELEVATION
 TDL .m                 295.00:  TOTAL DEPTH (LOGGER)
 VSC .                       0:  VS TO CLOSURE
 MAGU.                 1852276:  MAGUTM CHECKSUM
~Parameter Information Block
#MNEM.UNIT       Value        Description
#---------     -----------    ---------------------------
 AV  .mps                 1.60:  Ann Velocity 
 AVMX.mps                 2.10:  Max Ann Veloc 
 AZIF.deg               290.59:  Azm, Final 
 BHAT.        Rotary Steerable:  BHA Type 
 BROT.°/30m               1.00:  Build Rotating 
 BS  .in                  6.50:  Bit Size 
 BSZ .in                  6.50:  Bit Size 
 BTPL.psig              120.00:  Bit Press Loss 
 CABU.                     Yes:  Customer Abuse 
 CGEO.          Eldar Huseynov:  Customer Geo 
 COMM.                     Lì_:  Run Comments 1 
 TCS .hr                 87.00:  Time Ciculation Ended 
 CV  .mps                 4.01:  Crit Velocity 
 CVMX.mps                 5.06:  Max Crit Veloc 
 DD1 .             Aziz Aliyev:  Direct Drillr 1 
 DD2 .            Sanan Aliyev:  Direct Drillr 2 
 DDSV.               Geo-Pilot:  DD Service 
 DEFF.%                  95.00:  % Det Eff 
 DLRX.°/30m               0.75:  Dogleg Rot Max 
 DLSO.°/30m               0.65:  Dogleg Oriented 
 DLSX.°/30m               1.39:  Dogleg Str Max 
 DRET.      18.25.00 19-Jan-20:  Drill End Time 
 DRST.      11.56.48 17-Jan-20:  Drill Start Tim 
 DTIM.hr                 27.16:  Time Drilling 
 EDEP.m                5161.01:  End Depth 
 ENG1.          Rasim Hashimov:  Engineer 1 
 ENG2.      Bakhtiyar Jabbarli:  Engineer 2 
 ETIM.      11.56.48 21-Jan-20:  End Time 
 FLOI.gpm               350.00:  Flow In 
 FLON.gpm               300.00:  Flow In Min 
 FLOS.cptm                0.00:  Fluid Loss 
 FLOX.gpm               400.00:  Flow In Max 
 HFLO.                      No:  High Flow 
 HPRE.                      No:  High Pressure 
 HTEM.                      No:  High Temp 
 HYDO.m                   1.85:  Hydro Offset 
 IFIN.deg                71.58:  Inc, Final 
 IMAX.deg                71.83:  Inc Max 
 IMIN.deg                71.12:  Inc Min 
 IMND.m                5099.48:  Inc Min Depth 
 IMXD.m                5071.08:  Inc Max Depth 
 JARR.                      No:  Jarring 
 LETM.      18.25.00 19-Jan-20:  Log End Time 
 LOST.hr                     0:  Lost Rig Time 
 LSTM.      11.56.48 17-Jan-20:  Log Start Time 
 MDCL.ppm             37000.00:  Mud Chlorides 
 MDES.     Inversion Oil/Synthetic:  Mud Desc 
 DFD .sg                  1.34:  Mud Density 
 MDMN.sg                  1.34:  Dens Mud Min 
 MDMX.sg                  1.34:  Dens Mud Max 
 MOIL.                      69:  Run Mud Oil % 
 MOWR.                   69:31:  Run Mud OWR 
 MSND.                     0.1:  Run Mud Sand % 
 MSOL.                    17.6:  Run Mud Solids% 
 DFV .spqt               79.00:  Mud Viscosity 
 MWOD.in                  4.75:  MWD Tool OD 
 MWSI.                      No:  Serv Intrp, MWD 
 OTIM.hr                126.10:  Time Operating 
 PMAX.psia             6000.00:  Press Op, Max 
 PV  .cP                 29.00:  Mud PV 
 RUN .                     400:  Run Number 
 ROPA.m/hr               11.00:  ROP Avg 
 ROPN.m/hr                5.00:  ROP Min 
 ROPX.m/hr               18.00:  ROP Max 
 RPMA.rpm               139.00:  RPM Surface Avg 
 RPMN.rpm               100.00:  RPM Surface Min 
 RPMX.rpm               140.00:  RPM Surface Max 
 RRUN.                     400:  Rig Run Number 
 SAZI.deg               290.22:  Azm, Start 
 SDEP.m                4868.01:  Start Depth 
 SIDD.                      No:  Serv Intrp, DD 
 SINC.deg                71.77:  Inc, Start 
 SPPA.psig             5550.00:  SPP Avg 
 SPPN.psig             4300.00:  SPP Min 
 SPPX.psig             5600.00:  SPP Max 
 STIM.      23.45.48 15-Jan-20:  Start Time 
 SVCS.                 DD, MWD:  Services 
 SVER.                    9.20:  Sperry Version 
 TDAT.m                5161.01:  Tot Depth Attmp 
 TDDF.                      No:  Trip for DD 
 TDLG.m                 295.00:  Tot Depth Loggd 
 TFF .                      No:  Trip for Fail 
 TQAA.f-kp               13.00:  Torque Abs Avg 
 TQAN.f-kp               13.00:  Torque Abs Min 
 TQAX.f-kp               16.00:  Torque Abs Max 
 TRRT.°/30m               0.25:  Turn Rotating 
 MRT .                     ADR:  Maximum Recorded Temperature 
 TTMX.degC               88.00:  Max Tool Temp 
 VS01.                90577859:  Virtual Str1 SN 
 VS02.                90521879:  Virtual Str2 SN 
 VS03.                90580299:  Virtual Str3 SN 
 VS04.                90515982:  Virtual Str4 SN 
 VS05.                90547765:  Virtual Str5 SN 
 WBMN.klb                 2.00:  WOB Min 
 WITN.           Adil Mammadov:  Customer Rep 
 WITN.        Elmaddin Rahimov:  Customer Rep 2 
 WOBA.klb                 3.00:  WOB Avg 
 WOBX.klb                 5.00:  WOB Max 
 YP  .lhf2               30.00:  Yield Point 
~Curve Information Block
#MNEM.UNIT                 API CODE     Curve Description
#---------               -----------    ---------------------------
 TIME.HHMMSS            00 000 000 000:  GT Time & Date
 GTDEPTH.m              00 000 000 000:  GT Depth
 GTPQH.psia             00 000 000 000:  GT HR Quartz Pressure
 GTTQ.degC              00 000 000 000:  GT Quartz Temperature
 GTTN.NONE              00 000 000 000:  GT Test Number
 GTET.sec               00 000 000 000:  GT Elapsed Test Time
 GTTVD.m                00 000 000 000:  GT True Vertical Depth
#Other Information
#
#WARRANTY: Halliburton will use its best efforts to furnish customers with 
#accurate information and interpretations that are part of, and incident to, the services 
#provided.  However, Halliburton cannot and does not warrant the accuracy 
#or correctness of such information and interpretations.  Under no circumstances should any 
#such information or interpretation be relied upon as the sole basis for any drilling, 
#completion, production, or financial decision or any procedure involving any risk to the 
#safety of any drilling venture, drilling rig or its crew or any other third party.  The 
#Customer has full responsibility for all drilling, completion and production operation.  
#Halliburton makes no representations or warranties, either expressed or 
#implied, including, but not limited to, the implied warranties of merchantability or fitness 
#for a particular purpose, with respect to the services rendered.  In no event will 
#Halliburton be liable for failure to obtain any particular results or for 
#any damages, including, but not limited to, indirect, special or consequential damages, 
#resulting from the use of any information or interpretation provided by Halliburton.
#
~A           TIME           GTDEPTH  GTPQH  GTTQ  GTTN  GTET   GTTVD  
# ...
   05:42:40.672.19-Jan-2020 5052.01 4085.65 81.19 4.00 345.07 2859.87
   05:42:40.872.19-Jan-2020 5052.01 4085.65 81.19 4.00 345.27 2859.87
   05:42:41.072.19-Jan-2020 5052.01 4085.60 81.19 4.00 345.47 2859.87
   05:42:41.272.19-Jan-2020 5052.01 4085.60 81.18 4.00 345.67 2859.87
   05:42:41.472.19-Jan-2020 5052.01 4085.58 81.18 4.00 345.87 2859.87
   05:42:41.672.19-Jan-2020 5052.01 4085.60 81.18 4.00 346.07 2859.87
   05:42:41.872.19-Jan-2020 5052.01 4085.60 81.18 4.00 346.27 2859.87
   05:42:42.072.19-Jan-2020 5052.01 4085.67 81.18 4.00 346.47 2859.87
   05:42:42.272.19-Jan-2020 5052.01 4085.59 81.18 4.00 346.67 2859.87
   05:42:42.472.19-Jan-2020 5052.01 4085.61 81.18 4.00 346.87 2859.87
   05:42:42.672.19-Jan-2020 5052.01 4085.59 81.18 4.00 347.07 2859.87
   05:42:42.872.19-Jan-2020 5052.01 4085.59 81.18 4.00 347.27 2859.87
   05:42:43.072.19-Jan-2020 5052.01 4085.58 81.18 4.00 347.47 2859.87
   05:42:43.272.19-Jan-2020 5052.01 4085.56 81.18 4.00 347.67 2859.87
   05:42:43.472.19-Jan-2020 5052.01 4085.53 81.18 4.00 347.87 2859.87
   05:42:43.672.19-Jan-2020 5052.01 4085.62 81.18 4.00 348.07 2859.87
   05:42:43.872.19-Jan-2020 5052.01 4085.62 81.18 4.00 348.27 2859.87
   05:42:44.073.19-Jan-2020 5052.01 4085.61 81.18 4.00 348.47 2859.87
   05:42:44.273.19-Jan-2020 5052.01 4085.61 81.18 4.00 348.67 2859.87
   05:42:44.473.19-Jan-2020 5052.01 4085.59 81.18 4.00 348.87 2859.87
   05:42:44.673.19-Jan-2020 5052.01 4085.61 81.18 4.00 349.07 2859.87
   05:42:44.873.19-Jan-2020 5052.01 4085.61 81.18 4.00 349.27 2859.87
   05:42:45.073.19-Jan-2020 5052.01 4085.64 81.18 4.00 349.47 2859.87
   05:42:45.273.19-Jan-2020 5052.01 4085.60 81.18 4.00 349.67 2859.87
   05:42:45.473.19-Jan-2020 5052.01 4085.59 81.18 4.00 349.87 2859.87
   05:42:45.673.19-Jan-2020 5052.01 4085.61 81.18 4.00 350.07 2859.87
   05:42:45.873.19-Jan-2020 5052.01 4085.61 81.18 4.00 350.27 2859.87
   05:42:46.073.19-Jan-2020 5052.01 4085.60 81.18 4.00 350.47 2859.87
   05:42:46.273.19-Jan-2020 5052.01 4085.58 81.17 4.00 350.67 2859.87
   05:42:46.473.19-Jan-2020 5052.01 4085.58 81.17 4.00 350.87 2859.87
   05:42:46.673.19-Jan-2020 5052.01 4085.58 81.17 4.00 351.07 2859.87
   05:42:46.873.19-Jan-2020 5052.01 4085.58 81.17 4.00 351.27 2859.87
   05:42:47.073.19-Jan-2020 5052.01 4085.56 81.17 4.00 351.47 2859.87
   05:42:47.273.19-Jan-2020 5052.01 4085.59 81.17 4.00 351.67 2859.87
   05:42:47.473.19-Jan-2020 5052.01 4085.56 81.17 4.00 351.87 2859.87
   05:42:47.673.19-Jan-2020 5052.01 4085.58 81.17 4.00 352.08 2859.87
   05:42:47.873.19-Jan-2020 5052.01 4085.58 81.17 4.00 352.28 2859.87
   05:42:48.073.19-Jan-2020 5052.01 4085.57 81.17 4.00 352.48 2859.87
   05:42:48.273.19-Jan-2020 5052.01 4085.43 81.17 4.00 352.68 2859.87
   05:42:48.473.19-Jan-2020 5052.01 4085.64 81.17 4.00 352.88 2859.87
   05:42:48.673.19-Jan-2020 5052.01 4085.60 81.17 4.00 353.08 2859.87
   05:42:48.874.19-Jan-2020 5052.01 4085.60 81.17 4.00 353.28 2859.87
   05:42:49.074.19-Jan-2020 5052.01 4085.60 81.17 4.00 353.48 2859.87
   05:42:49.274.19-Jan-2020 5052.01 4085.58 81.17 4.00 353.68 2859.87
   05:42:49.474.19-Jan-2020 5052.01 4085.60 81.17 4.00 353.88 2859.87
   05:42:49.674.19-Jan-2020 5052.01 4085.57 81.17 4.00 354.08 2859.87
   05:42:49.874.19-Jan-2020 5052.01 4085.57 81.17 4.00 354.28 2859.87
   05:42:50.074.19-Jan-2020 5052.01 4085.56 81.17 4.00 354.48 2859.87
   05:42:50.274.19-Jan-2020 5052.01 4085.59 81.17 4.00 354.68 2859.87
   05:42:50.474.19-Jan-2020 5052.01 4085.56 81.17 4.00 354.88 2859.87
   05:42:50.674.19-Jan-2020 5052.01 4085.56 81.17 4.00 355.08 2859.87
   05:42:50.874.19-Jan-2020 5052.01 4085.56 81.17 4.00 355.28 2859.87
   05:42:51.074.19-Jan-2020 5052.01 4085.56 81.17 4.00 355.48 2859.87
   05:42:51.274.19-Jan-2020 5052.01 4085.57 81.17 4.00 355.68 2859.87
   05:42:51.474.19-Jan-2020 5052.01 4085.55 81.17 4.00 355.88 2859.87
   05:42:51.674.19-Jan-2020 5052.01 4085.44 81.16 4.00 356.08 2859.87
   05:42:51.874.19-Jan-2020 5052.01 4085.44 81.16 4.00 356.28 2859.87
   05:42:52.074.19-Jan-2020 5052.01 4085.59 81.16 4.00 356.48 2859.87
   05:42:52.274.19-Jan-2020 5052.01 4085.59 81.16 4.00 356.68 2859.87
   05:42:52.474.19-Jan-2020 5052.01 4085.60 81.16 4.00 356.88 2859.87
   05:42:52.674.19-Jan-2020 5052.01 4085.58 81.16 4.00 357.08 2859.87
   05:42:52.874.19-Jan-2020 5052.01 4085.58 81.16 4.00 357.28 2859.87
   05:42:53.074.19-Jan-2020 5052.01 4085.45 81.16 4.00 357.48 2859.87
   05:42:53.274.19-Jan-2020 5052.01 4085.65 81.16 4.00 357.68 2859.87
   05:42:53.475.19-Jan-2020 5052.01 4085.58 81.16 4.00 357.88 2859.87
   05:42:53.675.19-Jan-2020 5052.01 4085.59 81.16 4.00 358.08 2859.87
   05:42:53.875.19-Jan-2020 5052.01 4085.59 81.16 4.00 358.28 2859.87
   05:42:54.075.19-Jan-2020 5052.01 4085.58 81.16 4.00 358.48 2859.87
   05:42:54.275.19-Jan-2020 5052.01 4085.59 81.16 4.00 358.68 2859.87
   05:42:54.475.19-Jan-2020 5052.01 4085.53 81.16 4.00 358.88 2859.87
   05:42:54.675.19-Jan-2020 5052.01 4085.54 81.16 4.00 359.08 2859.87
   05:42:54.875.19-Jan-2020 5052.01 4085.54 81.16 4.00 359.28 2859.87
   05:42:55.075.19-Jan-2020 5052.01 4085.59 81.16 4.00 359.48 2859.87
   05:42:55.275.19-Jan-2020 5052.01 4085.59 81.16 4.00 359.68 2859.87
   05:42:55.475.19-Jan-2020 5052.01 4085.59 81.16 4.00 359.88 2859.87
   05:42:55.675.19-Jan-2020 5052.01 4085.58 81.16 4.00 360.08 2859.87
   05:42:55.875.19-Jan-2020 5052.01 4085.58 81.16 4.00 360.28 2859.87
   05:42:56.075.19-Jan-2020 5052.01 4085.48 81.16 4.00 360.48 2859.87
   05:42:56.275.19-Jan-2020 5052.01 4085.62 81.16 4.00 360.68 2859.87
   05:42:56.475.19-Jan-2020 5052.01 4085.61 81.16 4.00 360.88 2859.87
   05:42:56.675.19-Jan-2020 5052.01 4085.57 81.16 4.00 361.08 2859.87
   05:42:56.875.19-Jan-2020 5052.01 4085.57 81.16 4.00 361.28 2859.87
   05:42:57.075.19-Jan-2020 5052.01 4085.59 81.16 4.00 361.48 2859.87
   05:42:57.275.19-Jan-2020 5052.01 4085.59 81.15 4.00 361.68 2859.87
   05:42:57.475.19-Jan-2020 5052.01 4085.57 81.15 4.00 361.88 2859.87
   05:42:57.675.19-Jan-2020 5052.01 4085.59 81.15 4.00 362.08 2859.87
   05:42:57.875.19-Jan-2020 5052.01 4085.59 81.15 4.00 362.28 2859.87
   05:42:58.075.19-Jan-2020 5052.01 4085.57 81.15 4.00 362.48 2859.87
   05:42:58.276.19-Jan-2020 5052.01 4085.57 81.15 4.00 362.68 2859.87
   05:42:58.476.19-Jan-2020 5052.01 4085.57 81.15 4.00 362.88 2859.87
   05:42:58.676.19-Jan-2020 5052.01 4085.57 81.15 4.00 363.08 2859.87
   05:42:58.876.19-Jan-2020 5052.01 4085.57 81.15 4.00 363.28 2859.87
   05:42:59.076.19-Jan-2020 5052.01 4085.57 81.15 4.00 363.48 2859.87
   05:42:59.276.19-Jan-2020 5052.01 4085.55 81.15 4.00 363.68 2859.87
   05:42:59.476.19-Jan-2020 5052.01 4085.43 81.15 4.00 363.88 2859.87
   05:42:59.676.19-Jan-2020 5052.01 4085.62 81.15 4.00 364.08 2859.87
   05:42:59.876.19-Jan-2020 5052.01 4085.62 81.15 4.00 364.28 2859.87
   05:43:00.076.19-Jan-2020 5052.01 4085.57 81.15 4.00 364.48 2859.87
   05:43:00.276.19-Jan-2020 5052.01 4085.61 81.15 4.00 364.68 2859.87
   05:43:00.476.19-Jan-2020 5052.01 4085.56 81.15 4.00 364.88 2859.87
   05:43:00.676.19-Jan-2020 5052.01 4085.58 81.15 4.00 365.08 2859.87
   05:43:00.876.19-Jan-2020 5052.01 4085.58 81.15 4.00 365.28 2859.87
   05:43:01.076.19-Jan-2020 5052.01 4085.57 81.15 4.00 365.48 2859.87
   05:43:01.276.19-Jan-2020 5052.01 4085.56 81.15 4.00 365.68 2859.87
   05:43:01.476.19-Jan-2020 5052.01 4085.56 81.15 4.00 365.88 2859.87
   05:43:01.676.19-Jan-2020 5052.01 4085.57 81.15 4.00 366.08 2859.87
   05:43:01.876.19-Jan-2020 5052.01 4085.57 81.15 4.00 366.28 2859.87
   05:43:02.076.19-Jan-2020 5052.01 4085.57 81.15 4.00 366.48 2859.87
   05:43:02.276.19-Jan-2020 5052.01 4085.55 81.14 4.00 366.68 2859.87
   05:43:02.476.19-Jan-2020 5052.01 4085.56 81.14 4.00 366.88 2859.87
   05:43:02.676.19-Jan-2020 5052.01 4085.54 81.14 4.00 367.08 2859.87
   05:43:02.877.19-Jan-2020 5052.01 4085.54 81.14 4.00 367.28 2859.87
   05:43:03.077.19-Jan-2020 5052.01 4085.65 81.14 4.00 367.48 2859.87
   05:43:03.277.19-Jan-2020 5052.01 4085.56 81.14 4.00 367.68 2859.87
   05:43:03.477.19-Jan-2020 5052.01 4085.60 81.14 4.00 367.88 2859.87
