~Version Information
 VERS.                  2.0:   CWLS log ASCII Standard -VERSION 2.0
 WRAP.                   NO:   One line per depth step
~Well Information Block
#MNEM.UNIT     VALUE/NAME     DESCRIPTION
#---------     -----------    ---------------------------
 STRT.S             10:27:46 18-Jan-20: START TIME 10:27:46 18-Jan-20
 STOP.S             10:35:37 18-Jan-20: STOP TIME  10:35:37 18-Jan-20
 STEP.S                   0.00: STEP TIME
 NULL.                 -999.25: NULL VALUE
 DFWT.                        :  DIST FWL TEXT
 DFST.                        :  DIST FSL TEXT
 DMF .             Drill Floor:  DRILL MEAS FROM
 STIM.      17.57.20 21-Dec-19:  START TIME
 DATE.      17.57.20 21-Dec-19:  END TIME
 SPUD.               21-Dec-19:  SPUD DATE
 NREF.                    Grid:  NORTH REFERENCE
 HPTY.       Minimum Curvature:  HOLE POS TYPE
 DMOD.             Drill Model:  DRILL MOD DESC
 SVYD.                  Survey:  SURVEY DESC
 ILTD.               Lithology:  INTERP LTH DESC
 FTOP.          Formation Tops:  FORM TOPS DESC
 PDAT.          Mean Sea Level:  PERMANENT DATUM
 FLD .                     ACG:  FIELD NAME
 SON .        AZ-XX-0905715376:  JOB NUMBER
 CTRY.              Azerbaijan:  COUNTRY NAME
 WELL.                    E04Y:  WELL NAME
 SRVC.          TURAN DRILLING:  CONTRACTOR
 COMP.     BP Exploration (Caspian Sea) Ltd.:  COMPANY
 WTYP.                Deviated:  WELL TYPE
 UWI .                     N/a:  UNIQUE WELL IDENTIFIER
 API .                     N/a:  API NUMBER
 BASE.              Azerbaijan:  LOGGING EQUIPMENT BASE LOCATION
 REGN.                   EESSA:  REGION
 MWDS.                    Baku:  MWD SHOP
 RIG .                     DWG:  RIG NAME
 DOE .                     N/a:  DOE NUMBER
 CNTY.                    Baku:  COUNTY NAME
 DCON.         Sperry Drilling:  DIRECTNL CONTR
 UNIT.                     N/a:  LOGGING EQUIPMENT ID
 MDS .        Operator Entered:  MAG DATA SOURCE
 PROV.                        :  PROVINCE
 STAT.                        :  STATE
 LOC .                        :  LOCATION
 LMF .             Drill Floor:  LOG MEASURED FROM
 TVDS.m                  43.16:  TVDSS CORRECTN
 LATI.deg                40.17:  LATITUDE
 LONG.deg                51.17:  LONGITUDE
 WHNS.m                  -0.12:  WELL HEAD N/S
 WHEW.m                  -5.41:  WELL HEAD E/W
 UTMX.m              514337.95:  UTM X
 UTMY.m             4448627.46:  UTM Y
 DFWL.m                   0.00:  DISTANCE FWL
 DFSL.m                   0.00:  DISTANCE FSL
 SDEP.m                   0.00:  START DEPTH
 TDD .m                   0.00:  TOTAL DEPTH (DRILLER)
 VSDR.deg               235.12:  VERT SEC DIRECT
 GVFD.g                   1.00:  GRAVITY FIELD
 MFLD.nT              50294.00:  MAGNETIC FIELD
 MDIP.deg                59.61:  MAGNETIC DIP
 MDEC.deg                 6.58:  MAGNETIC DECL
 GRDC.deg                 0.09:  GRID CORRECTION
 AZTC.deg                 6.49:  AZM TOTAL CORR
 EPD .m                   0.00:  ELEVATION
 EGL .m                   0.00:  GROUND ELEVATION
 WDMS.m                 176.20:  WD ELEV
 APD .m                  43.16:  DEPTH ABOVE PD
 DEP .m                3172.61:  DEPTH
 AGAP.m                  43.16:  AIR GAP
 VSEW.m                  -5.41:  VERT SEC E/W
 VSNS.m                  -0.12:  VERT SEC N/S
 EKB .m                  43.16:  KB ELEVATION
 EDF .m                  43.16:  DF ELEVATION
 TDL .m                 295.00:  TOTAL DEPTH (LOGGER)
 VSC .                       0:  VS TO CLOSURE
 MAGU.                 1852276:  MAGUTM CHECKSUM
~Parameter Information Block
#MNEM.UNIT       Value        Description
#---------     -----------    ---------------------------
 AV  .mps                 1.60:  Ann Velocity 
 AVMX.mps                 2.10:  Max Ann Veloc 
 AZIF.deg               290.59:  Azm, Final 
 BHAT.        Rotary Steerable:  BHA Type 
 BROT.°/30m               1.00:  Build Rotating 
 BS  .in                  6.50:  Bit Size 
 BSZ .in                  6.50:  Bit Size 
 BTPL.psig              120.00:  Bit Press Loss 
 CABU.                     Yes:  Customer Abuse 
 CGEO.          Eldar Huseynov:  Customer Geo 
 COMM.                     ¬Øj:  Run Comments 1 
 TCS .hr                 87.00:  Time Ciculation Ended 
 CV  .mps                 4.01:  Crit Velocity 
 CVMX.mps                 5.06:  Max Crit Veloc 
 DD1 .             Aziz Aliyev:  Direct Drillr 1 
 DD2 .            Sanan Aliyev:  Direct Drillr 2 
 DDSV.               Geo-Pilot:  DD Service 
 DEFF.%                  95.00:  % Det Eff 
 DLRX.°/30m               0.75:  Dogleg Rot Max 
 DLSO.°/30m               0.65:  Dogleg Oriented 
 DLSX.°/30m               1.39:  Dogleg Str Max 
 DRET.      18.25.00 19-Jan-20:  Drill End Time 
 DRST.      11.56.48 17-Jan-20:  Drill Start Tim 
 DTIM.hr                 27.16:  Time Drilling 
 EDEP.m                5161.01:  End Depth 
 ENG1.          Rasim Hashimov:  Engineer 1 
 ENG2.      Bakhtiyar Jabbarli:  Engineer 2 
 ETIM.      11.56.48 21-Jan-20:  End Time 
 FLOI.gpm               350.00:  Flow In 
 FLON.gpm               300.00:  Flow In Min 
 FLOS.cptm                0.00:  Fluid Loss 
 FLOX.gpm               400.00:  Flow In Max 
 HFLO.                      No:  High Flow 
 HPRE.                      No:  High Pressure 
 HTEM.                      No:  High Temp 
 HYDO.m                   1.85:  Hydro Offset 
 IFIN.deg                71.58:  Inc, Final 
 IMAX.deg                71.83:  Inc Max 
 IMIN.deg                71.12:  Inc Min 
 IMND.m                5099.48:  Inc Min Depth 
 IMXD.m                5071.08:  Inc Max Depth 
 JARR.                      No:  Jarring 
 LETM.      18.25.00 19-Jan-20:  Log End Time 
 LOST.hr                     0:  Lost Rig Time 
 LSTM.      11.56.48 17-Jan-20:  Log Start Time 
 MDCL.ppm             37000.00:  Mud Chlorides 
 MDES.     Inversion Oil/Synthetic:  Mud Desc 
 DFD .sg                  1.34:  Mud Density 
 MDMN.sg                  1.34:  Dens Mud Min 
 MDMX.sg                  1.34:  Dens Mud Max 
 MOIL.                      69:  Run Mud Oil % 
 MOWR.                   69:31:  Run Mud OWR 
 MSND.                     0.1:  Run Mud Sand % 
 MSOL.                    17.6:  Run Mud Solids% 
 DFV .spqt               79.00:  Mud Viscosity 
 MWOD.in                  4.75:  MWD Tool OD 
 MWSI.                      No:  Serv Intrp, MWD 
 OTIM.hr                126.10:  Time Operating 
 PMAX.psia             6000.00:  Press Op, Max 
 PV  .cP                 29.00:  Mud PV 
 RUN .                     400:  Run Number 
 ROPA.m/hr               11.00:  ROP Avg 
 ROPN.m/hr                5.00:  ROP Min 
 ROPX.m/hr               18.00:  ROP Max 
 RPMA.rpm               139.00:  RPM Surface Avg 
 RPMN.rpm               100.00:  RPM Surface Min 
 RPMX.rpm               140.00:  RPM Surface Max 
 RRUN.                     400:  Rig Run Number 
 SAZI.deg               290.22:  Azm, Start 
 SDEP.m                4868.01:  Start Depth 
 SIDD.                      No:  Serv Intrp, DD 
 SINC.deg                71.77:  Inc, Start 
 SPPA.psig             5550.00:  SPP Avg 
 SPPN.psig             4300.00:  SPP Min 
 SPPX.psig             5600.00:  SPP Max 
 STIM.      23.45.48 15-Jan-20:  Start Time 
 SVCS.                 DD, MWD:  Services 
 SVER.                    9.20:  Sperry Version 
 TDAT.m                5161.01:  Tot Depth Attmp 
 TDDF.                      No:  Trip for DD 
 TDLG.m                 295.00:  Tot Depth Loggd 
 TFF .                      No:  Trip for Fail 
 TQAA.f-kp               13.00:  Torque Abs Avg 
 TQAN.f-kp               13.00:  Torque Abs Min 
 TQAX.f-kp               16.00:  Torque Abs Max 
 TRRT.°/30m               0.25:  Turn Rotating 
 MRT .                     ADR:  Maximum Recorded Temperature 
 TTMX.degC               88.00:  Max Tool Temp 
 VS01.                90577859:  Virtual Str1 SN 
 VS02.                90521879:  Virtual Str2 SN 
 VS03.                90580299:  Virtual Str3 SN 
 VS04.                90515982:  Virtual Str4 SN 
 VS05.                90547765:  Virtual Str5 SN 
 WBMN.klb                 2.00:  WOB Min 
 WITN.           Adil Mammadov:  Customer Rep 
 WITN.        Elmaddin Rahimov:  Customer Rep 2 
 WOBA.klb                 3.00:  WOB Avg 
 WOBX.klb                 5.00:  WOB Max 
 YP  .lhf2               30.00:  Yield Point 
~Curve Information Block
#MNEM.UNIT                 API CODE     Curve Description
#---------               -----------    ---------------------------
 TIME.HHMMSS            00 000 000 000:  GT Time & Date
 GTDEPTH.m              00 000 000 000:  GT Depth
 GTPQH.psia             00 000 000 000:  GT HR Quartz Pressure
 GTTQ.degC              00 000 000 000:  GT Quartz Temperature
 GTTN.NONE              00 000 000 000:  GT Test Number
 GTET.sec               00 000 000 000:  GT Elapsed Test Time
 GTTVD.m                00 000 000 000:  GT True Vertical Depth
#Other Information
#
#WARRANTY: Halliburton will use its best efforts to furnish customers with 
#accurate information and interpretations that are part of, and incident to, the services 
#provided.  However, Halliburton cannot and does not warrant the accuracy 
#or correctness of such information and interpretations.  Under no circumstances should any 
#such information or interpretation be relied upon as the sole basis for any drilling, 
#completion, production, or financial decision or any procedure involving any risk to the 
#safety of any drilling venture, drilling rig or its crew or any other third party.  The 
#Customer has full responsibility for all drilling, completion and production operation.  
#Halliburton makes no representations or warranties, either expressed or 
#implied, including, but not limited to, the implied warranties of merchantability or fitness 
#for a particular purpose, with respect to the services rendered.  In no event will 
#Halliburton be liable for failure to obtain any particular results or for 
#any damages, including, but not limited to, indirect, special or consequential damages, 
#resulting from the use of any information or interpretation provided by Halliburton.
#
~A           TIME           GTDEPTH  GTPQH  GTTQ  GTTN  GTET   GTTVD  
# ...
   10:28:09.294.18-Jan-2020 4898.01 6701.17 73.68 1.00  23.00 2811.04
   10:28:09.494.18-Jan-2020 4898.01 6701.17 73.68 1.00  23.20 2811.04
   10:28:09.694.18-Jan-2020 4898.01 6720.71 73.68 1.00  23.40 2811.04
   10:28:09.894.18-Jan-2020 4898.01 6731.49 73.68 1.00  23.60 2811.04
   10:28:10.094.18-Jan-2020 4898.01 6740.11 73.68 1.00  23.80 2811.04
   10:28:10.294.18-Jan-2020 4898.01 6746.96 73.68 1.00  24.00 2811.04
   10:28:10.494.18-Jan-2020 4898.01 6746.96 73.68 1.00  24.20 2811.04
   10:28:10.694.18-Jan-2020 4898.01 6758.19 73.68 1.00  24.40 2811.04
   10:28:10.894.18-Jan-2020 4898.01 6761.04 73.68 1.00  24.60 2811.04
   10:28:11.094.18-Jan-2020 4898.01 6762.99 73.68 1.00  24.80 2811.04
   10:28:11.294.18-Jan-2020 4898.01 6738.61 73.68 1.00  25.00 2811.04
   10:28:11.494.18-Jan-2020 4898.01 6738.61 73.68 1.00  25.20 2811.04
   10:28:11.694.18-Jan-2020 4898.01 5808.70 73.68 1.00  25.40 2811.04
   10:28:11.894.18-Jan-2020 4898.01 5649.56 73.68 1.00  25.60 2811.04
   10:28:12.094.18-Jan-2020 4898.01 5477.47 73.68 1.00  25.80 2811.04
   10:28:12.294.18-Jan-2020 4898.01 5309.40 73.68 1.00  26.00 2811.04
   10:28:12.495.18-Jan-2020 4898.01 5309.40 73.68 1.00  26.20 2811.04
   10:28:12.695.18-Jan-2020 4898.01 4700.13 73.68 1.00  26.40 2811.04
   10:28:12.895.18-Jan-2020 4898.01 4326.67 73.68 1.00  26.60 2811.04
   10:28:13.095.18-Jan-2020 4898.01 4070.20 73.68 1.00  26.80 2811.04
   10:28:13.295.18-Jan-2020 4898.01 4043.60 73.68 1.00  27.00 2811.04
   10:28:13.495.18-Jan-2020 4898.01 4043.60 73.68 1.00  27.20 2811.04
   10:28:13.695.18-Jan-2020 4898.01 4042.19 73.68 1.00  27.40 2811.04
   10:28:13.895.18-Jan-2020 4898.01 4041.00 73.68 1.00  27.60 2811.04
   10:28:14.095.18-Jan-2020 4898.01 4040.88 73.68 1.00  27.80 2811.04
   10:28:14.295.18-Jan-2020 4898.01 4044.16 73.68 1.00  28.00 2811.04
   10:28:14.495.18-Jan-2020 4898.01 4044.16 73.68 1.00  28.20 2811.04
   10:28:14.695.18-Jan-2020 4898.01 4048.86 73.67 1.00  28.40 2811.04
   10:28:14.895.18-Jan-2020 4898.01 4048.72 73.67 1.00  28.60 2811.04
   10:28:15.095.18-Jan-2020 4898.01 4048.14 73.67 1.00  28.80 2811.04
   10:28:15.295.18-Jan-2020 4898.01 4047.82 73.67 1.00  29.00 2811.04
   10:28:15.495.18-Jan-2020 4898.01 4047.82 73.67 1.00  29.20 2811.04
   10:28:15.695.18-Jan-2020 4898.01 4048.11 73.67 1.00  29.40 2811.04
   10:28:15.895.18-Jan-2020 4898.01 4047.90 73.67 1.00  29.60 2811.04
   10:28:16.095.18-Jan-2020 4898.01 4047.80 73.67 1.00  29.80 2811.04
   10:28:16.295.18-Jan-2020 4898.01 4047.67 73.67 1.00  30.00 2811.04
   10:28:16.495.18-Jan-2020 4898.01 4047.67 73.67 1.00  30.20 2811.04
   10:28:16.695.18-Jan-2020 4898.01 4047.88 73.67 1.00  30.40 2811.04
   10:28:16.895.18-Jan-2020 4898.01 4048.02 73.67 1.00  30.60 2811.04
   10:28:17.095.18-Jan-2020 4898.01 4048.11 73.67 1.00  30.80 2811.04
   10:28:17.295.18-Jan-2020 4898.01 4047.68 73.66 1.00  31.00 2811.04
   10:28:17.495.18-Jan-2020 4898.01 4047.68 73.66 1.00  31.20 2811.04
   10:28:17.695.18-Jan-2020 4898.01 4047.43 73.66 1.00  31.40 2811.04
   10:28:17.895.18-Jan-2020 4898.01 4047.62 73.66 1.00  31.60 2811.04
   10:28:18.095.18-Jan-2020 4898.01 4047.64 73.66 1.00  31.80 2811.04
   10:28:18.295.18-Jan-2020 4898.01 4047.37 73.66 1.00  32.00 2811.04
   10:28:18.495.18-Jan-2020 4898.01 4047.37 73.66 1.00  32.20 2811.04
   10:28:18.695.18-Jan-2020 4898.01 4047.54 73.66 1.00  32.40 2811.04
   10:28:18.895.18-Jan-2020 4898.01 4047.53 73.66 1.00  32.60 2811.04
   10:28:19.095.18-Jan-2020 4898.01 4047.30 73.66 1.00  32.80 2811.04
   10:28:19.295.18-Jan-2020 4898.01 4047.25 73.66 1.00  33.00 2811.04
   10:28:19.495.18-Jan-2020 4898.01 4047.25 73.66 1.00  33.20 2811.04
   10:28:19.695.18-Jan-2020 4898.01 4047.71 73.65 1.00  33.40 2811.04
   10:28:19.895.18-Jan-2020 4898.01 4047.81 73.65 1.00  33.60 2811.04
   10:28:20.095.18-Jan-2020 4898.01 4047.20 73.65 1.00  33.80 2811.04
   10:28:20.295.18-Jan-2020 4898.01 4047.28 73.65 1.00  34.00 2811.04
   10:28:20.495.18-Jan-2020 4898.01 4047.28 73.65 1.00  34.20 2811.04
   10:28:20.696.18-Jan-2020 4898.01 4073.97 73.65 1.00  34.40 2811.04
   10:28:20.896.18-Jan-2020 4898.01 4077.24 73.65 1.00  34.60 2811.04
   10:28:21.096.18-Jan-2020 4898.01 4077.47 73.65 1.00  34.80 2811.04
   10:28:21.296.18-Jan-2020 4898.01 4077.65 73.65 1.00  35.00 2811.04
   10:28:21.496.18-Jan-2020 4898.01 4077.65 73.65 1.00  35.20 2811.04
   10:28:21.696.18-Jan-2020 4898.01 4077.82 73.65 1.00  35.40 2811.04
   10:28:21.896.18-Jan-2020 4898.01 4077.91 73.64 1.00  35.60 2811.04
   10:28:22.096.18-Jan-2020 4898.01 4077.93 73.64 1.00  35.80 2811.04
   10:28:22.296.18-Jan-2020 4898.01 4078.03 73.64 1.00  36.00 2811.04
   10:28:22.496.18-Jan-2020 4898.01 4078.03 73.64 1.00  36.20 2811.04
   10:28:22.696.18-Jan-2020 4898.01 4078.09 73.64 1.00  36.40 2811.04
   10:28:22.896.18-Jan-2020 4898.01 4077.79 73.64 1.00  36.60 2811.04
   10:28:23.096.18-Jan-2020 4898.01 4078.18 73.64 1.00  36.80 2811.04
   10:28:23.296.18-Jan-2020 4898.01 4078.21 73.64 1.00  37.00 2811.04
   10:28:23.496.18-Jan-2020 4898.01 4078.21 73.64 1.00  37.20 2811.04
   10:28:23.696.18-Jan-2020 4898.01 4078.08 73.64 1.00  37.40 2811.04
   10:28:23.896.18-Jan-2020 4898.01 4078.14 73.64 1.00  37.60 2811.04
   10:28:24.096.18-Jan-2020 4898.01 4078.21 73.64 1.00  37.80 2811.04
   10:28:24.296.18-Jan-2020 4898.01 4078.25 73.64 1.00  38.00 2811.04
   10:28:24.496.18-Jan-2020 4898.01 4078.25 73.64 1.00  38.20 2811.04
   10:28:24.696.18-Jan-2020 4898.01 4078.32 73.63 1.00  38.40 2811.04
   10:28:24.896.18-Jan-2020 4898.01 4078.30 73.63 1.00  38.60 2811.04
   10:28:25.096.18-Jan-2020 4898.01 4078.20 73.63 1.00  38.80 2811.04
   10:28:25.296.18-Jan-2020 4898.01 4078.25 73.63 1.00  39.00 2811.04
   10:28:25.496.18-Jan-2020 4898.01 4078.25 73.63 1.00  39.20 2811.04
   10:28:25.696.18-Jan-2020 4898.01 4078.37 73.63 1.00  39.40 2811.04
   10:28:25.896.18-Jan-2020 4898.01 4078.36 73.63 1.00  39.60 2811.04
   10:28:26.096.18-Jan-2020 4898.01 4078.37 73.63 1.00  39.80 2811.04
   10:28:26.296.18-Jan-2020 4898.01 4078.18 73.63 1.00  40.00 2811.04
   10:28:26.496.18-Jan-2020 4898.01 4078.18 73.63 1.00  40.20 2811.04
   10:28:26.696.18-Jan-2020 4898.01 4078.41 73.63 1.00  40.40 2811.04
   10:28:26.896.18-Jan-2020 4898.01 4078.41 73.63 1.00  40.60 2811.04
   10:28:27.096.18-Jan-2020 4898.01 4078.46 73.63 1.00  40.80 2811.04
   10:28:27.296.18-Jan-2020 4898.01 4078.43 73.63 1.00  41.00 2811.04
   10:28:27.496.18-Jan-2020 4898.01 4078.43 73.63 1.00  41.21 2811.04
   10:28:27.696.18-Jan-2020 4898.01 4078.48 73.63 1.00  41.41 2811.04
   10:28:27.896.18-Jan-2020 4898.01 4078.50 73.62 1.00  41.61 2811.04
   10:28:28.096.18-Jan-2020 4898.01 4078.53 73.62 1.00  41.81 2811.04
   10:28:28.296.18-Jan-2020 4898.01 4078.50 73.62 1.00  42.01 2811.04
   10:28:28.496.18-Jan-2020 4898.01 4078.50 73.62 1.00  42.21 2811.04
   10:28:28.696.18-Jan-2020 4898.01 4078.55 73.62 1.00  42.41 2811.04
   10:28:28.897.18-Jan-2020 4898.01 4078.58 73.62 1.00  42.61 2811.04
   10:28:29.097.18-Jan-2020 4898.01 4078.57 73.62 1.00  42.81 2811.04
   10:28:29.297.18-Jan-2020 4898.01 4078.57 73.62 1.00  43.01 2811.04
   10:28:29.497.18-Jan-2020 4898.01 4078.57 73.62 1.00  43.21 2811.04
   10:28:29.697.18-Jan-2020 4898.01 4078.58 73.62 1.00  43.41 2811.04
   10:28:29.897.18-Jan-2020 4898.01 4078.38 73.62 1.00  43.61 2811.04
   10:28:30.097.18-Jan-2020 4898.01 4078.54 73.62 1.00  43.81 2811.04
   10:28:30.297.18-Jan-2020 4898.01 4078.56 73.62 1.00  44.01 2811.04
   10:28:30.497.18-Jan-2020 4898.01 4078.56 73.62 1.00  44.21 2811.04
   10:28:30.697.18-Jan-2020 4898.01 4078.57 73.62 1.00  44.41 2811.04
   10:28:30.897.18-Jan-2020 4898.01 4078.61 73.62 1.00  44.61 2811.04
   10:28:31.097.18-Jan-2020 4898.01 4078.59 73.62 1.00  44.81 2811.04
   10:28:31.297.18-Jan-2020 4898.01 4078.63 73.62 1.00  45.01 2811.04
   10:28:31.497.18-Jan-2020 4898.01 4078.63 73.62 1.00  45.21 2811.04
   10:28:31.697.18-Jan-2020 4898.01 4078.65 73.61 1.00  45.41 2811.04
   10:28:31.897.18-Jan-2020 4898.01 4078.69 73.61 1.00  45.61 2811.04
   10:28:32.097.18-Jan-2020 4898.01 4078.66 73.61 1.00  45.81 2811.04
