~Version Information
 VERS.                  2.0:   CWLS log ASCII Standard -VERSION 2.0
 WRAP.                   NO:   One line per depth step
~Well Information Block
#MNEM.UNIT     VALUE/NAME     DESCRIPTION
#---------     -----------    ---------------------------
 STRT.S             14:05:37 19-Jan-20: START TIME 14:05:37 19-Jan-20
 STOP.S             14:13:29 19-Jan-20: STOP TIME  14:13:29 19-Jan-20
 STEP.S                   0.00: STEP TIME
 NULL.                 -999.25: NULL VALUE
 DFWT.                        :  DIST FWL TEXT
 DFST.                        :  DIST FSL TEXT
 DMF .             Drill Floor:  DRILL MEAS FROM
 STIM.      17.57.20 21-Dec-19:  START TIME
 DATE.      17.57.20 21-Dec-19:  END TIME
 SPUD.               21-Dec-19:  SPUD DATE
 NREF.                    Grid:  NORTH REFERENCE
 HPTY.       Minimum Curvature:  HOLE POS TYPE
 DMOD.             Drill Model:  DRILL MOD DESC
 SVYD.                  Survey:  SURVEY DESC
 ILTD.               Lithology:  INTERP LTH DESC
 FTOP.          Formation Tops:  FORM TOPS DESC
 PDAT.          Mean Sea Level:  PERMANENT DATUM
 FLD .                     ACG:  FIELD NAME
 SON .        AZ-XX-0905715376:  JOB NUMBER
 CTRY.              Azerbaijan:  COUNTRY NAME
 WELL.                    E04Y:  WELL NAME
 SRVC.          TURAN DRILLING:  CONTRACTOR
 COMP.     BP Exploration (Caspian Sea) Ltd.:  COMPANY
 WTYP.                Deviated:  WELL TYPE
 UWI .                     N/a:  UNIQUE WELL IDENTIFIER
 API .                     N/a:  API NUMBER
 BASE.              Azerbaijan:  LOGGING EQUIPMENT BASE LOCATION
 REGN.                   EESSA:  REGION
 MWDS.                    Baku:  MWD SHOP
 RIG .                     DWG:  RIG NAME
 DOE .                     N/a:  DOE NUMBER
 CNTY.                    Baku:  COUNTY NAME
 DCON.         Sperry Drilling:  DIRECTNL CONTR
 UNIT.                     N/a:  LOGGING EQUIPMENT ID
 MDS .        Operator Entered:  MAG DATA SOURCE
 PROV.                        :  PROVINCE
 STAT.                        :  STATE
 LOC .                        :  LOCATION
 LMF .             Drill Floor:  LOG MEASURED FROM
 TVDS.m                  43.16:  TVDSS CORRECTN
 LATI.deg                40.17:  LATITUDE
 LONG.deg                51.17:  LONGITUDE
 WHNS.m                  -0.12:  WELL HEAD N/S
 WHEW.m                  -5.41:  WELL HEAD E/W
 UTMX.m              514337.95:  UTM X
 UTMY.m             4448627.46:  UTM Y
 DFWL.m                   0.00:  DISTANCE FWL
 DFSL.m                   0.00:  DISTANCE FSL
 SDEP.m                   0.00:  START DEPTH
 TDD .m                   0.00:  TOTAL DEPTH (DRILLER)
 VSDR.deg               235.12:  VERT SEC DIRECT
 GVFD.g                   1.00:  GRAVITY FIELD
 MFLD.nT              50294.00:  MAGNETIC FIELD
 MDIP.deg                59.61:  MAGNETIC DIP
 MDEC.deg                 6.58:  MAGNETIC DECL
 GRDC.deg                 0.09:  GRID CORRECTION
 AZTC.deg                 6.49:  AZM TOTAL CORR
 EPD .m                   0.00:  ELEVATION
 EGL .m                   0.00:  GROUND ELEVATION
 WDMS.m                 176.20:  WD ELEV
 APD .m                  43.16:  DEPTH ABOVE PD
 DEP .m                3172.61:  DEPTH
 AGAP.m                  43.16:  AIR GAP
 VSEW.m                  -5.41:  VERT SEC E/W
 VSNS.m                  -0.12:  VERT SEC N/S
 EKB .m                  43.16:  KB ELEVATION
 EDF .m                  43.16:  DF ELEVATION
 TDL .m                 295.00:  TOTAL DEPTH (LOGGER)
 VSC .                       0:  VS TO CLOSURE
 MAGU.                 1852276:  MAGUTM CHECKSUM
~Parameter Information Block
#MNEM.UNIT       Value        Description
#---------     -----------    ---------------------------
 AV  .mps                 1.60:  Ann Velocity 
 AVMX.mps                 2.10:  Max Ann Veloc 
 AZIF.deg               290.59:  Azm, Final 
 BHAT.        Rotary Steerable:  BHA Type 
 BROT.°/30m               1.00:  Build Rotating 
 BS  .in                  6.50:  Bit Size 
 BSZ .in                  6.50:  Bit Size 
 BTPL.psig              120.00:  Bit Press Loss 
 CABU.                     Yes:  Customer Abuse 
 CGEO.          Eldar Huseynov:  Customer Geo 
 COMM.                     Tì‚:  Run Comments 1 
 TCS .hr                 87.00:  Time Ciculation Ended 
 CV  .mps                 4.01:  Crit Velocity 
 CVMX.mps                 5.06:  Max Crit Veloc 
 DD1 .             Aziz Aliyev:  Direct Drillr 1 
 DD2 .            Sanan Aliyev:  Direct Drillr 2 
 DDSV.               Geo-Pilot:  DD Service 
 DEFF.%                  95.00:  % Det Eff 
 DLRX.°/30m               0.75:  Dogleg Rot Max 
 DLSO.°/30m               0.65:  Dogleg Oriented 
 DLSX.°/30m               1.39:  Dogleg Str Max 
 DRET.      18.25.00 19-Jan-20:  Drill End Time 
 DRST.      11.56.48 17-Jan-20:  Drill Start Tim 
 DTIM.hr                 27.16:  Time Drilling 
 EDEP.m                5161.01:  End Depth 
 ENG1.          Rasim Hashimov:  Engineer 1 
 ENG2.      Bakhtiyar Jabbarli:  Engineer 2 
 ETIM.      11.56.48 21-Jan-20:  End Time 
 FLOI.gpm               350.00:  Flow In 
 FLON.gpm               300.00:  Flow In Min 
 FLOS.cptm                0.00:  Fluid Loss 
 FLOX.gpm               400.00:  Flow In Max 
 HFLO.                      No:  High Flow 
 HPRE.                      No:  High Pressure 
 HTEM.                      No:  High Temp 
 HYDO.m                   1.85:  Hydro Offset 
 IFIN.deg                71.58:  Inc, Final 
 IMAX.deg                71.83:  Inc Max 
 IMIN.deg                71.12:  Inc Min 
 IMND.m                5099.48:  Inc Min Depth 
 IMXD.m                5071.08:  Inc Max Depth 
 JARR.                      No:  Jarring 
 LETM.      18.25.00 19-Jan-20:  Log End Time 
 LOST.hr                     0:  Lost Rig Time 
 LSTM.      11.56.48 17-Jan-20:  Log Start Time 
 MDCL.ppm             37000.00:  Mud Chlorides 
 MDES.     Inversion Oil/Synthetic:  Mud Desc 
 DFD .sg                  1.34:  Mud Density 
 MDMN.sg                  1.34:  Dens Mud Min 
 MDMX.sg                  1.34:  Dens Mud Max 
 MOIL.                      69:  Run Mud Oil % 
 MOWR.                   69:31:  Run Mud OWR 
 MSND.                     0.1:  Run Mud Sand % 
 MSOL.                    17.6:  Run Mud Solids% 
 DFV .spqt               79.00:  Mud Viscosity 
 MWOD.in                  4.75:  MWD Tool OD 
 MWSI.                      No:  Serv Intrp, MWD 
 OTIM.hr                126.10:  Time Operating 
 PMAX.psia             6000.00:  Press Op, Max 
 PV  .cP                 29.00:  Mud PV 
 RUN .                     400:  Run Number 
 ROPA.m/hr               11.00:  ROP Avg 
 ROPN.m/hr                5.00:  ROP Min 
 ROPX.m/hr               18.00:  ROP Max 
 RPMA.rpm               139.00:  RPM Surface Avg 
 RPMN.rpm               100.00:  RPM Surface Min 
 RPMX.rpm               140.00:  RPM Surface Max 
 RRUN.                     400:  Rig Run Number 
 SAZI.deg               290.22:  Azm, Start 
 SDEP.m                4868.01:  Start Depth 
 SIDD.                      No:  Serv Intrp, DD 
 SINC.deg                71.77:  Inc, Start 
 SPPA.psig             5550.00:  SPP Avg 
 SPPN.psig             4300.00:  SPP Min 
 SPPX.psig             5600.00:  SPP Max 
 STIM.      23.45.48 15-Jan-20:  Start Time 
 SVCS.                 DD, MWD:  Services 
 SVER.                    9.20:  Sperry Version 
 TDAT.m                5161.01:  Tot Depth Attmp 
 TDDF.                      No:  Trip for DD 
 TDLG.m                 295.00:  Tot Depth Loggd 
 TFF .                      No:  Trip for Fail 
 TQAA.f-kp               13.00:  Torque Abs Avg 
 TQAN.f-kp               13.00:  Torque Abs Min 
 TQAX.f-kp               16.00:  Torque Abs Max 
 TRRT.°/30m               0.25:  Turn Rotating 
 MRT .                     ADR:  Maximum Recorded Temperature 
 TTMX.degC               88.00:  Max Tool Temp 
 VS01.                90577859:  Virtual Str1 SN 
 VS02.                90521879:  Virtual Str2 SN 
 VS03.                90580299:  Virtual Str3 SN 
 VS04.                90515982:  Virtual Str4 SN 
 VS05.                90547765:  Virtual Str5 SN 
 WBMN.klb                 2.00:  WOB Min 
 WITN.           Adil Mammadov:  Customer Rep 
 WITN.        Elmaddin Rahimov:  Customer Rep 2 
 WOBA.klb                 3.00:  WOB Avg 
 WOBX.klb                 5.00:  WOB Max 
 YP  .lhf2               30.00:  Yield Point 
~Curve Information Block
#MNEM.UNIT                 API CODE     Curve Description
#---------               -----------    ---------------------------
 TIME.HHMMSS            00 000 000 000:  GT Time & Date
 GTDEPTH.m              00 000 000 000:  GT Depth
 GTPQH.psia             00 000 000 000:  GT HR Quartz Pressure
 GTTQ.degC              00 000 000 000:  GT Quartz Temperature
 GTTN.NONE              00 000 000 000:  GT Test Number
 GTET.sec               00 000 000 000:  GT Elapsed Test Time
 GTTVD.m                00 000 000 000:  GT True Vertical Depth
#Other Information
#
#WARRANTY: Halliburton will use its best efforts to furnish customers with 
#accurate information and interpretations that are part of, and incident to, the services 
#provided.  However, Halliburton cannot and does not warrant the accuracy 
#or correctness of such information and interpretations.  Under no circumstances should any 
#such information or interpretation be relied upon as the sole basis for any drilling, 
#completion, production, or financial decision or any procedure involving any risk to the 
#safety of any drilling venture, drilling rig or its crew or any other third party.  The 
#Customer has full responsibility for all drilling, completion and production operation.  
#Halliburton makes no representations or warranties, either expressed or 
#implied, including, but not limited to, the implied warranties of merchantability or fitness 
#for a particular purpose, with respect to the services rendered.  In no event will 
#Halliburton be liable for failure to obtain any particular results or for 
#any damages, including, but not limited to, indirect, special or consequential damages, 
#resulting from the use of any information or interpretation provided by Halliburton.
#
~A           TIME           GTDEPTH  GTPQH  GTTQ  GTTN  GTET   GTTVD  
# ...
   14:11:22.698.19-Jan-2020 5113.51 4117.06 81.47 6.00 345.07 2879.41
   14:11:22.898.19-Jan-2020 5113.51 4117.06 81.47 6.00 345.27 2879.41
   14:11:23.098.19-Jan-2020 5113.51 4117.06 81.47 6.00 345.47 2879.41
   14:11:23.298.19-Jan-2020 5113.51 4117.07 81.47 6.00 345.67 2879.41
   14:11:23.498.19-Jan-2020 5113.51 4116.96 81.47 6.00 345.87 2879.41
   14:11:23.698.19-Jan-2020 5113.51 4117.10 81.47 6.00 346.07 2879.41
   14:11:23.898.19-Jan-2020 5113.51 4117.10 81.47 6.00 346.27 2879.41
   14:11:24.098.19-Jan-2020 5113.51 4117.07 81.46 6.00 346.47 2879.41
   14:11:24.299.19-Jan-2020 5113.51 4116.98 81.46 6.00 346.67 2879.41
   14:11:24.499.19-Jan-2020 5113.51 4117.12 81.46 6.00 346.87 2879.41
   14:11:24.699.19-Jan-2020 5113.51 4117.08 81.46 6.00 347.07 2879.41
   14:11:24.899.19-Jan-2020 5113.51 4117.08 81.46 6.00 347.27 2879.41
   14:11:25.099.19-Jan-2020 5113.51 4117.10 81.46 6.00 347.47 2879.41
   14:11:25.299.19-Jan-2020 5113.51 4117.09 81.46 6.00 347.67 2879.41
   14:11:25.499.19-Jan-2020 5113.51 4116.91 81.46 6.00 347.87 2879.41
   14:11:25.699.19-Jan-2020 5113.51 4117.20 81.46 6.00 348.07 2879.41
   14:11:25.899.19-Jan-2020 5113.51 4117.20 81.46 6.00 348.27 2879.41
   14:11:26.099.19-Jan-2020 5113.51 4117.07 81.46 6.00 348.47 2879.41
   14:11:26.299.19-Jan-2020 5113.51 4117.12 81.46 6.00 348.67 2879.41
   14:11:26.499.19-Jan-2020 5113.51 4116.99 81.46 6.00 348.87 2879.41
   14:11:26.699.19-Jan-2020 5113.51 4117.13 81.46 6.00 349.07 2879.41
   14:11:26.899.19-Jan-2020 5113.51 4117.13 81.46 6.00 349.27 2879.41
   14:11:27.099.19-Jan-2020 5113.51 4117.09 81.46 6.00 349.47 2879.41
   14:11:27.299.19-Jan-2020 5113.51 4117.10 81.46 6.00 349.67 2879.41
   14:11:27.499.19-Jan-2020 5113.51 4117.09 81.46 6.00 349.87 2879.41
   14:11:27.699.19-Jan-2020 5113.51 4117.11 81.46 6.00 350.07 2879.41
   14:11:27.899.19-Jan-2020 5113.51 4117.11 81.46 6.00 350.27 2879.41
   14:11:28.099.19-Jan-2020 5113.51 4117.09 81.46 6.00 350.47 2879.41
   14:11:28.299.19-Jan-2020 5113.51 4117.09 81.46 6.00 350.67 2879.41
   14:11:28.499.19-Jan-2020 5113.51 4117.09 81.46 6.00 350.87 2879.41
   14:11:28.699.19-Jan-2020 5113.51 4117.08 81.46 6.00 351.07 2879.41
   14:11:28.899.19-Jan-2020 5113.51 4117.08 81.46 6.00 351.27 2879.41
   14:11:29.100.19-Jan-2020 5113.51 4117.07 81.46 6.00 351.47 2879.41
   14:11:29.300.19-Jan-2020 5113.51 4117.07 81.46 6.00 351.67 2879.41
   14:11:29.500.19-Jan-2020 5113.51 4117.08 81.46 6.00 351.87 2879.41
   14:11:29.700.19-Jan-2020 5113.51 4116.97 81.46 6.00 352.07 2879.41
   14:11:29.900.19-Jan-2020 5113.51 4116.97 81.46 6.00 352.27 2879.41
   14:11:30.100.19-Jan-2020 5113.51 4117.07 81.46 6.00 352.47 2879.41
   14:11:30.300.19-Jan-2020 5113.51 4117.09 81.46 6.00 352.67 2879.41
   14:11:30.500.19-Jan-2020 5113.51 4117.08 81.46 6.00 352.87 2879.41
   14:11:30.700.19-Jan-2020 5113.51 4117.11 81.46 6.00 353.07 2879.41
   14:11:30.900.19-Jan-2020 5113.51 4117.11 81.46 6.00 353.27 2879.41
   14:11:31.100.19-Jan-2020 5113.51 4117.09 81.46 6.00 353.47 2879.41
   14:11:31.300.19-Jan-2020 5113.51 4117.10 81.46 6.00 353.67 2879.41
   14:11:31.500.19-Jan-2020 5113.51 4117.09 81.46 6.00 353.87 2879.41
   14:11:31.700.19-Jan-2020 5113.51 4117.09 81.46 6.00 354.07 2879.41
   14:11:31.900.19-Jan-2020 5113.51 4117.09 81.46 6.00 354.27 2879.41
   14:11:32.100.19-Jan-2020 5113.51 4117.09 81.46 6.00 354.47 2879.41
   14:11:32.300.19-Jan-2020 5113.51 4117.07 81.45 6.00 354.67 2879.41
   14:11:32.500.19-Jan-2020 5113.51 4117.09 81.45 6.00 354.87 2879.41
   14:11:32.700.19-Jan-2020 5113.51 4117.07 81.45 6.00 355.07 2879.41
   14:11:32.900.19-Jan-2020 5113.51 4117.07 81.45 6.00 355.27 2879.41
   14:11:33.100.19-Jan-2020 5113.51 4116.97 81.45 6.00 355.47 2879.41
   14:11:33.300.19-Jan-2020 5113.51 4117.12 81.45 6.00 355.67 2879.41
   14:11:33.500.19-Jan-2020 5113.51 4117.08 81.45 6.00 355.87 2879.41
   14:11:33.700.19-Jan-2020 5113.51 4117.09 81.45 6.00 356.07 2879.41
   14:11:33.901.19-Jan-2020 5113.51 4117.09 81.45 6.00 356.27 2879.41
   14:11:34.101.19-Jan-2020 5113.51 4117.15 81.45 6.00 356.47 2879.41
   14:11:34.301.19-Jan-2020 5113.51 4117.10 81.45 6.00 356.67 2879.41
   14:11:34.501.19-Jan-2020 5113.51 4117.11 81.45 6.00 356.87 2879.41
   14:11:34.701.19-Jan-2020 5113.51 4117.12 81.45 6.00 357.07 2879.41
   14:11:34.901.19-Jan-2020 5113.51 4117.12 81.45 6.00 357.27 2879.41
   14:11:35.101.19-Jan-2020 5113.51 4116.94 81.45 6.00 357.47 2879.41
   14:11:35.301.19-Jan-2020 5113.51 4117.21 81.45 6.00 357.67 2879.41
   14:11:35.501.19-Jan-2020 5113.51 4117.13 81.45 6.00 357.87 2879.41
   14:11:35.701.19-Jan-2020 5113.51 4117.08 81.45 6.00 358.07 2879.41
   14:11:35.901.19-Jan-2020 5113.51 4117.08 81.45 6.00 358.27 2879.41
   14:11:36.101.19-Jan-2020 5113.51 4117.01 81.45 6.00 358.47 2879.41
   14:11:36.301.19-Jan-2020 5113.51 4117.14 81.45 6.00 358.67 2879.41
   14:11:36.501.19-Jan-2020 5113.51 4117.10 81.45 6.00 358.87 2879.41
   14:11:36.701.19-Jan-2020 5113.51 4117.11 81.45 6.00 359.07 2879.41
   14:11:36.901.19-Jan-2020 5113.51 4117.11 81.45 6.00 359.27 2879.41
   14:11:37.101.19-Jan-2020 5113.51 4117.11 81.45 6.00 359.47 2879.41
   14:11:37.301.19-Jan-2020 5113.51 4117.14 81.45 6.00 359.67 2879.41
   14:11:37.501.19-Jan-2020 5113.51 4117.10 81.45 6.00 359.87 2879.41
   14:11:37.701.19-Jan-2020 5113.51 4117.12 81.45 6.00 360.07 2879.41
   14:11:37.901.19-Jan-2020 5113.51 4117.12 81.45 6.00 360.27 2879.41
   14:11:38.101.19-Jan-2020 5113.51 4117.12 81.45 6.00 360.47 2879.41
   14:11:38.301.19-Jan-2020 5113.51 4117.11 81.45 6.00 360.67 2879.41
   14:11:38.501.19-Jan-2020 5113.51 4117.11 81.45 6.00 360.87 2879.41
   14:11:38.701.19-Jan-2020 5113.51 4117.09 81.45 6.00 361.07 2879.41
   14:11:38.902.19-Jan-2020 5113.51 4117.09 81.45 6.00 361.27 2879.41
   14:11:39.102.19-Jan-2020 5113.51 4117.11 81.45 6.00 361.47 2879.41
   14:11:39.302.19-Jan-2020 5113.51 4117.00 81.45 6.00 361.67 2879.41
   14:11:39.502.19-Jan-2020 5113.51 4117.15 81.45 6.00 361.87 2879.41
   14:11:39.702.19-Jan-2020 5113.51 4117.08 81.45 6.00 362.07 2879.41
   14:11:39.902.19-Jan-2020 5113.51 4117.08 81.45 6.00 362.27 2879.41
   14:11:40.102.19-Jan-2020 5113.51 4117.11 81.45 6.00 362.47 2879.41
   14:11:40.302.19-Jan-2020 5113.51 4117.12 81.45 6.00 362.67 2879.41
   14:11:40.502.19-Jan-2020 5113.51 4117.11 81.45 6.00 362.87 2879.41
   14:11:40.702.19-Jan-2020 5113.51 4117.10 81.44 6.00 363.07 2879.41
   14:11:40.902.19-Jan-2020 5113.51 4117.10 81.44 6.00 363.27 2879.41
   14:11:41.102.19-Jan-2020 5113.51 4117.11 81.44 6.00 363.47 2879.41
   14:11:41.302.19-Jan-2020 5113.51 4117.11 81.44 6.00 363.67 2879.41
   14:11:41.502.19-Jan-2020 5113.51 4117.10 81.44 6.00 363.87 2879.41
   14:11:41.702.19-Jan-2020 5113.51 4117.10 81.44 6.00 364.07 2879.41
   14:11:41.902.19-Jan-2020 5113.51 4117.10 81.44 6.00 364.27 2879.41
   14:11:42.102.19-Jan-2020 5113.51 4117.10 81.44 6.00 364.47 2879.41
   14:11:42.302.19-Jan-2020 5113.51 4117.09 81.44 6.00 364.67 2879.41
   14:11:42.502.19-Jan-2020 5113.51 4117.10 81.44 6.00 364.87 2879.41
   14:11:42.702.19-Jan-2020 5113.51 4116.98 81.44 6.00 365.08 2879.41
   14:11:42.902.19-Jan-2020 5113.51 4116.98 81.44 6.00 365.28 2879.41
   14:11:43.102.19-Jan-2020 5113.51 4117.09 81.44 6.00 365.48 2879.41
   14:11:43.302.19-Jan-2020 5113.51 4117.11 81.44 6.00 365.68 2879.41
   14:11:43.502.19-Jan-2020 5113.51 4117.01 81.44 6.00 365.88 2879.41
   14:11:43.703.19-Jan-2020 5113.51 4117.15 81.44 6.00 366.08 2879.41
   14:11:43.903.19-Jan-2020 5113.51 4117.15 81.44 6.00 366.28 2879.41
   14:11:44.103.19-Jan-2020 5113.51 4117.12 81.44 6.00 366.48 2879.41
   14:11:44.303.19-Jan-2020 5113.51 4117.13 81.44 6.00 366.68 2879.41
   14:11:44.503.19-Jan-2020 5113.51 4117.13 81.44 6.00 366.88 2879.41
   14:11:44.703.19-Jan-2020 5113.51 4116.95 81.44 6.00 367.08 2879.41
   14:11:44.903.19-Jan-2020 5113.51 4116.95 81.44 6.00 367.28 2879.41
   14:11:45.103.19-Jan-2020 5113.51 4117.13 81.44 6.00 367.48 2879.41
   14:11:45.303.19-Jan-2020 5113.51 4117.10 81.44 6.00 367.68 2879.41
   14:11:45.503.19-Jan-2020 5113.51 4117.15 81.44 6.00 367.88 2879.41
