~Version Information
 VERS.                  2.0:   CWLS log ASCII Standard -VERSION 2.0
 WRAP.                   NO:   One line per depth step
~Well Information Block
#MNEM.UNIT     VALUE/NAME     DESCRIPTION
#---------     -----------    ---------------------------
 STRT.S             14:05:37 19-Jan-20: START TIME 14:05:37 19-Jan-20
 STOP.S             14:13:29 19-Jan-20: STOP TIME  14:13:29 19-Jan-20
 STEP.S                   0.00: STEP TIME
 NULL.                 -999.25: NULL VALUE
 DFWT.                        :  DIST FWL TEXT
 DFST.                        :  DIST FSL TEXT
 DMF .             Drill Floor:  DRILL MEAS FROM
 STIM.      17.57.20 21-Dec-19:  START TIME
 DATE.      17.57.20 21-Dec-19:  END TIME
 SPUD.               21-Dec-19:  SPUD DATE
 NREF.                    Grid:  NORTH REFERENCE
 HPTY.       Minimum Curvature:  HOLE POS TYPE
 DMOD.             Drill Model:  DRILL MOD DESC
 SVYD.                  Survey:  SURVEY DESC
 ILTD.               Lithology:  INTERP LTH DESC
 FTOP.          Formation Tops:  FORM TOPS DESC
 PDAT.          Mean Sea Level:  PERMANENT DATUM
 FLD .                     ACG:  FIELD NAME
 SON .        AZ-XX-0905715376:  JOB NUMBER
 CTRY.              Azerbaijan:  COUNTRY NAME
 WELL.                    E04Y:  WELL NAME
 SRVC.          TURAN DRILLING:  CONTRACTOR
 COMP.     BP Exploration (Caspian Sea) Ltd.:  COMPANY
 WTYP.                Deviated:  WELL TYPE
 UWI .                     N/a:  UNIQUE WELL IDENTIFIER
 API .                     N/a:  API NUMBER
 BASE.              Azerbaijan:  LOGGING EQUIPMENT BASE LOCATION
 REGN.                   EESSA:  REGION
 MWDS.                    Baku:  MWD SHOP
 RIG .                     DWG:  RIG NAME
 DOE .                     N/a:  DOE NUMBER
 CNTY.                    Baku:  COUNTY NAME
 DCON.         Sperry Drilling:  DIRECTNL CONTR
 UNIT.                     N/a:  LOGGING EQUIPMENT ID
 MDS .        Operator Entered:  MAG DATA SOURCE
 PROV.                        :  PROVINCE
 STAT.                        :  STATE
 LOC .                        :  LOCATION
 LMF .             Drill Floor:  LOG MEASURED FROM
 TVDS.m                  43.16:  TVDSS CORRECTN
 LATI.deg                40.17:  LATITUDE
 LONG.deg                51.17:  LONGITUDE
 WHNS.m                  -0.12:  WELL HEAD N/S
 WHEW.m                  -5.41:  WELL HEAD E/W
 UTMX.m              514337.95:  UTM X
 UTMY.m             4448627.46:  UTM Y
 DFWL.m                   0.00:  DISTANCE FWL
 DFSL.m                   0.00:  DISTANCE FSL
 SDEP.m                   0.00:  START DEPTH
 TDD .m                   0.00:  TOTAL DEPTH (DRILLER)
 VSDR.deg               235.12:  VERT SEC DIRECT
 GVFD.g                   1.00:  GRAVITY FIELD
 MFLD.nT              50294.00:  MAGNETIC FIELD
 MDIP.deg                59.61:  MAGNETIC DIP
 MDEC.deg                 6.58:  MAGNETIC DECL
 GRDC.deg                 0.09:  GRID CORRECTION
 AZTC.deg                 6.49:  AZM TOTAL CORR
 EPD .m                   0.00:  ELEVATION
 EGL .m                   0.00:  GROUND ELEVATION
 WDMS.m                 176.20:  WD ELEV
 APD .m                  43.16:  DEPTH ABOVE PD
 DEP .m                3172.61:  DEPTH
 AGAP.m                  43.16:  AIR GAP
 VSEW.m                  -5.41:  VERT SEC E/W
 VSNS.m                  -0.12:  VERT SEC N/S
 EKB .m                  43.16:  KB ELEVATION
 EDF .m                  43.16:  DF ELEVATION
 TDL .m                 295.00:  TOTAL DEPTH (LOGGER)
 VSC .                       0:  VS TO CLOSURE
 MAGU.                 1852276:  MAGUTM CHECKSUM
~Parameter Information Block
#MNEM.UNIT       Value        Description
#---------     -----------    ---------------------------
 AV  .mps                 1.60:  Ann Velocity 
 AVMX.mps                 2.10:  Max Ann Veloc 
 AZIF.deg               290.59:  Azm, Final 
 BHAT.        Rotary Steerable:  BHA Type 
 BROT.°/30m               1.00:  Build Rotating 
 BS  .in                  6.50:  Bit Size 
 BSZ .in                  6.50:  Bit Size 
 BTPL.psig              120.00:  Bit Press Loss 
 CABU.                     Yes:  Customer Abuse 
 CGEO.          Eldar Huseynov:  Customer Geo 
 COMM.                     Tì‚:  Run Comments 1 
 TCS .hr                 87.00:  Time Ciculation Ended 
 CV  .mps                 4.01:  Crit Velocity 
 CVMX.mps                 5.06:  Max Crit Veloc 
 DD1 .             Aziz Aliyev:  Direct Drillr 1 
 DD2 .            Sanan Aliyev:  Direct Drillr 2 
 DDSV.               Geo-Pilot:  DD Service 
 DEFF.%                  95.00:  % Det Eff 
 DLRX.°/30m               0.75:  Dogleg Rot Max 
 DLSO.°/30m               0.65:  Dogleg Oriented 
 DLSX.°/30m               1.39:  Dogleg Str Max 
 DRET.      18.25.00 19-Jan-20:  Drill End Time 
 DRST.      11.56.48 17-Jan-20:  Drill Start Tim 
 DTIM.hr                 27.16:  Time Drilling 
 EDEP.m                5161.01:  End Depth 
 ENG1.          Rasim Hashimov:  Engineer 1 
 ENG2.      Bakhtiyar Jabbarli:  Engineer 2 
 ETIM.      11.56.48 21-Jan-20:  End Time 
 FLOI.gpm               350.00:  Flow In 
 FLON.gpm               300.00:  Flow In Min 
 FLOS.cptm                0.00:  Fluid Loss 
 FLOX.gpm               400.00:  Flow In Max 
 HFLO.                      No:  High Flow 
 HPRE.                      No:  High Pressure 
 HTEM.                      No:  High Temp 
 HYDO.m                   1.85:  Hydro Offset 
 IFIN.deg                71.58:  Inc, Final 
 IMAX.deg                71.83:  Inc Max 
 IMIN.deg                71.12:  Inc Min 
 IMND.m                5099.48:  Inc Min Depth 
 IMXD.m                5071.08:  Inc Max Depth 
 JARR.                      No:  Jarring 
 LETM.      18.25.00 19-Jan-20:  Log End Time 
 LOST.hr                     0:  Lost Rig Time 
 LSTM.      11.56.48 17-Jan-20:  Log Start Time 
 MDCL.ppm             37000.00:  Mud Chlorides 
 MDES.     Inversion Oil/Synthetic:  Mud Desc 
 DFD .sg                  1.34:  Mud Density 
 MDMN.sg                  1.34:  Dens Mud Min 
 MDMX.sg                  1.34:  Dens Mud Max 
 MOIL.                      69:  Run Mud Oil % 
 MOWR.                   69:31:  Run Mud OWR 
 MSND.                     0.1:  Run Mud Sand % 
 MSOL.                    17.6:  Run Mud Solids% 
 DFV .spqt               79.00:  Mud Viscosity 
 MWOD.in                  4.75:  MWD Tool OD 
 MWSI.                      No:  Serv Intrp, MWD 
 OTIM.hr                126.10:  Time Operating 
 PMAX.psia             6000.00:  Press Op, Max 
 PV  .cP                 29.00:  Mud PV 
 RUN .                     400:  Run Number 
 ROPA.m/hr               11.00:  ROP Avg 
 ROPN.m/hr                5.00:  ROP Min 
 ROPX.m/hr               18.00:  ROP Max 
 RPMA.rpm               139.00:  RPM Surface Avg 
 RPMN.rpm               100.00:  RPM Surface Min 
 RPMX.rpm               140.00:  RPM Surface Max 
 RRUN.                     400:  Rig Run Number 
 SAZI.deg               290.22:  Azm, Start 
 SDEP.m                4868.01:  Start Depth 
 SIDD.                      No:  Serv Intrp, DD 
 SINC.deg                71.77:  Inc, Start 
 SPPA.psig             5550.00:  SPP Avg 
 SPPN.psig             4300.00:  SPP Min 
 SPPX.psig             5600.00:  SPP Max 
 STIM.      23.45.48 15-Jan-20:  Start Time 
 SVCS.                 DD, MWD:  Services 
 SVER.                    9.20:  Sperry Version 
 TDAT.m                5161.01:  Tot Depth Attmp 
 TDDF.                      No:  Trip for DD 
 TDLG.m                 295.00:  Tot Depth Loggd 
 TFF .                      No:  Trip for Fail 
 TQAA.f-kp               13.00:  Torque Abs Avg 
 TQAN.f-kp               13.00:  Torque Abs Min 
 TQAX.f-kp               16.00:  Torque Abs Max 
 TRRT.°/30m               0.25:  Turn Rotating 
 MRT .                     ADR:  Maximum Recorded Temperature 
 TTMX.degC               88.00:  Max Tool Temp 
 VS01.                90577859:  Virtual Str1 SN 
 VS02.                90521879:  Virtual Str2 SN 
 VS03.                90580299:  Virtual Str3 SN 
 VS04.                90515982:  Virtual Str4 SN 
 VS05.                90547765:  Virtual Str5 SN 
 WBMN.klb                 2.00:  WOB Min 
 WITN.           Adil Mammadov:  Customer Rep 
 WITN.        Elmaddin Rahimov:  Customer Rep 2 
 WOBA.klb                 3.00:  WOB Avg 
 WOBX.klb                 5.00:  WOB Max 
 YP  .lhf2               30.00:  Yield Point 
~Curve Information Block
#MNEM.UNIT                 API CODE     Curve Description
#---------               -----------    ---------------------------
 TIME.HHMMSS            00 000 000 000:  GT Time & Date
 GTDEPTH.m              00 000 000 000:  GT Depth
 GTPQH.psia             00 000 000 000:  GT HR Quartz Pressure
 GTTQ.degC              00 000 000 000:  GT Quartz Temperature
 GTTN.NONE              00 000 000 000:  GT Test Number
 GTET.sec               00 000 000 000:  GT Elapsed Test Time
 GTTVD.m                00 000 000 000:  GT True Vertical Depth
#Other Information
#
#WARRANTY: Halliburton will use its best efforts to furnish customers with 
#accurate information and interpretations that are part of, and incident to, the services 
#provided.  However, Halliburton cannot and does not warrant the accuracy 
#or correctness of such information and interpretations.  Under no circumstances should any 
#such information or interpretation be relied upon as the sole basis for any drilling, 
#completion, production, or financial decision or any procedure involving any risk to the 
#safety of any drilling venture, drilling rig or its crew or any other third party.  The 
#Customer has full responsibility for all drilling, completion and production operation.  
#Halliburton makes no representations or warranties, either expressed or 
#implied, including, but not limited to, the implied warranties of merchantability or fitness 
#for a particular purpose, with respect to the services rendered.  In no event will 
#Halliburton be liable for failure to obtain any particular results or for 
#any damages, including, but not limited to, indirect, special or consequential damages, 
#resulting from the use of any information or interpretation provided by Halliburton.
#
~A           TIME           GTDEPTH  GTPQH  GTTQ  GTTN  GTET   GTTVD  
# ...
   14:06:46.641.19-Jan-2020 5113.51 4117.19 81.86 6.00  69.01 2879.41
   14:06:46.842.19-Jan-2020 5113.51 4117.19 81.86 6.00  69.21 2879.41
   14:06:47.042.19-Jan-2020 5113.51 4117.23 81.86 6.00  69.41 2879.41
   14:06:47.242.19-Jan-2020 5113.51 4117.20 81.86 6.00  69.61 2879.41
   14:06:47.442.19-Jan-2020 5113.51 4117.05 81.86 6.00  69.81 2879.41
   14:06:47.642.19-Jan-2020 5113.51 4117.25 81.86 6.00  70.01 2879.41
   14:06:47.842.19-Jan-2020 5113.51 4117.25 81.86 6.00  70.21 2879.41
   14:06:48.042.19-Jan-2020 5113.51 4117.15 81.86 6.00  70.41 2879.41
   14:06:48.242.19-Jan-2020 5113.51 4117.22 81.85 6.00  70.61 2879.41
   14:06:48.442.19-Jan-2020 5113.51 4117.03 81.85 6.00  70.81 2879.41
   14:06:48.642.19-Jan-2020 5113.51 4117.28 81.85 6.00  71.01 2879.41
   14:06:48.842.19-Jan-2020 5113.51 4117.28 81.85 6.00  71.21 2879.41
   14:06:49.042.19-Jan-2020 5113.51 4117.16 81.85 6.00  71.41 2879.41
   14:06:49.242.19-Jan-2020 5113.51 4117.21 81.85 6.00  71.61 2879.41
   14:06:49.442.19-Jan-2020 5113.51 4117.18 81.85 6.00  71.81 2879.41
   14:06:49.642.19-Jan-2020 5113.51 4117.22 81.85 6.00  72.01 2879.41
   14:06:49.842.19-Jan-2020 5113.51 4117.22 81.85 6.00  72.21 2879.41
   14:06:50.042.19-Jan-2020 5113.51 4117.22 81.85 6.00  72.41 2879.41
   14:06:50.242.19-Jan-2020 5113.51 4117.21 81.85 6.00  72.61 2879.41
   14:06:50.442.19-Jan-2020 5113.51 4117.23 81.85 6.00  72.81 2879.41
   14:06:50.642.19-Jan-2020 5113.51 4117.23 81.85 6.00  73.02 2879.41
   14:06:50.842.19-Jan-2020 5113.51 4117.23 81.85 6.00  73.22 2879.41
   14:06:51.042.19-Jan-2020 5113.51 4117.23 81.85 6.00  73.42 2879.41
   14:06:51.242.19-Jan-2020 5113.51 4117.23 81.85 6.00  73.62 2879.41
   14:06:51.442.19-Jan-2020 5113.51 4117.24 81.85 6.00  73.82 2879.41
   14:06:51.643.19-Jan-2020 5113.51 4117.06 81.85 6.00  74.02 2879.41
   14:06:51.843.19-Jan-2020 5113.51 4117.06 81.85 6.00  74.22 2879.41
   14:06:52.043.19-Jan-2020 5113.51 4117.16 81.85 6.00  74.42 2879.41
   14:06:52.243.19-Jan-2020 5113.51 4117.18 81.85 6.00  74.62 2879.41
   14:06:52.443.19-Jan-2020 5113.51 4117.20 81.85 6.00  74.82 2879.41
   14:06:52.643.19-Jan-2020 5113.51 4117.22 81.85 6.00  75.02 2879.41
   14:06:52.843.19-Jan-2020 5113.51 4117.22 81.85 6.00  75.22 2879.41
   14:06:53.043.19-Jan-2020 5113.51 4117.22 81.85 6.00  75.42 2879.41
   14:06:53.243.19-Jan-2020 5113.51 4117.22 81.84 6.00  75.62 2879.41
   14:06:53.443.19-Jan-2020 5113.51 4117.21 81.84 6.00  75.82 2879.41
   14:06:53.643.19-Jan-2020 5113.51 4117.22 81.84 6.00  76.02 2879.41
   14:06:53.843.19-Jan-2020 5113.51 4117.22 81.84 6.00  76.22 2879.41
   14:06:54.043.19-Jan-2020 5113.51 4117.23 81.84 6.00  76.42 2879.41
   14:06:54.243.19-Jan-2020 5113.51 4117.22 81.84 6.00  76.62 2879.41
   14:06:54.443.19-Jan-2020 5113.51 4117.25 81.84 6.00  76.82 2879.41
   14:06:54.643.19-Jan-2020 5113.51 4117.22 81.84 6.00  77.02 2879.41
   14:06:54.843.19-Jan-2020 5113.51 4117.22 81.84 6.00  77.22 2879.41
   14:06:55.043.19-Jan-2020 5113.51 4117.05 81.84 6.00  77.42 2879.41
   14:06:55.243.19-Jan-2020 5113.51 4117.30 81.84 6.00  77.62 2879.41
   14:06:55.443.19-Jan-2020 5113.51 4117.17 81.84 6.00  77.82 2879.41
   14:06:55.643.19-Jan-2020 5113.51 4117.19 81.84 6.00  78.02 2879.41
   14:06:55.843.19-Jan-2020 5113.51 4117.19 81.84 6.00  78.22 2879.41
   14:06:56.043.19-Jan-2020 5113.51 4117.28 81.84 6.00  78.42 2879.41
   14:06:56.243.19-Jan-2020 5113.51 4117.18 81.84 6.00  78.62 2879.41
   14:06:56.444.19-Jan-2020 5113.51 4117.17 81.84 6.00  78.82 2879.41
   14:06:56.644.19-Jan-2020 5113.51 4117.21 81.84 6.00  79.02 2879.41
   14:06:56.844.19-Jan-2020 5113.51 4117.21 81.84 6.00  79.22 2879.41
   14:06:57.044.19-Jan-2020 5113.51 4117.04 81.84 6.00  79.42 2879.41
   14:06:57.244.19-Jan-2020 5113.51 4117.26 81.84 6.00  79.62 2879.41
   14:06:57.444.19-Jan-2020 5113.51 4117.20 81.84 6.00  79.82 2879.41
   14:06:57.644.19-Jan-2020 5113.51 4117.15 81.84 6.00  80.02 2879.41
   14:06:57.844.19-Jan-2020 5113.51 4117.15 81.84 6.00  80.22 2879.41
   14:06:58.044.19-Jan-2020 5113.51 4117.02 81.84 6.00  80.42 2879.41
   14:06:58.244.19-Jan-2020 5113.51 4117.27 81.84 6.00  80.62 2879.41
   14:06:58.444.19-Jan-2020 5113.51 4117.18 81.83 6.00  80.82 2879.41
   14:06:58.644.19-Jan-2020 5113.51 4117.17 81.83 6.00  81.02 2879.41
   14:06:58.844.19-Jan-2020 5113.51 4117.17 81.83 6.00  81.22 2879.41
   14:06:59.044.19-Jan-2020 5113.51 4117.18 81.83 6.00  81.42 2879.41
   14:06:59.244.19-Jan-2020 5113.51 4117.21 81.83 6.00  81.62 2879.41
   14:06:59.444.19-Jan-2020 5113.51 4117.19 81.83 6.00  81.82 2879.41
   14:06:59.644.19-Jan-2020 5113.51 4117.20 81.83 6.00  82.02 2879.41
   14:06:59.844.19-Jan-2020 5113.51 4117.20 81.83 6.00  82.22 2879.41
   14:07:00.044.19-Jan-2020 5113.51 4117.21 81.83 6.00  82.42 2879.41
   14:07:00.244.19-Jan-2020 5113.51 4117.19 81.83 6.00  82.62 2879.41
   14:07:00.444.19-Jan-2020 5113.51 4117.20 81.83 6.00  82.82 2879.41
   14:07:00.644.19-Jan-2020 5113.51 4117.20 81.83 6.00  83.02 2879.41
   14:07:00.844.19-Jan-2020 5113.51 4117.20 81.83 6.00  83.22 2879.41
   14:07:01.044.19-Jan-2020 5113.51 4117.21 81.83 6.00  83.42 2879.41
   14:07:01.244.19-Jan-2020 5113.51 4117.02 81.83 6.00  83.62 2879.41
   14:07:01.445.19-Jan-2020 5113.51 4117.29 81.83 6.00  83.82 2879.41
   14:07:01.645.19-Jan-2020 5113.51 4117.16 81.83 6.00  84.02 2879.41
   14:07:01.845.19-Jan-2020 5113.51 4117.16 81.83 6.00  84.22 2879.41
   14:07:02.045.19-Jan-2020 5113.51 4117.17 81.83 6.00  84.42 2879.41
   14:07:02.245.19-Jan-2020 5113.51 4117.20 81.83 6.00  84.62 2879.41
   14:07:02.445.19-Jan-2020 5113.51 4117.17 81.83 6.00  84.82 2879.41
   14:07:02.645.19-Jan-2020 5113.51 4117.20 81.83 6.00  85.02 2879.41
   14:07:02.845.19-Jan-2020 5113.51 4117.20 81.83 6.00  85.22 2879.41
   14:07:03.045.19-Jan-2020 5113.51 4117.20 81.83 6.00  85.42 2879.41
   14:07:03.245.19-Jan-2020 5113.51 4117.19 81.83 6.00  85.62 2879.41
   14:07:03.445.19-Jan-2020 5113.51 4117.18 81.83 6.00  85.82 2879.41
   14:07:03.645.19-Jan-2020 5113.51 4117.19 81.82 6.00  86.02 2879.41
   14:07:03.845.19-Jan-2020 5113.51 4117.19 81.82 6.00  86.22 2879.41
   14:07:04.045.19-Jan-2020 5113.51 4117.20 81.82 6.00  86.42 2879.41
   14:07:04.245.19-Jan-2020 5113.51 4117.19 81.82 6.00  86.62 2879.41
   14:07:04.445.19-Jan-2020 5113.51 4117.20 81.82 6.00  86.82 2879.41
   14:07:04.645.19-Jan-2020 5113.51 4117.02 81.82 6.00  87.02 2879.41
   14:07:04.845.19-Jan-2020 5113.51 4117.02 81.82 6.00  87.22 2879.41
   14:07:05.045.19-Jan-2020 5113.51 4117.16 81.82 6.00  87.42 2879.41
   14:07:05.245.19-Jan-2020 5113.51 4117.17 81.82 6.00  87.62 2879.41
   14:07:05.445.19-Jan-2020 5113.51 4117.02 81.82 6.00  87.82 2879.41
   14:07:05.645.19-Jan-2020 5113.51 4117.29 81.82 6.00  88.02 2879.41
   14:07:05.845.19-Jan-2020 5113.51 4117.29 81.82 6.00  88.22 2879.41
   14:07:06.045.19-Jan-2020 5113.51 4117.15 81.82 6.00  88.42 2879.41
   14:07:06.246.19-Jan-2020 5113.51 4117.20 81.82 6.00  88.62 2879.41
   14:07:06.446.19-Jan-2020 5113.51 4117.16 81.82 6.00  88.82 2879.41
   14:07:06.646.19-Jan-2020 5113.51 4117.03 81.82 6.00  89.02 2879.41
   14:07:06.846.19-Jan-2020 5113.51 4117.03 81.82 6.00  89.22 2879.41
   14:07:07.046.19-Jan-2020 5113.51 4117.18 81.82 6.00  89.42 2879.41
   14:07:07.246.19-Jan-2020 5113.51 4117.12 81.82 6.00  89.62 2879.41
   14:07:07.446.19-Jan-2020 5113.51 4117.21 81.82 6.00  89.82 2879.41
   14:07:07.646.19-Jan-2020 5113.51 4117.00 81.82 6.00  90.02 2879.41
   14:07:07.846.19-Jan-2020 5113.51 4117.00 81.82 6.00  90.22 2879.41
   14:07:08.046.19-Jan-2020 5113.51 4117.15 81.82 6.00  90.42 2879.41
   14:07:08.246.19-Jan-2020 5113.51 4117.14 81.82 6.00  90.62 2879.41
   14:07:08.446.19-Jan-2020 5113.51 4117.18 81.82 6.00  90.82 2879.41
   14:07:08.646.19-Jan-2020 5113.51 4117.16 81.82 6.00  91.02 2879.41
   14:07:08.846.19-Jan-2020 5113.51 4117.16 81.82 6.00  91.22 2879.41
   14:07:09.046.19-Jan-2020 5113.51 4117.15 81.81 6.00  91.42 2879.41
   14:07:09.246.19-Jan-2020 5113.51 4117.19 81.81 6.00  91.62 2879.41
   14:07:09.446.19-Jan-2020 5113.51 4117.17 81.81 6.00  91.82 2879.41
