~Version Information
 VERS.                  2.0:   CWLS log ASCII Standard -VERSION 2.0
 WRAP.                   NO:   One line per depth step
~Well Information Block
#MNEM.UNIT     VALUE/NAME     DESCRIPTION
#---------     -----------    ---------------------------
 STRT.S             10:03:43 19-Jan-20: START TIME 10:03:43 19-Jan-20
 STOP.S             10:11:36 19-Jan-20: STOP TIME  10:11:36 19-Jan-20
 STEP.S                   0.00: STEP TIME
 NULL.                 -999.25: NULL VALUE
 DFWT.                        :  DIST FWL TEXT
 DFST.                        :  DIST FSL TEXT
 DMF .             Drill Floor:  DRILL MEAS FROM
 STIM.      17.57.20 21-Dec-19:  START TIME
 DATE.      17.57.20 21-Dec-19:  END TIME
 SPUD.               21-Dec-19:  SPUD DATE
 NREF.                    Grid:  NORTH REFERENCE
 HPTY.       Minimum Curvature:  HOLE POS TYPE
 DMOD.             Drill Model:  DRILL MOD DESC
 SVYD.                  Survey:  SURVEY DESC
 ILTD.               Lithology:  INTERP LTH DESC
 FTOP.          Formation Tops:  FORM TOPS DESC
 PDAT.          Mean Sea Level:  PERMANENT DATUM
 FLD .                     ACG:  FIELD NAME
 SON .        AZ-XX-0905715376:  JOB NUMBER
 CTRY.              Azerbaijan:  COUNTRY NAME
 WELL.                    E04Y:  WELL NAME
 SRVC.          TURAN DRILLING:  CONTRACTOR
 COMP.     BP Exploration (Caspian Sea) Ltd.:  COMPANY
 WTYP.                Deviated:  WELL TYPE
 UWI .                     N/a:  UNIQUE WELL IDENTIFIER
 API .                     N/a:  API NUMBER
 BASE.              Azerbaijan:  LOGGING EQUIPMENT BASE LOCATION
 REGN.                   EESSA:  REGION
 MWDS.                    Baku:  MWD SHOP
 RIG .                     DWG:  RIG NAME
 DOE .                     N/a:  DOE NUMBER
 CNTY.                    Baku:  COUNTY NAME
 DCON.         Sperry Drilling:  DIRECTNL CONTR
 UNIT.                     N/a:  LOGGING EQUIPMENT ID
 MDS .        Operator Entered:  MAG DATA SOURCE
 PROV.                        :  PROVINCE
 STAT.                        :  STATE
 LOC .                        :  LOCATION
 LMF .             Drill Floor:  LOG MEASURED FROM
 TVDS.m                  43.16:  TVDSS CORRECTN
 LATI.deg                40.17:  LATITUDE
 LONG.deg                51.17:  LONGITUDE
 WHNS.m                  -0.12:  WELL HEAD N/S
 WHEW.m                  -5.41:  WELL HEAD E/W
 UTMX.m              514337.95:  UTM X
 UTMY.m             4448627.46:  UTM Y
 DFWL.m                   0.00:  DISTANCE FWL
 DFSL.m                   0.00:  DISTANCE FSL
 SDEP.m                   0.00:  START DEPTH
 TDD .m                   0.00:  TOTAL DEPTH (DRILLER)
 VSDR.deg               235.12:  VERT SEC DIRECT
 GVFD.g                   1.00:  GRAVITY FIELD
 MFLD.nT              50294.00:  MAGNETIC FIELD
 MDIP.deg                59.61:  MAGNETIC DIP
 MDEC.deg                 6.58:  MAGNETIC DECL
 GRDC.deg                 0.09:  GRID CORRECTION
 AZTC.deg                 6.49:  AZM TOTAL CORR
 EPD .m                   0.00:  ELEVATION
 EGL .m                   0.00:  GROUND ELEVATION
 WDMS.m                 176.20:  WD ELEV
 APD .m                  43.16:  DEPTH ABOVE PD
 DEP .m                3172.61:  DEPTH
 AGAP.m                  43.16:  AIR GAP
 VSEW.m                  -5.41:  VERT SEC E/W
 VSNS.m                  -0.12:  VERT SEC N/S
 EKB .m                  43.16:  KB ELEVATION
 EDF .m                  43.16:  DF ELEVATION
 TDL .m                 295.00:  TOTAL DEPTH (LOGGER)
 VSC .                       0:  VS TO CLOSURE
 MAGU.                 1852276:  MAGUTM CHECKSUM
~Parameter Information Block
#MNEM.UNIT       Value        Description
#---------     -----------    ---------------------------
 AV  .mps                 1.60:  Ann Velocity 
 AVMX.mps                 2.10:  Max Ann Veloc 
 AZIF.deg               290.59:  Azm, Final 
 BHAT.        Rotary Steerable:  BHA Type 
 BROT.°/30m               1.00:  Build Rotating 
 BS  .in                  6.50:  Bit Size 
 BSZ .in                  6.50:  Bit Size 
 BTPL.psig              120.00:  Bit Press Loss 
 CABU.                     Yes:  Customer Abuse 
 CGEO.          Eldar Huseynov:  Customer Geo 
 COMM.                     Œòk:  Run Comments 1 
 TCS .hr                 87.00:  Time Ciculation Ended 
 CV  .mps                 4.01:  Crit Velocity 
 CVMX.mps                 5.06:  Max Crit Veloc 
 DD1 .             Aziz Aliyev:  Direct Drillr 1 
 DD2 .            Sanan Aliyev:  Direct Drillr 2 
 DDSV.               Geo-Pilot:  DD Service 
 DEFF.%                  95.00:  % Det Eff 
 DLRX.°/30m               0.75:  Dogleg Rot Max 
 DLSO.°/30m               0.65:  Dogleg Oriented 
 DLSX.°/30m               1.39:  Dogleg Str Max 
 DRET.      18.25.00 19-Jan-20:  Drill End Time 
 DRST.      11.56.48 17-Jan-20:  Drill Start Tim 
 DTIM.hr                 27.16:  Time Drilling 
 EDEP.m                5161.01:  End Depth 
 ENG1.          Rasim Hashimov:  Engineer 1 
 ENG2.      Bakhtiyar Jabbarli:  Engineer 2 
 ETIM.      11.56.48 21-Jan-20:  End Time 
 FLOI.gpm               350.00:  Flow In 
 FLON.gpm               300.00:  Flow In Min 
 FLOS.cptm                0.00:  Fluid Loss 
 FLOX.gpm               400.00:  Flow In Max 
 HFLO.                      No:  High Flow 
 HPRE.                      No:  High Pressure 
 HTEM.                      No:  High Temp 
 HYDO.m                   1.85:  Hydro Offset 
 IFIN.deg                71.58:  Inc, Final 
 IMAX.deg                71.83:  Inc Max 
 IMIN.deg                71.12:  Inc Min 
 IMND.m                5099.48:  Inc Min Depth 
 IMXD.m                5071.08:  Inc Max Depth 
 JARR.                      No:  Jarring 
 LETM.      18.25.00 19-Jan-20:  Log End Time 
 LOST.hr                     0:  Lost Rig Time 
 LSTM.      11.56.48 17-Jan-20:  Log Start Time 
 MDCL.ppm             37000.00:  Mud Chlorides 
 MDES.     Inversion Oil/Synthetic:  Mud Desc 
 DFD .sg                  1.34:  Mud Density 
 MDMN.sg                  1.34:  Dens Mud Min 
 MDMX.sg                  1.34:  Dens Mud Max 
 MOIL.                      69:  Run Mud Oil % 
 MOWR.                   69:31:  Run Mud OWR 
 MSND.                     0.1:  Run Mud Sand % 
 MSOL.                    17.6:  Run Mud Solids% 
 DFV .spqt               79.00:  Mud Viscosity 
 MWOD.in                  4.75:  MWD Tool OD 
 MWSI.                      No:  Serv Intrp, MWD 
 OTIM.hr                126.10:  Time Operating 
 PMAX.psia             6000.00:  Press Op, Max 
 PV  .cP                 29.00:  Mud PV 
 RUN .                     400:  Run Number 
 ROPA.m/hr               11.00:  ROP Avg 
 ROPN.m/hr                5.00:  ROP Min 
 ROPX.m/hr               18.00:  ROP Max 
 RPMA.rpm               139.00:  RPM Surface Avg 
 RPMN.rpm               100.00:  RPM Surface Min 
 RPMX.rpm               140.00:  RPM Surface Max 
 RRUN.                     400:  Rig Run Number 
 SAZI.deg               290.22:  Azm, Start 
 SDEP.m                4868.01:  Start Depth 
 SIDD.                      No:  Serv Intrp, DD 
 SINC.deg                71.77:  Inc, Start 
 SPPA.psig             5550.00:  SPP Avg 
 SPPN.psig             4300.00:  SPP Min 
 SPPX.psig             5600.00:  SPP Max 
 STIM.      23.45.48 15-Jan-20:  Start Time 
 SVCS.                 DD, MWD:  Services 
 SVER.                    9.20:  Sperry Version 
 TDAT.m                5161.01:  Tot Depth Attmp 
 TDDF.                      No:  Trip for DD 
 TDLG.m                 295.00:  Tot Depth Loggd 
 TFF .                      No:  Trip for Fail 
 TQAA.f-kp               13.00:  Torque Abs Avg 
 TQAN.f-kp               13.00:  Torque Abs Min 
 TQAX.f-kp               16.00:  Torque Abs Max 
 TRRT.°/30m               0.25:  Turn Rotating 
 MRT .                     ADR:  Maximum Recorded Temperature 
 TTMX.degC               88.00:  Max Tool Temp 
 VS01.                90577859:  Virtual Str1 SN 
 VS02.                90521879:  Virtual Str2 SN 
 VS03.                90580299:  Virtual Str3 SN 
 VS04.                90515982:  Virtual Str4 SN 
 VS05.                90547765:  Virtual Str5 SN 
 WBMN.klb                 2.00:  WOB Min 
 WITN.           Adil Mammadov:  Customer Rep 
 WITN.        Elmaddin Rahimov:  Customer Rep 2 
 WOBA.klb                 3.00:  WOB Avg 
 WOBX.klb                 5.00:  WOB Max 
 YP  .lhf2               30.00:  Yield Point 
~Curve Information Block
#MNEM.UNIT                 API CODE     Curve Description
#---------               -----------    ---------------------------
 TIME.HHMMSS            00 000 000 000:  GT Time & Date
 GTDEPTH.m              00 000 000 000:  GT Depth
 GTPQH.psia             00 000 000 000:  GT HR Quartz Pressure
 GTTQ.degC              00 000 000 000:  GT Quartz Temperature
 GTTN.NONE              00 000 000 000:  GT Test Number
 GTET.sec               00 000 000 000:  GT Elapsed Test Time
 GTTVD.m                00 000 000 000:  GT True Vertical Depth
#Other Information
#
#WARRANTY: Halliburton will use its best efforts to furnish customers with 
#accurate information and interpretations that are part of, and incident to, the services 
#provided.  However, Halliburton cannot and does not warrant the accuracy 
#or correctness of such information and interpretations.  Under no circumstances should any 
#such information or interpretation be relied upon as the sole basis for any drilling, 
#completion, production, or financial decision or any procedure involving any risk to the 
#safety of any drilling venture, drilling rig or its crew or any other third party.  The 
#Customer has full responsibility for all drilling, completion and production operation.  
#Halliburton makes no representations or warranties, either expressed or 
#implied, including, but not limited to, the implied warranties of merchantability or fitness 
#for a particular purpose, with respect to the services rendered.  In no event will 
#Halliburton be liable for failure to obtain any particular results or for 
#any damages, including, but not limited to, indirect, special or consequential damages, 
#resulting from the use of any information or interpretation provided by Halliburton.
#
~A           TIME           GTDEPTH  GTPQH  GTTQ  GTTN  GTET   GTTVD  
   10:03:43.782.19-Jan-2020 5081.51 6143.98 82.41 5.00   0.00 2869.15
   10:03:43.982.19-Jan-2020 5081.51 6143.98 82.41 5.00   0.20 2869.15
   10:03:44.182.19-Jan-2020 5081.51 6142.74 82.41 5.00   0.40 2869.15
   10:03:44.382.19-Jan-2020 5081.51 6142.07 82.40 5.00   0.60 2869.15
   10:03:44.582.19-Jan-2020 5081.51 6140.82 82.40 5.00   0.80 2869.15
   10:03:44.782.19-Jan-2020 5081.51 6136.77 82.40 5.00   1.00 2869.15
   10:03:44.982.19-Jan-2020 5081.51 6136.77 82.40 5.00   1.20 2869.15
   10:03:45.182.19-Jan-2020 5081.51 6139.59 82.40 5.00   1.40 2869.15
   10:03:45.382.19-Jan-2020 5081.51 6141.59 82.40 5.00   1.60 2869.15
   10:03:45.582.19-Jan-2020 5081.51 6141.97 82.40 5.00   1.80 2869.15
   10:03:45.782.19-Jan-2020 5081.51 6141.18 82.40 5.00   2.00 2869.15
   10:03:45.982.19-Jan-2020 5081.51 6141.18 82.40 5.00   2.20 2869.15
   10:03:46.182.19-Jan-2020 5081.51 6142.86 82.40 5.00   2.40 2869.15
   10:03:46.382.19-Jan-2020 5081.51 6142.91 82.40 5.00   2.60 2869.15
   10:03:46.582.19-Jan-2020 5081.51 6143.31 82.40 5.00   2.80 2869.15
   10:03:46.782.19-Jan-2020 5081.51 6143.28 82.40 5.00   3.00 2869.15
   10:03:46.982.19-Jan-2020 5081.51 6143.28 82.40 5.00   3.20 2869.15
   10:03:47.182.19-Jan-2020 5081.51 6143.19 82.40 5.00   3.40 2869.15
   10:03:47.382.19-Jan-2020 5081.51 6139.46 82.40 5.00   3.60 2869.15
   10:03:47.583.19-Jan-2020 5081.51 6141.42 82.39 5.00   3.80 2869.15
   10:03:47.783.19-Jan-2020 5081.51 6143.97 82.39 5.00   4.00 2869.15
   10:03:47.983.19-Jan-2020 5081.51 6143.97 82.39 5.00   4.20 2869.15
   10:03:48.183.19-Jan-2020 5081.51 6143.85 82.39 5.00   4.40 2869.15
   10:03:48.383.19-Jan-2020 5081.51 6143.53 82.39 5.00   4.60 2869.15
   10:03:48.583.19-Jan-2020 5081.51 6142.98 82.39 5.00   4.80 2869.15
   10:03:48.783.19-Jan-2020 5081.51 6140.58 82.39 5.00   5.00 2869.15
   10:03:48.983.19-Jan-2020 5081.51 6140.58 82.39 5.00   5.20 2869.15
   10:03:49.183.19-Jan-2020 5081.51 6143.89 82.39 5.00   5.40 2869.15
   10:03:49.383.19-Jan-2020 5081.51 6140.56 82.39 5.00   5.60 2869.15
   10:03:49.583.19-Jan-2020 5081.51 6143.69 82.39 5.00   5.80 2869.15
   10:03:49.783.19-Jan-2020 5081.51 6137.45 82.39 5.00   6.00 2869.15
   10:03:49.983.19-Jan-2020 5081.51 6137.45 82.39 5.00   6.20 2869.15
   10:03:50.183.19-Jan-2020 5081.51 6141.49 82.39 5.00   6.40 2869.15
   10:03:50.383.19-Jan-2020 5081.51 6143.47 82.39 5.00   6.60 2869.15
   10:03:50.583.19-Jan-2020 5081.51 6143.87 82.39 5.00   6.80 2869.15
   10:03:50.783.19-Jan-2020 5081.51 6143.28 82.38 5.00   7.00 2869.15
   10:03:50.983.19-Jan-2020 5081.51 6143.28 82.38 5.00   7.20 2869.15
   10:03:51.183.19-Jan-2020 5081.51 6137.72 82.38 5.00   7.40 2869.15
   10:03:51.383.19-Jan-2020 5081.51 6143.34 82.38 5.00   7.60 2869.15
   10:03:51.583.19-Jan-2020 5081.51 6142.26 82.38 5.00   7.80 2869.15
   10:03:51.783.19-Jan-2020 5081.51 6143.58 82.38 5.00   8.00 2869.15
   10:03:51.983.19-Jan-2020 5081.51 6143.58 82.38 5.00   8.20 2869.15
   10:03:52.183.19-Jan-2020 5081.51 6143.73 82.38 5.00   8.40 2869.15
   10:03:52.383.19-Jan-2020 5081.51 6143.74 82.38 5.00   8.60 2869.15
   10:03:52.583.19-Jan-2020 5081.51 6138.11 82.38 5.00   8.80 2869.15
   10:03:52.783.19-Jan-2020 5081.51 6143.78 82.38 5.00   9.00 2869.15
   10:03:52.983.19-Jan-2020 5081.51 6143.78 82.38 5.00   9.20 2869.15
   10:03:53.183.19-Jan-2020 5081.51 6144.17 82.38 5.00   9.40 2869.15
   10:03:53.383.19-Jan-2020 5081.51 6144.71 82.38 5.00   9.60 2869.15
   10:03:53.583.19-Jan-2020 5081.51 6143.99 82.38 5.00   9.80 2869.15
   10:03:53.783.19-Jan-2020 5081.51 6145.62 82.38 5.00  10.00 2869.15
   10:03:53.983.19-Jan-2020 5081.51 6145.62 82.38 5.00  10.20 2869.15
   10:03:54.183.19-Jan-2020 5081.51 6145.11 82.37 5.00  10.40 2869.15
   10:03:54.383.19-Jan-2020 5081.51 6145.32 82.37 5.00  10.60 2869.15
   10:03:54.583.19-Jan-2020 5081.51 6145.01 82.37 5.00  10.80 2869.15
   10:03:54.783.19-Jan-2020 5081.51 6144.91 82.37 5.00  11.00 2869.15
   10:03:54.983.19-Jan-2020 5081.51 6144.91 82.37 5.00  11.20 2869.15
   10:03:55.183.19-Jan-2020 5081.51 6146.08 82.37 5.00  11.40 2869.15
   10:03:55.383.19-Jan-2020 5081.51 6146.08 82.37 5.00  11.60 2869.15
   10:03:55.584.19-Jan-2020 5081.51 6145.89 82.37 5.00  11.80 2869.15
   10:03:55.784.19-Jan-2020 5081.51 6145.78 82.37 5.00  12.00 2869.15
   10:03:55.984.19-Jan-2020 5081.51 6145.78 82.37 5.00  12.20 2869.15
   10:03:56.184.19-Jan-2020 5081.51 6136.56 82.37 5.00  12.40 2869.15
   10:03:56.384.19-Jan-2020 5081.51 6145.85 82.37 5.00  12.60 2869.15
   10:03:56.584.19-Jan-2020 5081.51 6145.12 82.37 5.00  12.80 2869.15
   10:03:56.784.19-Jan-2020 5081.51 6140.60 82.37 5.00  13.00 2869.15
   10:03:56.984.19-Jan-2020 5081.51 6140.60 82.37 5.00  13.20 2869.15
   10:03:57.184.19-Jan-2020 5081.51 6135.78 82.36 5.00  13.40 2869.15
   10:03:57.384.19-Jan-2020 5081.51 6130.47 82.36 5.00  13.60 2869.15
   10:03:57.584.19-Jan-2020 5081.51 6125.98 82.36 5.00  13.80 2869.15
   10:03:57.784.19-Jan-2020 5081.51 6188.86 82.36 5.00  14.00 2869.15
   10:03:57.984.19-Jan-2020 5081.51 6188.86 82.36 5.00  14.20 2869.15
   10:03:58.184.19-Jan-2020 5081.51 6420.26 82.36 5.00  14.40 2869.15
   10:03:58.384.19-Jan-2020 5081.51 6473.41 82.36 5.00  14.60 2869.15
   10:03:58.584.19-Jan-2020 5081.51 6445.04 82.36 5.00  14.80 2869.15
   10:03:58.784.19-Jan-2020 5081.51 6391.87 82.36 5.00  15.00 2869.15
   10:03:58.984.19-Jan-2020 5081.51 6391.87 82.36 5.00  15.20 2869.15
   10:03:59.184.19-Jan-2020 5081.51 6391.87 82.36 5.00  15.40 2869.15
   10:03:59.384.19-Jan-2020 5081.51 6334.33 82.36 5.00  15.60 2869.15
   10:03:59.584.19-Jan-2020 5081.51 6303.53 82.36 5.00  15.80 2869.15
   10:03:59.784.19-Jan-2020 5081.51 6329.95 82.36 5.00  16.00 2869.15
   10:03:59.984.19-Jan-2020 5081.51 6329.95 82.36 5.00  16.20 2869.15
   10:04:00.184.19-Jan-2020 5081.51 6229.26 82.36 5.00  16.40 2869.15
   10:04:00.384.19-Jan-2020 5081.51 6165.45 82.35 5.00  16.60 2869.15
   10:04:00.584.19-Jan-2020 5081.51 6133.83 82.35 5.00  16.80 2869.15
   10:04:00.784.19-Jan-2020 5081.51 6160.30 82.35 5.00  17.00 2869.15
   10:04:00.984.19-Jan-2020 5081.51 6160.30 82.35 5.00  17.20 2869.15
   10:04:01.184.19-Jan-2020 5081.51 6197.79 82.35 5.00  17.40 2869.15
   10:04:01.384.19-Jan-2020 5081.51 6181.61 82.35 5.00  17.60 2869.15
   10:04:01.584.19-Jan-2020 5081.51 6221.79 82.35 5.00  17.80 2869.15
   10:04:01.784.19-Jan-2020 5081.51 6221.27 82.35 5.00  18.00 2869.15
   10:04:01.984.19-Jan-2020 5081.51 6221.27 82.35 5.00  18.20 2869.15
   10:04:02.184.19-Jan-2020 5081.51 6162.51 82.35 5.00  18.40 2869.15
   10:04:02.384.19-Jan-2020 5081.51 6269.31 82.35 5.00  18.60 2869.15
   10:04:02.584.19-Jan-2020 5081.51 6722.46 82.35 5.00  18.80 2869.15
   10:04:02.784.19-Jan-2020 5081.51 7072.05 82.35 5.00  19.00 2869.15
   10:04:02.984.19-Jan-2020 5081.51 7072.05 82.35 5.00  19.20 2869.15
   10:04:03.184.19-Jan-2020 5081.51 7214.79 82.35 5.00  19.40 2869.15
   10:04:03.385.19-Jan-2020 5081.51 7131.07 82.35 5.00  19.60 2869.15
   10:04:03.585.19-Jan-2020 5081.51 7052.70 82.35 5.00  19.80 2869.15
   10:04:03.785.19-Jan-2020 5081.51 7038.92 82.35 5.00  20.00 2869.15
   10:04:03.985.19-Jan-2020 5081.51 7038.92 82.35 5.00  20.20 2869.15
   10:04:04.185.19-Jan-2020 5081.51 7133.98 82.34 5.00  20.40 2869.15
   10:04:04.385.19-Jan-2020 5081.51 7100.05 82.34 5.00  20.60 2869.15
   10:04:04.585.19-Jan-2020 5081.51 7120.18 82.34 5.00  20.80 2869.15
   10:04:04.785.19-Jan-2020 5081.51 7160.65 82.34 5.00  21.00 2869.15
   10:04:04.985.19-Jan-2020 5081.51 7160.65 82.34 5.00  21.20 2869.15
   10:04:05.185.19-Jan-2020 5081.51 7159.06 82.34 5.00  21.40 2869.15
   10:04:05.385.19-Jan-2020 5081.51 7059.42 82.34 5.00  21.60 2869.15
   10:04:05.585.19-Jan-2020 5081.51 7138.54 82.34 5.00  21.80 2869.15
   10:04:05.785.19-Jan-2020 5081.51 7188.92 82.34 5.00  22.00 2869.15
   10:04:05.985.19-Jan-2020 5081.51 7188.92 82.34 5.00  22.20 2869.15
   10:04:06.185.19-Jan-2020 5081.51 7238.12 82.34 5.00  22.40 2869.15
   10:04:06.385.19-Jan-2020 5081.51 7252.70 82.34 5.00  22.60 2869.15
   10:04:06.585.19-Jan-2020 5081.51 7262.36 82.34 5.00  22.80 2869.15
