~Version Information
 VERS.                  2.0:   CWLS log ASCII Standard -VERSION 2.0
 WRAP.                   NO:   One line per depth step
~Well Information Block
#MNEM.UNIT     VALUE/NAME     DESCRIPTION
#---------     -----------    ---------------------------
 STRT.S             10:03:43 19-Jan-20: START TIME 10:03:43 19-Jan-20
 STOP.S             10:11:36 19-Jan-20: STOP TIME  10:11:36 19-Jan-20
 STEP.S                   0.00: STEP TIME
 NULL.                 -999.25: NULL VALUE
 DFWT.                        :  DIST FWL TEXT
 DFST.                        :  DIST FSL TEXT
 DMF .             Drill Floor:  DRILL MEAS FROM
 STIM.      17.57.20 21-Dec-19:  START TIME
 DATE.      17.57.20 21-Dec-19:  END TIME
 SPUD.               21-Dec-19:  SPUD DATE
 NREF.                    Grid:  NORTH REFERENCE
 HPTY.       Minimum Curvature:  HOLE POS TYPE
 DMOD.             Drill Model:  DRILL MOD DESC
 SVYD.                  Survey:  SURVEY DESC
 ILTD.               Lithology:  INTERP LTH DESC
 FTOP.          Formation Tops:  FORM TOPS DESC
 PDAT.          Mean Sea Level:  PERMANENT DATUM
 FLD .                     ACG:  FIELD NAME
 SON .        AZ-XX-0905715376:  JOB NUMBER
 CTRY.              Azerbaijan:  COUNTRY NAME
 WELL.                    E04Y:  WELL NAME
 SRVC.          TURAN DRILLING:  CONTRACTOR
 COMP.     BP Exploration (Caspian Sea) Ltd.:  COMPANY
 WTYP.                Deviated:  WELL TYPE
 UWI .                     N/a:  UNIQUE WELL IDENTIFIER
 API .                     N/a:  API NUMBER
 BASE.              Azerbaijan:  LOGGING EQUIPMENT BASE LOCATION
 REGN.                   EESSA:  REGION
 MWDS.                    Baku:  MWD SHOP
 RIG .                     DWG:  RIG NAME
 DOE .                     N/a:  DOE NUMBER
 CNTY.                    Baku:  COUNTY NAME
 DCON.         Sperry Drilling:  DIRECTNL CONTR
 UNIT.                     N/a:  LOGGING EQUIPMENT ID
 MDS .        Operator Entered:  MAG DATA SOURCE
 PROV.                        :  PROVINCE
 STAT.                        :  STATE
 LOC .                        :  LOCATION
 LMF .             Drill Floor:  LOG MEASURED FROM
 TVDS.m                  43.16:  TVDSS CORRECTN
 LATI.deg                40.17:  LATITUDE
 LONG.deg                51.17:  LONGITUDE
 WHNS.m                  -0.12:  WELL HEAD N/S
 WHEW.m                  -5.41:  WELL HEAD E/W
 UTMX.m              514337.95:  UTM X
 UTMY.m             4448627.46:  UTM Y
 DFWL.m                   0.00:  DISTANCE FWL
 DFSL.m                   0.00:  DISTANCE FSL
 SDEP.m                   0.00:  START DEPTH
 TDD .m                   0.00:  TOTAL DEPTH (DRILLER)
 VSDR.deg               235.12:  VERT SEC DIRECT
 GVFD.g                   1.00:  GRAVITY FIELD
 MFLD.nT              50294.00:  MAGNETIC FIELD
 MDIP.deg                59.61:  MAGNETIC DIP
 MDEC.deg                 6.58:  MAGNETIC DECL
 GRDC.deg                 0.09:  GRID CORRECTION
 AZTC.deg                 6.49:  AZM TOTAL CORR
 EPD .m                   0.00:  ELEVATION
 EGL .m                   0.00:  GROUND ELEVATION
 WDMS.m                 176.20:  WD ELEV
 APD .m                  43.16:  DEPTH ABOVE PD
 DEP .m                3172.61:  DEPTH
 AGAP.m                  43.16:  AIR GAP
 VSEW.m                  -5.41:  VERT SEC E/W
 VSNS.m                  -0.12:  VERT SEC N/S
 EKB .m                  43.16:  KB ELEVATION
 EDF .m                  43.16:  DF ELEVATION
 TDL .m                 295.00:  TOTAL DEPTH (LOGGER)
 VSC .                       0:  VS TO CLOSURE
 MAGU.                 1852276:  MAGUTM CHECKSUM
~Parameter Information Block
#MNEM.UNIT       Value        Description
#---------     -----------    ---------------------------
 AV  .mps                 1.60:  Ann Velocity 
 AVMX.mps                 2.10:  Max Ann Veloc 
 AZIF.deg               290.59:  Azm, Final 
 BHAT.        Rotary Steerable:  BHA Type 
 BROT.°/30m               1.00:  Build Rotating 
 BS  .in                  6.50:  Bit Size 
 BSZ .in                  6.50:  Bit Size 
 BTPL.psig              120.00:  Bit Press Loss 
 CABU.                     Yes:  Customer Abuse 
 CGEO.          Eldar Huseynov:  Customer Geo 
 COMM.                     Œòk:  Run Comments 1 
 TCS .hr                 87.00:  Time Ciculation Ended 
 CV  .mps                 4.01:  Crit Velocity 
 CVMX.mps                 5.06:  Max Crit Veloc 
 DD1 .             Aziz Aliyev:  Direct Drillr 1 
 DD2 .            Sanan Aliyev:  Direct Drillr 2 
 DDSV.               Geo-Pilot:  DD Service 
 DEFF.%                  95.00:  % Det Eff 
 DLRX.°/30m               0.75:  Dogleg Rot Max 
 DLSO.°/30m               0.65:  Dogleg Oriented 
 DLSX.°/30m               1.39:  Dogleg Str Max 
 DRET.      18.25.00 19-Jan-20:  Drill End Time 
 DRST.      11.56.48 17-Jan-20:  Drill Start Tim 
 DTIM.hr                 27.16:  Time Drilling 
 EDEP.m                5161.01:  End Depth 
 ENG1.          Rasim Hashimov:  Engineer 1 
 ENG2.      Bakhtiyar Jabbarli:  Engineer 2 
 ETIM.      11.56.48 21-Jan-20:  End Time 
 FLOI.gpm               350.00:  Flow In 
 FLON.gpm               300.00:  Flow In Min 
 FLOS.cptm                0.00:  Fluid Loss 
 FLOX.gpm               400.00:  Flow In Max 
 HFLO.                      No:  High Flow 
 HPRE.                      No:  High Pressure 
 HTEM.                      No:  High Temp 
 HYDO.m                   1.85:  Hydro Offset 
 IFIN.deg                71.58:  Inc, Final 
 IMAX.deg                71.83:  Inc Max 
 IMIN.deg                71.12:  Inc Min 
 IMND.m                5099.48:  Inc Min Depth 
 IMXD.m                5071.08:  Inc Max Depth 
 JARR.                      No:  Jarring 
 LETM.      18.25.00 19-Jan-20:  Log End Time 
 LOST.hr                     0:  Lost Rig Time 
 LSTM.      11.56.48 17-Jan-20:  Log Start Time 
 MDCL.ppm             37000.00:  Mud Chlorides 
 MDES.     Inversion Oil/Synthetic:  Mud Desc 
 DFD .sg                  1.34:  Mud Density 
 MDMN.sg                  1.34:  Dens Mud Min 
 MDMX.sg                  1.34:  Dens Mud Max 
 MOIL.                      69:  Run Mud Oil % 
 MOWR.                   69:31:  Run Mud OWR 
 MSND.                     0.1:  Run Mud Sand % 
 MSOL.                    17.6:  Run Mud Solids% 
 DFV .spqt               79.00:  Mud Viscosity 
 MWOD.in                  4.75:  MWD Tool OD 
 MWSI.                      No:  Serv Intrp, MWD 
 OTIM.hr                126.10:  Time Operating 
 PMAX.psia             6000.00:  Press Op, Max 
 PV  .cP                 29.00:  Mud PV 
 RUN .                     400:  Run Number 
 ROPA.m/hr               11.00:  ROP Avg 
 ROPN.m/hr                5.00:  ROP Min 
 ROPX.m/hr               18.00:  ROP Max 
 RPMA.rpm               139.00:  RPM Surface Avg 
 RPMN.rpm               100.00:  RPM Surface Min 
 RPMX.rpm               140.00:  RPM Surface Max 
 RRUN.                     400:  Rig Run Number 
 SAZI.deg               290.22:  Azm, Start 
 SDEP.m                4868.01:  Start Depth 
 SIDD.                      No:  Serv Intrp, DD 
 SINC.deg                71.77:  Inc, Start 
 SPPA.psig             5550.00:  SPP Avg 
 SPPN.psig             4300.00:  SPP Min 
 SPPX.psig             5600.00:  SPP Max 
 STIM.      23.45.48 15-Jan-20:  Start Time 
 SVCS.                 DD, MWD:  Services 
 SVER.                    9.20:  Sperry Version 
 TDAT.m                5161.01:  Tot Depth Attmp 
 TDDF.                      No:  Trip for DD 
 TDLG.m                 295.00:  Tot Depth Loggd 
 TFF .                      No:  Trip for Fail 
 TQAA.f-kp               13.00:  Torque Abs Avg 
 TQAN.f-kp               13.00:  Torque Abs Min 
 TQAX.f-kp               16.00:  Torque Abs Max 
 TRRT.°/30m               0.25:  Turn Rotating 
 MRT .                     ADR:  Maximum Recorded Temperature 
 TTMX.degC               88.00:  Max Tool Temp 
 VS01.                90577859:  Virtual Str1 SN 
 VS02.                90521879:  Virtual Str2 SN 
 VS03.                90580299:  Virtual Str3 SN 
 VS04.                90515982:  Virtual Str4 SN 
 VS05.                90547765:  Virtual Str5 SN 
 WBMN.klb                 2.00:  WOB Min 
 WITN.           Adil Mammadov:  Customer Rep 
 WITN.        Elmaddin Rahimov:  Customer Rep 2 
 WOBA.klb                 3.00:  WOB Avg 
 WOBX.klb                 5.00:  WOB Max 
 YP  .lhf2               30.00:  Yield Point 
~Curve Information Block
#MNEM.UNIT                 API CODE     Curve Description
#---------               -----------    ---------------------------
 TIME.HHMMSS            00 000 000 000:  GT Time & Date
 GTDEPTH.m              00 000 000 000:  GT Depth
 GTPQH.psia             00 000 000 000:  GT HR Quartz Pressure
 GTTQ.degC              00 000 000 000:  GT Quartz Temperature
 GTTN.NONE              00 000 000 000:  GT Test Number
 GTET.sec               00 000 000 000:  GT Elapsed Test Time
 GTTVD.m                00 000 000 000:  GT True Vertical Depth
#Other Information
#
#WARRANTY: Halliburton will use its best efforts to furnish customers with 
#accurate information and interpretations that are part of, and incident to, the services 
#provided.  However, Halliburton cannot and does not warrant the accuracy 
#or correctness of such information and interpretations.  Under no circumstances should any 
#such information or interpretation be relied upon as the sole basis for any drilling, 
#completion, production, or financial decision or any procedure involving any risk to the 
#safety of any drilling venture, drilling rig or its crew or any other third party.  The 
#Customer has full responsibility for all drilling, completion and production operation.  
#Halliburton makes no representations or warranties, either expressed or 
#implied, including, but not limited to, the implied warranties of merchantability or fitness 
#for a particular purpose, with respect to the services rendered.  In no event will 
#Halliburton be liable for failure to obtain any particular results or for 
#any damages, including, but not limited to, indirect, special or consequential damages, 
#resulting from the use of any information or interpretation provided by Halliburton.
#
~A           TIME           GTDEPTH  GTPQH  GTTQ  GTTN  GTET   GTTVD  
# ...
   10:04:52.791.19-Jan-2020 5081.51 4213.17 82.17 5.00  69.01 2869.15
   10:04:52.991.19-Jan-2020 5081.51 4213.17 82.17 5.00  69.21 2869.15
   10:04:53.191.19-Jan-2020 5081.51 4213.19 82.17 5.00  69.41 2869.15
   10:04:53.391.19-Jan-2020 5081.51 4213.20 82.17 5.00  69.61 2869.15
   10:04:53.591.19-Jan-2020 5081.51 4213.20 82.17 5.00  69.81 2869.15
   10:04:53.791.19-Jan-2020 5081.51 4213.19 82.17 5.00  70.01 2869.15
   10:04:53.991.19-Jan-2020 5081.51 4213.19 82.17 5.00  70.21 2869.15
   10:04:54.191.19-Jan-2020 5081.51 4213.22 82.17 5.00  70.41 2869.15
   10:04:54.391.19-Jan-2020 5081.51 4213.21 82.17 5.00  70.61 2869.15
   10:04:54.591.19-Jan-2020 5081.51 4213.22 82.17 5.00  70.81 2869.15
   10:04:54.791.19-Jan-2020 5081.51 4213.00 82.17 5.00  71.01 2869.15
   10:04:54.991.19-Jan-2020 5081.51 4213.00 82.17 5.00  71.21 2869.15
   10:04:55.191.19-Jan-2020 5081.51 4213.22 82.17 5.00  71.41 2869.15
   10:04:55.391.19-Jan-2020 5081.51 4213.18 82.17 5.00  71.61 2869.15
   10:04:55.591.19-Jan-2020 5081.51 4213.24 82.17 5.00  71.81 2869.15
   10:04:55.791.19-Jan-2020 5081.51 4213.00 82.17 5.00  72.01 2869.15
   10:04:55.991.19-Jan-2020 5081.51 4213.00 82.17 5.00  72.21 2869.15
   10:04:56.191.19-Jan-2020 5081.51 4213.24 82.17 5.00  72.41 2869.15
   10:04:56.391.19-Jan-2020 5081.51 4213.17 82.16 5.00  72.61 2869.15
   10:04:56.591.19-Jan-2020 5081.51 4213.23 82.16 5.00  72.81 2869.15
   10:04:56.791.19-Jan-2020 5081.51 4213.23 82.16 5.00  73.01 2869.15
   10:04:56.991.19-Jan-2020 5081.51 4213.23 82.16 5.00  73.21 2869.15
   10:04:57.191.19-Jan-2020 5081.51 4213.26 82.16 5.00  73.41 2869.15
   10:04:57.391.19-Jan-2020 5081.51 4213.15 82.16 5.00  73.61 2869.15
   10:04:57.591.19-Jan-2020 5081.51 4213.26 82.16 5.00  73.81 2869.15
   10:04:57.791.19-Jan-2020 5081.51 4213.21 82.16 5.00  74.01 2869.15
   10:04:57.991.19-Jan-2020 5081.51 4213.21 82.16 5.00  74.21 2869.15
   10:04:58.191.19-Jan-2020 5081.51 4213.26 82.16 5.00  74.41 2869.15
   10:04:58.391.19-Jan-2020 5081.51 4213.04 82.16 5.00  74.61 2869.15
   10:04:58.591.19-Jan-2020 5081.51 4213.40 82.16 5.00  74.81 2869.15
   10:04:58.791.19-Jan-2020 5081.51 4213.29 82.16 5.00  75.01 2869.15
   10:04:58.992.19-Jan-2020 5081.51 4213.29 82.16 5.00  75.21 2869.15
   10:04:59.192.19-Jan-2020 5081.51 4213.28 82.16 5.00  75.41 2869.15
   10:04:59.392.19-Jan-2020 5081.51 4213.26 82.16 5.00  75.61 2869.15
   10:04:59.592.19-Jan-2020 5081.51 4213.28 82.16 5.00  75.81 2869.15
   10:04:59.792.19-Jan-2020 5081.51 4213.26 82.16 5.00  76.01 2869.15
   10:04:59.992.19-Jan-2020 5081.51 4213.26 82.16 5.00  76.21 2869.15
   10:05:00.192.19-Jan-2020 5081.51 4213.28 82.15 5.00  76.41 2869.15
   10:05:00.392.19-Jan-2020 5081.51 4213.28 82.15 5.00  76.61 2869.15
   10:05:00.592.19-Jan-2020 5081.51 4213.28 82.15 5.00  76.81 2869.15
   10:05:00.792.19-Jan-2020 5081.51 4213.27 82.15 5.00  77.01 2869.15
   10:05:00.992.19-Jan-2020 5081.51 4213.27 82.15 5.00  77.21 2869.15
   10:05:01.192.19-Jan-2020 5081.51 4213.30 82.15 5.00  77.41 2869.15
   10:05:01.392.19-Jan-2020 5081.51 4213.30 82.15 5.00  77.61 2869.15
   10:05:01.592.19-Jan-2020 5081.51 4213.11 82.15 5.00  77.81 2869.15
   10:05:01.792.19-Jan-2020 5081.51 4213.42 82.15 5.00  78.01 2869.15
   10:05:01.992.19-Jan-2020 5081.51 4213.42 82.15 5.00  78.21 2869.15
   10:05:02.192.19-Jan-2020 5081.51 4213.24 82.15 5.00  78.41 2869.15
   10:05:02.392.19-Jan-2020 5081.51 4213.34 82.15 5.00  78.61 2869.15
   10:05:02.592.19-Jan-2020 5081.51 4213.31 82.15 5.00  78.81 2869.15
   10:05:02.792.19-Jan-2020 5081.51 4213.30 82.15 5.00  79.01 2869.15
   10:05:02.992.19-Jan-2020 5081.51 4213.30 82.15 5.00  79.21 2869.15
   10:05:03.192.19-Jan-2020 5081.51 4213.30 82.15 5.00  79.41 2869.15
   10:05:03.392.19-Jan-2020 5081.51 4213.31 82.15 5.00  79.61 2869.15
   10:05:03.592.19-Jan-2020 5081.51 4213.31 82.15 5.00  79.81 2869.15
   10:05:03.792.19-Jan-2020 5081.51 4213.32 82.14 5.00  80.01 2869.15
   10:05:03.992.19-Jan-2020 5081.51 4213.32 82.14 5.00  80.21 2869.15
   10:05:04.192.19-Jan-2020 5081.51 4213.33 82.14 5.00  80.41 2869.15
   10:05:04.392.19-Jan-2020 5081.51 4213.32 82.14 5.00  80.61 2869.15
   10:05:04.592.19-Jan-2020 5081.51 4213.34 82.14 5.00  80.81 2869.15
   10:05:04.792.19-Jan-2020 5081.51 4213.32 82.14 5.00  81.01 2869.15
   10:05:04.992.19-Jan-2020 5081.51 4213.32 82.14 5.00  81.21 2869.15
   10:05:05.192.19-Jan-2020 5081.51 4213.46 82.14 5.00  81.41 2869.15
   10:05:05.392.19-Jan-2020 5081.51 4213.36 82.14 5.00  81.61 2869.15
   10:05:05.592.19-Jan-2020 5081.51 4213.32 82.14 5.00  81.81 2869.15
   10:05:05.792.19-Jan-2020 5081.51 4213.36 82.14 5.00  82.01 2869.15
   10:05:05.992.19-Jan-2020 5081.51 4213.36 82.14 5.00  82.21 2869.15
   10:05:06.192.19-Jan-2020 5081.51 4213.49 82.14 5.00  82.41 2869.15
   10:05:06.392.19-Jan-2020 5081.51 4213.36 82.14 5.00  82.61 2869.15
   10:05:06.592.19-Jan-2020 5081.51 4213.32 82.14 5.00  82.81 2869.15
   10:05:06.793.19-Jan-2020 5081.51 4213.36 82.14 5.00  83.01 2869.15
   10:05:06.993.19-Jan-2020 5081.51 4213.36 82.14 5.00  83.21 2869.15
   10:05:07.193.19-Jan-2020 5081.51 4213.36 82.14 5.00  83.41 2869.15
   10:05:07.393.19-Jan-2020 5081.51 4213.38 82.14 5.00  83.61 2869.15
   10:05:07.593.19-Jan-2020 5081.51 4213.26 82.14 5.00  83.81 2869.15
   10:05:07.793.19-Jan-2020 5081.51 4213.38 82.13 5.00  84.01 2869.15
   10:05:07.993.19-Jan-2020 5081.51 4213.38 82.13 5.00  84.21 2869.15
   10:05:08.193.19-Jan-2020 5081.51 4213.38 82.13 5.00  84.41 2869.15
   10:05:08.393.19-Jan-2020 5081.51 4213.38 82.13 5.00  84.61 2869.15
   10:05:08.593.19-Jan-2020 5081.51 4213.15 82.13 5.00  84.81 2869.15
   10:05:08.793.19-Jan-2020 5081.51 4213.51 82.13 5.00  85.01 2869.15
   10:05:08.993.19-Jan-2020 5081.51 4213.51 82.13 5.00  85.21 2869.15
   10:05:09.193.19-Jan-2020 5081.51 4213.34 82.13 5.00  85.41 2869.15
   10:05:09.393.19-Jan-2020 5081.51 4213.38 82.13 5.00  85.61 2869.15
   10:05:09.593.19-Jan-2020 5081.51 4213.37 82.13 5.00  85.81 2869.15
   10:05:09.793.19-Jan-2020 5081.51 4213.37 82.13 5.00  86.01 2869.15
   10:05:09.993.19-Jan-2020 5081.51 4213.37 82.13 5.00  86.21 2869.15
   10:05:10.193.19-Jan-2020 5081.51 4213.38 82.13 5.00  86.41 2869.15
   10:05:10.393.19-Jan-2020 5081.51 4213.37 82.13 5.00  86.61 2869.15
   10:05:10.593.19-Jan-2020 5081.51 4213.38 82.13 5.00  86.81 2869.15
   10:05:10.793.19-Jan-2020 5081.51 4213.38 82.13 5.00  87.01 2869.15
   10:05:10.993.19-Jan-2020 5081.51 4213.38 82.13 5.00  87.21 2869.15
   10:05:11.193.19-Jan-2020 5081.51 4213.38 82.13 5.00  87.41 2869.15
   10:05:11.393.19-Jan-2020 5081.51 4213.38 82.13 5.00  87.61 2869.15
   10:05:11.593.19-Jan-2020 5081.51 4213.41 82.12 5.00  87.81 2869.15
   10:05:11.793.19-Jan-2020 5081.51 4213.20 82.12 5.00  88.01 2869.15
   10:05:11.993.19-Jan-2020 5081.51 4213.20 82.12 5.00  88.21 2869.15
   10:05:12.193.19-Jan-2020 5081.51 4213.41 82.12 5.00  88.41 2869.15
   10:05:12.393.19-Jan-2020 5081.51 4213.35 82.12 5.00  88.61 2869.15
   10:05:12.593.19-Jan-2020 5081.51 4213.43 82.12 5.00  88.81 2869.15
   10:05:12.793.19-Jan-2020 5081.51 4213.40 82.12 5.00  89.01 2869.15
   10:05:12.993.19-Jan-2020 5081.51 4213.40 82.12 5.00  89.21 2869.15
   10:05:13.193.19-Jan-2020 5081.51 4213.41 82.12 5.00  89.41 2869.15
   10:05:13.393.19-Jan-2020 5081.51 4213.40 82.12 5.00  89.61 2869.15
   10:05:13.593.19-Jan-2020 5081.51 4213.40 82.12 5.00  89.81 2869.15
   10:05:13.793.19-Jan-2020 5081.51 4213.41 82.12 5.00  90.01 2869.15
   10:05:13.993.19-Jan-2020 5081.51 4213.41 82.12 5.00  90.21 2869.15
   10:05:14.193.19-Jan-2020 5081.51 4213.40 82.12 5.00  90.41 2869.15
   10:05:14.393.19-Jan-2020 5081.51 4213.42 82.12 5.00  90.61 2869.15
   10:05:14.593.19-Jan-2020 5081.51 4213.41 82.12 5.00  90.81 2869.15
   10:05:14.794.19-Jan-2020 5081.51 4213.40 82.12 5.00  91.01 2869.15
   10:05:14.994.19-Jan-2020 5081.51 4213.40 82.12 5.00  91.21 2869.15
   10:05:15.194.19-Jan-2020 5081.51 4213.21 82.12 5.00  91.41 2869.15
   10:05:15.394.19-Jan-2020 5081.51 4213.56 82.12 5.00  91.61 2869.15
   10:05:15.594.19-Jan-2020 5081.51 4213.44 82.12 5.00  91.81 2869.15
