~Version Information
 VERS.                  2.0:   CWLS log ASCII Standard -VERSION 2.0
 WRAP.                   NO:   One line per depth step
~Well Information Block
#MNEM.UNIT     VALUE/NAME     DESCRIPTION
#---------     -----------    ---------------------------
 STRT.S             16:13:28 18-Jan-20: START TIME 16:13:28 18-Jan-20
 STOP.S             16:21:32 18-Jan-20: STOP TIME  16:21:32 18-Jan-20
 STEP.S                   0.00: STEP TIME
 NULL.                 -999.25: NULL VALUE
 DFWT.                        :  DIST FWL TEXT
 DFST.                        :  DIST FSL TEXT
 DMF .             Drill Floor:  DRILL MEAS FROM
 STIM.      17.57.20 21-Dec-19:  START TIME
 DATE.      17.57.20 21-Dec-19:  END TIME
 SPUD.               21-Dec-19:  SPUD DATE
 NREF.                    Grid:  NORTH REFERENCE
 HPTY.       Minimum Curvature:  HOLE POS TYPE
 DMOD.             Drill Model:  DRILL MOD DESC
 SVYD.                  Survey:  SURVEY DESC
 ILTD.               Lithology:  INTERP LTH DESC
 FTOP.          Formation Tops:  FORM TOPS DESC
 PDAT.          Mean Sea Level:  PERMANENT DATUM
 FLD .                     ACG:  FIELD NAME
 SON .        AZ-XX-0905715376:  JOB NUMBER
 CTRY.              Azerbaijan:  COUNTRY NAME
 WELL.                    E04Y:  WELL NAME
 SRVC.          TURAN DRILLING:  CONTRACTOR
 COMP.     BP Exploration (Caspian Sea) Ltd.:  COMPANY
 WTYP.                Deviated:  WELL TYPE
 UWI .                     N/a:  UNIQUE WELL IDENTIFIER
 API .                     N/a:  API NUMBER
 BASE.              Azerbaijan:  LOGGING EQUIPMENT BASE LOCATION
 REGN.                   EESSA:  REGION
 MWDS.                    Baku:  MWD SHOP
 RIG .                     DWG:  RIG NAME
 DOE .                     N/a:  DOE NUMBER
 CNTY.                    Baku:  COUNTY NAME
 DCON.         Sperry Drilling:  DIRECTNL CONTR
 UNIT.                     N/a:  LOGGING EQUIPMENT ID
 MDS .        Operator Entered:  MAG DATA SOURCE
 PROV.                        :  PROVINCE
 STAT.                        :  STATE
 LOC .                        :  LOCATION
 LMF .             Drill Floor:  LOG MEASURED FROM
 TVDS.m                  43.16:  TVDSS CORRECTN
 LATI.deg                40.17:  LATITUDE
 LONG.deg                51.17:  LONGITUDE
 WHNS.m                  -0.12:  WELL HEAD N/S
 WHEW.m                  -5.41:  WELL HEAD E/W
 UTMX.m              514337.95:  UTM X
 UTMY.m             4448627.46:  UTM Y
 DFWL.m                   0.00:  DISTANCE FWL
 DFSL.m                   0.00:  DISTANCE FSL
 SDEP.m                   0.00:  START DEPTH
 TDD .m                   0.00:  TOTAL DEPTH (DRILLER)
 VSDR.deg               235.12:  VERT SEC DIRECT
 GVFD.g                   1.00:  GRAVITY FIELD
 MFLD.nT              50294.00:  MAGNETIC FIELD
 MDIP.deg                59.61:  MAGNETIC DIP
 MDEC.deg                 6.58:  MAGNETIC DECL
 GRDC.deg                 0.09:  GRID CORRECTION
 AZTC.deg                 6.49:  AZM TOTAL CORR
 EPD .m                   0.00:  ELEVATION
 EGL .m                   0.00:  GROUND ELEVATION
 WDMS.m                 176.20:  WD ELEV
 APD .m                  43.16:  DEPTH ABOVE PD
 DEP .m                3172.61:  DEPTH
 AGAP.m                  43.16:  AIR GAP
 VSEW.m                  -5.41:  VERT SEC E/W
 VSNS.m                  -0.12:  VERT SEC N/S
 EKB .m                  43.16:  KB ELEVATION
 EDF .m                  43.16:  DF ELEVATION
 TDL .m                 295.00:  TOTAL DEPTH (LOGGER)
 VSC .                       0:  VS TO CLOSURE
 MAGU.                 1852276:  MAGUTM CHECKSUM
~Parameter Information Block
#MNEM.UNIT       Value        Description
#---------     -----------    ---------------------------
 AV  .mps                 1.60:  Ann Velocity 
 AVMX.mps                 2.10:  Max Ann Veloc 
 AZIF.deg               290.59:  Azm, Final 
 BHAT.        Rotary Steerable:  BHA Type 
 BROT.°/30m               1.00:  Build Rotating 
 BS  .in                  6.50:  Bit Size 
 BSZ .in                  6.50:  Bit Size 
 BTPL.psig              120.00:  Bit Press Loss 
 CABU.                     Yes:  Customer Abuse 
 CGEO.          Eldar Huseynov:  Customer Geo 
 COMM.                     Ôs:  Run Comments 1 
 TCS .hr                 87.00:  Time Ciculation Ended 
 CV  .mps                 4.01:  Crit Velocity 
 CVMX.mps                 5.06:  Max Crit Veloc 
 DD1 .             Aziz Aliyev:  Direct Drillr 1 
 DD2 .            Sanan Aliyev:  Direct Drillr 2 
 DDSV.               Geo-Pilot:  DD Service 
 DEFF.%                  95.00:  % Det Eff 
 DLRX.°/30m               0.75:  Dogleg Rot Max 
 DLSO.°/30m               0.65:  Dogleg Oriented 
 DLSX.°/30m               1.39:  Dogleg Str Max 
 DRET.      18.25.00 19-Jan-20:  Drill End Time 
 DRST.      11.56.48 17-Jan-20:  Drill Start Tim 
 DTIM.hr                 27.16:  Time Drilling 
 EDEP.m                5161.01:  End Depth 
 ENG1.          Rasim Hashimov:  Engineer 1 
 ENG2.      Bakhtiyar Jabbarli:  Engineer 2 
 ETIM.      11.56.48 21-Jan-20:  End Time 
 FLOI.gpm               350.00:  Flow In 
 FLON.gpm               300.00:  Flow In Min 
 FLOS.cptm                0.00:  Fluid Loss 
 FLOX.gpm               400.00:  Flow In Max 
 HFLO.                      No:  High Flow 
 HPRE.                      No:  High Pressure 
 HTEM.                      No:  High Temp 
 HYDO.m                   1.85:  Hydro Offset 
 IFIN.deg                71.58:  Inc, Final 
 IMAX.deg                71.83:  Inc Max 
 IMIN.deg                71.12:  Inc Min 
 IMND.m                5099.48:  Inc Min Depth 
 IMXD.m                5071.08:  Inc Max Depth 
 JARR.                      No:  Jarring 
 LETM.      18.25.00 19-Jan-20:  Log End Time 
 LOST.hr                     0:  Lost Rig Time 
 LSTM.      11.56.48 17-Jan-20:  Log Start Time 
 MDCL.ppm             37000.00:  Mud Chlorides 
 MDES.     Inversion Oil/Synthetic:  Mud Desc 
 DFD .sg                  1.34:  Mud Density 
 MDMN.sg                  1.34:  Dens Mud Min 
 MDMX.sg                  1.34:  Dens Mud Max 
 MOIL.                      69:  Run Mud Oil % 
 MOWR.                   69:31:  Run Mud OWR 
 MSND.                     0.1:  Run Mud Sand % 
 MSOL.                    17.6:  Run Mud Solids% 
 DFV .spqt               79.00:  Mud Viscosity 
 MWOD.in                  4.75:  MWD Tool OD 
 MWSI.                      No:  Serv Intrp, MWD 
 OTIM.hr                126.10:  Time Operating 
 PMAX.psia             6000.00:  Press Op, Max 
 PV  .cP                 29.00:  Mud PV 
 RUN .                     400:  Run Number 
 ROPA.m/hr               11.00:  ROP Avg 
 ROPN.m/hr                5.00:  ROP Min 
 ROPX.m/hr               18.00:  ROP Max 
 RPMA.rpm               139.00:  RPM Surface Avg 
 RPMN.rpm               100.00:  RPM Surface Min 
 RPMX.rpm               140.00:  RPM Surface Max 
 RRUN.                     400:  Rig Run Number 
 SAZI.deg               290.22:  Azm, Start 
 SDEP.m                4868.01:  Start Depth 
 SIDD.                      No:  Serv Intrp, DD 
 SINC.deg                71.77:  Inc, Start 
 SPPA.psig             5550.00:  SPP Avg 
 SPPN.psig             4300.00:  SPP Min 
 SPPX.psig             5600.00:  SPP Max 
 STIM.      23.45.48 15-Jan-20:  Start Time 
 SVCS.                 DD, MWD:  Services 
 SVER.                    9.20:  Sperry Version 
 TDAT.m                5161.01:  Tot Depth Attmp 
 TDDF.                      No:  Trip for DD 
 TDLG.m                 295.00:  Tot Depth Loggd 
 TFF .                      No:  Trip for Fail 
 TQAA.f-kp               13.00:  Torque Abs Avg 
 TQAN.f-kp               13.00:  Torque Abs Min 
 TQAX.f-kp               16.00:  Torque Abs Max 
 TRRT.°/30m               0.25:  Turn Rotating 
 MRT .                     ADR:  Maximum Recorded Temperature 
 TTMX.degC               88.00:  Max Tool Temp 
 VS01.                90577859:  Virtual Str1 SN 
 VS02.                90521879:  Virtual Str2 SN 
 VS03.                90580299:  Virtual Str3 SN 
 VS04.                90515982:  Virtual Str4 SN 
 VS05.                90547765:  Virtual Str5 SN 
 WBMN.klb                 2.00:  WOB Min 
 WITN.           Adil Mammadov:  Customer Rep 
 WITN.        Elmaddin Rahimov:  Customer Rep 2 
 WOBA.klb                 3.00:  WOB Avg 
 WOBX.klb                 5.00:  WOB Max 
 YP  .lhf2               30.00:  Yield Point 
~Curve Information Block
#MNEM.UNIT                 API CODE     Curve Description
#---------               -----------    ---------------------------
 TIME.HHMMSS            00 000 000 000:  GT Time & Date
 GTDEPTH.m              00 000 000 000:  GT Depth
 GTPQH.psia             00 000 000 000:  GT HR Quartz Pressure
 GTTQ.degC              00 000 000 000:  GT Quartz Temperature
 GTTN.NONE              00 000 000 000:  GT Test Number
 GTET.sec               00 000 000 000:  GT Elapsed Test Time
 GTTVD.m                00 000 000 000:  GT True Vertical Depth
#Other Information
#
#WARRANTY: Halliburton will use its best efforts to furnish customers with 
#accurate information and interpretations that are part of, and incident to, the services 
#provided.  However, Halliburton cannot and does not warrant the accuracy 
#or correctness of such information and interpretations.  Under no circumstances should any 
#such information or interpretation be relied upon as the sole basis for any drilling, 
#completion, production, or financial decision or any procedure involving any risk to the 
#safety of any drilling venture, drilling rig or its crew or any other third party.  The 
#Customer has full responsibility for all drilling, completion and production operation.  
#Halliburton makes no representations or warranties, either expressed or 
#implied, including, but not limited to, the implied warranties of merchantability or fitness 
#for a particular purpose, with respect to the services rendered.  In no event will 
#Halliburton be liable for failure to obtain any particular results or for 
#any damages, including, but not limited to, indirect, special or consequential damages, 
#resulting from the use of any information or interpretation provided by Halliburton.
#
~A           TIME           GTDEPTH  GTPQH  GTTQ  GTTN  GTET   GTTVD  
# ...
   16:20:45.584.18-Jan-2020 4958.01 4406.88 79.79 2.00 437.04 2829.97
   16:20:45.784.18-Jan-2020 4958.01 4406.88 79.79 2.00 437.24 2829.97
   16:20:45.984.18-Jan-2020 4958.01 4406.77 79.79 2.00 437.44 2829.97
   16:20:46.184.18-Jan-2020 4958.01 4406.76 79.79 2.00 437.64 2829.97
   16:20:46.384.18-Jan-2020 4958.01 4406.64 79.79 2.00 437.84 2829.97
   16:20:46.584.18-Jan-2020 4958.01 4406.82 79.79 2.00 438.04 2829.97
   16:20:46.784.18-Jan-2020 4958.01 4406.82 79.79 2.00 438.24 2829.97
   16:20:46.984.18-Jan-2020 4958.01 4406.76 79.79 2.00 438.44 2829.97
   16:20:47.184.18-Jan-2020 4958.01 4406.79 79.79 2.00 438.64 2829.97
   16:20:47.384.18-Jan-2020 4958.01 4406.75 79.79 2.00 438.84 2829.97
   16:20:47.584.18-Jan-2020 4958.01 4406.66 79.79 2.00 439.04 2829.97
   16:20:47.784.18-Jan-2020 4958.01 4406.66 79.79 2.00 439.24 2829.97
   16:20:47.984.18-Jan-2020 4958.01 4406.81 79.79 2.00 439.44 2829.97
   16:20:48.184.18-Jan-2020 4958.01 4406.76 79.78 2.00 439.64 2829.97
   16:20:48.384.18-Jan-2020 4958.01 4406.77 79.78 2.00 439.84 2829.97
   16:20:48.584.18-Jan-2020 4958.01 4406.77 79.78 2.00 440.04 2829.97
   16:20:48.784.18-Jan-2020 4958.01 4406.77 79.78 2.00 440.24 2829.97
   16:20:48.984.18-Jan-2020 4958.01 4406.87 79.78 2.00 440.44 2829.97
   16:20:49.184.18-Jan-2020 4958.01 4406.73 79.78 2.00 440.64 2829.97
   16:20:49.384.18-Jan-2020 4958.01 4406.80 79.78 2.00 440.84 2829.97
   16:20:49.584.18-Jan-2020 4958.01 4406.76 79.78 2.00 441.04 2829.97
   16:20:49.784.18-Jan-2020 4958.01 4406.76 79.78 2.00 441.24 2829.97
   16:20:49.984.18-Jan-2020 4958.01 4406.75 79.78 2.00 441.44 2829.97
   16:20:50.184.18-Jan-2020 4958.01 4406.77 79.78 2.00 441.64 2829.97
   16:20:50.384.18-Jan-2020 4958.01 4406.75 79.78 2.00 441.84 2829.97
   16:20:50.584.18-Jan-2020 4958.01 4406.75 79.78 2.00 442.04 2829.97
   16:20:50.784.18-Jan-2020 4958.01 4406.75 79.78 2.00 442.24 2829.97
   16:20:50.984.18-Jan-2020 4958.01 4406.73 79.78 2.00 442.44 2829.97
   16:20:51.184.18-Jan-2020 4958.01 4406.77 79.78 2.00 442.64 2829.97
   16:20:51.384.18-Jan-2020 4958.01 4406.72 79.78 2.00 442.84 2829.97
   16:20:51.585.18-Jan-2020 4958.01 4406.75 79.78 2.00 443.04 2829.97
   16:20:51.785.18-Jan-2020 4958.01 4406.75 79.78 2.00 443.24 2829.97
   16:20:51.985.18-Jan-2020 4958.01 4406.61 79.78 2.00 443.44 2829.97
   16:20:52.185.18-Jan-2020 4958.01 4406.80 79.77 2.00 443.64 2829.97
   16:20:52.385.18-Jan-2020 4958.01 4406.73 79.77 2.00 443.84 2829.97
   16:20:52.585.18-Jan-2020 4958.01 4406.76 79.77 2.00 444.04 2829.97
   16:20:52.785.18-Jan-2020 4958.01 4406.76 79.77 2.00 444.24 2829.97
   16:20:52.985.18-Jan-2020 4958.01 4406.75 79.77 2.00 444.44 2829.97
   16:20:53.185.18-Jan-2020 4958.01 4406.74 79.77 2.00 444.64 2829.97
   16:20:53.385.18-Jan-2020 4958.01 4406.75 79.77 2.00 444.84 2829.97
   16:20:53.585.18-Jan-2020 4958.01 4406.74 79.77 2.00 445.04 2829.97
   16:20:53.785.18-Jan-2020 4958.01 4406.74 79.77 2.00 445.24 2829.97
   16:20:53.985.18-Jan-2020 4958.01 4406.71 79.77 2.00 445.44 2829.97
   16:20:54.185.18-Jan-2020 4958.01 4406.75 79.77 2.00 445.64 2829.97
   16:20:54.385.18-Jan-2020 4958.01 4406.72 79.77 2.00 445.84 2829.97
   16:20:54.585.18-Jan-2020 4958.01 4406.74 79.77 2.00 446.04 2829.97
   16:20:54.785.18-Jan-2020 4958.01 4406.74 79.77 2.00 446.24 2829.97
   16:20:54.985.18-Jan-2020 4958.01 4406.74 79.77 2.00 446.44 2829.97
   16:20:55.185.18-Jan-2020 4958.01 4406.71 79.77 2.00 446.64 2829.97
   16:20:55.385.18-Jan-2020 4958.01 4406.68 79.77 2.00 446.84 2829.97
   16:20:55.585.18-Jan-2020 4958.01 4406.72 79.77 2.00 447.04 2829.97
   16:20:55.785.18-Jan-2020 4958.01 4406.72 79.77 2.00 447.24 2829.97
   16:20:55.985.18-Jan-2020 4958.01 4406.80 79.77 2.00 447.44 2829.97
   16:20:56.185.18-Jan-2020 4958.01 4406.75 79.77 2.00 447.64 2829.97
   16:20:56.385.18-Jan-2020 4958.01 4406.76 79.76 2.00 447.84 2829.97
   16:20:56.585.18-Jan-2020 4958.01 4406.63 79.76 2.00 448.04 2829.97
   16:20:56.785.18-Jan-2020 4958.01 4406.63 79.76 2.00 448.24 2829.97
   16:20:56.985.18-Jan-2020 4958.01 4406.77 79.76 2.00 448.44 2829.97
   16:20:57.185.18-Jan-2020 4958.01 4406.78 79.76 2.00 448.64 2829.97
   16:20:57.385.18-Jan-2020 4958.01 4406.76 79.76 2.00 448.84 2829.97
   16:20:57.585.18-Jan-2020 4958.01 4406.63 79.76 2.00 449.04 2829.97
   16:20:57.785.18-Jan-2020 4958.01 4406.63 79.76 2.00 449.24 2829.97
   16:20:57.985.18-Jan-2020 4958.01 4406.73 79.76 2.00 449.44 2829.97
   16:20:58.185.18-Jan-2020 4958.01 4406.78 79.76 2.00 449.64 2829.97
   16:20:58.385.18-Jan-2020 4958.01 4406.77 79.76 2.00 449.84 2829.97
   16:20:58.585.18-Jan-2020 4958.01 4406.77 79.76 2.00 450.04 2829.97
   16:20:58.785.18-Jan-2020 4958.01 4406.77 79.76 2.00 450.24 2829.97
   16:20:58.985.18-Jan-2020 4958.01 4406.67 79.76 2.00 450.44 2829.97
   16:20:59.185.18-Jan-2020 4958.01 4406.77 79.76 2.00 450.64 2829.97
   16:20:59.385.18-Jan-2020 4958.01 4406.82 79.76 2.00 450.84 2829.97
   16:20:59.585.18-Jan-2020 4958.01 4406.75 79.76 2.00 451.04 2829.97
   16:20:59.785.18-Jan-2020 4958.01 4406.75 79.76 2.00 451.24 2829.97
   16:20:59.985.18-Jan-2020 4958.01 4408.10 79.76 2.00 451.44 2829.97
   16:21:00.185.18-Jan-2020 4958.01 4417.33 79.76 2.00 451.64 2829.97
   16:21:00.385.18-Jan-2020 4958.01 4683.41 79.76 2.00 451.84 2829.97
   16:21:00.585.18-Jan-2020 4958.01 5970.86 79.75 2.00 452.04 2829.97
   16:21:00.785.18-Jan-2020 4958.01 5970.86 79.75 2.00 452.24 2829.97
   16:21:00.985.18-Jan-2020 4958.01 6035.15 79.75 2.00 452.44 2829.97
   16:21:01.185.18-Jan-2020 4958.01 6037.38 79.75 2.00 452.64 2829.97
   16:21:01.385.18-Jan-2020 4958.01 6036.55 79.75 2.00 452.84 2829.97
   16:21:01.585.18-Jan-2020 4958.01 6038.59 79.75 2.00 453.04 2829.97
   16:21:01.785.18-Jan-2020 4958.01 6038.59 79.75 2.00 453.24 2829.97
   16:21:01.985.18-Jan-2020 4958.01 6038.53 79.75 2.00 453.44 2829.97
   16:21:02.185.18-Jan-2020 4958.01 6028.34 79.75 2.00 453.64 2829.97
   16:21:02.385.18-Jan-2020 4958.01 6036.46 79.75 2.00 453.84 2829.97
   16:21:02.585.18-Jan-2020 4958.01 6036.82 79.75 2.00 454.04 2829.97
   16:21:02.785.18-Jan-2020 4958.01 6036.82 79.75 2.00 454.24 2829.97
   16:21:02.985.18-Jan-2020 4958.01 6040.68 79.75 2.00 454.44 2829.97
   16:21:03.185.18-Jan-2020 4958.01 6039.42 79.75 2.00 454.64 2829.97
   16:21:03.385.18-Jan-2020 4958.01 6040.87 79.75 2.00 454.84 2829.97
   16:21:03.585.18-Jan-2020 4958.01 6038.98 79.75 2.00 455.04 2829.97
   16:21:03.786.18-Jan-2020 4958.01 6038.98 79.75 2.00 455.24 2829.97
   16:21:03.986.18-Jan-2020 4958.01 6039.22 79.75 2.00 455.44 2829.97
   16:21:04.186.18-Jan-2020 4958.01 6040.33 79.75 2.00 455.64 2829.97
   16:21:04.386.18-Jan-2020 4958.01 6039.77 79.75 2.00 455.84 2829.97
   16:21:04.586.18-Jan-2020 4958.01 6040.01 79.75 2.00 456.04 2829.97
   16:21:04.786.18-Jan-2020 4958.01 6040.01 79.75 2.00 456.24 2829.97
   16:21:04.986.18-Jan-2020 4958.01 6039.83 79.75 2.00 456.44 2829.97
   16:21:05.186.18-Jan-2020 4958.01 6040.63 79.75 2.00 456.64 2829.97
   16:21:05.386.18-Jan-2020 4958.01 6039.31 79.75 2.00 456.84 2829.97
   16:21:05.586.18-Jan-2020 4958.01 6031.77 79.75 2.00 457.04 2829.97
   16:21:05.786.18-Jan-2020 4958.01 6031.77 79.75 2.00 457.24 2829.97
   16:21:05.986.18-Jan-2020 4958.01 6038.60 79.75 2.00 457.44 2829.97
   16:21:06.186.18-Jan-2020 4958.01 6040.61 79.75 2.00 457.64 2829.97
   16:21:06.386.18-Jan-2020 4958.01 6042.57 79.75 2.00 457.84 2829.97
   16:21:06.586.18-Jan-2020 4958.01 6038.83 79.75 2.00 458.04 2829.97
   16:21:06.786.18-Jan-2020 4958.01 6038.83 79.75 2.00 458.24 2829.97
   16:21:06.986.18-Jan-2020 4958.01 6035.31 79.75 2.00 458.44 2829.97
   16:21:07.186.18-Jan-2020 4958.01 6040.76 79.75 2.00 458.64 2829.97
   16:21:07.386.18-Jan-2020 4958.01 6041.36 79.75 2.00 458.84 2829.97
   16:21:07.586.18-Jan-2020 4958.01 6041.05 79.75 2.00 459.04 2829.97
   16:21:07.786.18-Jan-2020 4958.01 6041.05 79.75 2.00 459.24 2829.97
   16:21:07.986.18-Jan-2020 4958.01 6039.72 79.75 2.00 459.44 2829.97
   16:21:08.186.18-Jan-2020 4958.01 6040.97 79.75 2.00 459.64 2829.97
   16:21:08.386.18-Jan-2020 4958.01 6040.16 79.75 2.00 459.84 2829.97
