~Version Information
 VERS.                  2.0:   CWLS log ASCII Standard -VERSION 2.0
 WRAP.                   NO:   One line per depth step
~Well Information Block
#MNEM.UNIT     VALUE/NAME     DESCRIPTION
#---------     -----------    ---------------------------
 STRT.S             14:05:37 19-Jan-20: START TIME 14:05:37 19-Jan-20
 STOP.S             14:13:29 19-Jan-20: STOP TIME  14:13:29 19-Jan-20
 STEP.S                   0.00: STEP TIME
 NULL.                 -999.25: NULL VALUE
 DFWT.                        :  DIST FWL TEXT
 DFST.                        :  DIST FSL TEXT
 DMF .             Drill Floor:  DRILL MEAS FROM
 STIM.      17.57.20 21-Dec-19:  START TIME
 DATE.      17.57.20 21-Dec-19:  END TIME
 SPUD.               21-Dec-19:  SPUD DATE
 NREF.                    Grid:  NORTH REFERENCE
 HPTY.       Minimum Curvature:  HOLE POS TYPE
 DMOD.             Drill Model:  DRILL MOD DESC
 SVYD.                  Survey:  SURVEY DESC
 ILTD.               Lithology:  INTERP LTH DESC
 FTOP.          Formation Tops:  FORM TOPS DESC
 PDAT.          Mean Sea Level:  PERMANENT DATUM
 FLD .                     ACG:  FIELD NAME
 SON .        AZ-XX-0905715376:  JOB NUMBER
 CTRY.              Azerbaijan:  COUNTRY NAME
 WELL.                    E04Y:  WELL NAME
 SRVC.          TURAN DRILLING:  CONTRACTOR
 COMP.     BP Exploration (Caspian Sea) Ltd.:  COMPANY
 WTYP.                Deviated:  WELL TYPE
 UWI .                     N/a:  UNIQUE WELL IDENTIFIER
 API .                     N/a:  API NUMBER
 BASE.              Azerbaijan:  LOGGING EQUIPMENT BASE LOCATION
 REGN.                   EESSA:  REGION
 MWDS.                    Baku:  MWD SHOP
 RIG .                     DWG:  RIG NAME
 DOE .                     N/a:  DOE NUMBER
 CNTY.                    Baku:  COUNTY NAME
 DCON.         Sperry Drilling:  DIRECTNL CONTR
 UNIT.                     N/a:  LOGGING EQUIPMENT ID
 MDS .        Operator Entered:  MAG DATA SOURCE
 PROV.                        :  PROVINCE
 STAT.                        :  STATE
 LOC .                        :  LOCATION
 LMF .             Drill Floor:  LOG MEASURED FROM
 TVDS.m                  43.16:  TVDSS CORRECTN
 LATI.deg                40.17:  LATITUDE
 LONG.deg                51.17:  LONGITUDE
 WHNS.m                  -0.12:  WELL HEAD N/S
 WHEW.m                  -5.41:  WELL HEAD E/W
 UTMX.m              514337.95:  UTM X
 UTMY.m             4448627.46:  UTM Y
 DFWL.m                   0.00:  DISTANCE FWL
 DFSL.m                   0.00:  DISTANCE FSL
 SDEP.m                   0.00:  START DEPTH
 TDD .m                   0.00:  TOTAL DEPTH (DRILLER)
 VSDR.deg               235.12:  VERT SEC DIRECT
 GVFD.g                   1.00:  GRAVITY FIELD
 MFLD.nT              50294.00:  MAGNETIC FIELD
 MDIP.deg                59.61:  MAGNETIC DIP
 MDEC.deg                 6.58:  MAGNETIC DECL
 GRDC.deg                 0.09:  GRID CORRECTION
 AZTC.deg                 6.49:  AZM TOTAL CORR
 EPD .m                   0.00:  ELEVATION
 EGL .m                   0.00:  GROUND ELEVATION
 WDMS.m                 176.20:  WD ELEV
 APD .m                  43.16:  DEPTH ABOVE PD
 DEP .m                3172.61:  DEPTH
 AGAP.m                  43.16:  AIR GAP
 VSEW.m                  -5.41:  VERT SEC E/W
 VSNS.m                  -0.12:  VERT SEC N/S
 EKB .m                  43.16:  KB ELEVATION
 EDF .m                  43.16:  DF ELEVATION
 TDL .m                 295.00:  TOTAL DEPTH (LOGGER)
 VSC .                       0:  VS TO CLOSURE
 MAGU.                 1852276:  MAGUTM CHECKSUM
~Parameter Information Block
#MNEM.UNIT       Value        Description
#---------     -----------    ---------------------------
 AV  .mps                 1.60:  Ann Velocity 
 AVMX.mps                 2.10:  Max Ann Veloc 
 AZIF.deg               290.59:  Azm, Final 
 BHAT.        Rotary Steerable:  BHA Type 
 BROT.°/30m               1.00:  Build Rotating 
 BS  .in                  6.50:  Bit Size 
 BSZ .in                  6.50:  Bit Size 
 BTPL.psig              120.00:  Bit Press Loss 
 CABU.                     Yes:  Customer Abuse 
 CGEO.          Eldar Huseynov:  Customer Geo 
 COMM.                     Tì‚:  Run Comments 1 
 TCS .hr                 87.00:  Time Ciculation Ended 
 CV  .mps                 4.01:  Crit Velocity 
 CVMX.mps                 5.06:  Max Crit Veloc 
 DD1 .             Aziz Aliyev:  Direct Drillr 1 
 DD2 .            Sanan Aliyev:  Direct Drillr 2 
 DDSV.               Geo-Pilot:  DD Service 
 DEFF.%                  95.00:  % Det Eff 
 DLRX.°/30m               0.75:  Dogleg Rot Max 
 DLSO.°/30m               0.65:  Dogleg Oriented 
 DLSX.°/30m               1.39:  Dogleg Str Max 
 DRET.      18.25.00 19-Jan-20:  Drill End Time 
 DRST.      11.56.48 17-Jan-20:  Drill Start Tim 
 DTIM.hr                 27.16:  Time Drilling 
 EDEP.m                5161.01:  End Depth 
 ENG1.          Rasim Hashimov:  Engineer 1 
 ENG2.      Bakhtiyar Jabbarli:  Engineer 2 
 ETIM.      11.56.48 21-Jan-20:  End Time 
 FLOI.gpm               350.00:  Flow In 
 FLON.gpm               300.00:  Flow In Min 
 FLOS.cptm                0.00:  Fluid Loss 
 FLOX.gpm               400.00:  Flow In Max 
 HFLO.                      No:  High Flow 
 HPRE.                      No:  High Pressure 
 HTEM.                      No:  High Temp 
 HYDO.m                   1.85:  Hydro Offset 
 IFIN.deg                71.58:  Inc, Final 
 IMAX.deg                71.83:  Inc Max 
 IMIN.deg                71.12:  Inc Min 
 IMND.m                5099.48:  Inc Min Depth 
 IMXD.m                5071.08:  Inc Max Depth 
 JARR.                      No:  Jarring 
 LETM.      18.25.00 19-Jan-20:  Log End Time 
 LOST.hr                     0:  Lost Rig Time 
 LSTM.      11.56.48 17-Jan-20:  Log Start Time 
 MDCL.ppm             37000.00:  Mud Chlorides 
 MDES.     Inversion Oil/Synthetic:  Mud Desc 
 DFD .sg                  1.34:  Mud Density 
 MDMN.sg                  1.34:  Dens Mud Min 
 MDMX.sg                  1.34:  Dens Mud Max 
 MOIL.                      69:  Run Mud Oil % 
 MOWR.                   69:31:  Run Mud OWR 
 MSND.                     0.1:  Run Mud Sand % 
 MSOL.                    17.6:  Run Mud Solids% 
 DFV .spqt               79.00:  Mud Viscosity 
 MWOD.in                  4.75:  MWD Tool OD 
 MWSI.                      No:  Serv Intrp, MWD 
 OTIM.hr                126.10:  Time Operating 
 PMAX.psia             6000.00:  Press Op, Max 
 PV  .cP                 29.00:  Mud PV 
 RUN .                     400:  Run Number 
 ROPA.m/hr               11.00:  ROP Avg 
 ROPN.m/hr                5.00:  ROP Min 
 ROPX.m/hr               18.00:  ROP Max 
 RPMA.rpm               139.00:  RPM Surface Avg 
 RPMN.rpm               100.00:  RPM Surface Min 
 RPMX.rpm               140.00:  RPM Surface Max 
 RRUN.                     400:  Rig Run Number 
 SAZI.deg               290.22:  Azm, Start 
 SDEP.m                4868.01:  Start Depth 
 SIDD.                      No:  Serv Intrp, DD 
 SINC.deg                71.77:  Inc, Start 
 SPPA.psig             5550.00:  SPP Avg 
 SPPN.psig             4300.00:  SPP Min 
 SPPX.psig             5600.00:  SPP Max 
 STIM.      23.45.48 15-Jan-20:  Start Time 
 SVCS.                 DD, MWD:  Services 
 SVER.                    9.20:  Sperry Version 
 TDAT.m                5161.01:  Tot Depth Attmp 
 TDDF.                      No:  Trip for DD 
 TDLG.m                 295.00:  Tot Depth Loggd 
 TFF .                      No:  Trip for Fail 
 TQAA.f-kp               13.00:  Torque Abs Avg 
 TQAN.f-kp               13.00:  Torque Abs Min 
 TQAX.f-kp               16.00:  Torque Abs Max 
 TRRT.°/30m               0.25:  Turn Rotating 
 MRT .                     ADR:  Maximum Recorded Temperature 
 TTMX.degC               88.00:  Max Tool Temp 
 VS01.                90577859:  Virtual Str1 SN 
 VS02.                90521879:  Virtual Str2 SN 
 VS03.                90580299:  Virtual Str3 SN 
 VS04.                90515982:  Virtual Str4 SN 
 VS05.                90547765:  Virtual Str5 SN 
 WBMN.klb                 2.00:  WOB Min 
 WITN.           Adil Mammadov:  Customer Rep 
 WITN.        Elmaddin Rahimov:  Customer Rep 2 
 WOBA.klb                 3.00:  WOB Avg 
 WOBX.klb                 5.00:  WOB Max 
 YP  .lhf2               30.00:  Yield Point 
~Curve Information Block
#MNEM.UNIT                 API CODE     Curve Description
#---------               -----------    ---------------------------
 TIME.HHMMSS            00 000 000 000:  GT Time & Date
 GTDEPTH.m              00 000 000 000:  GT Depth
 GTPQH.psia             00 000 000 000:  GT HR Quartz Pressure
 GTTQ.degC              00 000 000 000:  GT Quartz Temperature
 GTTN.NONE              00 000 000 000:  GT Test Number
 GTET.sec               00 000 000 000:  GT Elapsed Test Time
 GTTVD.m                00 000 000 000:  GT True Vertical Depth
#Other Information
#
#WARRANTY: Halliburton will use its best efforts to furnish customers with 
#accurate information and interpretations that are part of, and incident to, the services 
#provided.  However, Halliburton cannot and does not warrant the accuracy 
#or correctness of such information and interpretations.  Under no circumstances should any 
#such information or interpretation be relied upon as the sole basis for any drilling, 
#completion, production, or financial decision or any procedure involving any risk to the 
#safety of any drilling venture, drilling rig or its crew or any other third party.  The 
#Customer has full responsibility for all drilling, completion and production operation.  
#Halliburton makes no representations or warranties, either expressed or 
#implied, including, but not limited to, the implied warranties of merchantability or fitness 
#for a particular purpose, with respect to the services rendered.  In no event will 
#Halliburton be liable for failure to obtain any particular results or for 
#any damages, including, but not limited to, indirect, special or consequential damages, 
#resulting from the use of any information or interpretation provided by Halliburton.
#
~A           TIME           GTDEPTH  GTPQH  GTTQ  GTTN  GTET   GTTVD  
# ...
   14:12:54.717.19-Jan-2020 5113.51 4117.22 81.36 6.00 437.09 2879.41
   14:12:54.917.19-Jan-2020 5113.51 4117.22 81.36 6.00 437.29 2879.41
   14:12:55.117.19-Jan-2020 5113.51 4117.20 81.36 6.00 437.49 2879.41
   14:12:55.317.19-Jan-2020 5113.51 4117.20 81.36 6.00 437.69 2879.41
   14:12:55.517.19-Jan-2020 5113.51 4117.20 81.36 6.00 437.89 2879.41
   14:12:55.717.19-Jan-2020 5113.51 4117.19 81.36 6.00 438.09 2879.41
   14:12:55.917.19-Jan-2020 5113.51 4117.19 81.36 6.00 438.29 2879.41
   14:12:56.117.19-Jan-2020 5113.51 4117.08 81.36 6.00 438.49 2879.41
   14:12:56.317.19-Jan-2020 5113.51 4117.24 81.36 6.00 438.69 2879.41
   14:12:56.517.19-Jan-2020 5113.51 4117.19 81.36 6.00 438.89 2879.41
   14:12:56.718.19-Jan-2020 5113.51 4117.19 81.35 6.00 439.09 2879.41
   14:12:56.918.19-Jan-2020 5113.51 4117.19 81.35 6.00 439.29 2879.41
   14:12:57.118.19-Jan-2020 5113.51 4124.78 81.35 6.00 439.49 2879.41
   14:12:57.318.19-Jan-2020 5113.51 4143.65 81.35 6.00 439.69 2879.41
   14:12:57.518.19-Jan-2020 5113.51 5598.27 81.35 6.00 439.89 2879.41
   14:12:57.718.19-Jan-2020 5113.51 6182.33 81.35 6.00 440.09 2879.41
   14:12:57.918.19-Jan-2020 5113.51 6182.33 81.35 6.00 440.29 2879.41
   14:12:58.118.19-Jan-2020 5113.51 6180.93 81.35 6.00 440.49 2879.41
   14:12:58.318.19-Jan-2020 5113.51 6181.61 81.35 6.00 440.69 2879.41
   14:12:58.518.19-Jan-2020 5113.51 6181.28 81.35 6.00 440.89 2879.41
   14:12:58.718.19-Jan-2020 5113.51 6182.54 81.35 6.00 441.09 2879.41
   14:12:58.918.19-Jan-2020 5113.51 6182.54 81.35 6.00 441.29 2879.41
   14:12:59.118.19-Jan-2020 5113.51 6183.12 81.35 6.00 441.49 2879.41
   14:12:59.318.19-Jan-2020 5113.51 6183.21 81.35 6.00 441.69 2879.41
   14:12:59.518.19-Jan-2020 5113.51 6183.16 81.35 6.00 441.89 2879.41
   14:12:59.718.19-Jan-2020 5113.51 6177.69 81.35 6.00 442.09 2879.41
   14:12:59.918.19-Jan-2020 5113.51 6177.69 81.35 6.00 442.29 2879.41
   14:13:00.118.19-Jan-2020 5113.51 6184.12 81.35 6.00 442.49 2879.41
   14:13:00.318.19-Jan-2020 5113.51 6180.82 81.35 6.00 442.69 2879.41
   14:13:00.518.19-Jan-2020 5113.51 6179.77 81.35 6.00 442.89 2879.41
   14:13:00.718.19-Jan-2020 5113.51 6184.46 81.35 6.00 443.09 2879.41
   14:13:00.918.19-Jan-2020 5113.51 6184.46 81.35 6.00 443.29 2879.41
   14:13:01.118.19-Jan-2020 5113.51 6182.91 81.35 6.00 443.49 2879.41
   14:13:01.318.19-Jan-2020 5113.51 6187.04 81.35 6.00 443.69 2879.41
   14:13:01.519.19-Jan-2020 5113.51 6178.18 81.35 6.00 443.89 2879.41
   14:13:01.719.19-Jan-2020 5113.51 6187.46 81.36 6.00 444.09 2879.41
   14:13:01.919.19-Jan-2020 5113.51 6187.46 81.36 6.00 444.29 2879.41
   14:13:02.119.19-Jan-2020 5113.51 6184.79 81.36 6.00 444.49 2879.41
   14:13:02.319.19-Jan-2020 5113.51 6185.27 81.36 6.00 444.69 2879.41
   14:13:02.519.19-Jan-2020 5113.51 6185.68 81.36 6.00 444.89 2879.41
   14:13:02.719.19-Jan-2020 5113.51 6181.38 81.36 6.00 445.09 2879.41
   14:13:02.919.19-Jan-2020 5113.51 6181.38 81.36 6.00 445.29 2879.41
   14:13:03.119.19-Jan-2020 5113.51 6187.60 81.36 6.00 445.49 2879.41
   14:13:03.319.19-Jan-2020 5113.51 6183.65 81.36 6.00 445.69 2879.41
   14:13:03.519.19-Jan-2020 5113.51 6187.92 81.36 6.00 445.89 2879.41
   14:13:03.719.19-Jan-2020 5113.51 6188.50 81.36 6.00 446.09 2879.41
   14:13:03.919.19-Jan-2020 5113.51 6188.50 81.36 6.00 446.29 2879.41
   14:13:04.119.19-Jan-2020 5113.51 6187.77 81.36 6.00 446.49 2879.41
   14:13:04.319.19-Jan-2020 5113.51 6188.51 81.36 6.00 446.69 2879.41
   14:13:04.519.19-Jan-2020 5113.51 6188.52 81.36 6.00 446.89 2879.41
   14:13:04.719.19-Jan-2020 5113.51 6188.90 81.36 6.00 447.09 2879.41
   14:13:04.919.19-Jan-2020 5113.51 6188.90 81.36 6.00 447.29 2879.41
   14:13:05.119.19-Jan-2020 5113.51 6187.98 81.36 6.00 447.49 2879.41
   14:13:05.319.19-Jan-2020 5113.51 6187.53 81.36 6.00 447.69 2879.41
   14:13:05.519.19-Jan-2020 5113.51 6187.32 81.36 6.00 447.89 2879.41
   14:13:05.719.19-Jan-2020 5113.51 6188.65 81.36 6.00 448.09 2879.41
   14:13:05.919.19-Jan-2020 5113.51 6188.65 81.36 6.00 448.29 2879.41
   14:13:06.119.19-Jan-2020 5113.51 6191.19 81.36 6.00 448.49 2879.41
   14:13:06.319.19-Jan-2020 5113.51 6186.53 81.36 6.00 448.69 2879.41
   14:13:06.520.19-Jan-2020 5113.51 6183.64 81.36 6.00 448.89 2879.41
   14:13:06.720.19-Jan-2020 5113.51 6187.52 81.36 6.00 449.09 2879.41
   14:13:06.920.19-Jan-2020 5113.51 6187.52 81.36 6.00 449.29 2879.41
   14:13:07.120.19-Jan-2020 5113.51 6186.92 81.36 6.00 449.49 2879.41
   14:13:07.320.19-Jan-2020 5113.51 6187.70 81.36 6.00 449.69 2879.41
   14:13:07.520.19-Jan-2020 5113.51 6187.54 81.36 6.00 449.89 2879.41
   14:13:07.720.19-Jan-2020 5113.51 6187.02 81.36 6.00 450.09 2879.41
   14:13:07.920.19-Jan-2020 5113.51 6187.02 81.36 6.00 450.29 2879.41
   14:13:08.120.19-Jan-2020 5113.51 6186.79 81.36 6.00 450.49 2879.41
   14:13:08.320.19-Jan-2020 5113.51 6187.10 81.36 6.00 450.69 2879.41
   14:13:08.520.19-Jan-2020 5113.51 6186.44 81.36 6.00 450.89 2879.41
   14:13:08.720.19-Jan-2020 5113.51 6186.84 81.36 6.00 451.09 2879.41
   14:13:08.920.19-Jan-2020 5113.51 6186.84 81.36 6.00 451.29 2879.41
   14:13:09.120.19-Jan-2020 5113.51 6187.06 81.36 6.00 451.49 2879.41
   14:13:09.320.19-Jan-2020 5113.51 6175.03 81.36 6.00 451.69 2879.41
   14:13:09.520.19-Jan-2020 5113.51 6190.13 81.36 6.00 451.89 2879.41
   14:13:09.720.19-Jan-2020 5113.51 6185.81 81.36 6.00 452.09 2879.41
   14:13:09.920.19-Jan-2020 5113.51 6185.81 81.36 6.00 452.29 2879.41
   14:13:10.120.19-Jan-2020 5113.51 6187.59 81.36 6.00 452.49 2879.41
   14:13:10.320.19-Jan-2020 5113.51 6179.27 81.36 6.00 452.69 2879.41
   14:13:10.520.19-Jan-2020 5113.51 6187.90 81.36 6.00 452.89 2879.41
   14:13:10.720.19-Jan-2020 5113.51 6185.57 81.36 6.00 453.09 2879.41
   14:13:10.920.19-Jan-2020 5113.51 6185.57 81.36 6.00 453.29 2879.41
   14:13:11.120.19-Jan-2020 5113.51 6185.71 81.36 6.00 453.49 2879.41
   14:13:11.321.19-Jan-2020 5113.51 6177.90 81.36 6.00 453.69 2879.41
   14:13:11.521.19-Jan-2020 5113.51 6187.89 81.36 6.00 453.89 2879.41
   14:13:11.721.19-Jan-2020 5113.51 6187.76 81.36 6.00 454.09 2879.41
   14:13:11.921.19-Jan-2020 5113.51 6187.76 81.36 6.00 454.29 2879.41
   14:13:12.121.19-Jan-2020 5113.51 6188.37 81.36 6.00 454.49 2879.41
   14:13:12.321.19-Jan-2020 5113.51 6187.21 81.36 6.00 454.69 2879.41
   14:13:12.521.19-Jan-2020 5113.51 6177.77 81.36 6.00 454.89 2879.41
   14:13:12.721.19-Jan-2020 5113.51 6189.00 81.36 6.00 455.09 2879.41
   14:13:12.921.19-Jan-2020 5113.51 6189.00 81.36 6.00 455.29 2879.41
   14:13:13.121.19-Jan-2020 5113.51 6182.78 81.36 6.00 455.49 2879.41
   14:13:13.321.19-Jan-2020 5113.51 6188.66 81.36 6.00 455.69 2879.41
   14:13:13.521.19-Jan-2020 5113.51 6189.06 81.36 6.00 455.89 2879.41
   14:13:13.721.19-Jan-2020 5113.51 6187.32 81.36 6.00 456.09 2879.41
   14:13:13.921.19-Jan-2020 5113.51 6187.32 81.36 6.00 456.29 2879.41
   14:13:14.121.19-Jan-2020 5113.51 6187.64 81.36 6.00 456.49 2879.41
   14:13:14.321.19-Jan-2020 5113.51 6187.94 81.36 6.00 456.69 2879.41
   14:13:14.521.19-Jan-2020 5113.51 6188.29 81.36 6.00 456.89 2879.41
   14:13:14.721.19-Jan-2020 5113.51 6188.54 81.36 6.00 457.09 2879.41
   14:13:14.921.19-Jan-2020 5113.51 6188.54 81.36 6.00 457.29 2879.41
   14:13:15.121.19-Jan-2020 5113.51 6187.47 81.36 6.00 457.49 2879.41
   14:13:15.321.19-Jan-2020 5113.51 6188.29 81.36 6.00 457.69 2879.41
   14:13:15.521.19-Jan-2020 5113.51 6187.99 81.36 6.00 457.89 2879.41
   14:13:15.721.19-Jan-2020 5113.51 6180.30 81.36 6.00 458.09 2879.41
   14:13:15.921.19-Jan-2020 5113.51 6180.30 81.36 6.00 458.29 2879.41
   14:13:16.122.19-Jan-2020 5113.51 6185.96 81.36 6.00 458.49 2879.41
   14:13:16.322.19-Jan-2020 5113.51 6184.25 81.36 6.00 458.69 2879.41
   14:13:16.522.19-Jan-2020 5113.51 6186.56 81.36 6.00 458.89 2879.41
   14:13:16.722.19-Jan-2020 5113.51 6187.32 81.36 6.00 459.09 2879.41
   14:13:16.922.19-Jan-2020 5113.51 6187.32 81.36 6.00 459.29 2879.41
   14:13:17.122.19-Jan-2020 5113.51 6186.92 81.36 6.00 459.49 2879.41
   14:13:17.322.19-Jan-2020 5113.51 6187.82 81.36 6.00 459.69 2879.41
   14:13:17.522.19-Jan-2020 5113.51 6187.10 81.36 6.00 459.89 2879.41
