~Version Information
 VERS.                  2.0:   CWLS log ASCII Standard -VERSION 2.0
 WRAP.                   NO:   One line per depth step
~Well Information Block
#MNEM.UNIT     VALUE/NAME     DESCRIPTION
#---------     -----------    ---------------------------
 STRT.S             19:23:23 18-Jan-20: START TIME 19:23:23 18-Jan-20
 STOP.S             19:31:15 18-Jan-20: STOP TIME  19:31:15 18-Jan-20
 STEP.S                   0.00: STEP TIME
 NULL.                 -999.25: NULL VALUE
 DFWT.                        :  DIST FWL TEXT
 DFST.                        :  DIST FSL TEXT
 DMF .             Drill Floor:  DRILL MEAS FROM
 STIM.      17.57.20 21-Dec-19:  START TIME
 DATE.      17.57.20 21-Dec-19:  END TIME
 SPUD.               21-Dec-19:  SPUD DATE
 NREF.                    Grid:  NORTH REFERENCE
 HPTY.       Minimum Curvature:  HOLE POS TYPE
 DMOD.             Drill Model:  DRILL MOD DESC
 SVYD.                  Survey:  SURVEY DESC
 ILTD.               Lithology:  INTERP LTH DESC
 FTOP.          Formation Tops:  FORM TOPS DESC
 PDAT.          Mean Sea Level:  PERMANENT DATUM
 FLD .                     ACG:  FIELD NAME
 SON .        AZ-XX-0905715376:  JOB NUMBER
 CTRY.              Azerbaijan:  COUNTRY NAME
 WELL.                    E04Y:  WELL NAME
 SRVC.          TURAN DRILLING:  CONTRACTOR
 COMP.     BP Exploration (Caspian Sea) Ltd.:  COMPANY
 WTYP.                Deviated:  WELL TYPE
 UWI .                     N/a:  UNIQUE WELL IDENTIFIER
 API .                     N/a:  API NUMBER
 BASE.              Azerbaijan:  LOGGING EQUIPMENT BASE LOCATION
 REGN.                   EESSA:  REGION
 MWDS.                    Baku:  MWD SHOP
 RIG .                     DWG:  RIG NAME
 DOE .                     N/a:  DOE NUMBER
 CNTY.                    Baku:  COUNTY NAME
 DCON.         Sperry Drilling:  DIRECTNL CONTR
 UNIT.                     N/a:  LOGGING EQUIPMENT ID
 MDS .        Operator Entered:  MAG DATA SOURCE
 PROV.                        :  PROVINCE
 STAT.                        :  STATE
 LOC .                        :  LOCATION
 LMF .             Drill Floor:  LOG MEASURED FROM
 TVDS.m                  43.16:  TVDSS CORRECTN
 LATI.deg                40.17:  LATITUDE
 LONG.deg                51.17:  LONGITUDE
 WHNS.m                  -0.12:  WELL HEAD N/S
 WHEW.m                  -5.41:  WELL HEAD E/W
 UTMX.m              514337.95:  UTM X
 UTMY.m             4448627.46:  UTM Y
 DFWL.m                   0.00:  DISTANCE FWL
 DFSL.m                   0.00:  DISTANCE FSL
 SDEP.m                   0.00:  START DEPTH
 TDD .m                   0.00:  TOTAL DEPTH (DRILLER)
 VSDR.deg               235.12:  VERT SEC DIRECT
 GVFD.g                   1.00:  GRAVITY FIELD
 MFLD.nT              50294.00:  MAGNETIC FIELD
 MDIP.deg                59.61:  MAGNETIC DIP
 MDEC.deg                 6.58:  MAGNETIC DECL
 GRDC.deg                 0.09:  GRID CORRECTION
 AZTC.deg                 6.49:  AZM TOTAL CORR
 EPD .m                   0.00:  ELEVATION
 EGL .m                   0.00:  GROUND ELEVATION
 WDMS.m                 176.20:  WD ELEV
 APD .m                  43.16:  DEPTH ABOVE PD
 DEP .m                3172.61:  DEPTH
 AGAP.m                  43.16:  AIR GAP
 VSEW.m                  -5.41:  VERT SEC E/W
 VSNS.m                  -0.12:  VERT SEC N/S
 EKB .m                  43.16:  KB ELEVATION
 EDF .m                  43.16:  DF ELEVATION
 TDL .m                 295.00:  TOTAL DEPTH (LOGGER)
 VSC .                       0:  VS TO CLOSURE
 MAGU.                 1852276:  MAGUTM CHECKSUM
~Parameter Information Block
#MNEM.UNIT       Value        Description
#---------     -----------    ---------------------------
 AV  .mps                 1.60:  Ann Velocity 
 AVMX.mps                 2.10:  Max Ann Veloc 
 AZIF.deg               290.59:  Azm, Final 
 BHAT.        Rotary Steerable:  BHA Type 
 BROT.°/30m               1.00:  Build Rotating 
 BS  .in                  6.50:  Bit Size 
 BSZ .in                  6.50:  Bit Size 
 BTPL.psig              120.00:  Bit Press Loss 
 CABU.                     Yes:  Customer Abuse 
 CGEO.          Eldar Huseynov:  Customer Geo 
 COMM.                     ”%\:  Run Comments 1 
 TCS .hr                 87.00:  Time Ciculation Ended 
 CV  .mps                 4.01:  Crit Velocity 
 CVMX.mps                 5.06:  Max Crit Veloc 
 DD1 .             Aziz Aliyev:  Direct Drillr 1 
 DD2 .            Sanan Aliyev:  Direct Drillr 2 
 DDSV.               Geo-Pilot:  DD Service 
 DEFF.%                  95.00:  % Det Eff 
 DLRX.°/30m               0.75:  Dogleg Rot Max 
 DLSO.°/30m               0.65:  Dogleg Oriented 
 DLSX.°/30m               1.39:  Dogleg Str Max 
 DRET.      18.25.00 19-Jan-20:  Drill End Time 
 DRST.      11.56.48 17-Jan-20:  Drill Start Tim 
 DTIM.hr                 27.16:  Time Drilling 
 EDEP.m                5161.01:  End Depth 
 ENG1.          Rasim Hashimov:  Engineer 1 
 ENG2.      Bakhtiyar Jabbarli:  Engineer 2 
 ETIM.      11.56.48 21-Jan-20:  End Time 
 FLOI.gpm               350.00:  Flow In 
 FLON.gpm               300.00:  Flow In Min 
 FLOS.cptm                0.00:  Fluid Loss 
 FLOX.gpm               400.00:  Flow In Max 
 HFLO.                      No:  High Flow 
 HPRE.                      No:  High Pressure 
 HTEM.                      No:  High Temp 
 HYDO.m                   1.85:  Hydro Offset 
 IFIN.deg                71.58:  Inc, Final 
 IMAX.deg                71.83:  Inc Max 
 IMIN.deg                71.12:  Inc Min 
 IMND.m                5099.48:  Inc Min Depth 
 IMXD.m                5071.08:  Inc Max Depth 
 JARR.                      No:  Jarring 
 LETM.      18.25.00 19-Jan-20:  Log End Time 
 LOST.hr                     0:  Lost Rig Time 
 LSTM.      11.56.48 17-Jan-20:  Log Start Time 
 MDCL.ppm             37000.00:  Mud Chlorides 
 MDES.     Inversion Oil/Synthetic:  Mud Desc 
 DFD .sg                  1.34:  Mud Density 
 MDMN.sg                  1.34:  Dens Mud Min 
 MDMX.sg                  1.34:  Dens Mud Max 
 MOIL.                      69:  Run Mud Oil % 
 MOWR.                   69:31:  Run Mud OWR 
 MSND.                     0.1:  Run Mud Sand % 
 MSOL.                    17.6:  Run Mud Solids% 
 DFV .spqt               79.00:  Mud Viscosity 
 MWOD.in                  4.75:  MWD Tool OD 
 MWSI.                      No:  Serv Intrp, MWD 
 OTIM.hr                126.10:  Time Operating 
 PMAX.psia             6000.00:  Press Op, Max 
 PV  .cP                 29.00:  Mud PV 
 RUN .                     400:  Run Number 
 ROPA.m/hr               11.00:  ROP Avg 
 ROPN.m/hr                5.00:  ROP Min 
 ROPX.m/hr               18.00:  ROP Max 
 RPMA.rpm               139.00:  RPM Surface Avg 
 RPMN.rpm               100.00:  RPM Surface Min 
 RPMX.rpm               140.00:  RPM Surface Max 
 RRUN.                     400:  Rig Run Number 
 SAZI.deg               290.22:  Azm, Start 
 SDEP.m                4868.01:  Start Depth 
 SIDD.                      No:  Serv Intrp, DD 
 SINC.deg                71.77:  Inc, Start 
 SPPA.psig             5550.00:  SPP Avg 
 SPPN.psig             4300.00:  SPP Min 
 SPPX.psig             5600.00:  SPP Max 
 STIM.      23.45.48 15-Jan-20:  Start Time 
 SVCS.                 DD, MWD:  Services 
 SVER.                    9.20:  Sperry Version 
 TDAT.m                5161.01:  Tot Depth Attmp 
 TDDF.                      No:  Trip for DD 
 TDLG.m                 295.00:  Tot Depth Loggd 
 TFF .                      No:  Trip for Fail 
 TQAA.f-kp               13.00:  Torque Abs Avg 
 TQAN.f-kp               13.00:  Torque Abs Min 
 TQAX.f-kp               16.00:  Torque Abs Max 
 TRRT.°/30m               0.25:  Turn Rotating 
 MRT .                     ADR:  Maximum Recorded Temperature 
 TTMX.degC               88.00:  Max Tool Temp 
 VS01.                90577859:  Virtual Str1 SN 
 VS02.                90521879:  Virtual Str2 SN 
 VS03.                90580299:  Virtual Str3 SN 
 VS04.                90515982:  Virtual Str4 SN 
 VS05.                90547765:  Virtual Str5 SN 
 WBMN.klb                 2.00:  WOB Min 
 WITN.           Adil Mammadov:  Customer Rep 
 WITN.        Elmaddin Rahimov:  Customer Rep 2 
 WOBA.klb                 3.00:  WOB Avg 
 WOBX.klb                 5.00:  WOB Max 
 YP  .lhf2               30.00:  Yield Point 
~Curve Information Block
#MNEM.UNIT                 API CODE     Curve Description
#---------               -----------    ---------------------------
 TIME.HHMMSS            00 000 000 000:  GT Time & Date
 GTDEPTH.m              00 000 000 000:  GT Depth
 GTPQH.psia             00 000 000 000:  GT HR Quartz Pressure
 GTTQ.degC              00 000 000 000:  GT Quartz Temperature
 GTTN.NONE              00 000 000 000:  GT Test Number
 GTET.sec               00 000 000 000:  GT Elapsed Test Time
 GTTVD.m                00 000 000 000:  GT True Vertical Depth
#Other Information
#
#WARRANTY: Halliburton will use its best efforts to furnish customers with 
#accurate information and interpretations that are part of, and incident to, the services 
#provided.  However, Halliburton cannot and does not warrant the accuracy 
#or correctness of such information and interpretations.  Under no circumstances should any 
#such information or interpretation be relied upon as the sole basis for any drilling, 
#completion, production, or financial decision or any procedure involving any risk to the 
#safety of any drilling venture, drilling rig or its crew or any other third party.  The 
#Customer has full responsibility for all drilling, completion and production operation.  
#Halliburton makes no representations or warranties, either expressed or 
#implied, including, but not limited to, the implied warranties of merchantability or fitness 
#for a particular purpose, with respect to the services rendered.  In no event will 
#Halliburton be liable for failure to obtain any particular results or for 
#any damages, including, but not limited to, indirect, special or consequential damages, 
#resulting from the use of any information or interpretation provided by Halliburton.
#
~A           TIME           GTDEPTH  GTPQH  GTTQ  GTTN  GTET   GTTVD  
# ...
   19:26:04.170.18-Jan-2020 4980.01 4428.36 81.32 3.00 161.03 2836.95
   19:26:04.370.18-Jan-2020 4980.01 4428.36 81.32 3.00 161.23 2836.95
   19:26:04.570.18-Jan-2020 4980.01 4428.36 81.32 3.00 161.43 2836.95
   19:26:04.771.18-Jan-2020 4980.01 4428.33 81.32 3.00 161.63 2836.95
   19:26:04.971.18-Jan-2020 4980.01 4428.35 81.31 3.00 161.83 2836.95
   19:26:05.171.18-Jan-2020 4980.01 4428.32 81.31 3.00 162.03 2836.95
   19:26:05.371.18-Jan-2020 4980.01 4428.32 81.31 3.00 162.23 2836.95
   19:26:05.571.18-Jan-2020 4980.01 4428.33 81.31 3.00 162.43 2836.95
   19:26:05.771.18-Jan-2020 4980.01 4428.24 81.31 3.00 162.63 2836.95
   19:26:05.971.18-Jan-2020 4980.01 4428.41 81.31 3.00 162.83 2836.95
   19:26:06.171.18-Jan-2020 4980.01 4424.56 81.31 3.00 163.03 2836.95
   19:26:06.371.18-Jan-2020 4980.01 4424.56 81.31 3.00 163.23 2836.95
   19:26:06.571.18-Jan-2020 4980.01 4422.67 81.31 3.00 163.43 2836.95
   19:26:06.771.18-Jan-2020 4980.01 4422.74 81.31 3.00 163.63 2836.95
   19:26:06.971.18-Jan-2020 4980.01 4422.75 81.31 3.00 163.83 2836.95
   19:26:07.171.18-Jan-2020 4980.01 4422.61 81.31 3.00 164.03 2836.95
   19:26:07.371.18-Jan-2020 4980.01 4422.61 81.31 3.00 164.23 2836.95
   19:26:07.571.18-Jan-2020 4980.01 4422.72 81.31 3.00 164.43 2836.95
   19:26:07.771.18-Jan-2020 4980.01 4422.71 81.31 3.00 164.63 2836.95
   19:26:07.971.18-Jan-2020 4980.01 4422.54 81.31 3.00 164.83 2836.95
   19:26:08.171.18-Jan-2020 4980.01 4422.41 81.31 3.00 165.03 2836.95
   19:26:08.371.18-Jan-2020 4980.01 4422.41 81.31 3.00 165.23 2836.95
   19:26:08.571.18-Jan-2020 4980.01 4422.61 81.30 3.00 165.43 2836.95
   19:26:08.771.18-Jan-2020 4980.01 4422.66 81.30 3.00 165.63 2836.95
   19:26:08.971.18-Jan-2020 4980.01 4422.61 81.30 3.00 165.83 2836.95
   19:26:09.171.18-Jan-2020 4980.01 4422.22 81.30 3.00 166.03 2836.95
   19:26:09.371.18-Jan-2020 4980.01 4422.22 81.30 3.00 166.23 2836.95
   19:26:09.571.18-Jan-2020 4980.01 4422.64 81.30 3.00 166.43 2836.95
   19:26:09.772.18-Jan-2020 4980.01 4422.80 81.30 3.00 166.63 2836.95
   19:26:09.972.18-Jan-2020 4980.01 4422.55 81.30 3.00 166.83 2836.95
   19:26:10.172.18-Jan-2020 4980.01 4422.31 81.30 3.00 167.03 2836.95
   19:26:10.372.18-Jan-2020 4980.01 4422.31 81.30 3.00 167.23 2836.95
   19:26:10.572.18-Jan-2020 4980.01 4422.62 81.30 3.00 167.43 2836.95
   19:26:10.772.18-Jan-2020 4980.01 4422.60 81.30 3.00 167.63 2836.95
   19:26:10.972.18-Jan-2020 4980.01 4422.58 81.30 3.00 167.83 2836.95
   19:26:11.172.18-Jan-2020 4980.01 4422.49 81.30 3.00 168.03 2836.95
   19:26:11.372.18-Jan-2020 4980.01 4422.49 81.30 3.00 168.23 2836.95
   19:26:11.572.18-Jan-2020 4980.01 4422.59 81.30 3.00 168.43 2836.95
   19:26:11.772.18-Jan-2020 4980.01 4422.50 81.29 3.00 168.63 2836.95
   19:26:11.972.18-Jan-2020 4980.01 4422.57 81.29 3.00 168.83 2836.95
   19:26:12.172.18-Jan-2020 4980.01 4422.48 81.29 3.00 169.03 2836.95
   19:26:12.372.18-Jan-2020 4980.01 4422.48 81.29 3.00 169.23 2836.95
   19:26:12.572.18-Jan-2020 4980.01 4422.47 81.29 3.00 169.43 2836.95
   19:26:12.772.18-Jan-2020 4980.01 4422.59 81.29 3.00 169.63 2836.95
   19:26:12.972.18-Jan-2020 4980.01 4422.11 81.29 3.00 169.83 2836.95
   19:26:13.172.18-Jan-2020 4980.01 4422.73 81.29 3.00 170.03 2836.95
   19:26:13.372.18-Jan-2020 4980.01 4422.73 81.29 3.00 170.23 2836.95
   19:26:13.572.18-Jan-2020 4980.01 4422.49 81.29 3.00 170.43 2836.95
   19:26:13.772.18-Jan-2020 4980.01 4422.43 81.29 3.00 170.63 2836.95
   19:26:13.972.18-Jan-2020 4980.01 4422.64 81.29 3.00 170.83 2836.95
   19:26:14.172.18-Jan-2020 4980.01 4422.58 81.29 3.00 171.03 2836.95
   19:26:14.372.18-Jan-2020 4980.01 4422.58 81.29 3.00 171.23 2836.95
   19:26:14.572.18-Jan-2020 4980.01 4422.59 81.29 3.00 171.43 2836.95
   19:26:14.772.18-Jan-2020 4980.01 4422.44 81.29 3.00 171.63 2836.95
   19:26:14.973.18-Jan-2020 4980.01 4422.49 81.29 3.00 171.83 2836.95
   19:26:15.173.18-Jan-2020 4980.01 4422.41 81.28 3.00 172.03 2836.95
   19:26:15.373.18-Jan-2020 4980.01 4422.41 81.28 3.00 172.23 2836.95
   19:26:15.573.18-Jan-2020 4980.01 4422.38 81.28 3.00 172.43 2836.95
   19:26:15.773.18-Jan-2020 4980.01 4422.46 81.28 3.00 172.63 2836.95
   19:26:15.973.18-Jan-2020 4980.01 4422.49 81.28 3.00 172.83 2836.95
   19:26:16.173.18-Jan-2020 4980.01 4422.06 81.28 3.00 173.03 2836.95
   19:26:16.373.18-Jan-2020 4980.01 4422.06 81.28 3.00 173.23 2836.95
   19:26:16.573.18-Jan-2020 4980.01 4428.08 81.28 3.00 173.43 2836.95
   19:26:16.773.18-Jan-2020 4980.01 4428.20 81.28 3.00 173.63 2836.95
   19:26:16.973.18-Jan-2020 4980.01 4428.19 81.28 3.00 173.83 2836.95
   19:26:17.173.18-Jan-2020 4980.01 4428.22 81.28 3.00 174.03 2836.95
   19:26:17.373.18-Jan-2020 4980.01 4428.22 81.28 3.00 174.23 2836.95
   19:26:17.573.18-Jan-2020 4980.01 4428.23 81.28 3.00 174.43 2836.95
   19:26:17.773.18-Jan-2020 4980.01 4428.21 81.28 3.00 174.63 2836.95
   19:26:17.973.18-Jan-2020 4980.01 4428.22 81.28 3.00 174.83 2836.95
   19:26:18.173.18-Jan-2020 4980.01 4428.23 81.28 3.00 175.03 2836.95
   19:26:18.373.18-Jan-2020 4980.01 4428.23 81.28 3.00 175.23 2836.95
   19:26:18.573.18-Jan-2020 4980.01 4428.23 81.27 3.00 175.43 2836.95
   19:26:18.773.18-Jan-2020 4980.01 4428.23 81.27 3.00 175.63 2836.95
   19:26:18.973.18-Jan-2020 4980.01 4428.24 81.27 3.00 175.83 2836.95
   19:26:19.173.18-Jan-2020 4980.01 4428.23 81.27 3.00 176.03 2836.95
   19:26:19.373.18-Jan-2020 4980.01 4428.23 81.27 3.00 176.23 2836.95
   19:26:19.573.18-Jan-2020 4980.01 4428.13 81.27 3.00 176.43 2836.95
   19:26:19.773.18-Jan-2020 4980.01 4428.38 81.27 3.00 176.63 2836.95
   19:26:19.973.18-Jan-2020 4980.01 4428.24 81.27 3.00 176.83 2836.95
   19:26:20.174.18-Jan-2020 4980.01 4428.35 81.27 3.00 177.03 2836.95
   19:26:20.374.18-Jan-2020 4980.01 4428.35 81.27 3.00 177.23 2836.95
   19:26:20.574.18-Jan-2020 4980.01 4428.31 81.27 3.00 177.43 2836.95
   19:26:20.774.18-Jan-2020 4980.01 4428.29 81.27 3.00 177.63 2836.95
   19:26:20.974.18-Jan-2020 4980.01 4428.34 81.27 3.00 177.83 2836.95
   19:26:21.174.18-Jan-2020 4980.01 4428.31 81.27 3.00 178.03 2836.95
   19:26:21.374.18-Jan-2020 4980.01 4428.31 81.27 3.00 178.23 2836.95
   19:26:21.574.18-Jan-2020 4980.01 4428.32 81.27 3.00 178.43 2836.95
   19:26:21.774.18-Jan-2020 4980.01 4428.15 81.27 3.00 178.63 2836.95
   19:26:21.974.18-Jan-2020 4980.01 4428.43 81.26 3.00 178.83 2836.95
   19:26:22.174.18-Jan-2020 4980.01 4428.29 81.26 3.00 179.03 2836.95
   19:26:22.374.18-Jan-2020 4980.01 4428.29 81.26 3.00 179.23 2836.95
   19:26:22.574.18-Jan-2020 4980.01 4428.25 81.26 3.00 179.43 2836.95
   19:26:22.774.18-Jan-2020 4980.01 4428.31 81.26 3.00 179.63 2836.95
   19:26:22.974.18-Jan-2020 4980.01 4428.29 81.26 3.00 179.83 2836.95
   19:26:23.174.18-Jan-2020 4980.01 4428.29 81.26 3.00 180.03 2836.95
   19:26:23.374.18-Jan-2020 4980.01 4428.35 81.26 3.00 180.23 2836.95
   19:26:23.574.18-Jan-2020 4980.01 4428.32 81.26 3.00 180.43 2836.95
   19:26:23.774.18-Jan-2020 4980.01 4428.32 81.26 3.00 180.64 2836.95
   19:26:23.974.18-Jan-2020 4980.01 4428.31 81.26 3.00 180.84 2836.95
   19:26:24.174.18-Jan-2020 4980.01 4428.32 81.26 3.00 181.04 2836.95
   19:26:24.374.18-Jan-2020 4980.01 4428.32 81.26 3.00 181.24 2836.95
   19:26:24.574.18-Jan-2020 4980.01 4428.32 81.26 3.00 181.44 2836.95
   19:26:24.774.18-Jan-2020 4980.01 4428.28 81.26 3.00 181.64 2836.95
   19:26:24.974.18-Jan-2020 4980.01 4428.30 81.26 3.00 181.84 2836.95
   19:26:25.174.18-Jan-2020 4980.01 4428.28 81.26 3.00 182.04 2836.95
   19:26:25.375.18-Jan-2020 4980.01 4428.28 81.26 3.00 182.24 2836.95
   19:26:25.575.18-Jan-2020 4980.01 4428.29 81.25 3.00 182.44 2836.95
   19:26:25.775.18-Jan-2020 4980.01 4428.25 81.25 3.00 182.64 2836.95
   19:26:25.975.18-Jan-2020 4980.01 4428.29 81.25 3.00 182.84 2836.95
   19:26:26.175.18-Jan-2020 4980.01 4428.28 81.25 3.00 183.04 2836.95
   19:26:26.375.18-Jan-2020 4980.01 4428.28 81.25 3.00 183.24 2836.95
   19:26:26.575.18-Jan-2020 4980.01 4428.30 81.25 3.00 183.44 2836.95
   19:26:26.775.18-Jan-2020 4980.01 4428.32 81.25 3.00 183.64 2836.95
   19:26:26.975.18-Jan-2020 4980.01 4428.29 81.25 3.00 183.84 2836.95
