~Version Information
 VERS.                  2.0:   CWLS log ASCII Standard -VERSION 2.0
 WRAP.                   NO:   One line per depth step
~Well Information Block
#MNEM.UNIT     VALUE/NAME     DESCRIPTION
#---------     -----------    ---------------------------
 STRT.S             10:27:46 18-Jan-20: START TIME 10:27:46 18-Jan-20
 STOP.S             10:35:37 18-Jan-20: STOP TIME  10:35:37 18-Jan-20
 STEP.S                   0.00: STEP TIME
 NULL.                 -999.25: NULL VALUE
 DFWT.                        :  DIST FWL TEXT
 DFST.                        :  DIST FSL TEXT
 DMF .             Drill Floor:  DRILL MEAS FROM
 STIM.      17.57.20 21-Dec-19:  START TIME
 DATE.      17.57.20 21-Dec-19:  END TIME
 SPUD.               21-Dec-19:  SPUD DATE
 NREF.                    Grid:  NORTH REFERENCE
 HPTY.       Minimum Curvature:  HOLE POS TYPE
 DMOD.             Drill Model:  DRILL MOD DESC
 SVYD.                  Survey:  SURVEY DESC
 ILTD.               Lithology:  INTERP LTH DESC
 FTOP.          Formation Tops:  FORM TOPS DESC
 PDAT.          Mean Sea Level:  PERMANENT DATUM
 FLD .                     ACG:  FIELD NAME
 SON .        AZ-XX-0905715376:  JOB NUMBER
 CTRY.              Azerbaijan:  COUNTRY NAME
 WELL.                    E04Y:  WELL NAME
 SRVC.          TURAN DRILLING:  CONTRACTOR
 COMP.     BP Exploration (Caspian Sea) Ltd.:  COMPANY
 WTYP.                Deviated:  WELL TYPE
 UWI .                     N/a:  UNIQUE WELL IDENTIFIER
 API .                     N/a:  API NUMBER
 BASE.              Azerbaijan:  LOGGING EQUIPMENT BASE LOCATION
 REGN.                   EESSA:  REGION
 MWDS.                    Baku:  MWD SHOP
 RIG .                     DWG:  RIG NAME
 DOE .                     N/a:  DOE NUMBER
 CNTY.                    Baku:  COUNTY NAME
 DCON.         Sperry Drilling:  DIRECTNL CONTR
 UNIT.                     N/a:  LOGGING EQUIPMENT ID
 MDS .        Operator Entered:  MAG DATA SOURCE
 PROV.                        :  PROVINCE
 STAT.                        :  STATE
 LOC .                        :  LOCATION
 LMF .             Drill Floor:  LOG MEASURED FROM
 TVDS.m                  43.16:  TVDSS CORRECTN
 LATI.deg                40.17:  LATITUDE
 LONG.deg                51.17:  LONGITUDE
 WHNS.m                  -0.12:  WELL HEAD N/S
 WHEW.m                  -5.41:  WELL HEAD E/W
 UTMX.m              514337.95:  UTM X
 UTMY.m             4448627.46:  UTM Y
 DFWL.m                   0.00:  DISTANCE FWL
 DFSL.m                   0.00:  DISTANCE FSL
 SDEP.m                   0.00:  START DEPTH
 TDD .m                   0.00:  TOTAL DEPTH (DRILLER)
 VSDR.deg               235.12:  VERT SEC DIRECT
 GVFD.g                   1.00:  GRAVITY FIELD
 MFLD.nT              50294.00:  MAGNETIC FIELD
 MDIP.deg                59.61:  MAGNETIC DIP
 MDEC.deg                 6.58:  MAGNETIC DECL
 GRDC.deg                 0.09:  GRID CORRECTION
 AZTC.deg                 6.49:  AZM TOTAL CORR
 EPD .m                   0.00:  ELEVATION
 EGL .m                   0.00:  GROUND ELEVATION
 WDMS.m                 176.20:  WD ELEV
 APD .m                  43.16:  DEPTH ABOVE PD
 DEP .m                3172.61:  DEPTH
 AGAP.m                  43.16:  AIR GAP
 VSEW.m                  -5.41:  VERT SEC E/W
 VSNS.m                  -0.12:  VERT SEC N/S
 EKB .m                  43.16:  KB ELEVATION
 EDF .m                  43.16:  DF ELEVATION
 TDL .m                 295.00:  TOTAL DEPTH (LOGGER)
 VSC .                       0:  VS TO CLOSURE
 MAGU.                 1852276:  MAGUTM CHECKSUM
~Parameter Information Block
#MNEM.UNIT       Value        Description
#---------     -----------    ---------------------------
 AV  .mps                 1.60:  Ann Velocity 
 AVMX.mps                 2.10:  Max Ann Veloc 
 AZIF.deg               290.59:  Azm, Final 
 BHAT.        Rotary Steerable:  BHA Type 
 BROT.°/30m               1.00:  Build Rotating 
 BS  .in                  6.50:  Bit Size 
 BSZ .in                  6.50:  Bit Size 
 BTPL.psig              120.00:  Bit Press Loss 
 CABU.                     Yes:  Customer Abuse 
 CGEO.          Eldar Huseynov:  Customer Geo 
 COMM.                     ¬Øj:  Run Comments 1 
 TCS .hr                 87.00:  Time Ciculation Ended 
 CV  .mps                 4.01:  Crit Velocity 
 CVMX.mps                 5.06:  Max Crit Veloc 
 DD1 .             Aziz Aliyev:  Direct Drillr 1 
 DD2 .            Sanan Aliyev:  Direct Drillr 2 
 DDSV.               Geo-Pilot:  DD Service 
 DEFF.%                  95.00:  % Det Eff 
 DLRX.°/30m               0.75:  Dogleg Rot Max 
 DLSO.°/30m               0.65:  Dogleg Oriented 
 DLSX.°/30m               1.39:  Dogleg Str Max 
 DRET.      18.25.00 19-Jan-20:  Drill End Time 
 DRST.      11.56.48 17-Jan-20:  Drill Start Tim 
 DTIM.hr                 27.16:  Time Drilling 
 EDEP.m                5161.01:  End Depth 
 ENG1.          Rasim Hashimov:  Engineer 1 
 ENG2.      Bakhtiyar Jabbarli:  Engineer 2 
 ETIM.      11.56.48 21-Jan-20:  End Time 
 FLOI.gpm               350.00:  Flow In 
 FLON.gpm               300.00:  Flow In Min 
 FLOS.cptm                0.00:  Fluid Loss 
 FLOX.gpm               400.00:  Flow In Max 
 HFLO.                      No:  High Flow 
 HPRE.                      No:  High Pressure 
 HTEM.                      No:  High Temp 
 HYDO.m                   1.85:  Hydro Offset 
 IFIN.deg                71.58:  Inc, Final 
 IMAX.deg                71.83:  Inc Max 
 IMIN.deg                71.12:  Inc Min 
 IMND.m                5099.48:  Inc Min Depth 
 IMXD.m                5071.08:  Inc Max Depth 
 JARR.                      No:  Jarring 
 LETM.      18.25.00 19-Jan-20:  Log End Time 
 LOST.hr                     0:  Lost Rig Time 
 LSTM.      11.56.48 17-Jan-20:  Log Start Time 
 MDCL.ppm             37000.00:  Mud Chlorides 
 MDES.     Inversion Oil/Synthetic:  Mud Desc 
 DFD .sg                  1.34:  Mud Density 
 MDMN.sg                  1.34:  Dens Mud Min 
 MDMX.sg                  1.34:  Dens Mud Max 
 MOIL.                      69:  Run Mud Oil % 
 MOWR.                   69:31:  Run Mud OWR 
 MSND.                     0.1:  Run Mud Sand % 
 MSOL.                    17.6:  Run Mud Solids% 
 DFV .spqt               79.00:  Mud Viscosity 
 MWOD.in                  4.75:  MWD Tool OD 
 MWSI.                      No:  Serv Intrp, MWD 
 OTIM.hr                126.10:  Time Operating 
 PMAX.psia             6000.00:  Press Op, Max 
 PV  .cP                 29.00:  Mud PV 
 RUN .                     400:  Run Number 
 ROPA.m/hr               11.00:  ROP Avg 
 ROPN.m/hr                5.00:  ROP Min 
 ROPX.m/hr               18.00:  ROP Max 
 RPMA.rpm               139.00:  RPM Surface Avg 
 RPMN.rpm               100.00:  RPM Surface Min 
 RPMX.rpm               140.00:  RPM Surface Max 
 RRUN.                     400:  Rig Run Number 
 SAZI.deg               290.22:  Azm, Start 
 SDEP.m                4868.01:  Start Depth 
 SIDD.                      No:  Serv Intrp, DD 
 SINC.deg                71.77:  Inc, Start 
 SPPA.psig             5550.00:  SPP Avg 
 SPPN.psig             4300.00:  SPP Min 
 SPPX.psig             5600.00:  SPP Max 
 STIM.      23.45.48 15-Jan-20:  Start Time 
 SVCS.                 DD, MWD:  Services 
 SVER.                    9.20:  Sperry Version 
 TDAT.m                5161.01:  Tot Depth Attmp 
 TDDF.                      No:  Trip for DD 
 TDLG.m                 295.00:  Tot Depth Loggd 
 TFF .                      No:  Trip for Fail 
 TQAA.f-kp               13.00:  Torque Abs Avg 
 TQAN.f-kp               13.00:  Torque Abs Min 
 TQAX.f-kp               16.00:  Torque Abs Max 
 TRRT.°/30m               0.25:  Turn Rotating 
 MRT .                     ADR:  Maximum Recorded Temperature 
 TTMX.degC               88.00:  Max Tool Temp 
 VS01.                90577859:  Virtual Str1 SN 
 VS02.                90521879:  Virtual Str2 SN 
 VS03.                90580299:  Virtual Str3 SN 
 VS04.                90515982:  Virtual Str4 SN 
 VS05.                90547765:  Virtual Str5 SN 
 WBMN.klb                 2.00:  WOB Min 
 WITN.           Adil Mammadov:  Customer Rep 
 WITN.        Elmaddin Rahimov:  Customer Rep 2 
 WOBA.klb                 3.00:  WOB Avg 
 WOBX.klb                 5.00:  WOB Max 
 YP  .lhf2               30.00:  Yield Point 
~Curve Information Block
#MNEM.UNIT                 API CODE     Curve Description
#---------               -----------    ---------------------------
 TIME.HHMMSS            00 000 000 000:  GT Time & Date
 GTDEPTH.m              00 000 000 000:  GT Depth
 GTPQH.psia             00 000 000 000:  GT HR Quartz Pressure
 GTTQ.degC              00 000 000 000:  GT Quartz Temperature
 GTTN.NONE              00 000 000 000:  GT Test Number
 GTET.sec               00 000 000 000:  GT Elapsed Test Time
 GTTVD.m                00 000 000 000:  GT True Vertical Depth
#Other Information
#
#WARRANTY: Halliburton will use its best efforts to furnish customers with 
#accurate information and interpretations that are part of, and incident to, the services 
#provided.  However, Halliburton cannot and does not warrant the accuracy 
#or correctness of such information and interpretations.  Under no circumstances should any 
#such information or interpretation be relied upon as the sole basis for any drilling, 
#completion, production, or financial decision or any procedure involving any risk to the 
#safety of any drilling venture, drilling rig or its crew or any other third party.  The 
#Customer has full responsibility for all drilling, completion and production operation.  
#Halliburton makes no representations or warranties, either expressed or 
#implied, including, but not limited to, the implied warranties of merchantability or fitness 
#for a particular purpose, with respect to the services rendered.  In no event will 
#Halliburton be liable for failure to obtain any particular results or for 
#any damages, including, but not limited to, indirect, special or consequential damages, 
#resulting from the use of any information or interpretation provided by Halliburton.
#
~A           TIME           GTDEPTH  GTPQH  GTTQ  GTTN  GTET   GTTVD  
# ...
   10:29:41.305.18-Jan-2020 4898.01 4078.91 73.49 1.00 115.01 2811.04
   10:29:41.505.18-Jan-2020 4898.01 4078.91 73.49 1.00 115.21 2811.04
   10:29:41.705.18-Jan-2020 4898.01 4078.90 73.49 1.00 115.41 2811.04
   10:29:41.905.18-Jan-2020 4898.01 4078.93 73.48 1.00 115.61 2811.04
   10:29:42.105.18-Jan-2020 4898.01 4078.89 73.48 1.00 115.81 2811.04
   10:29:42.305.18-Jan-2020 4898.01 4078.71 73.48 1.00 116.01 2811.04
   10:29:42.505.18-Jan-2020 4898.01 4078.71 73.48 1.00 116.21 2811.04
   10:29:42.706.18-Jan-2020 4898.01 4078.91 73.48 1.00 116.41 2811.04
   10:29:42.906.18-Jan-2020 4898.01 4078.94 73.48 1.00 116.61 2811.04
   10:29:43.106.18-Jan-2020 4898.01 4078.90 73.48 1.00 116.81 2811.04
   10:29:43.306.18-Jan-2020 4898.01 4078.91 73.48 1.00 117.01 2811.04
   10:29:43.506.18-Jan-2020 4898.01 4078.91 73.48 1.00 117.21 2811.04
   10:29:43.706.18-Jan-2020 4898.01 4078.99 73.48 1.00 117.41 2811.04
   10:29:43.906.18-Jan-2020 4898.01 4078.94 73.48 1.00 117.61 2811.04
   10:29:44.106.18-Jan-2020 4898.01 4078.88 73.48 1.00 117.81 2811.04
   10:29:44.306.18-Jan-2020 4898.01 4078.91 73.48 1.00 118.01 2811.04
   10:29:44.506.18-Jan-2020 4898.01 4078.91 73.48 1.00 118.21 2811.04
   10:29:44.706.18-Jan-2020 4898.01 4078.91 73.48 1.00 118.41 2811.04
   10:29:44.906.18-Jan-2020 4898.01 4078.89 73.48 1.00 118.61 2811.04
   10:29:45.106.18-Jan-2020 4898.01 4078.88 73.48 1.00 118.81 2811.04
   10:29:45.306.18-Jan-2020 4898.01 4078.91 73.48 1.00 119.01 2811.04
   10:29:45.506.18-Jan-2020 4898.01 4078.91 73.48 1.00 119.21 2811.04
   10:29:45.706.18-Jan-2020 4898.01 4078.90 73.48 1.00 119.41 2811.04
   10:29:45.906.18-Jan-2020 4898.01 4078.89 73.48 1.00 119.61 2811.04
   10:29:46.106.18-Jan-2020 4898.01 4078.89 73.48 1.00 119.81 2811.04
   10:29:46.306.18-Jan-2020 4898.01 4078.91 73.48 1.00 120.01 2811.04
   10:29:46.506.18-Jan-2020 4898.01 4078.91 73.48 1.00 120.21 2811.04
   10:29:46.706.18-Jan-2020 4898.01 4078.90 73.48 1.00 120.41 2811.04
   10:29:46.906.18-Jan-2020 4898.01 4078.67 73.48 1.00 120.61 2811.04
   10:29:47.106.18-Jan-2020 4898.01 4078.95 73.48 1.00 120.81 2811.04
   10:29:47.306.18-Jan-2020 4898.01 4078.91 73.48 1.00 121.01 2811.04
   10:29:47.506.18-Jan-2020 4898.01 4078.91 73.48 1.00 121.21 2811.04
   10:29:47.706.18-Jan-2020 4898.01 4078.91 73.48 1.00 121.41 2811.04
   10:29:47.906.18-Jan-2020 4898.01 4078.88 73.48 1.00 121.61 2811.04
   10:29:48.106.18-Jan-2020 4898.01 4078.89 73.47 1.00 121.81 2811.04
   10:29:48.306.18-Jan-2020 4898.01 4078.87 73.47 1.00 122.01 2811.04
   10:29:48.506.18-Jan-2020 4898.01 4078.87 73.47 1.00 122.21 2811.04
   10:29:48.706.18-Jan-2020 4898.01 4078.88 73.47 1.00 122.41 2811.04
   10:29:48.906.18-Jan-2020 4898.01 4078.86 73.47 1.00 122.61 2811.04
   10:29:49.106.18-Jan-2020 4898.01 4078.90 73.47 1.00 122.81 2811.04
   10:29:49.306.18-Jan-2020 4898.01 4078.86 73.47 1.00 123.01 2811.04
   10:29:49.506.18-Jan-2020 4898.01 4078.86 73.47 1.00 123.21 2811.04
   10:29:49.706.18-Jan-2020 4898.01 4078.88 73.47 1.00 123.42 2811.04
   10:29:49.906.18-Jan-2020 4898.01 4078.87 73.47 1.00 123.62 2811.04
   10:29:50.106.18-Jan-2020 4898.01 4078.85 73.47 1.00 123.82 2811.04
   10:29:50.306.18-Jan-2020 4898.01 4078.73 73.47 1.00 124.02 2811.04
   10:29:50.506.18-Jan-2020 4898.01 4078.73 73.47 1.00 124.22 2811.04
   10:29:50.706.18-Jan-2020 4898.01 4078.88 73.47 1.00 124.42 2811.04
   10:29:50.906.18-Jan-2020 4898.01 4078.91 73.47 1.00 124.62 2811.04
   10:29:51.107.18-Jan-2020 4898.01 4078.90 73.47 1.00 124.82 2811.04
   10:29:51.307.18-Jan-2020 4898.01 4078.88 73.47 1.00 125.02 2811.04
   10:29:51.507.18-Jan-2020 4898.01 4078.88 73.47 1.00 125.22 2811.04
   10:29:51.707.18-Jan-2020 4898.01 4078.70 73.47 1.00 125.42 2811.04
   10:29:51.907.18-Jan-2020 4898.01 4078.90 73.47 1.00 125.62 2811.04
   10:29:52.107.18-Jan-2020 4898.01 4078.90 73.47 1.00 125.82 2811.04
   10:29:52.307.18-Jan-2020 4898.01 4078.90 73.47 1.00 126.02 2811.04
   10:29:52.507.18-Jan-2020 4898.01 4078.90 73.47 1.00 126.22 2811.04
   10:29:52.707.18-Jan-2020 4898.01 4078.87 73.47 1.00 126.42 2811.04
   10:29:52.907.18-Jan-2020 4898.01 4078.90 73.47 1.00 126.62 2811.04
   10:29:53.107.18-Jan-2020 4898.01 4078.65 73.47 1.00 126.82 2811.04
   10:29:53.307.18-Jan-2020 4898.01 4078.94 73.47 1.00 127.02 2811.04
   10:29:53.507.18-Jan-2020 4898.01 4078.94 73.47 1.00 127.22 2811.04
   10:29:53.707.18-Jan-2020 4898.01 4078.90 73.47 1.00 127.42 2811.04
   10:29:53.907.18-Jan-2020 4898.01 4078.91 73.47 1.00 127.62 2811.04
   10:29:54.107.18-Jan-2020 4898.01 4078.87 73.47 1.00 127.82 2811.04
   10:29:54.307.18-Jan-2020 4898.01 4078.64 73.47 1.00 128.02 2811.04
   10:29:54.507.18-Jan-2020 4898.01 4078.64 73.47 1.00 128.22 2811.04
   10:29:54.707.18-Jan-2020 4898.01 4078.90 73.46 1.00 128.42 2811.04
   10:29:54.907.18-Jan-2020 4898.01 4078.89 73.46 1.00 128.62 2811.04
   10:29:55.107.18-Jan-2020 4898.01 4078.86 73.46 1.00 128.82 2811.04
   10:29:55.307.18-Jan-2020 4898.01 4078.91 73.46 1.00 129.02 2811.04
   10:29:55.507.18-Jan-2020 4898.01 4078.91 73.46 1.00 129.22 2811.04
   10:29:55.707.18-Jan-2020 4898.01 4078.88 73.46 1.00 129.42 2811.04
   10:29:55.907.18-Jan-2020 4898.01 4078.86 73.46 1.00 129.62 2811.04
   10:29:56.107.18-Jan-2020 4898.01 4078.85 73.46 1.00 129.82 2811.04
   10:29:56.307.18-Jan-2020 4898.01 4078.87 73.46 1.00 130.02 2811.04
   10:29:56.507.18-Jan-2020 4898.01 4078.87 73.46 1.00 130.22 2811.04
   10:29:56.707.18-Jan-2020 4898.01 4078.89 73.46 1.00 130.42 2811.04
   10:29:56.907.18-Jan-2020 4898.01 4078.88 73.46 1.00 130.62 2811.04
   10:29:57.107.18-Jan-2020 4898.01 4078.88 73.46 1.00 130.82 2811.04
   10:29:57.307.18-Jan-2020 4898.01 4078.88 73.46 1.00 131.02 2811.04
   10:29:57.507.18-Jan-2020 4898.01 4078.88 73.46 1.00 131.22 2811.04
   10:29:57.707.18-Jan-2020 4898.01 4078.69 73.46 1.00 131.42 2811.04
   10:29:57.907.18-Jan-2020 4898.01 4078.90 73.46 1.00 131.62 2811.04
   10:29:58.107.18-Jan-2020 4898.01 4078.91 73.46 1.00 131.82 2811.04
   10:29:58.307.18-Jan-2020 4898.01 4078.88 73.46 1.00 132.02 2811.04
   10:29:58.507.18-Jan-2020 4898.01 4078.88 73.46 1.00 132.22 2811.04
   10:29:58.707.18-Jan-2020 4898.01 4078.87 73.46 1.00 132.42 2811.04
   10:29:58.907.18-Jan-2020 4898.01 4078.84 73.46 1.00 132.62 2811.04
   10:29:59.107.18-Jan-2020 4898.01 4078.88 73.46 1.00 132.82 2811.04
   10:29:59.308.18-Jan-2020 4898.01 4078.84 73.46 1.00 133.02 2811.04
   10:29:59.508.18-Jan-2020 4898.01 4078.84 73.46 1.00 133.22 2811.04
   10:29:59.708.18-Jan-2020 4898.01 4078.85 73.46 1.00 133.42 2811.04
   10:29:59.908.18-Jan-2020 4898.01 4078.85 73.46 1.00 133.62 2811.04
   10:30:00.108.18-Jan-2020 4898.01 4078.88 73.46 1.00 133.82 2811.04
   10:30:00.308.18-Jan-2020 4898.01 4078.84 73.46 1.00 134.02 2811.04
   10:30:00.508.18-Jan-2020 4898.01 4078.84 73.46 1.00 134.22 2811.04
   10:30:00.708.18-Jan-2020 4898.01 4078.85 73.46 1.00 134.42 2811.04
   10:30:00.908.18-Jan-2020 4898.01 4078.81 73.45 1.00 134.62 2811.04
   10:30:01.108.18-Jan-2020 4898.01 4078.74 73.45 1.00 134.82 2811.04
   10:30:01.308.18-Jan-2020 4898.01 4078.90 73.45 1.00 135.02 2811.04
   10:30:01.508.18-Jan-2020 4898.01 4078.90 73.45 1.00 135.22 2811.04
   10:30:01.708.18-Jan-2020 4898.01 4078.87 73.45 1.00 135.42 2811.04
   10:30:01.908.18-Jan-2020 4898.01 4078.89 73.45 1.00 135.62 2811.04
   10:30:02.108.18-Jan-2020 4898.01 4078.86 73.45 1.00 135.82 2811.04
   10:30:02.308.18-Jan-2020 4898.01 4078.85 73.45 1.00 136.02 2811.04
   10:30:02.508.18-Jan-2020 4898.01 4078.85 73.45 1.00 136.22 2811.04
   10:30:02.708.18-Jan-2020 4898.01 4078.84 73.45 1.00 136.42 2811.04
   10:30:02.908.18-Jan-2020 4898.01 4078.91 73.45 1.00 136.62 2811.04
   10:30:03.108.18-Jan-2020 4898.01 4078.86 73.45 1.00 136.82 2811.04
   10:30:03.308.18-Jan-2020 4898.01 4078.88 73.45 1.00 137.02 2811.04
   10:30:03.508.18-Jan-2020 4898.01 4078.88 73.45 1.00 137.22 2811.04
   10:30:03.708.18-Jan-2020 4898.01 4078.85 73.45 1.00 137.42 2811.04
   10:30:03.908.18-Jan-2020 4898.01 4078.68 73.45 1.00 137.62 2811.04
   10:30:04.108.18-Jan-2020 4898.01 4078.89 73.45 1.00 137.82 2811.04
