~Version Information
 VERS.                  2.0:   CWLS log ASCII Standard -VERSION 2.0
 WRAP.                   NO:   One line per depth step
~Well Information Block
#MNEM.UNIT     VALUE/NAME     DESCRIPTION
#---------     -----------    ---------------------------
 STRT.S             10:27:46 18-Jan-20: START TIME 10:27:46 18-Jan-20
 STOP.S             10:35:37 18-Jan-20: STOP TIME  10:35:37 18-Jan-20
 STEP.S                   0.00: STEP TIME
 NULL.                 -999.25: NULL VALUE
 DFWT.                        :  DIST FWL TEXT
 DFST.                        :  DIST FSL TEXT
 DMF .             Drill Floor:  DRILL MEAS FROM
 STIM.      17.57.20 21-Dec-19:  START TIME
 DATE.      17.57.20 21-Dec-19:  END TIME
 SPUD.               21-Dec-19:  SPUD DATE
 NREF.                    Grid:  NORTH REFERENCE
 HPTY.       Minimum Curvature:  HOLE POS TYPE
 DMOD.             Drill Model:  DRILL MOD DESC
 SVYD.                  Survey:  SURVEY DESC
 ILTD.               Lithology:  INTERP LTH DESC
 FTOP.          Formation Tops:  FORM TOPS DESC
 PDAT.          Mean Sea Level:  PERMANENT DATUM
 FLD .                     ACG:  FIELD NAME
 SON .        AZ-XX-0905715376:  JOB NUMBER
 CTRY.              Azerbaijan:  COUNTRY NAME
 WELL.                    E04Y:  WELL NAME
 SRVC.          TURAN DRILLING:  CONTRACTOR
 COMP.     BP Exploration (Caspian Sea) Ltd.:  COMPANY
 WTYP.                Deviated:  WELL TYPE
 UWI .                     N/a:  UNIQUE WELL IDENTIFIER
 API .                     N/a:  API NUMBER
 BASE.              Azerbaijan:  LOGGING EQUIPMENT BASE LOCATION
 REGN.                   EESSA:  REGION
 MWDS.                    Baku:  MWD SHOP
 RIG .                     DWG:  RIG NAME
 DOE .                     N/a:  DOE NUMBER
 CNTY.                    Baku:  COUNTY NAME
 DCON.         Sperry Drilling:  DIRECTNL CONTR
 UNIT.                     N/a:  LOGGING EQUIPMENT ID
 MDS .        Operator Entered:  MAG DATA SOURCE
 PROV.                        :  PROVINCE
 STAT.                        :  STATE
 LOC .                        :  LOCATION
 LMF .             Drill Floor:  LOG MEASURED FROM
 TVDS.m                  43.16:  TVDSS CORRECTN
 LATI.deg                40.17:  LATITUDE
 LONG.deg                51.17:  LONGITUDE
 WHNS.m                  -0.12:  WELL HEAD N/S
 WHEW.m                  -5.41:  WELL HEAD E/W
 UTMX.m              514337.95:  UTM X
 UTMY.m             4448627.46:  UTM Y
 DFWL.m                   0.00:  DISTANCE FWL
 DFSL.m                   0.00:  DISTANCE FSL
 SDEP.m                   0.00:  START DEPTH
 TDD .m                   0.00:  TOTAL DEPTH (DRILLER)
 VSDR.deg               235.12:  VERT SEC DIRECT
 GVFD.g                   1.00:  GRAVITY FIELD
 MFLD.nT              50294.00:  MAGNETIC FIELD
 MDIP.deg                59.61:  MAGNETIC DIP
 MDEC.deg                 6.58:  MAGNETIC DECL
 GRDC.deg                 0.09:  GRID CORRECTION
 AZTC.deg                 6.49:  AZM TOTAL CORR
 EPD .m                   0.00:  ELEVATION
 EGL .m                   0.00:  GROUND ELEVATION
 WDMS.m                 176.20:  WD ELEV
 APD .m                  43.16:  DEPTH ABOVE PD
 DEP .m                3172.61:  DEPTH
 AGAP.m                  43.16:  AIR GAP
 VSEW.m                  -5.41:  VERT SEC E/W
 VSNS.m                  -0.12:  VERT SEC N/S
 EKB .m                  43.16:  KB ELEVATION
 EDF .m                  43.16:  DF ELEVATION
 TDL .m                 295.00:  TOTAL DEPTH (LOGGER)
 VSC .                       0:  VS TO CLOSURE
 MAGU.                 1852276:  MAGUTM CHECKSUM
~Parameter Information Block
#MNEM.UNIT       Value        Description
#---------     -----------    ---------------------------
 AV  .mps                 1.60:  Ann Velocity 
 AVMX.mps                 2.10:  Max Ann Veloc 
 AZIF.deg               290.59:  Azm, Final 
 BHAT.        Rotary Steerable:  BHA Type 
 BROT.°/30m               1.00:  Build Rotating 
 BS  .in                  6.50:  Bit Size 
 BSZ .in                  6.50:  Bit Size 
 BTPL.psig              120.00:  Bit Press Loss 
 CABU.                     Yes:  Customer Abuse 
 CGEO.          Eldar Huseynov:  Customer Geo 
 COMM.                     ¬Øj:  Run Comments 1 
 TCS .hr                 87.00:  Time Ciculation Ended 
 CV  .mps                 4.01:  Crit Velocity 
 CVMX.mps                 5.06:  Max Crit Veloc 
 DD1 .             Aziz Aliyev:  Direct Drillr 1 
 DD2 .            Sanan Aliyev:  Direct Drillr 2 
 DDSV.               Geo-Pilot:  DD Service 
 DEFF.%                  95.00:  % Det Eff 
 DLRX.°/30m               0.75:  Dogleg Rot Max 
 DLSO.°/30m               0.65:  Dogleg Oriented 
 DLSX.°/30m               1.39:  Dogleg Str Max 
 DRET.      18.25.00 19-Jan-20:  Drill End Time 
 DRST.      11.56.48 17-Jan-20:  Drill Start Tim 
 DTIM.hr                 27.16:  Time Drilling 
 EDEP.m                5161.01:  End Depth 
 ENG1.          Rasim Hashimov:  Engineer 1 
 ENG2.      Bakhtiyar Jabbarli:  Engineer 2 
 ETIM.      11.56.48 21-Jan-20:  End Time 
 FLOI.gpm               350.00:  Flow In 
 FLON.gpm               300.00:  Flow In Min 
 FLOS.cptm                0.00:  Fluid Loss 
 FLOX.gpm               400.00:  Flow In Max 
 HFLO.                      No:  High Flow 
 HPRE.                      No:  High Pressure 
 HTEM.                      No:  High Temp 
 HYDO.m                   1.85:  Hydro Offset 
 IFIN.deg                71.58:  Inc, Final 
 IMAX.deg                71.83:  Inc Max 
 IMIN.deg                71.12:  Inc Min 
 IMND.m                5099.48:  Inc Min Depth 
 IMXD.m                5071.08:  Inc Max Depth 
 JARR.                      No:  Jarring 
 LETM.      18.25.00 19-Jan-20:  Log End Time 
 LOST.hr                     0:  Lost Rig Time 
 LSTM.      11.56.48 17-Jan-20:  Log Start Time 
 MDCL.ppm             37000.00:  Mud Chlorides 
 MDES.     Inversion Oil/Synthetic:  Mud Desc 
 DFD .sg                  1.34:  Mud Density 
 MDMN.sg                  1.34:  Dens Mud Min 
 MDMX.sg                  1.34:  Dens Mud Max 
 MOIL.                      69:  Run Mud Oil % 
 MOWR.                   69:31:  Run Mud OWR 
 MSND.                     0.1:  Run Mud Sand % 
 MSOL.                    17.6:  Run Mud Solids% 
 DFV .spqt               79.00:  Mud Viscosity 
 MWOD.in                  4.75:  MWD Tool OD 
 MWSI.                      No:  Serv Intrp, MWD 
 OTIM.hr                126.10:  Time Operating 
 PMAX.psia             6000.00:  Press Op, Max 
 PV  .cP                 29.00:  Mud PV 
 RUN .                     400:  Run Number 
 ROPA.m/hr               11.00:  ROP Avg 
 ROPN.m/hr                5.00:  ROP Min 
 ROPX.m/hr               18.00:  ROP Max 
 RPMA.rpm               139.00:  RPM Surface Avg 
 RPMN.rpm               100.00:  RPM Surface Min 
 RPMX.rpm               140.00:  RPM Surface Max 
 RRUN.                     400:  Rig Run Number 
 SAZI.deg               290.22:  Azm, Start 
 SDEP.m                4868.01:  Start Depth 
 SIDD.                      No:  Serv Intrp, DD 
 SINC.deg                71.77:  Inc, Start 
 SPPA.psig             5550.00:  SPP Avg 
 SPPN.psig             4300.00:  SPP Min 
 SPPX.psig             5600.00:  SPP Max 
 STIM.      23.45.48 15-Jan-20:  Start Time 
 SVCS.                 DD, MWD:  Services 
 SVER.                    9.20:  Sperry Version 
 TDAT.m                5161.01:  Tot Depth Attmp 
 TDDF.                      No:  Trip for DD 
 TDLG.m                 295.00:  Tot Depth Loggd 
 TFF .                      No:  Trip for Fail 
 TQAA.f-kp               13.00:  Torque Abs Avg 
 TQAN.f-kp               13.00:  Torque Abs Min 
 TQAX.f-kp               16.00:  Torque Abs Max 
 TRRT.°/30m               0.25:  Turn Rotating 
 MRT .                     ADR:  Maximum Recorded Temperature 
 TTMX.degC               88.00:  Max Tool Temp 
 VS01.                90577859:  Virtual Str1 SN 
 VS02.                90521879:  Virtual Str2 SN 
 VS03.                90580299:  Virtual Str3 SN 
 VS04.                90515982:  Virtual Str4 SN 
 VS05.                90547765:  Virtual Str5 SN 
 WBMN.klb                 2.00:  WOB Min 
 WITN.           Adil Mammadov:  Customer Rep 
 WITN.        Elmaddin Rahimov:  Customer Rep 2 
 WOBA.klb                 3.00:  WOB Avg 
 WOBX.klb                 5.00:  WOB Max 
 YP  .lhf2               30.00:  Yield Point 
~Curve Information Block
#MNEM.UNIT                 API CODE     Curve Description
#---------               -----------    ---------------------------
 TIME.HHMMSS            00 000 000 000:  GT Time & Date
 GTDEPTH.m              00 000 000 000:  GT Depth
 GTPQH.psia             00 000 000 000:  GT HR Quartz Pressure
 GTTQ.degC              00 000 000 000:  GT Quartz Temperature
 GTTN.NONE              00 000 000 000:  GT Test Number
 GTET.sec               00 000 000 000:  GT Elapsed Test Time
 GTTVD.m                00 000 000 000:  GT True Vertical Depth
#Other Information
#
#WARRANTY: Halliburton will use its best efforts to furnish customers with 
#accurate information and interpretations that are part of, and incident to, the services 
#provided.  However, Halliburton cannot and does not warrant the accuracy 
#or correctness of such information and interpretations.  Under no circumstances should any 
#such information or interpretation be relied upon as the sole basis for any drilling, 
#completion, production, or financial decision or any procedure involving any risk to the 
#safety of any drilling venture, drilling rig or its crew or any other third party.  The 
#Customer has full responsibility for all drilling, completion and production operation.  
#Halliburton makes no representations or warranties, either expressed or 
#implied, including, but not limited to, the implied warranties of merchantability or fitness 
#for a particular purpose, with respect to the services rendered.  In no event will 
#Halliburton be liable for failure to obtain any particular results or for 
#any damages, including, but not limited to, indirect, special or consequential damages, 
#resulting from the use of any information or interpretation provided by Halliburton.
#
~A           TIME           GTDEPTH  GTPQH  GTTQ  GTTN  GTET   GTTVD  
# ...
   10:32:45.328.18-Jan-2020 4898.01 4078.76 73.24 1.00 299.04 2811.04
   10:32:45.528.18-Jan-2020 4898.01 4078.76 73.24 1.00 299.24 2811.04
   10:32:45.728.18-Jan-2020 4898.01 4078.75 73.23 1.00 299.44 2811.04
   10:32:45.928.18-Jan-2020 4898.01 4078.81 73.23 1.00 299.64 2811.04
   10:32:46.128.18-Jan-2020 4898.01 4078.80 73.23 1.00 299.84 2811.04
   10:32:46.328.18-Jan-2020 4898.01 4078.79 73.23 1.00 300.04 2811.04
   10:32:46.528.18-Jan-2020 4898.01 4078.79 73.23 1.00 300.24 2811.04
   10:32:46.728.18-Jan-2020 4898.01 4050.01 73.23 1.00 300.44 2811.04
   10:32:46.928.18-Jan-2020 4898.01 4049.52 73.23 1.00 300.64 2811.04
   10:32:47.128.18-Jan-2020 4898.01 4049.29 73.23 1.00 300.84 2811.04
   10:32:47.328.18-Jan-2020 4898.01 4049.28 73.23 1.00 301.04 2811.04
   10:32:47.528.18-Jan-2020 4898.01 4049.28 73.23 1.00 301.24 2811.04
   10:32:47.728.18-Jan-2020 4898.01 4048.52 73.23 1.00 301.44 2811.04
   10:32:47.928.18-Jan-2020 4898.01 4048.74 73.23 1.00 301.64 2811.04
   10:32:48.128.18-Jan-2020 4898.01 4048.43 73.23 1.00 301.84 2811.04
   10:32:48.328.18-Jan-2020 4898.01 4048.55 73.23 1.00 302.04 2811.04
   10:32:48.528.18-Jan-2020 4898.01 4048.55 73.23 1.00 302.24 2811.04
   10:32:48.728.18-Jan-2020 4898.01 4048.38 73.23 1.00 302.44 2811.04
   10:32:48.928.18-Jan-2020 4898.01 4048.29 73.23 1.00 302.64 2811.04
   10:32:49.128.18-Jan-2020 4898.01 4048.30 73.23 1.00 302.84 2811.04
   10:32:49.328.18-Jan-2020 4898.01 4048.66 73.23 1.00 303.04 2811.04
   10:32:49.528.18-Jan-2020 4898.01 4048.66 73.23 1.00 303.24 2811.04
   10:32:49.728.18-Jan-2020 4898.01 4048.35 73.23 1.00 303.44 2811.04
   10:32:49.928.18-Jan-2020 4898.01 4048.34 73.23 1.00 303.64 2811.04
   10:32:50.128.18-Jan-2020 4898.01 4047.92 73.23 1.00 303.84 2811.04
   10:32:50.328.18-Jan-2020 4898.01 4048.12 73.23 1.00 304.04 2811.04
   10:32:50.528.18-Jan-2020 4898.01 4048.12 73.23 1.00 304.24 2811.04
   10:32:50.728.18-Jan-2020 4898.01 4048.20 73.23 1.00 304.44 2811.04
   10:32:50.928.18-Jan-2020 4898.01 4048.17 73.23 1.00 304.64 2811.04
   10:32:51.128.18-Jan-2020 4898.01 4048.29 73.23 1.00 304.84 2811.04
   10:32:51.328.18-Jan-2020 4898.01 4048.32 73.23 1.00 305.04 2811.04
   10:32:51.528.18-Jan-2020 4898.01 4048.32 73.23 1.00 305.24 2811.04
   10:32:51.729.18-Jan-2020 4898.01 4048.25 73.23 1.00 305.44 2811.04
   10:32:51.929.18-Jan-2020 4898.01 4048.27 73.23 1.00 305.64 2811.04
   10:32:52.129.18-Jan-2020 4898.01 4048.33 73.23 1.00 305.84 2811.04
   10:32:52.329.18-Jan-2020 4898.01 4048.27 73.23 1.00 306.04 2811.04
   10:32:52.529.18-Jan-2020 4898.01 4048.27 73.23 1.00 306.24 2811.04
   10:32:52.729.18-Jan-2020 4898.01 4048.20 73.23 1.00 306.44 2811.04
   10:32:52.929.18-Jan-2020 4898.01 4048.31 73.23 1.00 306.64 2811.04
   10:32:53.129.18-Jan-2020 4898.01 4048.17 73.23 1.00 306.84 2811.04
   10:32:53.329.18-Jan-2020 4898.01 4048.15 73.22 1.00 307.04 2811.04
   10:32:53.529.18-Jan-2020 4898.01 4048.15 73.22 1.00 307.24 2811.04
   10:32:53.729.18-Jan-2020 4898.01 4048.65 73.22 1.00 307.44 2811.04
   10:32:53.929.18-Jan-2020 4898.01 4048.77 73.22 1.00 307.64 2811.04
   10:32:54.129.18-Jan-2020 4898.01 4048.30 73.22 1.00 307.84 2811.04
   10:32:54.329.18-Jan-2020 4898.01 4048.06 73.22 1.00 308.04 2811.04
   10:32:54.529.18-Jan-2020 4898.01 4048.06 73.22 1.00 308.24 2811.04
   10:32:54.729.18-Jan-2020 4898.01 4048.33 73.22 1.00 308.44 2811.04
   10:32:54.929.18-Jan-2020 4898.01 4048.23 73.22 1.00 308.64 2811.04
   10:32:55.129.18-Jan-2020 4898.01 4047.12 73.22 1.00 308.84 2811.04
   10:32:55.329.18-Jan-2020 4898.01 4048.94 73.22 1.00 309.04 2811.04
   10:32:55.529.18-Jan-2020 4898.01 4048.94 73.22 1.00 309.24 2811.04
   10:32:55.729.18-Jan-2020 4898.01 4048.56 73.22 1.00 309.44 2811.04
   10:32:55.929.18-Jan-2020 4898.01 4048.34 73.22 1.00 309.64 2811.04
   10:32:56.129.18-Jan-2020 4898.01 4048.23 73.22 1.00 309.84 2811.04
   10:32:56.329.18-Jan-2020 4898.01 4047.74 73.22 1.00 310.04 2811.04
   10:32:56.529.18-Jan-2020 4898.01 4047.74 73.22 1.00 310.24 2811.04
   10:32:56.729.18-Jan-2020 4898.01 4050.24 73.22 1.00 310.44 2811.04
   10:32:56.929.18-Jan-2020 4898.01 4075.68 73.22 1.00 310.64 2811.04
   10:32:57.129.18-Jan-2020 4898.01 4077.75 73.22 1.00 310.84 2811.04
   10:32:57.329.18-Jan-2020 4898.01 4077.86 73.22 1.00 311.04 2811.04
   10:32:57.529.18-Jan-2020 4898.01 4077.86 73.22 1.00 311.24 2811.04
   10:32:57.729.18-Jan-2020 4898.01 4077.96 73.22 1.00 311.44 2811.04
   10:32:57.929.18-Jan-2020 4898.01 4078.26 73.22 1.00 311.64 2811.04
   10:32:58.129.18-Jan-2020 4898.01 4078.21 73.22 1.00 311.84 2811.04
   10:32:58.329.18-Jan-2020 4898.01 4078.28 73.22 1.00 312.04 2811.04
   10:32:58.529.18-Jan-2020 4898.01 4078.28 73.22 1.00 312.24 2811.04
   10:32:58.729.18-Jan-2020 4898.01 4078.31 73.22 1.00 312.44 2811.04
   10:32:58.929.18-Jan-2020 4898.01 4078.33 73.22 1.00 312.64 2811.04
   10:32:59.129.18-Jan-2020 4898.01 4078.33 73.22 1.00 312.84 2811.04
   10:32:59.329.18-Jan-2020 4898.01 4078.37 73.22 1.00 313.04 2811.04
   10:32:59.529.18-Jan-2020 4898.01 4078.37 73.22 1.00 313.24 2811.04
   10:32:59.729.18-Jan-2020 4898.01 4078.38 73.22 1.00 313.44 2811.04
   10:32:59.929.18-Jan-2020 4898.01 4078.41 73.22 1.00 313.64 2811.04
   10:33:00.130.18-Jan-2020 4898.01 4078.41 73.22 1.00 313.84 2811.04
   10:33:00.330.18-Jan-2020 4898.01 4078.45 73.22 1.00 314.04 2811.04
   10:33:00.530.18-Jan-2020 4898.01 4078.45 73.22 1.00 314.24 2811.04
   10:33:00.730.18-Jan-2020 4898.01 4078.45 73.22 1.00 314.44 2811.04
   10:33:00.930.18-Jan-2020 4898.01 4078.29 73.22 1.00 314.64 2811.04
   10:33:01.130.18-Jan-2020 4898.01 4078.52 73.22 1.00 314.84 2811.04
   10:33:01.330.18-Jan-2020 4898.01 4078.59 73.22 1.00 315.04 2811.04
   10:33:01.530.18-Jan-2020 4898.01 4078.59 73.22 1.00 315.24 2811.04
   10:33:01.730.18-Jan-2020 4898.01 4078.58 73.21 1.00 315.44 2811.04
   10:33:01.930.18-Jan-2020 4898.01 4078.53 73.21 1.00 315.64 2811.04
   10:33:02.130.18-Jan-2020 4898.01 4078.55 73.21 1.00 315.84 2811.04
   10:33:02.330.18-Jan-2020 4898.01 4078.54 73.21 1.00 316.04 2811.04
   10:33:02.530.18-Jan-2020 4898.01 4078.54 73.21 1.00 316.24 2811.04
   10:33:02.730.18-Jan-2020 4898.01 4078.57 73.21 1.00 316.44 2811.04
   10:33:02.930.18-Jan-2020 4898.01 4078.53 73.21 1.00 316.64 2811.04
   10:33:03.130.18-Jan-2020 4898.01 4078.57 73.21 1.00 316.84 2811.04
   10:33:03.330.18-Jan-2020 4898.01 4078.55 73.21 1.00 317.04 2811.04
   10:33:03.530.18-Jan-2020 4898.01 4078.55 73.21 1.00 317.24 2811.04
   10:33:03.730.18-Jan-2020 4898.01 4078.57 73.21 1.00 317.44 2811.04
   10:33:03.930.18-Jan-2020 4898.01 4078.56 73.21 1.00 317.64 2811.04
   10:33:04.130.18-Jan-2020 4898.01 4078.58 73.21 1.00 317.84 2811.04
   10:33:04.330.18-Jan-2020 4898.01 4078.28 73.21 1.00 318.04 2811.04
   10:33:04.530.18-Jan-2020 4898.01 4078.28 73.21 1.00 318.24 2811.04
   10:33:04.730.18-Jan-2020 4898.01 4078.67 73.21 1.00 318.44 2811.04
   10:33:04.930.18-Jan-2020 4898.01 4078.64 73.21 1.00 318.64 2811.04
   10:33:05.130.18-Jan-2020 4898.01 4078.66 73.21 1.00 318.84 2811.04
   10:33:05.330.18-Jan-2020 4898.01 4078.61 73.21 1.00 319.04 2811.04
   10:33:05.530.18-Jan-2020 4898.01 4078.61 73.21 1.00 319.24 2811.04
   10:33:05.730.18-Jan-2020 4898.01 4078.74 73.21 1.00 319.44 2811.04
   10:33:05.930.18-Jan-2020 4898.01 4078.69 73.21 1.00 319.64 2811.04
   10:33:06.130.18-Jan-2020 4898.01 4078.67 73.21 1.00 319.84 2811.04
   10:33:06.330.18-Jan-2020 4898.01 4078.64 73.21 1.00 320.04 2811.04
   10:33:06.530.18-Jan-2020 4898.01 4078.64 73.21 1.00 320.24 2811.04
   10:33:06.730.18-Jan-2020 4898.01 4078.63 73.21 1.00 320.44 2811.04
   10:33:06.930.18-Jan-2020 4898.01 4078.39 73.21 1.00 320.64 2811.04
   10:33:07.130.18-Jan-2020 4898.01 4078.78 73.21 1.00 320.84 2811.04
   10:33:07.330.18-Jan-2020 4898.01 4078.70 73.21 1.00 321.04 2811.04
   10:33:07.530.18-Jan-2020 4898.01 4078.70 73.21 1.00 321.24 2811.04
   10:33:07.730.18-Jan-2020 4898.01 4078.66 73.21 1.00 321.44 2811.04
   10:33:07.930.18-Jan-2020 4898.01 4078.71 73.21 1.00 321.64 2811.04
   10:33:08.130.18-Jan-2020 4898.01 4078.39 73.21 1.00 321.84 2811.04
