~Version Information
 VERS.                  2.0:   CWLS log ASCII Standard -VERSION 2.0
 WRAP.                   NO:   One line per depth step
~Well Information Block
#MNEM.UNIT     VALUE/NAME     DESCRIPTION
#---------     -----------    ---------------------------
 STRT.S             19:23:23 18-Jan-20: START TIME 19:23:23 18-Jan-20
 STOP.S             19:31:15 18-Jan-20: STOP TIME  19:31:15 18-Jan-20
 STEP.S                   0.00: STEP TIME
 NULL.                 -999.25: NULL VALUE
 DFWT.                        :  DIST FWL TEXT
 DFST.                        :  DIST FSL TEXT
 DMF .             Drill Floor:  DRILL MEAS FROM
 STIM.      17.57.20 21-Dec-19:  START TIME
 DATE.      17.57.20 21-Dec-19:  END TIME
 SPUD.               21-Dec-19:  SPUD DATE
 NREF.                    Grid:  NORTH REFERENCE
 HPTY.       Minimum Curvature:  HOLE POS TYPE
 DMOD.             Drill Model:  DRILL MOD DESC
 SVYD.                  Survey:  SURVEY DESC
 ILTD.               Lithology:  INTERP LTH DESC
 FTOP.          Formation Tops:  FORM TOPS DESC
 PDAT.          Mean Sea Level:  PERMANENT DATUM
 FLD .                     ACG:  FIELD NAME
 SON .        AZ-XX-0905715376:  JOB NUMBER
 CTRY.              Azerbaijan:  COUNTRY NAME
 WELL.                    E04Y:  WELL NAME
 SRVC.          TURAN DRILLING:  CONTRACTOR
 COMP.     BP Exploration (Caspian Sea) Ltd.:  COMPANY
 WTYP.                Deviated:  WELL TYPE
 UWI .                     N/a:  UNIQUE WELL IDENTIFIER
 API .                     N/a:  API NUMBER
 BASE.              Azerbaijan:  LOGGING EQUIPMENT BASE LOCATION
 REGN.                   EESSA:  REGION
 MWDS.                    Baku:  MWD SHOP
 RIG .                     DWG:  RIG NAME
 DOE .                     N/a:  DOE NUMBER
 CNTY.                    Baku:  COUNTY NAME
 DCON.         Sperry Drilling:  DIRECTNL CONTR
 UNIT.                     N/a:  LOGGING EQUIPMENT ID
 MDS .        Operator Entered:  MAG DATA SOURCE
 PROV.                        :  PROVINCE
 STAT.                        :  STATE
 LOC .                        :  LOCATION
 LMF .             Drill Floor:  LOG MEASURED FROM
 TVDS.m                  43.16:  TVDSS CORRECTN
 LATI.deg                40.17:  LATITUDE
 LONG.deg                51.17:  LONGITUDE
 WHNS.m                  -0.12:  WELL HEAD N/S
 WHEW.m                  -5.41:  WELL HEAD E/W
 UTMX.m              514337.95:  UTM X
 UTMY.m             4448627.46:  UTM Y
 DFWL.m                   0.00:  DISTANCE FWL
 DFSL.m                   0.00:  DISTANCE FSL
 SDEP.m                   0.00:  START DEPTH
 TDD .m                   0.00:  TOTAL DEPTH (DRILLER)
 VSDR.deg               235.12:  VERT SEC DIRECT
 GVFD.g                   1.00:  GRAVITY FIELD
 MFLD.nT              50294.00:  MAGNETIC FIELD
 MDIP.deg                59.61:  MAGNETIC DIP
 MDEC.deg                 6.58:  MAGNETIC DECL
 GRDC.deg                 0.09:  GRID CORRECTION
 AZTC.deg                 6.49:  AZM TOTAL CORR
 EPD .m                   0.00:  ELEVATION
 EGL .m                   0.00:  GROUND ELEVATION
 WDMS.m                 176.20:  WD ELEV
 APD .m                  43.16:  DEPTH ABOVE PD
 DEP .m                3172.61:  DEPTH
 AGAP.m                  43.16:  AIR GAP
 VSEW.m                  -5.41:  VERT SEC E/W
 VSNS.m                  -0.12:  VERT SEC N/S
 EKB .m                  43.16:  KB ELEVATION
 EDF .m                  43.16:  DF ELEVATION
 TDL .m                 295.00:  TOTAL DEPTH (LOGGER)
 VSC .                       0:  VS TO CLOSURE
 MAGU.                 1852276:  MAGUTM CHECKSUM
~Parameter Information Block
#MNEM.UNIT       Value        Description
#---------     -----------    ---------------------------
 AV  .mps                 1.60:  Ann Velocity 
 AVMX.mps                 2.10:  Max Ann Veloc 
 AZIF.deg               290.59:  Azm, Final 
 BHAT.        Rotary Steerable:  BHA Type 
 BROT.°/30m               1.00:  Build Rotating 
 BS  .in                  6.50:  Bit Size 
 BSZ .in                  6.50:  Bit Size 
 BTPL.psig              120.00:  Bit Press Loss 
 CABU.                     Yes:  Customer Abuse 
 CGEO.          Eldar Huseynov:  Customer Geo 
 COMM.                     ”%\:  Run Comments 1 
 TCS .hr                 87.00:  Time Ciculation Ended 
 CV  .mps                 4.01:  Crit Velocity 
 CVMX.mps                 5.06:  Max Crit Veloc 
 DD1 .             Aziz Aliyev:  Direct Drillr 1 
 DD2 .            Sanan Aliyev:  Direct Drillr 2 
 DDSV.               Geo-Pilot:  DD Service 
 DEFF.%                  95.00:  % Det Eff 
 DLRX.°/30m               0.75:  Dogleg Rot Max 
 DLSO.°/30m               0.65:  Dogleg Oriented 
 DLSX.°/30m               1.39:  Dogleg Str Max 
 DRET.      18.25.00 19-Jan-20:  Drill End Time 
 DRST.      11.56.48 17-Jan-20:  Drill Start Tim 
 DTIM.hr                 27.16:  Time Drilling 
 EDEP.m                5161.01:  End Depth 
 ENG1.          Rasim Hashimov:  Engineer 1 
 ENG2.      Bakhtiyar Jabbarli:  Engineer 2 
 ETIM.      11.56.48 21-Jan-20:  End Time 
 FLOI.gpm               350.00:  Flow In 
 FLON.gpm               300.00:  Flow In Min 
 FLOS.cptm                0.00:  Fluid Loss 
 FLOX.gpm               400.00:  Flow In Max 
 HFLO.                      No:  High Flow 
 HPRE.                      No:  High Pressure 
 HTEM.                      No:  High Temp 
 HYDO.m                   1.85:  Hydro Offset 
 IFIN.deg                71.58:  Inc, Final 
 IMAX.deg                71.83:  Inc Max 
 IMIN.deg                71.12:  Inc Min 
 IMND.m                5099.48:  Inc Min Depth 
 IMXD.m                5071.08:  Inc Max Depth 
 JARR.                      No:  Jarring 
 LETM.      18.25.00 19-Jan-20:  Log End Time 
 LOST.hr                     0:  Lost Rig Time 
 LSTM.      11.56.48 17-Jan-20:  Log Start Time 
 MDCL.ppm             37000.00:  Mud Chlorides 
 MDES.     Inversion Oil/Synthetic:  Mud Desc 
 DFD .sg                  1.34:  Mud Density 
 MDMN.sg                  1.34:  Dens Mud Min 
 MDMX.sg                  1.34:  Dens Mud Max 
 MOIL.                      69:  Run Mud Oil % 
 MOWR.                   69:31:  Run Mud OWR 
 MSND.                     0.1:  Run Mud Sand % 
 MSOL.                    17.6:  Run Mud Solids% 
 DFV .spqt               79.00:  Mud Viscosity 
 MWOD.in                  4.75:  MWD Tool OD 
 MWSI.                      No:  Serv Intrp, MWD 
 OTIM.hr                126.10:  Time Operating 
 PMAX.psia             6000.00:  Press Op, Max 
 PV  .cP                 29.00:  Mud PV 
 RUN .                     400:  Run Number 
 ROPA.m/hr               11.00:  ROP Avg 
 ROPN.m/hr                5.00:  ROP Min 
 ROPX.m/hr               18.00:  ROP Max 
 RPMA.rpm               139.00:  RPM Surface Avg 
 RPMN.rpm               100.00:  RPM Surface Min 
 RPMX.rpm               140.00:  RPM Surface Max 
 RRUN.                     400:  Rig Run Number 
 SAZI.deg               290.22:  Azm, Start 
 SDEP.m                4868.01:  Start Depth 
 SIDD.                      No:  Serv Intrp, DD 
 SINC.deg                71.77:  Inc, Start 
 SPPA.psig             5550.00:  SPP Avg 
 SPPN.psig             4300.00:  SPP Min 
 SPPX.psig             5600.00:  SPP Max 
 STIM.      23.45.48 15-Jan-20:  Start Time 
 SVCS.                 DD, MWD:  Services 
 SVER.                    9.20:  Sperry Version 
 TDAT.m                5161.01:  Tot Depth Attmp 
 TDDF.                      No:  Trip for DD 
 TDLG.m                 295.00:  Tot Depth Loggd 
 TFF .                      No:  Trip for Fail 
 TQAA.f-kp               13.00:  Torque Abs Avg 
 TQAN.f-kp               13.00:  Torque Abs Min 
 TQAX.f-kp               16.00:  Torque Abs Max 
 TRRT.°/30m               0.25:  Turn Rotating 
 MRT .                     ADR:  Maximum Recorded Temperature 
 TTMX.degC               88.00:  Max Tool Temp 
 VS01.                90577859:  Virtual Str1 SN 
 VS02.                90521879:  Virtual Str2 SN 
 VS03.                90580299:  Virtual Str3 SN 
 VS04.                90515982:  Virtual Str4 SN 
 VS05.                90547765:  Virtual Str5 SN 
 WBMN.klb                 2.00:  WOB Min 
 WITN.           Adil Mammadov:  Customer Rep 
 WITN.        Elmaddin Rahimov:  Customer Rep 2 
 WOBA.klb                 3.00:  WOB Avg 
 WOBX.klb                 5.00:  WOB Max 
 YP  .lhf2               30.00:  Yield Point 
~Curve Information Block
#MNEM.UNIT                 API CODE     Curve Description
#---------               -----------    ---------------------------
 TIME.HHMMSS            00 000 000 000:  GT Time & Date
 GTDEPTH.m              00 000 000 000:  GT Depth
 GTPQH.psia             00 000 000 000:  GT HR Quartz Pressure
 GTTQ.degC              00 000 000 000:  GT Quartz Temperature
 GTTN.NONE              00 000 000 000:  GT Test Number
 GTET.sec               00 000 000 000:  GT Elapsed Test Time
 GTTVD.m                00 000 000 000:  GT True Vertical Depth
#Other Information
#
#WARRANTY: Halliburton will use its best efforts to furnish customers with 
#accurate information and interpretations that are part of, and incident to, the services 
#provided.  However, Halliburton cannot and does not warrant the accuracy 
#or correctness of such information and interpretations.  Under no circumstances should any 
#such information or interpretation be relied upon as the sole basis for any drilling, 
#completion, production, or financial decision or any procedure involving any risk to the 
#safety of any drilling venture, drilling rig or its crew or any other third party.  The 
#Customer has full responsibility for all drilling, completion and production operation.  
#Halliburton makes no representations or warranties, either expressed or 
#implied, including, but not limited to, the implied warranties of merchantability or fitness 
#for a particular purpose, with respect to the services rendered.  In no event will 
#Halliburton be liable for failure to obtain any particular results or for 
#any damages, including, but not limited to, indirect, special or consequential damages, 
#resulting from the use of any information or interpretation provided by Halliburton.
#
~A           TIME           GTDEPTH  GTPQH  GTTQ  GTTN  GTET   GTTVD  
# ...
   19:29:54.215.18-Jan-2020 4980.01 4428.13 80.70 3.00 391.08 2836.95
   19:29:54.415.18-Jan-2020 4980.01 4428.13 80.70 3.00 391.28 2836.95
   19:29:54.615.18-Jan-2020 4980.01 4428.12 80.70 3.00 391.48 2836.95
   19:29:54.815.18-Jan-2020 4980.01 4428.13 80.70 3.00 391.68 2836.95
   19:29:55.015.18-Jan-2020 4980.01 4428.11 80.70 3.00 391.88 2836.95
   19:29:55.215.18-Jan-2020 4980.01 4428.15 80.70 3.00 392.08 2836.95
   19:29:55.415.18-Jan-2020 4980.01 4428.15 80.70 3.00 392.28 2836.95
   19:29:55.615.18-Jan-2020 4980.01 4428.06 80.70 3.00 392.48 2836.95
   19:29:55.815.18-Jan-2020 4980.01 4428.15 80.70 3.00 392.68 2836.95
   19:29:56.015.18-Jan-2020 4980.01 4428.14 80.70 3.00 392.88 2836.95
   19:29:56.215.18-Jan-2020 4980.01 4428.17 80.69 3.00 393.08 2836.95
   19:29:56.415.18-Jan-2020 4980.01 4428.17 80.69 3.00 393.28 2836.95
   19:29:56.615.18-Jan-2020 4980.01 4427.98 80.69 3.00 393.48 2836.95
   19:29:56.816.18-Jan-2020 4980.01 4428.28 80.69 3.00 393.68 2836.95
   19:29:57.016.18-Jan-2020 4980.01 4428.15 80.69 3.00 393.88 2836.95
   19:29:57.216.18-Jan-2020 4980.01 4428.16 80.69 3.00 394.08 2836.95
   19:29:57.416.18-Jan-2020 4980.01 4428.16 80.69 3.00 394.28 2836.95
   19:29:57.616.18-Jan-2020 4980.01 4428.14 80.69 3.00 394.48 2836.95
   19:29:57.816.18-Jan-2020 4980.01 4428.09 80.69 3.00 394.68 2836.95
   19:29:58.016.18-Jan-2020 4980.01 4428.17 80.69 3.00 394.88 2836.95
   19:29:58.216.18-Jan-2020 4980.01 4428.15 80.69 3.00 395.08 2836.95
   19:29:58.416.18-Jan-2020 4980.01 4428.15 80.69 3.00 395.28 2836.95
   19:29:58.616.18-Jan-2020 4980.01 4428.16 80.69 3.00 395.48 2836.95
   19:29:58.816.18-Jan-2020 4980.01 4428.15 80.69 3.00 395.68 2836.95
   19:29:59.016.18-Jan-2020 4980.01 4428.16 80.69 3.00 395.88 2836.95
   19:29:59.216.18-Jan-2020 4980.01 4428.14 80.69 3.00 396.08 2836.95
   19:29:59.416.18-Jan-2020 4980.01 4428.14 80.69 3.00 396.28 2836.95
   19:29:59.616.18-Jan-2020 4980.01 4428.29 80.69 3.00 396.48 2836.95
   19:29:59.816.18-Jan-2020 4980.01 4428.14 80.69 3.00 396.68 2836.95
   19:30:00.016.18-Jan-2020 4980.01 4428.17 80.69 3.00 396.88 2836.95
   19:30:00.216.18-Jan-2020 4980.01 4428.15 80.68 3.00 397.08 2836.95
   19:30:00.416.18-Jan-2020 4980.01 4428.15 80.68 3.00 397.28 2836.95
   19:30:00.616.18-Jan-2020 4980.01 4428.13 80.68 3.00 397.48 2836.95
   19:30:00.816.18-Jan-2020 4980.01 4428.17 80.68 3.00 397.68 2836.95
   19:30:01.016.18-Jan-2020 4980.01 4428.11 80.68 3.00 397.88 2836.95
   19:30:01.216.18-Jan-2020 4980.01 4428.15 80.68 3.00 398.08 2836.95
   19:30:01.416.18-Jan-2020 4980.01 4428.15 80.68 3.00 398.28 2836.95
   19:30:01.616.18-Jan-2020 4980.01 4428.13 80.68 3.00 398.48 2836.95
   19:30:01.816.18-Jan-2020 4980.01 4428.13 80.68 3.00 398.68 2836.95
   19:30:02.017.18-Jan-2020 4980.01 4428.12 80.68 3.00 398.88 2836.95
   19:30:02.217.18-Jan-2020 4980.01 4428.13 80.68 3.00 399.08 2836.95
   19:30:02.417.18-Jan-2020 4980.01 4428.13 80.68 3.00 399.28 2836.95
   19:30:02.617.18-Jan-2020 4980.01 4427.97 80.68 3.00 399.48 2836.95
   19:30:02.817.18-Jan-2020 4980.01 4428.25 80.68 3.00 399.68 2836.95
   19:30:03.017.18-Jan-2020 4980.01 4428.15 80.68 3.00 399.88 2836.95
   19:30:03.217.18-Jan-2020 4980.01 4428.14 80.68 3.00 400.08 2836.95
   19:30:03.417.18-Jan-2020 4980.01 4428.14 80.68 3.00 400.28 2836.95
   19:30:03.617.18-Jan-2020 4980.01 4428.13 80.68 3.00 400.48 2836.95
   19:30:03.817.18-Jan-2020 4980.01 4428.15 80.68 3.00 400.68 2836.95
   19:30:04.017.18-Jan-2020 4980.01 4428.13 80.68 3.00 400.88 2836.95
   19:30:04.217.18-Jan-2020 4980.01 4428.13 80.67 3.00 401.08 2836.95
   19:30:04.417.18-Jan-2020 4980.01 4428.13 80.67 3.00 401.28 2836.95
   19:30:04.617.18-Jan-2020 4980.01 4428.12 80.67 3.00 401.48 2836.95
   19:30:04.817.18-Jan-2020 4980.01 4428.15 80.67 3.00 401.68 2836.95
   19:30:05.017.18-Jan-2020 4980.01 4428.10 80.67 3.00 401.88 2836.95
   19:30:05.217.18-Jan-2020 4980.01 4428.14 80.67 3.00 402.08 2836.95
   19:30:05.417.18-Jan-2020 4980.01 4428.14 80.67 3.00 402.28 2836.95
   19:30:05.617.18-Jan-2020 4980.01 4428.14 80.67 3.00 402.48 2836.95
   19:30:05.817.18-Jan-2020 4980.01 4428.08 80.67 3.00 402.68 2836.95
   19:30:06.017.18-Jan-2020 4980.01 4428.00 80.67 3.00 402.88 2836.95
   19:30:06.217.18-Jan-2020 4980.01 4428.23 80.67 3.00 403.08 2836.95
   19:30:06.417.18-Jan-2020 4980.01 4428.23 80.67 3.00 403.28 2836.95
   19:30:06.617.18-Jan-2020 4980.01 4428.17 80.67 3.00 403.48 2836.95
   19:30:06.817.18-Jan-2020 4980.01 4428.13 80.67 3.00 403.68 2836.95
   19:30:07.017.18-Jan-2020 4980.01 4428.08 80.67 3.00 403.88 2836.95
   19:30:07.218.18-Jan-2020 4980.01 4428.15 80.67 3.00 404.08 2836.95
   19:30:07.418.18-Jan-2020 4980.01 4428.15 80.67 3.00 404.28 2836.95
   19:30:07.618.18-Jan-2020 4980.01 4428.13 80.67 3.00 404.48 2836.95
   19:30:07.818.18-Jan-2020 4980.01 4428.17 80.67 3.00 404.68 2836.95
   19:30:08.018.18-Jan-2020 4980.01 4428.13 80.67 3.00 404.88 2836.95
   19:30:08.218.18-Jan-2020 4980.01 4428.03 80.66 3.00 405.08 2836.95
   19:30:08.418.18-Jan-2020 4980.01 4428.03 80.66 3.00 405.28 2836.95
   19:30:08.618.18-Jan-2020 4980.01 4428.13 80.66 3.00 405.48 2836.95
   19:30:08.818.18-Jan-2020 4980.01 4428.18 80.66 3.00 405.68 2836.95
   19:30:09.018.18-Jan-2020 4980.01 4428.16 80.66 3.00 405.88 2836.95
   19:30:09.218.18-Jan-2020 4980.01 4428.15 80.66 3.00 406.08 2836.95
   19:30:09.418.18-Jan-2020 4980.01 4428.15 80.66 3.00 406.28 2836.95
   19:30:09.618.18-Jan-2020 4980.01 4428.13 80.66 3.00 406.48 2836.95
   19:30:09.818.18-Jan-2020 4980.01 4428.06 80.66 3.00 406.68 2836.95
   19:30:10.018.18-Jan-2020 4980.01 4428.18 80.66 3.00 406.88 2836.95
   19:30:10.218.18-Jan-2020 4980.01 4428.17 80.66 3.00 407.08 2836.95
   19:30:10.418.18-Jan-2020 4980.01 4428.17 80.66 3.00 407.28 2836.95
   19:30:10.618.18-Jan-2020 4980.01 4428.14 80.66 3.00 407.48 2836.95
   19:30:10.818.18-Jan-2020 4980.01 4428.17 80.66 3.00 407.68 2836.95
   19:30:11.018.18-Jan-2020 4980.01 4428.13 80.66 3.00 407.88 2836.95
   19:30:11.218.18-Jan-2020 4980.01 4428.15 80.66 3.00 408.08 2836.95
   19:30:11.418.18-Jan-2020 4980.01 4428.15 80.66 3.00 408.28 2836.95
   19:30:11.618.18-Jan-2020 4980.01 4428.14 80.66 3.00 408.48 2836.95
   19:30:11.818.18-Jan-2020 4980.01 4428.12 80.66 3.00 408.68 2836.95
   19:30:12.018.18-Jan-2020 4980.01 4428.13 80.66 3.00 408.88 2836.95
   19:30:12.218.18-Jan-2020 4980.01 4428.14 80.65 3.00 409.08 2836.95
   19:30:12.419.18-Jan-2020 4980.01 4428.14 80.65 3.00 409.28 2836.95
   19:30:12.619.18-Jan-2020 4980.01 4428.13 80.65 3.00 409.48 2836.95
   19:30:12.819.18-Jan-2020 4980.01 4428.08 80.65 3.00 409.68 2836.95
   19:30:13.019.18-Jan-2020 4980.01 4428.08 80.65 3.00 409.88 2836.95
   19:30:13.219.18-Jan-2020 4980.01 4428.13 80.65 3.00 410.08 2836.95
   19:30:13.419.18-Jan-2020 4980.01 4428.13 80.65 3.00 410.28 2836.95
   19:30:13.619.18-Jan-2020 4980.01 4428.13 80.65 3.00 410.48 2836.95
   19:30:13.819.18-Jan-2020 4980.01 4428.16 80.65 3.00 410.68 2836.95
   19:30:14.019.18-Jan-2020 4980.01 4428.13 80.65 3.00 410.88 2836.95
   19:30:14.219.18-Jan-2020 4980.01 4428.14 80.65 3.00 411.08 2836.95
   19:30:14.419.18-Jan-2020 4980.01 4428.14 80.65 3.00 411.28 2836.95
   19:30:14.619.18-Jan-2020 4980.01 4428.13 80.65 3.00 411.48 2836.95
   19:30:14.819.18-Jan-2020 4980.01 4428.12 80.65 3.00 411.68 2836.95
   19:30:15.019.18-Jan-2020 4980.01 4428.10 80.65 3.00 411.88 2836.95
   19:30:15.219.18-Jan-2020 4980.01 4428.14 80.65 3.00 412.08 2836.95
   19:30:15.419.18-Jan-2020 4980.01 4428.14 80.65 3.00 412.28 2836.95
   19:30:15.619.18-Jan-2020 4980.01 4428.13 80.65 3.00 412.48 2836.95
   19:30:15.819.18-Jan-2020 4980.01 4428.10 80.65 3.00 412.68 2836.95
   19:30:16.019.18-Jan-2020 4980.01 4428.12 80.64 3.00 412.88 2836.95
   19:30:16.219.18-Jan-2020 4980.01 4428.10 80.64 3.00 413.08 2836.95
   19:30:16.419.18-Jan-2020 4980.01 4428.10 80.64 3.00 413.28 2836.95
   19:30:16.619.18-Jan-2020 4980.01 4428.26 80.64 3.00 413.48 2836.95
   19:30:16.819.18-Jan-2020 4980.01 4428.16 80.64 3.00 413.68 2836.95
   19:30:17.019.18-Jan-2020 4980.01 4428.15 80.64 3.00 413.88 2836.95
