~Version Information
 VERS.                  2.0:   CWLS log ASCII Standard -VERSION 2.0
 WRAP.                   NO:   One line per depth step
~Well Information Block
#MNEM.UNIT     VALUE/NAME     DESCRIPTION
#---------     -----------    ---------------------------
 STRT.S             10:27:46 18-Jan-20: START TIME 10:27:46 18-Jan-20
 STOP.S             10:35:37 18-Jan-20: STOP TIME  10:35:37 18-Jan-20
 STEP.S                   0.00: STEP TIME
 NULL.                 -999.25: NULL VALUE
 DFWT.                        :  DIST FWL TEXT
 DFST.                        :  DIST FSL TEXT
 DMF .             Drill Floor:  DRILL MEAS FROM
 STIM.      17.57.20 21-Dec-19:  START TIME
 DATE.      17.57.20 21-Dec-19:  END TIME
 SPUD.               21-Dec-19:  SPUD DATE
 NREF.                    Grid:  NORTH REFERENCE
 HPTY.       Minimum Curvature:  HOLE POS TYPE
 DMOD.             Drill Model:  DRILL MOD DESC
 SVYD.                  Survey:  SURVEY DESC
 ILTD.               Lithology:  INTERP LTH DESC
 FTOP.          Formation Tops:  FORM TOPS DESC
 PDAT.          Mean Sea Level:  PERMANENT DATUM
 FLD .                     ACG:  FIELD NAME
 SON .        AZ-XX-0905715376:  JOB NUMBER
 CTRY.              Azerbaijan:  COUNTRY NAME
 WELL.                    E04Y:  WELL NAME
 SRVC.          TURAN DRILLING:  CONTRACTOR
 COMP.     BP Exploration (Caspian Sea) Ltd.:  COMPANY
 WTYP.                Deviated:  WELL TYPE
 UWI .                     N/a:  UNIQUE WELL IDENTIFIER
 API .                     N/a:  API NUMBER
 BASE.              Azerbaijan:  LOGGING EQUIPMENT BASE LOCATION
 REGN.                   EESSA:  REGION
 MWDS.                    Baku:  MWD SHOP
 RIG .                     DWG:  RIG NAME
 DOE .                     N/a:  DOE NUMBER
 CNTY.                    Baku:  COUNTY NAME
 DCON.         Sperry Drilling:  DIRECTNL CONTR
 UNIT.                     N/a:  LOGGING EQUIPMENT ID
 MDS .        Operator Entered:  MAG DATA SOURCE
 PROV.                        :  PROVINCE
 STAT.                        :  STATE
 LOC .                        :  LOCATION
 LMF .             Drill Floor:  LOG MEASURED FROM
 TVDS.m                  43.16:  TVDSS CORRECTN
 LATI.deg                40.17:  LATITUDE
 LONG.deg                51.17:  LONGITUDE
 WHNS.m                  -0.12:  WELL HEAD N/S
 WHEW.m                  -5.41:  WELL HEAD E/W
 UTMX.m              514337.95:  UTM X
 UTMY.m             4448627.46:  UTM Y
 DFWL.m                   0.00:  DISTANCE FWL
 DFSL.m                   0.00:  DISTANCE FSL
 SDEP.m                   0.00:  START DEPTH
 TDD .m                   0.00:  TOTAL DEPTH (DRILLER)
 VSDR.deg               235.12:  VERT SEC DIRECT
 GVFD.g                   1.00:  GRAVITY FIELD
 MFLD.nT              50294.00:  MAGNETIC FIELD
 MDIP.deg                59.61:  MAGNETIC DIP
 MDEC.deg                 6.58:  MAGNETIC DECL
 GRDC.deg                 0.09:  GRID CORRECTION
 AZTC.deg                 6.49:  AZM TOTAL CORR
 EPD .m                   0.00:  ELEVATION
 EGL .m                   0.00:  GROUND ELEVATION
 WDMS.m                 176.20:  WD ELEV
 APD .m                  43.16:  DEPTH ABOVE PD
 DEP .m                3172.61:  DEPTH
 AGAP.m                  43.16:  AIR GAP
 VSEW.m                  -5.41:  VERT SEC E/W
 VSNS.m                  -0.12:  VERT SEC N/S
 EKB .m                  43.16:  KB ELEVATION
 EDF .m                  43.16:  DF ELEVATION
 TDL .m                 295.00:  TOTAL DEPTH (LOGGER)
 VSC .                       0:  VS TO CLOSURE
 MAGU.                 1852276:  MAGUTM CHECKSUM
~Parameter Information Block
#MNEM.UNIT       Value        Description
#---------     -----------    ---------------------------
 AV  .mps                 1.60:  Ann Velocity 
 AVMX.mps                 2.10:  Max Ann Veloc 
 AZIF.deg               290.59:  Azm, Final 
 BHAT.        Rotary Steerable:  BHA Type 
 BROT.°/30m               1.00:  Build Rotating 
 BS  .in                  6.50:  Bit Size 
 BSZ .in                  6.50:  Bit Size 
 BTPL.psig              120.00:  Bit Press Loss 
 CABU.                     Yes:  Customer Abuse 
 CGEO.          Eldar Huseynov:  Customer Geo 
 COMM.                     ¬Øj:  Run Comments 1 
 TCS .hr                 87.00:  Time Ciculation Ended 
 CV  .mps                 4.01:  Crit Velocity 
 CVMX.mps                 5.06:  Max Crit Veloc 
 DD1 .             Aziz Aliyev:  Direct Drillr 1 
 DD2 .            Sanan Aliyev:  Direct Drillr 2 
 DDSV.               Geo-Pilot:  DD Service 
 DEFF.%                  95.00:  % Det Eff 
 DLRX.°/30m               0.75:  Dogleg Rot Max 
 DLSO.°/30m               0.65:  Dogleg Oriented 
 DLSX.°/30m               1.39:  Dogleg Str Max 
 DRET.      18.25.00 19-Jan-20:  Drill End Time 
 DRST.      11.56.48 17-Jan-20:  Drill Start Tim 
 DTIM.hr                 27.16:  Time Drilling 
 EDEP.m                5161.01:  End Depth 
 ENG1.          Rasim Hashimov:  Engineer 1 
 ENG2.      Bakhtiyar Jabbarli:  Engineer 2 
 ETIM.      11.56.48 21-Jan-20:  End Time 
 FLOI.gpm               350.00:  Flow In 
 FLON.gpm               300.00:  Flow In Min 
 FLOS.cptm                0.00:  Fluid Loss 
 FLOX.gpm               400.00:  Flow In Max 
 HFLO.                      No:  High Flow 
 HPRE.                      No:  High Pressure 
 HTEM.                      No:  High Temp 
 HYDO.m                   1.85:  Hydro Offset 
 IFIN.deg                71.58:  Inc, Final 
 IMAX.deg                71.83:  Inc Max 
 IMIN.deg                71.12:  Inc Min 
 IMND.m                5099.48:  Inc Min Depth 
 IMXD.m                5071.08:  Inc Max Depth 
 JARR.                      No:  Jarring 
 LETM.      18.25.00 19-Jan-20:  Log End Time 
 LOST.hr                     0:  Lost Rig Time 
 LSTM.      11.56.48 17-Jan-20:  Log Start Time 
 MDCL.ppm             37000.00:  Mud Chlorides 
 MDES.     Inversion Oil/Synthetic:  Mud Desc 
 DFD .sg                  1.34:  Mud Density 
 MDMN.sg                  1.34:  Dens Mud Min 
 MDMX.sg                  1.34:  Dens Mud Max 
 MOIL.                      69:  Run Mud Oil % 
 MOWR.                   69:31:  Run Mud OWR 
 MSND.                     0.1:  Run Mud Sand % 
 MSOL.                    17.6:  Run Mud Solids% 
 DFV .spqt               79.00:  Mud Viscosity 
 MWOD.in                  4.75:  MWD Tool OD 
 MWSI.                      No:  Serv Intrp, MWD 
 OTIM.hr                126.10:  Time Operating 
 PMAX.psia             6000.00:  Press Op, Max 
 PV  .cP                 29.00:  Mud PV 
 RUN .                     400:  Run Number 
 ROPA.m/hr               11.00:  ROP Avg 
 ROPN.m/hr                5.00:  ROP Min 
 ROPX.m/hr               18.00:  ROP Max 
 RPMA.rpm               139.00:  RPM Surface Avg 
 RPMN.rpm               100.00:  RPM Surface Min 
 RPMX.rpm               140.00:  RPM Surface Max 
 RRUN.                     400:  Rig Run Number 
 SAZI.deg               290.22:  Azm, Start 
 SDEP.m                4868.01:  Start Depth 
 SIDD.                      No:  Serv Intrp, DD 
 SINC.deg                71.77:  Inc, Start 
 SPPA.psig             5550.00:  SPP Avg 
 SPPN.psig             4300.00:  SPP Min 
 SPPX.psig             5600.00:  SPP Max 
 STIM.      23.45.48 15-Jan-20:  Start Time 
 SVCS.                 DD, MWD:  Services 
 SVER.                    9.20:  Sperry Version 
 TDAT.m                5161.01:  Tot Depth Attmp 
 TDDF.                      No:  Trip for DD 
 TDLG.m                 295.00:  Tot Depth Loggd 
 TFF .                      No:  Trip for Fail 
 TQAA.f-kp               13.00:  Torque Abs Avg 
 TQAN.f-kp               13.00:  Torque Abs Min 
 TQAX.f-kp               16.00:  Torque Abs Max 
 TRRT.°/30m               0.25:  Turn Rotating 
 MRT .                     ADR:  Maximum Recorded Temperature 
 TTMX.degC               88.00:  Max Tool Temp 
 VS01.                90577859:  Virtual Str1 SN 
 VS02.                90521879:  Virtual Str2 SN 
 VS03.                90580299:  Virtual Str3 SN 
 VS04.                90515982:  Virtual Str4 SN 
 VS05.                90547765:  Virtual Str5 SN 
 WBMN.klb                 2.00:  WOB Min 
 WITN.           Adil Mammadov:  Customer Rep 
 WITN.        Elmaddin Rahimov:  Customer Rep 2 
 WOBA.klb                 3.00:  WOB Avg 
 WOBX.klb                 5.00:  WOB Max 
 YP  .lhf2               30.00:  Yield Point 
~Curve Information Block
#MNEM.UNIT                 API CODE     Curve Description
#---------               -----------    ---------------------------
 TIME.HHMMSS            00 000 000 000:  GT Time & Date
 GTDEPTH.m              00 000 000 000:  GT Depth
 GTPQH.psia             00 000 000 000:  GT HR Quartz Pressure
 GTTQ.degC              00 000 000 000:  GT Quartz Temperature
 GTTN.NONE              00 000 000 000:  GT Test Number
 GTET.sec               00 000 000 000:  GT Elapsed Test Time
 GTTVD.m                00 000 000 000:  GT True Vertical Depth
#Other Information
#
#WARRANTY: Halliburton will use its best efforts to furnish customers with 
#accurate information and interpretations that are part of, and incident to, the services 
#provided.  However, Halliburton cannot and does not warrant the accuracy 
#or correctness of such information and interpretations.  Under no circumstances should any 
#such information or interpretation be relied upon as the sole basis for any drilling, 
#completion, production, or financial decision or any procedure involving any risk to the 
#safety of any drilling venture, drilling rig or its crew or any other third party.  The 
#Customer has full responsibility for all drilling, completion and production operation.  
#Halliburton makes no representations or warranties, either expressed or 
#implied, including, but not limited to, the implied warranties of merchantability or fitness 
#for a particular purpose, with respect to the services rendered.  In no event will 
#Halliburton be liable for failure to obtain any particular results or for 
#any damages, including, but not limited to, indirect, special or consequential damages, 
#resulting from the use of any information or interpretation provided by Halliburton.
#
~A           TIME           GTDEPTH  GTPQH  GTTQ  GTTN  GTET   GTTVD  
# ...
   10:31:59.322.18-Jan-2020 4898.01 4078.74 73.29 1.00 253.03 2811.04
   10:31:59.522.18-Jan-2020 4898.01 4078.74 73.29 1.00 253.23 2811.04
   10:31:59.722.18-Jan-2020 4898.01 4078.87 73.29 1.00 253.43 2811.04
   10:31:59.922.18-Jan-2020 4898.01 4078.78 73.29 1.00 253.63 2811.04
   10:32:00.122.18-Jan-2020 4898.01 4078.77 73.29 1.00 253.83 2811.04
   10:32:00.322.18-Jan-2020 4898.01 4078.76 73.29 1.00 254.03 2811.04
   10:32:00.522.18-Jan-2020 4898.01 4078.76 73.29 1.00 254.23 2811.04
   10:32:00.722.18-Jan-2020 4898.01 4078.76 73.29 1.00 254.43 2811.04
   10:32:00.922.18-Jan-2020 4898.01 4078.70 73.29 1.00 254.63 2811.04
   10:32:01.122.18-Jan-2020 4898.01 4078.53 73.29 1.00 254.83 2811.04
   10:32:01.322.18-Jan-2020 4898.01 4078.80 73.29 1.00 255.03 2811.04
   10:32:01.522.18-Jan-2020 4898.01 4078.80 73.29 1.00 255.23 2811.04
   10:32:01.722.18-Jan-2020 4898.01 4078.80 73.29 1.00 255.43 2811.04
   10:32:01.922.18-Jan-2020 4898.01 4078.75 73.29 1.00 255.63 2811.04
   10:32:02.122.18-Jan-2020 4898.01 4078.78 73.29 1.00 255.83 2811.04
   10:32:02.322.18-Jan-2020 4898.01 4078.57 73.29 1.00 256.03 2811.04
   10:32:02.523.18-Jan-2020 4898.01 4078.57 73.29 1.00 256.23 2811.04
   10:32:02.723.18-Jan-2020 4898.01 4078.78 73.29 1.00 256.43 2811.04
   10:32:02.923.18-Jan-2020 4898.01 4078.76 73.29 1.00 256.63 2811.04
   10:32:03.123.18-Jan-2020 4898.01 4078.81 73.29 1.00 256.83 2811.04
   10:32:03.323.18-Jan-2020 4898.01 4078.74 73.29 1.00 257.03 2811.04
   10:32:03.523.18-Jan-2020 4898.01 4078.74 73.29 1.00 257.23 2811.04
   10:32:03.723.18-Jan-2020 4898.01 4078.58 73.29 1.00 257.43 2811.04
   10:32:03.923.18-Jan-2020 4898.01 4078.81 73.29 1.00 257.63 2811.04
   10:32:04.123.18-Jan-2020 4898.01 4078.77 73.29 1.00 257.83 2811.04
   10:32:04.323.18-Jan-2020 4898.01 4078.75 73.29 1.00 258.03 2811.04
   10:32:04.523.18-Jan-2020 4898.01 4078.75 73.29 1.00 258.23 2811.04
   10:32:04.723.18-Jan-2020 4898.01 4078.75 73.29 1.00 258.43 2811.04
   10:32:04.923.18-Jan-2020 4898.01 4078.76 73.28 1.00 258.63 2811.04
   10:32:05.123.18-Jan-2020 4898.01 4078.75 73.28 1.00 258.83 2811.04
   10:32:05.323.18-Jan-2020 4898.01 4078.74 73.28 1.00 259.03 2811.04
   10:32:05.523.18-Jan-2020 4898.01 4078.74 73.28 1.00 259.23 2811.04
   10:32:05.723.18-Jan-2020 4898.01 4078.71 73.28 1.00 259.43 2811.04
   10:32:05.923.18-Jan-2020 4898.01 4078.76 73.28 1.00 259.63 2811.04
   10:32:06.123.18-Jan-2020 4898.01 4078.73 73.28 1.00 259.83 2811.04
   10:32:06.323.18-Jan-2020 4898.01 4078.75 73.28 1.00 260.03 2811.04
   10:32:06.523.18-Jan-2020 4898.01 4078.75 73.28 1.00 260.23 2811.04
   10:32:06.723.18-Jan-2020 4898.01 4078.72 73.28 1.00 260.43 2811.04
   10:32:06.923.18-Jan-2020 4898.01 4078.59 73.28 1.00 260.63 2811.04
   10:32:07.123.18-Jan-2020 4898.01 4078.72 73.28 1.00 260.83 2811.04
   10:32:07.323.18-Jan-2020 4898.01 4078.80 73.28 1.00 261.03 2811.04
   10:32:07.523.18-Jan-2020 4898.01 4078.80 73.28 1.00 261.23 2811.04
   10:32:07.723.18-Jan-2020 4898.01 4078.76 73.28 1.00 261.43 2811.04
   10:32:07.923.18-Jan-2020 4898.01 4078.76 73.28 1.00 261.63 2811.04
   10:32:08.123.18-Jan-2020 4898.01 4078.74 73.28 1.00 261.83 2811.04
   10:32:08.323.18-Jan-2020 4898.01 4078.76 73.28 1.00 262.03 2811.04
   10:32:08.523.18-Jan-2020 4898.01 4078.76 73.28 1.00 262.23 2811.04
   10:32:08.723.18-Jan-2020 4898.01 4078.75 73.28 1.00 262.43 2811.04
   10:32:08.923.18-Jan-2020 4898.01 4078.73 73.28 1.00 262.63 2811.04
   10:32:09.123.18-Jan-2020 4898.01 4078.72 73.28 1.00 262.83 2811.04
   10:32:09.323.18-Jan-2020 4898.01 4078.75 73.28 1.00 263.03 2811.04
   10:32:09.523.18-Jan-2020 4898.01 4078.75 73.28 1.00 263.23 2811.04
   10:32:09.723.18-Jan-2020 4898.01 4078.75 73.28 1.00 263.43 2811.04
   10:32:09.923.18-Jan-2020 4898.01 4078.72 73.28 1.00 263.63 2811.04
   10:32:10.123.18-Jan-2020 4898.01 4078.72 73.28 1.00 263.83 2811.04
   10:32:10.323.18-Jan-2020 4898.01 4078.45 73.28 1.00 264.03 2811.04
   10:32:10.523.18-Jan-2020 4898.01 4078.45 73.28 1.00 264.23 2811.04
   10:32:10.724.18-Jan-2020 4898.01 4078.82 73.28 1.00 264.43 2811.04
   10:32:10.924.18-Jan-2020 4898.01 4078.75 73.28 1.00 264.63 2811.04
   10:32:11.124.18-Jan-2020 4898.01 4078.77 73.28 1.00 264.83 2811.04
   10:32:11.324.18-Jan-2020 4898.01 4078.76 73.28 1.00 265.03 2811.04
   10:32:11.524.18-Jan-2020 4898.01 4078.76 73.28 1.00 265.23 2811.04
   10:32:11.724.18-Jan-2020 4898.01 4078.75 73.28 1.00 265.43 2811.04
   10:32:11.924.18-Jan-2020 4898.01 4078.50 73.28 1.00 265.63 2811.04
   10:32:12.124.18-Jan-2020 4898.01 4078.84 73.28 1.00 265.83 2811.04
   10:32:12.324.18-Jan-2020 4898.01 4078.77 73.28 1.00 266.03 2811.04
   10:32:12.524.18-Jan-2020 4898.01 4078.77 73.28 1.00 266.23 2811.04
   10:32:12.724.18-Jan-2020 4898.01 4078.77 73.28 1.00 266.43 2811.04
   10:32:12.924.18-Jan-2020 4898.01 4078.75 73.27 1.00 266.63 2811.04
   10:32:13.124.18-Jan-2020 4898.01 4078.61 73.27 1.00 266.83 2811.04
   10:32:13.324.18-Jan-2020 4898.01 4078.72 73.27 1.00 267.03 2811.04
   10:32:13.524.18-Jan-2020 4898.01 4078.72 73.27 1.00 267.23 2811.04
   10:32:13.724.18-Jan-2020 4898.01 4078.77 73.27 1.00 267.43 2811.04
   10:32:13.924.18-Jan-2020 4898.01 4078.78 73.27 1.00 267.63 2811.04
   10:32:14.124.18-Jan-2020 4898.01 4078.78 73.27 1.00 267.83 2811.04
   10:32:14.324.18-Jan-2020 4898.01 4078.69 73.27 1.00 268.03 2811.04
   10:32:14.524.18-Jan-2020 4898.01 4078.69 73.27 1.00 268.23 2811.04
   10:32:14.724.18-Jan-2020 4898.01 4078.79 73.27 1.00 268.43 2811.04
   10:32:14.924.18-Jan-2020 4898.01 4078.78 73.27 1.00 268.63 2811.04
   10:32:15.124.18-Jan-2020 4898.01 4078.76 73.27 1.00 268.83 2811.04
   10:32:15.324.18-Jan-2020 4898.01 4078.75 73.27 1.00 269.03 2811.04
   10:32:15.524.18-Jan-2020 4898.01 4078.75 73.27 1.00 269.23 2811.04
   10:32:15.724.18-Jan-2020 4898.01 4078.73 73.27 1.00 269.43 2811.04
   10:32:15.924.18-Jan-2020 4898.01 4078.78 73.27 1.00 269.63 2811.04
   10:32:16.124.18-Jan-2020 4898.01 4078.73 73.27 1.00 269.83 2811.04
   10:32:16.324.18-Jan-2020 4898.01 4078.74 73.27 1.00 270.03 2811.04
   10:32:16.524.18-Jan-2020 4898.01 4078.74 73.27 1.00 270.23 2811.04
   10:32:16.724.18-Jan-2020 4898.01 4078.72 73.27 1.00 270.43 2811.04
   10:32:16.924.18-Jan-2020 4898.01 4078.76 73.27 1.00 270.63 2811.04
   10:32:17.124.18-Jan-2020 4898.01 4078.73 73.27 1.00 270.83 2811.04
   10:32:17.324.18-Jan-2020 4898.01 4078.76 73.27 1.00 271.03 2811.04
   10:32:17.524.18-Jan-2020 4898.01 4078.76 73.27 1.00 271.23 2811.04
   10:32:17.724.18-Jan-2020 4898.01 4078.56 73.27 1.00 271.43 2811.04
   10:32:17.924.18-Jan-2020 4898.01 4078.75 73.27 1.00 271.63 2811.04
   10:32:18.124.18-Jan-2020 4898.01 4078.77 73.27 1.00 271.83 2811.04
   10:32:18.324.18-Jan-2020 4898.01 4078.79 73.27 1.00 272.03 2811.04
   10:32:18.524.18-Jan-2020 4898.01 4078.79 73.27 1.00 272.23 2811.04
   10:32:18.724.18-Jan-2020 4898.01 4078.77 73.27 1.00 272.43 2811.04
   10:32:18.925.18-Jan-2020 4898.01 4078.74 73.27 1.00 272.63 2811.04
   10:32:19.125.18-Jan-2020 4898.01 4078.73 73.27 1.00 272.83 2811.04
   10:32:19.325.18-Jan-2020 4898.01 4078.75 73.27 1.00 273.03 2811.04
   10:32:19.525.18-Jan-2020 4898.01 4078.75 73.27 1.00 273.23 2811.04
   10:32:19.725.18-Jan-2020 4898.01 4078.76 73.27 1.00 273.43 2811.04
   10:32:19.925.18-Jan-2020 4898.01 4078.73 73.27 1.00 273.63 2811.04
   10:32:20.125.18-Jan-2020 4898.01 4078.73 73.27 1.00 273.83 2811.04
   10:32:20.325.18-Jan-2020 4898.01 4078.75 73.27 1.00 274.03 2811.04
   10:32:20.525.18-Jan-2020 4898.01 4078.75 73.27 1.00 274.23 2811.04
   10:32:20.725.18-Jan-2020 4898.01 4078.75 73.27 1.00 274.43 2811.04
   10:32:20.925.18-Jan-2020 4898.01 4078.70 73.26 1.00 274.63 2811.04
   10:32:21.125.18-Jan-2020 4898.01 4078.45 73.26 1.00 274.83 2811.04
   10:32:21.325.18-Jan-2020 4898.01 4078.86 73.26 1.00 275.03 2811.04
   10:32:21.525.18-Jan-2020 4898.01 4078.86 73.26 1.00 275.23 2811.04
   10:32:21.725.18-Jan-2020 4898.01 4078.79 73.26 1.00 275.43 2811.04
   10:32:21.925.18-Jan-2020 4898.01 4078.74 73.26 1.00 275.63 2811.04
   10:32:22.125.18-Jan-2020 4898.01 4078.78 73.26 1.00 275.83 2811.04
