~Version Information
 VERS.                  2.0:   CWLS log ASCII Standard -VERSION 2.0
 WRAP.                   NO:   One line per depth step
~Well Information Block
#MNEM.UNIT     VALUE/NAME     DESCRIPTION
#---------     -----------    ---------------------------
 STRT.S             14:05:37 19-Jan-20: START TIME 14:05:37 19-Jan-20
 STOP.S             14:13:29 19-Jan-20: STOP TIME  14:13:29 19-Jan-20
 STEP.S                   0.00: STEP TIME
 NULL.                 -999.25: NULL VALUE
 DFWT.                        :  DIST FWL TEXT
 DFST.                        :  DIST FSL TEXT
 DMF .             Drill Floor:  DRILL MEAS FROM
 STIM.      17.57.20 21-Dec-19:  START TIME
 DATE.      17.57.20 21-Dec-19:  END TIME
 SPUD.               21-Dec-19:  SPUD DATE
 NREF.                    Grid:  NORTH REFERENCE
 HPTY.       Minimum Curvature:  HOLE POS TYPE
 DMOD.             Drill Model:  DRILL MOD DESC
 SVYD.                  Survey:  SURVEY DESC
 ILTD.               Lithology:  INTERP LTH DESC
 FTOP.          Formation Tops:  FORM TOPS DESC
 PDAT.          Mean Sea Level:  PERMANENT DATUM
 FLD .                     ACG:  FIELD NAME
 SON .        AZ-XX-0905715376:  JOB NUMBER
 CTRY.              Azerbaijan:  COUNTRY NAME
 WELL.                    E04Y:  WELL NAME
 SRVC.          TURAN DRILLING:  CONTRACTOR
 COMP.     BP Exploration (Caspian Sea) Ltd.:  COMPANY
 WTYP.                Deviated:  WELL TYPE
 UWI .                     N/a:  UNIQUE WELL IDENTIFIER
 API .                     N/a:  API NUMBER
 BASE.              Azerbaijan:  LOGGING EQUIPMENT BASE LOCATION
 REGN.                   EESSA:  REGION
 MWDS.                    Baku:  MWD SHOP
 RIG .                     DWG:  RIG NAME
 DOE .                     N/a:  DOE NUMBER
 CNTY.                    Baku:  COUNTY NAME
 DCON.         Sperry Drilling:  DIRECTNL CONTR
 UNIT.                     N/a:  LOGGING EQUIPMENT ID
 MDS .        Operator Entered:  MAG DATA SOURCE
 PROV.                        :  PROVINCE
 STAT.                        :  STATE
 LOC .                        :  LOCATION
 LMF .             Drill Floor:  LOG MEASURED FROM
 TVDS.m                  43.16:  TVDSS CORRECTN
 LATI.deg                40.17:  LATITUDE
 LONG.deg                51.17:  LONGITUDE
 WHNS.m                  -0.12:  WELL HEAD N/S
 WHEW.m                  -5.41:  WELL HEAD E/W
 UTMX.m              514337.95:  UTM X
 UTMY.m             4448627.46:  UTM Y
 DFWL.m                   0.00:  DISTANCE FWL
 DFSL.m                   0.00:  DISTANCE FSL
 SDEP.m                   0.00:  START DEPTH
 TDD .m                   0.00:  TOTAL DEPTH (DRILLER)
 VSDR.deg               235.12:  VERT SEC DIRECT
 GVFD.g                   1.00:  GRAVITY FIELD
 MFLD.nT              50294.00:  MAGNETIC FIELD
 MDIP.deg                59.61:  MAGNETIC DIP
 MDEC.deg                 6.58:  MAGNETIC DECL
 GRDC.deg                 0.09:  GRID CORRECTION
 AZTC.deg                 6.49:  AZM TOTAL CORR
 EPD .m                   0.00:  ELEVATION
 EGL .m                   0.00:  GROUND ELEVATION
 WDMS.m                 176.20:  WD ELEV
 APD .m                  43.16:  DEPTH ABOVE PD
 DEP .m                3172.61:  DEPTH
 AGAP.m                  43.16:  AIR GAP
 VSEW.m                  -5.41:  VERT SEC E/W
 VSNS.m                  -0.12:  VERT SEC N/S
 EKB .m                  43.16:  KB ELEVATION
 EDF .m                  43.16:  DF ELEVATION
 TDL .m                 295.00:  TOTAL DEPTH (LOGGER)
 VSC .                       0:  VS TO CLOSURE
 MAGU.                 1852276:  MAGUTM CHECKSUM
~Parameter Information Block
#MNEM.UNIT       Value        Description
#---------     -----------    ---------------------------
 AV  .mps                 1.60:  Ann Velocity 
 AVMX.mps                 2.10:  Max Ann Veloc 
 AZIF.deg               290.59:  Azm, Final 
 BHAT.        Rotary Steerable:  BHA Type 
 BROT.°/30m               1.00:  Build Rotating 
 BS  .in                  6.50:  Bit Size 
 BSZ .in                  6.50:  Bit Size 
 BTPL.psig              120.00:  Bit Press Loss 
 CABU.                     Yes:  Customer Abuse 
 CGEO.          Eldar Huseynov:  Customer Geo 
 COMM.                     Tì‚:  Run Comments 1 
 TCS .hr                 87.00:  Time Ciculation Ended 
 CV  .mps                 4.01:  Crit Velocity 
 CVMX.mps                 5.06:  Max Crit Veloc 
 DD1 .             Aziz Aliyev:  Direct Drillr 1 
 DD2 .            Sanan Aliyev:  Direct Drillr 2 
 DDSV.               Geo-Pilot:  DD Service 
 DEFF.%                  95.00:  % Det Eff 
 DLRX.°/30m               0.75:  Dogleg Rot Max 
 DLSO.°/30m               0.65:  Dogleg Oriented 
 DLSX.°/30m               1.39:  Dogleg Str Max 
 DRET.      18.25.00 19-Jan-20:  Drill End Time 
 DRST.      11.56.48 17-Jan-20:  Drill Start Tim 
 DTIM.hr                 27.16:  Time Drilling 
 EDEP.m                5161.01:  End Depth 
 ENG1.          Rasim Hashimov:  Engineer 1 
 ENG2.      Bakhtiyar Jabbarli:  Engineer 2 
 ETIM.      11.56.48 21-Jan-20:  End Time 
 FLOI.gpm               350.00:  Flow In 
 FLON.gpm               300.00:  Flow In Min 
 FLOS.cptm                0.00:  Fluid Loss 
 FLOX.gpm               400.00:  Flow In Max 
 HFLO.                      No:  High Flow 
 HPRE.                      No:  High Pressure 
 HTEM.                      No:  High Temp 
 HYDO.m                   1.85:  Hydro Offset 
 IFIN.deg                71.58:  Inc, Final 
 IMAX.deg                71.83:  Inc Max 
 IMIN.deg                71.12:  Inc Min 
 IMND.m                5099.48:  Inc Min Depth 
 IMXD.m                5071.08:  Inc Max Depth 
 JARR.                      No:  Jarring 
 LETM.      18.25.00 19-Jan-20:  Log End Time 
 LOST.hr                     0:  Lost Rig Time 
 LSTM.      11.56.48 17-Jan-20:  Log Start Time 
 MDCL.ppm             37000.00:  Mud Chlorides 
 MDES.     Inversion Oil/Synthetic:  Mud Desc 
 DFD .sg                  1.34:  Mud Density 
 MDMN.sg                  1.34:  Dens Mud Min 
 MDMX.sg                  1.34:  Dens Mud Max 
 MOIL.                      69:  Run Mud Oil % 
 MOWR.                   69:31:  Run Mud OWR 
 MSND.                     0.1:  Run Mud Sand % 
 MSOL.                    17.6:  Run Mud Solids% 
 DFV .spqt               79.00:  Mud Viscosity 
 MWOD.in                  4.75:  MWD Tool OD 
 MWSI.                      No:  Serv Intrp, MWD 
 OTIM.hr                126.10:  Time Operating 
 PMAX.psia             6000.00:  Press Op, Max 
 PV  .cP                 29.00:  Mud PV 
 RUN .                     400:  Run Number 
 ROPA.m/hr               11.00:  ROP Avg 
 ROPN.m/hr                5.00:  ROP Min 
 ROPX.m/hr               18.00:  ROP Max 
 RPMA.rpm               139.00:  RPM Surface Avg 
 RPMN.rpm               100.00:  RPM Surface Min 
 RPMX.rpm               140.00:  RPM Surface Max 
 RRUN.                     400:  Rig Run Number 
 SAZI.deg               290.22:  Azm, Start 
 SDEP.m                4868.01:  Start Depth 
 SIDD.                      No:  Serv Intrp, DD 
 SINC.deg                71.77:  Inc, Start 
 SPPA.psig             5550.00:  SPP Avg 
 SPPN.psig             4300.00:  SPP Min 
 SPPX.psig             5600.00:  SPP Max 
 STIM.      23.45.48 15-Jan-20:  Start Time 
 SVCS.                 DD, MWD:  Services 
 SVER.                    9.20:  Sperry Version 
 TDAT.m                5161.01:  Tot Depth Attmp 
 TDDF.                      No:  Trip for DD 
 TDLG.m                 295.00:  Tot Depth Loggd 
 TFF .                      No:  Trip for Fail 
 TQAA.f-kp               13.00:  Torque Abs Avg 
 TQAN.f-kp               13.00:  Torque Abs Min 
 TQAX.f-kp               16.00:  Torque Abs Max 
 TRRT.°/30m               0.25:  Turn Rotating 
 MRT .                     ADR:  Maximum Recorded Temperature 
 TTMX.degC               88.00:  Max Tool Temp 
 VS01.                90577859:  Virtual Str1 SN 
 VS02.                90521879:  Virtual Str2 SN 
 VS03.                90580299:  Virtual Str3 SN 
 VS04.                90515982:  Virtual Str4 SN 
 VS05.                90547765:  Virtual Str5 SN 
 WBMN.klb                 2.00:  WOB Min 
 WITN.           Adil Mammadov:  Customer Rep 
 WITN.        Elmaddin Rahimov:  Customer Rep 2 
 WOBA.klb                 3.00:  WOB Avg 
 WOBX.klb                 5.00:  WOB Max 
 YP  .lhf2               30.00:  Yield Point 
~Curve Information Block
#MNEM.UNIT                 API CODE     Curve Description
#---------               -----------    ---------------------------
 TIME.HHMMSS            00 000 000 000:  GT Time & Date
 GTDEPTH.m              00 000 000 000:  GT Depth
 GTPQH.psia             00 000 000 000:  GT HR Quartz Pressure
 GTTQ.degC              00 000 000 000:  GT Quartz Temperature
 GTTN.NONE              00 000 000 000:  GT Test Number
 GTET.sec               00 000 000 000:  GT Elapsed Test Time
 GTTVD.m                00 000 000 000:  GT True Vertical Depth
#Other Information
#
#WARRANTY: Halliburton will use its best efforts to furnish customers with 
#accurate information and interpretations that are part of, and incident to, the services 
#provided.  However, Halliburton cannot and does not warrant the accuracy 
#or correctness of such information and interpretations.  Under no circumstances should any 
#such information or interpretation be relied upon as the sole basis for any drilling, 
#completion, production, or financial decision or any procedure involving any risk to the 
#safety of any drilling venture, drilling rig or its crew or any other third party.  The 
#Customer has full responsibility for all drilling, completion and production operation.  
#Halliburton makes no representations or warranties, either expressed or 
#implied, including, but not limited to, the implied warranties of merchantability or fitness 
#for a particular purpose, with respect to the services rendered.  In no event will 
#Halliburton be liable for failure to obtain any particular results or for 
#any damages, including, but not limited to, indirect, special or consequential damages, 
#resulting from the use of any information or interpretation provided by Halliburton.
#
~A           TIME           GTDEPTH  GTPQH  GTTQ  GTTN  GTET   GTTVD  
# ...
   14:08:41.665.19-Jan-2020 5113.51 4117.43 81.67 6.00 184.04 2879.41
   14:08:41.865.19-Jan-2020 5113.51 4117.43 81.67 6.00 184.24 2879.41
   14:08:42.065.19-Jan-2020 5113.51 4117.31 81.67 6.00 184.44 2879.41
   14:08:42.265.19-Jan-2020 5113.51 4117.06 81.67 6.00 184.64 2879.41
   14:08:42.465.19-Jan-2020 5113.51 4117.02 81.67 6.00 184.84 2879.41
   14:08:42.665.19-Jan-2020 5113.51 4117.04 81.67 6.00 185.04 2879.41
   14:08:42.865.19-Jan-2020 5113.51 4117.04 81.67 6.00 185.24 2879.41
   14:08:43.065.19-Jan-2020 5113.51 4116.96 81.67 6.00 185.44 2879.41
   14:08:43.265.19-Jan-2020 5113.51 4116.96 81.67 6.00 185.64 2879.41
   14:08:43.465.19-Jan-2020 5113.51 4117.02 81.66 6.00 185.84 2879.41
   14:08:43.666.19-Jan-2020 5113.51 4116.97 81.66 6.00 186.04 2879.41
   14:08:43.866.19-Jan-2020 5113.51 4116.97 81.66 6.00 186.24 2879.41
   14:08:44.066.19-Jan-2020 5113.51 4117.00 81.66 6.00 186.44 2879.41
   14:08:44.266.19-Jan-2020 5113.51 4116.96 81.66 6.00 186.64 2879.41
   14:08:44.466.19-Jan-2020 5113.51 4116.99 81.66 6.00 186.84 2879.41
   14:08:44.666.19-Jan-2020 5113.51 4116.96 81.66 6.00 187.04 2879.41
   14:08:44.866.19-Jan-2020 5113.51 4116.96 81.66 6.00 187.24 2879.41
   14:08:45.066.19-Jan-2020 5113.51 4116.96 81.66 6.00 187.44 2879.41
   14:08:45.266.19-Jan-2020 5113.51 4116.96 81.66 6.00 187.64 2879.41
   14:08:45.466.19-Jan-2020 5113.51 4116.96 81.66 6.00 187.84 2879.41
   14:08:45.666.19-Jan-2020 5113.51 4116.95 81.66 6.00 188.04 2879.41
   14:08:45.866.19-Jan-2020 5113.51 4116.95 81.66 6.00 188.24 2879.41
   14:08:46.066.19-Jan-2020 5113.51 4116.94 81.66 6.00 188.44 2879.41
   14:08:46.266.19-Jan-2020 5113.51 4116.95 81.66 6.00 188.64 2879.41
   14:08:46.466.19-Jan-2020 5113.51 4116.88 81.66 6.00 188.84 2879.41
   14:08:46.666.19-Jan-2020 5113.51 4117.00 81.66 6.00 189.04 2879.41
   14:08:46.866.19-Jan-2020 5113.51 4117.00 81.66 6.00 189.24 2879.41
   14:08:47.066.19-Jan-2020 5113.51 4116.95 81.66 6.00 189.44 2879.41
   14:08:47.266.19-Jan-2020 5113.51 4116.96 81.66 6.00 189.64 2879.41
   14:08:47.466.19-Jan-2020 5113.51 4116.96 81.66 6.00 189.84 2879.41
   14:08:47.666.19-Jan-2020 5113.51 4116.95 81.66 6.00 190.04 2879.41
   14:08:47.866.19-Jan-2020 5113.51 4116.95 81.66 6.00 190.24 2879.41
   14:08:48.066.19-Jan-2020 5113.51 4116.96 81.66 6.00 190.44 2879.41
   14:08:48.266.19-Jan-2020 5113.51 4116.95 81.66 6.00 190.64 2879.41
   14:08:48.467.19-Jan-2020 5113.51 4116.96 81.66 6.00 190.84 2879.41
   14:08:48.667.19-Jan-2020 5113.51 4116.94 81.66 6.00 191.04 2879.41
   14:08:48.867.19-Jan-2020 5113.51 4116.94 81.66 6.00 191.24 2879.41
   14:08:49.067.19-Jan-2020 5113.51 4116.93 81.66 6.00 191.44 2879.41
   14:08:49.267.19-Jan-2020 5113.51 4116.96 81.66 6.00 191.64 2879.41
   14:08:49.467.19-Jan-2020 5113.51 4116.93 81.66 6.00 191.84 2879.41
   14:08:49.667.19-Jan-2020 5113.51 4116.95 81.66 6.00 192.04 2879.41
   14:08:49.867.19-Jan-2020 5113.51 4116.95 81.66 6.00 192.24 2879.41
   14:08:50.067.19-Jan-2020 5113.51 4116.99 81.66 6.00 192.44 2879.41
   14:08:50.267.19-Jan-2020 5113.51 4116.94 81.66 6.00 192.64 2879.41
   14:08:50.467.19-Jan-2020 5113.51 4116.95 81.66 6.00 192.84 2879.41
   14:08:50.667.19-Jan-2020 5113.51 4116.88 81.65 6.00 193.04 2879.41
   14:08:50.867.19-Jan-2020 5113.51 4116.88 81.65 6.00 193.24 2879.41
   14:08:51.067.19-Jan-2020 5113.51 4116.96 81.65 6.00 193.44 2879.41
   14:08:51.267.19-Jan-2020 5113.51 4116.94 81.65 6.00 193.64 2879.41
   14:08:51.467.19-Jan-2020 5113.51 4116.98 81.65 6.00 193.84 2879.41
   14:08:51.667.19-Jan-2020 5113.51 4116.94 81.65 6.00 194.04 2879.41
   14:08:51.867.19-Jan-2020 5113.51 4116.94 81.65 6.00 194.24 2879.41
   14:08:52.067.19-Jan-2020 5113.51 4117.02 81.65 6.00 194.44 2879.41
   14:08:52.267.19-Jan-2020 5113.51 4116.98 81.65 6.00 194.64 2879.41
   14:08:52.467.19-Jan-2020 5113.51 4116.93 81.65 6.00 194.84 2879.41
   14:08:52.667.19-Jan-2020 5113.51 4116.98 81.65 6.00 195.04 2879.41
   14:08:52.867.19-Jan-2020 5113.51 4116.98 81.65 6.00 195.24 2879.41
   14:08:53.067.19-Jan-2020 5113.51 4116.90 81.65 6.00 195.44 2879.41
   14:08:53.268.19-Jan-2020 5113.51 4116.98 81.65 6.00 195.64 2879.41
   14:08:53.468.19-Jan-2020 5113.51 4116.97 81.65 6.00 195.84 2879.41
   14:08:53.668.19-Jan-2020 5113.51 4116.94 81.65 6.00 196.04 2879.41
   14:08:53.868.19-Jan-2020 5113.51 4116.94 81.65 6.00 196.24 2879.41
   14:08:54.068.19-Jan-2020 5113.51 4116.98 81.65 6.00 196.44 2879.41
   14:08:54.268.19-Jan-2020 5113.51 4116.95 81.65 6.00 196.64 2879.41
   14:08:54.468.19-Jan-2020 5113.51 4116.96 81.65 6.00 196.84 2879.41
   14:08:54.668.19-Jan-2020 5113.51 4116.96 81.65 6.00 197.04 2879.41
   14:08:54.868.19-Jan-2020 5113.51 4116.96 81.65 6.00 197.24 2879.41
   14:08:55.068.19-Jan-2020 5113.51 4116.96 81.65 6.00 197.44 2879.41
   14:08:55.268.19-Jan-2020 5113.51 4116.96 81.65 6.00 197.64 2879.41
   14:08:55.468.19-Jan-2020 5113.51 4116.96 81.65 6.00 197.84 2879.41
   14:08:55.668.19-Jan-2020 5113.51 4116.95 81.65 6.00 198.04 2879.41
   14:08:55.868.19-Jan-2020 5113.51 4116.95 81.65 6.00 198.24 2879.41
   14:08:56.068.19-Jan-2020 5113.51 4116.91 81.65 6.00 198.44 2879.41
   14:08:56.268.19-Jan-2020 5113.51 4116.91 81.65 6.00 198.64 2879.41
   14:08:56.468.19-Jan-2020 5113.51 4116.96 81.65 6.00 198.84 2879.41
   14:08:56.668.19-Jan-2020 5113.51 4116.98 81.65 6.00 199.04 2879.41
   14:08:56.868.19-Jan-2020 5113.51 4116.98 81.65 6.00 199.24 2879.41
   14:08:57.068.19-Jan-2020 5113.51 4117.00 81.65 6.00 199.44 2879.41
   14:08:57.268.19-Jan-2020 5113.51 4116.95 81.65 6.00 199.64 2879.41
   14:08:57.468.19-Jan-2020 5113.51 4116.96 81.65 6.00 199.84 2879.41
   14:08:57.668.19-Jan-2020 5113.51 4116.95 81.65 6.00 200.04 2879.41
   14:08:57.868.19-Jan-2020 5113.51 4116.95 81.65 6.00 200.24 2879.41
   14:08:58.068.19-Jan-2020 5113.51 4116.96 81.64 6.00 200.44 2879.41
   14:08:58.269.19-Jan-2020 5113.51 4116.95 81.64 6.00 200.64 2879.41
   14:08:58.469.19-Jan-2020 5113.51 4116.97 81.64 6.00 200.84 2879.41
   14:08:58.669.19-Jan-2020 5113.51 4116.94 81.64 6.00 201.04 2879.41
   14:08:58.869.19-Jan-2020 5113.51 4116.94 81.64 6.00 201.24 2879.41
   14:08:59.069.19-Jan-2020 5113.51 4116.94 81.64 6.00 201.44 2879.41
   14:08:59.269.19-Jan-2020 5113.51 4116.96 81.64 6.00 201.64 2879.41
   14:08:59.469.19-Jan-2020 5113.51 4116.92 81.64 6.00 201.84 2879.41
   14:08:59.669.19-Jan-2020 5113.51 4116.90 81.64 6.00 202.04 2879.41
   14:08:59.869.19-Jan-2020 5113.51 4116.90 81.64 6.00 202.24 2879.41
   14:09:00.069.19-Jan-2020 5113.51 4116.98 81.64 6.00 202.44 2879.41
   14:09:00.269.19-Jan-2020 5113.51 4116.92 81.64 6.00 202.64 2879.41
   14:09:00.469.19-Jan-2020 5113.51 4116.90 81.64 6.00 202.84 2879.41
   14:09:00.669.19-Jan-2020 5113.51 4116.98 81.64 6.00 203.04 2879.41
   14:09:00.869.19-Jan-2020 5113.51 4116.98 81.64 6.00 203.24 2879.41
   14:09:01.069.19-Jan-2020 5113.51 4116.96 81.64 6.00 203.44 2879.41
   14:09:01.269.19-Jan-2020 5113.51 4116.97 81.64 6.00 203.64 2879.41
   14:09:01.469.19-Jan-2020 5113.51 4116.80 81.64 6.00 203.84 2879.41
   14:09:01.669.19-Jan-2020 5113.51 4117.07 81.64 6.00 204.04 2879.41
   14:09:01.869.19-Jan-2020 5113.51 4117.07 81.64 6.00 204.24 2879.41
   14:09:02.069.19-Jan-2020 5113.51 4116.94 81.64 6.00 204.44 2879.41
   14:09:02.269.19-Jan-2020 5113.51 4117.00 81.64 6.00 204.64 2879.41
   14:09:02.469.19-Jan-2020 5113.51 4116.96 81.64 6.00 204.84 2879.41
   14:09:02.669.19-Jan-2020 5113.51 4116.81 81.64 6.00 205.04 2879.41
   14:09:02.869.19-Jan-2020 5113.51 4116.81 81.64 6.00 205.24 2879.41
   14:09:03.070.19-Jan-2020 5113.51 4116.98 81.64 6.00 205.44 2879.41
   14:09:03.270.19-Jan-2020 5113.51 4116.95 81.64 6.00 205.64 2879.41
   14:09:03.470.19-Jan-2020 5113.51 4116.97 81.64 6.00 205.84 2879.41
   14:09:03.670.19-Jan-2020 5113.51 4116.99 81.64 6.00 206.04 2879.41
   14:09:03.870.19-Jan-2020 5113.51 4116.99 81.64 6.00 206.24 2879.41
   14:09:04.070.19-Jan-2020 5113.51 4116.97 81.64 6.00 206.44 2879.41
   14:09:04.270.19-Jan-2020 5113.51 4116.96 81.64 6.00 206.64 2879.41
   14:09:04.470.19-Jan-2020 5113.51 4116.97 81.64 6.00 206.84 2879.41
