~Version Information
 VERS.                  2.0:   CWLS log ASCII Standard -VERSION 2.0
 WRAP.                   NO:   One line per depth step
~Well Information Block
#MNEM.UNIT     VALUE/NAME     DESCRIPTION
#---------     -----------    ---------------------------
 STRT.S             14:05:37 19-Jan-20: START TIME 14:05:37 19-Jan-20
 STOP.S             14:13:29 19-Jan-20: STOP TIME  14:13:29 19-Jan-20
 STEP.S                   0.00: STEP TIME
 NULL.                 -999.25: NULL VALUE
 DFWT.                        :  DIST FWL TEXT
 DFST.                        :  DIST FSL TEXT
 DMF .             Drill Floor:  DRILL MEAS FROM
 STIM.      17.57.20 21-Dec-19:  START TIME
 DATE.      17.57.20 21-Dec-19:  END TIME
 SPUD.               21-Dec-19:  SPUD DATE
 NREF.                    Grid:  NORTH REFERENCE
 HPTY.       Minimum Curvature:  HOLE POS TYPE
 DMOD.             Drill Model:  DRILL MOD DESC
 SVYD.                  Survey:  SURVEY DESC
 ILTD.               Lithology:  INTERP LTH DESC
 FTOP.          Formation Tops:  FORM TOPS DESC
 PDAT.          Mean Sea Level:  PERMANENT DATUM
 FLD .                     ACG:  FIELD NAME
 SON .        AZ-XX-0905715376:  JOB NUMBER
 CTRY.              Azerbaijan:  COUNTRY NAME
 WELL.                    E04Y:  WELL NAME
 SRVC.          TURAN DRILLING:  CONTRACTOR
 COMP.     BP Exploration (Caspian Sea) Ltd.:  COMPANY
 WTYP.                Deviated:  WELL TYPE
 UWI .                     N/a:  UNIQUE WELL IDENTIFIER
 API .                     N/a:  API NUMBER
 BASE.              Azerbaijan:  LOGGING EQUIPMENT BASE LOCATION
 REGN.                   EESSA:  REGION
 MWDS.                    Baku:  MWD SHOP
 RIG .                     DWG:  RIG NAME
 DOE .                     N/a:  DOE NUMBER
 CNTY.                    Baku:  COUNTY NAME
 DCON.         Sperry Drilling:  DIRECTNL CONTR
 UNIT.                     N/a:  LOGGING EQUIPMENT ID
 MDS .        Operator Entered:  MAG DATA SOURCE
 PROV.                        :  PROVINCE
 STAT.                        :  STATE
 LOC .                        :  LOCATION
 LMF .             Drill Floor:  LOG MEASURED FROM
 TVDS.m                  43.16:  TVDSS CORRECTN
 LATI.deg                40.17:  LATITUDE
 LONG.deg                51.17:  LONGITUDE
 WHNS.m                  -0.12:  WELL HEAD N/S
 WHEW.m                  -5.41:  WELL HEAD E/W
 UTMX.m              514337.95:  UTM X
 UTMY.m             4448627.46:  UTM Y
 DFWL.m                   0.00:  DISTANCE FWL
 DFSL.m                   0.00:  DISTANCE FSL
 SDEP.m                   0.00:  START DEPTH
 TDD .m                   0.00:  TOTAL DEPTH (DRILLER)
 VSDR.deg               235.12:  VERT SEC DIRECT
 GVFD.g                   1.00:  GRAVITY FIELD
 MFLD.nT              50294.00:  MAGNETIC FIELD
 MDIP.deg                59.61:  MAGNETIC DIP
 MDEC.deg                 6.58:  MAGNETIC DECL
 GRDC.deg                 0.09:  GRID CORRECTION
 AZTC.deg                 6.49:  AZM TOTAL CORR
 EPD .m                   0.00:  ELEVATION
 EGL .m                   0.00:  GROUND ELEVATION
 WDMS.m                 176.20:  WD ELEV
 APD .m                  43.16:  DEPTH ABOVE PD
 DEP .m                3172.61:  DEPTH
 AGAP.m                  43.16:  AIR GAP
 VSEW.m                  -5.41:  VERT SEC E/W
 VSNS.m                  -0.12:  VERT SEC N/S
 EKB .m                  43.16:  KB ELEVATION
 EDF .m                  43.16:  DF ELEVATION
 TDL .m                 295.00:  TOTAL DEPTH (LOGGER)
 VSC .                       0:  VS TO CLOSURE
 MAGU.                 1852276:  MAGUTM CHECKSUM
~Parameter Information Block
#MNEM.UNIT       Value        Description
#---------     -----------    ---------------------------
 AV  .mps                 1.60:  Ann Velocity 
 AVMX.mps                 2.10:  Max Ann Veloc 
 AZIF.deg               290.59:  Azm, Final 
 BHAT.        Rotary Steerable:  BHA Type 
 BROT.°/30m               1.00:  Build Rotating 
 BS  .in                  6.50:  Bit Size 
 BSZ .in                  6.50:  Bit Size 
 BTPL.psig              120.00:  Bit Press Loss 
 CABU.                     Yes:  Customer Abuse 
 CGEO.          Eldar Huseynov:  Customer Geo 
 COMM.                     Tì‚:  Run Comments 1 
 TCS .hr                 87.00:  Time Ciculation Ended 
 CV  .mps                 4.01:  Crit Velocity 
 CVMX.mps                 5.06:  Max Crit Veloc 
 DD1 .             Aziz Aliyev:  Direct Drillr 1 
 DD2 .            Sanan Aliyev:  Direct Drillr 2 
 DDSV.               Geo-Pilot:  DD Service 
 DEFF.%                  95.00:  % Det Eff 
 DLRX.°/30m               0.75:  Dogleg Rot Max 
 DLSO.°/30m               0.65:  Dogleg Oriented 
 DLSX.°/30m               1.39:  Dogleg Str Max 
 DRET.      18.25.00 19-Jan-20:  Drill End Time 
 DRST.      11.56.48 17-Jan-20:  Drill Start Tim 
 DTIM.hr                 27.16:  Time Drilling 
 EDEP.m                5161.01:  End Depth 
 ENG1.          Rasim Hashimov:  Engineer 1 
 ENG2.      Bakhtiyar Jabbarli:  Engineer 2 
 ETIM.      11.56.48 21-Jan-20:  End Time 
 FLOI.gpm               350.00:  Flow In 
 FLON.gpm               300.00:  Flow In Min 
 FLOS.cptm                0.00:  Fluid Loss 
 FLOX.gpm               400.00:  Flow In Max 
 HFLO.                      No:  High Flow 
 HPRE.                      No:  High Pressure 
 HTEM.                      No:  High Temp 
 HYDO.m                   1.85:  Hydro Offset 
 IFIN.deg                71.58:  Inc, Final 
 IMAX.deg                71.83:  Inc Max 
 IMIN.deg                71.12:  Inc Min 
 IMND.m                5099.48:  Inc Min Depth 
 IMXD.m                5071.08:  Inc Max Depth 
 JARR.                      No:  Jarring 
 LETM.      18.25.00 19-Jan-20:  Log End Time 
 LOST.hr                     0:  Lost Rig Time 
 LSTM.      11.56.48 17-Jan-20:  Log Start Time 
 MDCL.ppm             37000.00:  Mud Chlorides 
 MDES.     Inversion Oil/Synthetic:  Mud Desc 
 DFD .sg                  1.34:  Mud Density 
 MDMN.sg                  1.34:  Dens Mud Min 
 MDMX.sg                  1.34:  Dens Mud Max 
 MOIL.                      69:  Run Mud Oil % 
 MOWR.                   69:31:  Run Mud OWR 
 MSND.                     0.1:  Run Mud Sand % 
 MSOL.                    17.6:  Run Mud Solids% 
 DFV .spqt               79.00:  Mud Viscosity 
 MWOD.in                  4.75:  MWD Tool OD 
 MWSI.                      No:  Serv Intrp, MWD 
 OTIM.hr                126.10:  Time Operating 
 PMAX.psia             6000.00:  Press Op, Max 
 PV  .cP                 29.00:  Mud PV 
 RUN .                     400:  Run Number 
 ROPA.m/hr               11.00:  ROP Avg 
 ROPN.m/hr                5.00:  ROP Min 
 ROPX.m/hr               18.00:  ROP Max 
 RPMA.rpm               139.00:  RPM Surface Avg 
 RPMN.rpm               100.00:  RPM Surface Min 
 RPMX.rpm               140.00:  RPM Surface Max 
 RRUN.                     400:  Rig Run Number 
 SAZI.deg               290.22:  Azm, Start 
 SDEP.m                4868.01:  Start Depth 
 SIDD.                      No:  Serv Intrp, DD 
 SINC.deg                71.77:  Inc, Start 
 SPPA.psig             5550.00:  SPP Avg 
 SPPN.psig             4300.00:  SPP Min 
 SPPX.psig             5600.00:  SPP Max 
 STIM.      23.45.48 15-Jan-20:  Start Time 
 SVCS.                 DD, MWD:  Services 
 SVER.                    9.20:  Sperry Version 
 TDAT.m                5161.01:  Tot Depth Attmp 
 TDDF.                      No:  Trip for DD 
 TDLG.m                 295.00:  Tot Depth Loggd 
 TFF .                      No:  Trip for Fail 
 TQAA.f-kp               13.00:  Torque Abs Avg 
 TQAN.f-kp               13.00:  Torque Abs Min 
 TQAX.f-kp               16.00:  Torque Abs Max 
 TRRT.°/30m               0.25:  Turn Rotating 
 MRT .                     ADR:  Maximum Recorded Temperature 
 TTMX.degC               88.00:  Max Tool Temp 
 VS01.                90577859:  Virtual Str1 SN 
 VS02.                90521879:  Virtual Str2 SN 
 VS03.                90580299:  Virtual Str3 SN 
 VS04.                90515982:  Virtual Str4 SN 
 VS05.                90547765:  Virtual Str5 SN 
 WBMN.klb                 2.00:  WOB Min 
 WITN.           Adil Mammadov:  Customer Rep 
 WITN.        Elmaddin Rahimov:  Customer Rep 2 
 WOBA.klb                 3.00:  WOB Avg 
 WOBX.klb                 5.00:  WOB Max 
 YP  .lhf2               30.00:  Yield Point 
~Curve Information Block
#MNEM.UNIT                 API CODE     Curve Description
#---------               -----------    ---------------------------
 TIME.HHMMSS            00 000 000 000:  GT Time & Date
 GTDEPTH.m              00 000 000 000:  GT Depth
 GTPQH.psia             00 000 000 000:  GT HR Quartz Pressure
 GTTQ.degC              00 000 000 000:  GT Quartz Temperature
 GTTN.NONE              00 000 000 000:  GT Test Number
 GTET.sec               00 000 000 000:  GT Elapsed Test Time
 GTTVD.m                00 000 000 000:  GT True Vertical Depth
#Other Information
#
#WARRANTY: Halliburton will use its best efforts to furnish customers with 
#accurate information and interpretations that are part of, and incident to, the services 
#provided.  However, Halliburton cannot and does not warrant the accuracy 
#or correctness of such information and interpretations.  Under no circumstances should any 
#such information or interpretation be relied upon as the sole basis for any drilling, 
#completion, production, or financial decision or any procedure involving any risk to the 
#safety of any drilling venture, drilling rig or its crew or any other third party.  The 
#Customer has full responsibility for all drilling, completion and production operation.  
#Halliburton makes no representations or warranties, either expressed or 
#implied, including, but not limited to, the implied warranties of merchantability or fitness 
#for a particular purpose, with respect to the services rendered.  In no event will 
#Halliburton be liable for failure to obtain any particular results or for 
#any damages, including, but not limited to, indirect, special or consequential damages, 
#resulting from the use of any information or interpretation provided by Halliburton.
#
~A           TIME           GTDEPTH  GTPQH  GTTQ  GTTN  GTET   GTTVD  
   14:05:37.627.19-Jan-2020 5113.51 6172.63 82.05 6.00   0.00 2879.41
   14:05:37.827.19-Jan-2020 5113.51 6172.63 82.05 6.00   0.20 2879.41
   14:05:38.027.19-Jan-2020 5113.51 6172.91 82.05 6.00   0.40 2879.41
   14:05:38.227.19-Jan-2020 5113.51 6172.34 82.05 6.00   0.60 2879.41
   14:05:38.427.19-Jan-2020 5113.51 6173.90 82.05 6.00   0.80 2879.41
   14:05:38.628.19-Jan-2020 5113.51 6172.61 82.05 6.00   1.00 2879.41
   14:05:38.828.19-Jan-2020 5113.51 6172.61 82.05 6.00   1.20 2879.41
   14:05:39.028.19-Jan-2020 5113.51 6172.69 82.05 6.00   1.40 2879.41
   14:05:39.228.19-Jan-2020 5113.51 6173.87 82.05 6.00   1.60 2879.41
   14:05:39.428.19-Jan-2020 5113.51 6163.81 82.04 6.00   1.80 2879.41
   14:05:39.628.19-Jan-2020 5113.51 6175.80 82.04 6.00   2.00 2879.41
   14:05:39.828.19-Jan-2020 5113.51 6175.80 82.04 6.00   2.20 2879.41
   14:05:40.028.19-Jan-2020 5113.51 6169.93 82.04 6.00   2.40 2879.41
   14:05:40.228.19-Jan-2020 5113.51 6174.67 82.04 6.00   2.60 2879.41
   14:05:40.428.19-Jan-2020 5113.51 6173.04 82.04 6.00   2.80 2879.41
   14:05:40.628.19-Jan-2020 5113.51 6166.86 82.04 6.00   3.00 2879.41
   14:05:40.828.19-Jan-2020 5113.51 6166.86 82.04 6.00   3.20 2879.41
   14:05:41.028.19-Jan-2020 5113.51 6175.35 82.04 6.00   3.40 2879.41
   14:05:41.228.19-Jan-2020 5113.51 6170.19 82.04 6.00   3.60 2879.41
   14:05:41.428.19-Jan-2020 5113.51 6175.64 82.04 6.00   3.80 2879.41
   14:05:41.628.19-Jan-2020 5113.51 6168.67 82.04 6.00   4.00 2879.41
   14:05:41.828.19-Jan-2020 5113.51 6168.67 82.04 6.00   4.20 2879.41
   14:05:42.028.19-Jan-2020 5113.51 6173.00 82.04 6.00   4.40 2879.41
   14:05:42.228.19-Jan-2020 5113.51 6173.55 82.04 6.00   4.60 2879.41
   14:05:42.428.19-Jan-2020 5113.51 6173.20 82.04 6.00   4.80 2879.41
   14:05:42.628.19-Jan-2020 5113.51 6174.93 82.04 6.00   5.00 2879.41
   14:05:42.828.19-Jan-2020 5113.51 6174.93 82.04 6.00   5.20 2879.41
   14:05:43.028.19-Jan-2020 5113.51 6174.01 82.04 6.00   5.40 2879.41
   14:05:43.228.19-Jan-2020 5113.51 6164.19 82.04 6.00   5.60 2879.41
   14:05:43.429.19-Jan-2020 5113.51 6179.15 82.03 6.00   5.80 2879.41
   14:05:43.629.19-Jan-2020 5113.51 6175.98 82.03 6.00   6.00 2879.41
   14:05:43.829.19-Jan-2020 5113.51 6175.98 82.03 6.00   6.20 2879.41
   14:05:44.029.19-Jan-2020 5113.51 6175.48 82.03 6.00   6.40 2879.41
   14:05:44.229.19-Jan-2020 5113.51 6173.41 82.03 6.00   6.60 2879.41
   14:05:44.429.19-Jan-2020 5113.51 6173.79 82.03 6.00   6.80 2879.41
   14:05:44.629.19-Jan-2020 5113.51 6167.65 82.03 6.00   7.00 2879.41
   14:05:44.829.19-Jan-2020 5113.51 6167.65 82.03 6.00   7.20 2879.41
   14:05:45.029.19-Jan-2020 5113.51 6174.45 82.03 6.00   7.40 2879.41
   14:05:45.229.19-Jan-2020 5113.51 6170.55 82.03 6.00   7.60 2879.41
   14:05:45.429.19-Jan-2020 5113.51 6174.63 82.03 6.00   7.80 2879.41
   14:05:45.629.19-Jan-2020 5113.51 6173.45 82.03 6.00   8.00 2879.41
   14:05:45.829.19-Jan-2020 5113.51 6173.45 82.03 6.00   8.20 2879.41
   14:05:46.029.19-Jan-2020 5113.51 6174.55 82.03 6.00   8.40 2879.41
   14:05:46.229.19-Jan-2020 5113.51 6175.32 82.03 6.00   8.60 2879.41
   14:05:46.429.19-Jan-2020 5113.51 6174.31 82.03 6.00   8.80 2879.41
   14:05:46.629.19-Jan-2020 5113.51 6175.63 82.03 6.00   9.00 2879.41
   14:05:46.829.19-Jan-2020 5113.51 6175.63 82.03 6.00   9.20 2879.41
   14:05:47.029.19-Jan-2020 5113.51 6175.11 82.03 6.00   9.40 2879.41
   14:05:47.229.19-Jan-2020 5113.51 6174.93 82.02 6.00   9.60 2879.41
   14:05:47.429.19-Jan-2020 5113.51 6175.59 82.02 6.00   9.80 2879.41
   14:05:47.629.19-Jan-2020 5113.51 6175.13 82.02 6.00  10.00 2879.41
   14:05:47.829.19-Jan-2020 5113.51 6175.13 82.02 6.00  10.20 2879.41
   14:05:48.029.19-Jan-2020 5113.51 6174.67 82.02 6.00  10.40 2879.41
   14:05:48.229.19-Jan-2020 5113.51 6164.15 82.02 6.00  10.60 2879.41
   14:05:48.430.19-Jan-2020 5113.51 6174.49 82.02 6.00  10.80 2879.41
   14:05:48.630.19-Jan-2020 5113.51 6170.74 82.02 6.00  11.00 2879.41
   14:05:48.830.19-Jan-2020 5113.51 6170.74 82.02 6.00  11.20 2879.41
   14:05:49.030.19-Jan-2020 5113.51 6171.13 82.02 6.00  11.40 2879.41
   14:05:49.230.19-Jan-2020 5113.51 6167.04 82.02 6.00  11.60 2879.41
   14:05:49.430.19-Jan-2020 5113.51 6158.69 82.02 6.00  11.80 2879.41
   14:05:49.630.19-Jan-2020 5113.51 6166.35 82.02 6.00  12.00 2879.41
   14:05:49.830.19-Jan-2020 5113.51 6166.35 82.02 6.00  12.20 2879.41
   14:05:50.030.19-Jan-2020 5113.51 6166.35 82.02 6.00  12.40 2879.41
   14:05:50.230.19-Jan-2020 5113.51 6150.79 82.02 6.00  12.60 2879.41
   14:05:50.430.19-Jan-2020 5113.51 6132.34 82.02 6.00  12.80 2879.41
   14:05:50.630.19-Jan-2020 5113.51 6095.32 82.02 6.00  13.00 2879.41
   14:05:50.830.19-Jan-2020 5113.51 6095.32 82.02 6.00  13.20 2879.41
   14:05:51.030.19-Jan-2020 5113.51 6070.89 82.02 6.00  13.40 2879.41
   14:05:51.230.19-Jan-2020 5113.51 6085.65 82.01 6.00  13.60 2879.41
   14:05:51.430.19-Jan-2020 5113.51 6128.98 82.01 6.00  13.80 2879.41
   14:05:51.630.19-Jan-2020 5113.51 6213.93 82.01 6.00  14.00 2879.41
   14:05:51.830.19-Jan-2020 5113.51 6213.93 82.01 6.00  14.20 2879.41
   14:05:52.030.19-Jan-2020 5113.51 6348.19 82.01 6.00  14.40 2879.41
   14:05:52.230.19-Jan-2020 5113.51 6412.61 82.01 6.00  14.60 2879.41
   14:05:52.430.19-Jan-2020 5113.51 6344.52 82.01 6.00  14.80 2879.41
   14:05:52.630.19-Jan-2020 5113.51 6342.00 82.01 6.00  15.00 2879.41
   14:05:52.830.19-Jan-2020 5113.51 6342.00 82.01 6.00  15.20 2879.41
   14:05:53.030.19-Jan-2020 5113.51 6211.15 82.01 6.00  15.40 2879.41
   14:05:53.231.19-Jan-2020 5113.51 6191.96 82.01 6.00  15.60 2879.41
   14:05:53.431.19-Jan-2020 5113.51 6214.91 82.01 6.00  15.80 2879.41
   14:05:53.631.19-Jan-2020 5113.51 6173.94 82.01 6.00  16.00 2879.41
   14:05:53.831.19-Jan-2020 5113.51 6173.94 82.01 6.00  16.20 2879.41
   14:05:54.031.19-Jan-2020 5113.51 6059.52 82.01 6.00  16.40 2879.41
   14:05:54.231.19-Jan-2020 5113.51 6009.40 82.01 6.00  16.60 2879.41
   14:05:54.431.19-Jan-2020 5113.51 6114.65 82.01 6.00  16.80 2879.41
   14:05:54.631.19-Jan-2020 5113.51 6143.47 82.01 6.00  17.00 2879.41
   14:05:54.831.19-Jan-2020 5113.51 6143.47 82.01 6.00  17.20 2879.41
   14:05:55.031.19-Jan-2020 5113.51 6213.02 82.01 6.00  17.40 2879.41
   14:05:55.231.19-Jan-2020 5113.51 6287.32 82.00 6.00  17.60 2879.41
   14:05:55.431.19-Jan-2020 5113.51 6449.00 82.00 6.00  17.80 2879.41
   14:05:55.631.19-Jan-2020 5113.51 6653.28 82.00 6.00  18.00 2879.41
   14:05:55.831.19-Jan-2020 5113.51 6653.28 82.00 6.00  18.20 2879.41
   14:05:56.031.19-Jan-2020 5113.51 7090.42 82.00 6.00  18.40 2879.41
   14:05:56.231.19-Jan-2020 5113.51 7235.89 82.00 6.00  18.60 2879.41
   14:05:56.431.19-Jan-2020 5113.51 7313.14 82.00 6.00  18.80 2879.41
   14:05:56.631.19-Jan-2020 5113.51 7273.56 82.00 6.00  19.00 2879.41
   14:05:56.831.19-Jan-2020 5113.51 7273.56 82.00 6.00  19.20 2879.41
   14:05:57.031.19-Jan-2020 5113.51 7250.96 82.00 6.00  19.40 2879.41
   14:05:57.231.19-Jan-2020 5113.51 7265.01 82.00 6.00  19.60 2879.41
   14:05:57.431.19-Jan-2020 5113.51 7248.80 82.00 6.00  19.80 2879.41
   14:05:57.631.19-Jan-2020 5113.51 7212.56 82.00 6.00  20.00 2879.41
   14:05:57.831.19-Jan-2020 5113.51 7212.56 82.00 6.00  20.20 2879.41
   14:05:58.032.19-Jan-2020 5113.51 7380.82 82.00 6.00  20.40 2879.41
   14:05:58.232.19-Jan-2020 5113.51 7292.82 82.00 6.00  20.60 2879.41
   14:05:58.432.19-Jan-2020 5113.51 7244.02 82.00 6.00  20.80 2879.41
   14:05:58.632.19-Jan-2020 5113.51 7328.44 82.00 6.00  21.00 2879.41
   14:05:58.832.19-Jan-2020 5113.51 7328.44 82.00 6.00  21.20 2879.41
   14:05:59.032.19-Jan-2020 5113.51 7405.19 82.00 6.00  21.40 2879.41
   14:05:59.232.19-Jan-2020 5113.51 7357.90 82.00 6.00  21.60 2879.41
   14:05:59.432.19-Jan-2020 5113.51 7383.77 82.00 6.00  21.80 2879.41
   14:05:59.632.19-Jan-2020 5113.51 7400.58 82.00 6.00  22.00 2879.41
   14:05:59.832.19-Jan-2020 5113.51 7400.58 82.00 6.00  22.20 2879.41
   14:06:00.032.19-Jan-2020 5113.51 7416.97 82.00 6.00  22.40 2879.41
   14:06:00.232.19-Jan-2020 5113.51 7381.98 82.00 6.00  22.60 2879.41
   14:06:00.432.19-Jan-2020 5113.51 7388.08 82.00 6.00  22.80 2879.41
