~Version Information
 VERS.                  2.0:   CWLS log ASCII Standard -VERSION 2.0
 WRAP.                   NO:   One line per depth step
~Well Information Block
#MNEM.UNIT     VALUE/NAME     DESCRIPTION
#---------     -----------    ---------------------------
 STRT.S             05:36:55 19-Jan-20: START TIME 05:36:55 19-Jan-20
 STOP.S             05:44:47 19-Jan-20: STOP TIME  05:44:47 19-Jan-20
 STEP.S                   0.00: STEP TIME
 NULL.                 -999.25: NULL VALUE
 DFWT.                        :  DIST FWL TEXT
 DFST.                        :  DIST FSL TEXT
 DMF .             Drill Floor:  DRILL MEAS FROM
 STIM.      17.57.20 21-Dec-19:  START TIME
 DATE.      17.57.20 21-Dec-19:  END TIME
 SPUD.               21-Dec-19:  SPUD DATE
 NREF.                    Grid:  NORTH REFERENCE
 HPTY.       Minimum Curvature:  HOLE POS TYPE
 DMOD.             Drill Model:  DRILL MOD DESC
 SVYD.                  Survey:  SURVEY DESC
 ILTD.               Lithology:  INTERP LTH DESC
 FTOP.          Formation Tops:  FORM TOPS DESC
 PDAT.          Mean Sea Level:  PERMANENT DATUM
 FLD .                     ACG:  FIELD NAME
 SON .        AZ-XX-0905715376:  JOB NUMBER
 CTRY.              Azerbaijan:  COUNTRY NAME
 WELL.                    E04Y:  WELL NAME
 SRVC.          TURAN DRILLING:  CONTRACTOR
 COMP.     BP Exploration (Caspian Sea) Ltd.:  COMPANY
 WTYP.                Deviated:  WELL TYPE
 UWI .                     N/a:  UNIQUE WELL IDENTIFIER
 API .                     N/a:  API NUMBER
 BASE.              Azerbaijan:  LOGGING EQUIPMENT BASE LOCATION
 REGN.                   EESSA:  REGION
 MWDS.                    Baku:  MWD SHOP
 RIG .                     DWG:  RIG NAME
 DOE .                     N/a:  DOE NUMBER
 CNTY.                    Baku:  COUNTY NAME
 DCON.         Sperry Drilling:  DIRECTNL CONTR
 UNIT.                     N/a:  LOGGING EQUIPMENT ID
 MDS .        Operator Entered:  MAG DATA SOURCE
 PROV.                        :  PROVINCE
 STAT.                        :  STATE
 LOC .                        :  LOCATION
 LMF .             Drill Floor:  LOG MEASURED FROM
 TVDS.m                  43.16:  TVDSS CORRECTN
 LATI.deg                40.17:  LATITUDE
 LONG.deg                51.17:  LONGITUDE
 WHNS.m                  -0.12:  WELL HEAD N/S
 WHEW.m                  -5.41:  WELL HEAD E/W
 UTMX.m              514337.95:  UTM X
 UTMY.m             4448627.46:  UTM Y
 DFWL.m                   0.00:  DISTANCE FWL
 DFSL.m                   0.00:  DISTANCE FSL
 SDEP.m                   0.00:  START DEPTH
 TDD .m                   0.00:  TOTAL DEPTH (DRILLER)
 VSDR.deg               235.12:  VERT SEC DIRECT
 GVFD.g                   1.00:  GRAVITY FIELD
 MFLD.nT              50294.00:  MAGNETIC FIELD
 MDIP.deg                59.61:  MAGNETIC DIP
 MDEC.deg                 6.58:  MAGNETIC DECL
 GRDC.deg                 0.09:  GRID CORRECTION
 AZTC.deg                 6.49:  AZM TOTAL CORR
 EPD .m                   0.00:  ELEVATION
 EGL .m                   0.00:  GROUND ELEVATION
 WDMS.m                 176.20:  WD ELEV
 APD .m                  43.16:  DEPTH ABOVE PD
 DEP .m                3172.61:  DEPTH
 AGAP.m                  43.16:  AIR GAP
 VSEW.m                  -5.41:  VERT SEC E/W
 VSNS.m                  -0.12:  VERT SEC N/S
 EKB .m                  43.16:  KB ELEVATION
 EDF .m                  43.16:  DF ELEVATION
 TDL .m                 295.00:  TOTAL DEPTH (LOGGER)
 VSC .                       0:  VS TO CLOSURE
 MAGU.                 1852276:  MAGUTM CHECKSUM
~Parameter Information Block
#MNEM.UNIT       Value        Description
#---------     -----------    ---------------------------
 AV  .mps                 1.60:  Ann Velocity 
 AVMX.mps                 2.10:  Max Ann Veloc 
 AZIF.deg               290.59:  Azm, Final 
 BHAT.        Rotary Steerable:  BHA Type 
 BROT.°/30m               1.00:  Build Rotating 
 BS  .in                  6.50:  Bit Size 
 BSZ .in                  6.50:  Bit Size 
 BTPL.psig              120.00:  Bit Press Loss 
 CABU.                     Yes:  Customer Abuse 
 CGEO.          Eldar Huseynov:  Customer Geo 
 COMM.                     Lì_:  Run Comments 1 
 TCS .hr                 87.00:  Time Ciculation Ended 
 CV  .mps                 4.01:  Crit Velocity 
 CVMX.mps                 5.06:  Max Crit Veloc 
 DD1 .             Aziz Aliyev:  Direct Drillr 1 
 DD2 .            Sanan Aliyev:  Direct Drillr 2 
 DDSV.               Geo-Pilot:  DD Service 
 DEFF.%                  95.00:  % Det Eff 
 DLRX.°/30m               0.75:  Dogleg Rot Max 
 DLSO.°/30m               0.65:  Dogleg Oriented 
 DLSX.°/30m               1.39:  Dogleg Str Max 
 DRET.      18.25.00 19-Jan-20:  Drill End Time 
 DRST.      11.56.48 17-Jan-20:  Drill Start Tim 
 DTIM.hr                 27.16:  Time Drilling 
 EDEP.m                5161.01:  End Depth 
 ENG1.          Rasim Hashimov:  Engineer 1 
 ENG2.      Bakhtiyar Jabbarli:  Engineer 2 
 ETIM.      11.56.48 21-Jan-20:  End Time 
 FLOI.gpm               350.00:  Flow In 
 FLON.gpm               300.00:  Flow In Min 
 FLOS.cptm                0.00:  Fluid Loss 
 FLOX.gpm               400.00:  Flow In Max 
 HFLO.                      No:  High Flow 
 HPRE.                      No:  High Pressure 
 HTEM.                      No:  High Temp 
 HYDO.m                   1.85:  Hydro Offset 
 IFIN.deg                71.58:  Inc, Final 
 IMAX.deg                71.83:  Inc Max 
 IMIN.deg                71.12:  Inc Min 
 IMND.m                5099.48:  Inc Min Depth 
 IMXD.m                5071.08:  Inc Max Depth 
 JARR.                      No:  Jarring 
 LETM.      18.25.00 19-Jan-20:  Log End Time 
 LOST.hr                     0:  Lost Rig Time 
 LSTM.      11.56.48 17-Jan-20:  Log Start Time 
 MDCL.ppm             37000.00:  Mud Chlorides 
 MDES.     Inversion Oil/Synthetic:  Mud Desc 
 DFD .sg                  1.34:  Mud Density 
 MDMN.sg                  1.34:  Dens Mud Min 
 MDMX.sg                  1.34:  Dens Mud Max 
 MOIL.                      69:  Run Mud Oil % 
 MOWR.                   69:31:  Run Mud OWR 
 MSND.                     0.1:  Run Mud Sand % 
 MSOL.                    17.6:  Run Mud Solids% 
 DFV .spqt               79.00:  Mud Viscosity 
 MWOD.in                  4.75:  MWD Tool OD 
 MWSI.                      No:  Serv Intrp, MWD 
 OTIM.hr                126.10:  Time Operating 
 PMAX.psia             6000.00:  Press Op, Max 
 PV  .cP                 29.00:  Mud PV 
 RUN .                     400:  Run Number 
 ROPA.m/hr               11.00:  ROP Avg 
 ROPN.m/hr                5.00:  ROP Min 
 ROPX.m/hr               18.00:  ROP Max 
 RPMA.rpm               139.00:  RPM Surface Avg 
 RPMN.rpm               100.00:  RPM Surface Min 
 RPMX.rpm               140.00:  RPM Surface Max 
 RRUN.                     400:  Rig Run Number 
 SAZI.deg               290.22:  Azm, Start 
 SDEP.m                4868.01:  Start Depth 
 SIDD.                      No:  Serv Intrp, DD 
 SINC.deg                71.77:  Inc, Start 
 SPPA.psig             5550.00:  SPP Avg 
 SPPN.psig             4300.00:  SPP Min 
 SPPX.psig             5600.00:  SPP Max 
 STIM.      23.45.48 15-Jan-20:  Start Time 
 SVCS.                 DD, MWD:  Services 
 SVER.                    9.20:  Sperry Version 
 TDAT.m                5161.01:  Tot Depth Attmp 
 TDDF.                      No:  Trip for DD 
 TDLG.m                 295.00:  Tot Depth Loggd 
 TFF .                      No:  Trip for Fail 
 TQAA.f-kp               13.00:  Torque Abs Avg 
 TQAN.f-kp               13.00:  Torque Abs Min 
 TQAX.f-kp               16.00:  Torque Abs Max 
 TRRT.°/30m               0.25:  Turn Rotating 
 MRT .                     ADR:  Maximum Recorded Temperature 
 TTMX.degC               88.00:  Max Tool Temp 
 VS01.                90577859:  Virtual Str1 SN 
 VS02.                90521879:  Virtual Str2 SN 
 VS03.                90580299:  Virtual Str3 SN 
 VS04.                90515982:  Virtual Str4 SN 
 VS05.                90547765:  Virtual Str5 SN 
 WBMN.klb                 2.00:  WOB Min 
 WITN.           Adil Mammadov:  Customer Rep 
 WITN.        Elmaddin Rahimov:  Customer Rep 2 
 WOBA.klb                 3.00:  WOB Avg 
 WOBX.klb                 5.00:  WOB Max 
 YP  .lhf2               30.00:  Yield Point 
~Curve Information Block
#MNEM.UNIT                 API CODE     Curve Description
#---------               -----------    ---------------------------
 TIME.HHMMSS            00 000 000 000:  GT Time & Date
 GTDEPTH.m              00 000 000 000:  GT Depth
 GTPQH.psia             00 000 000 000:  GT HR Quartz Pressure
 GTTQ.degC              00 000 000 000:  GT Quartz Temperature
 GTTN.NONE              00 000 000 000:  GT Test Number
 GTET.sec               00 000 000 000:  GT Elapsed Test Time
 GTTVD.m                00 000 000 000:  GT True Vertical Depth
#Other Information
#
#WARRANTY: Halliburton will use its best efforts to furnish customers with 
#accurate information and interpretations that are part of, and incident to, the services 
#provided.  However, Halliburton cannot and does not warrant the accuracy 
#or correctness of such information and interpretations.  Under no circumstances should any 
#such information or interpretation be relied upon as the sole basis for any drilling, 
#completion, production, or financial decision or any procedure involving any risk to the 
#safety of any drilling venture, drilling rig or its crew or any other third party.  The 
#Customer has full responsibility for all drilling, completion and production operation.  
#Halliburton makes no representations or warranties, either expressed or 
#implied, including, but not limited to, the implied warranties of merchantability or fitness 
#for a particular purpose, with respect to the services rendered.  In no event will 
#Halliburton be liable for failure to obtain any particular results or for 
#any damages, including, but not limited to, indirect, special or consequential damages, 
#resulting from the use of any information or interpretation provided by Halliburton.
#
~A           TIME           GTDEPTH  GTPQH  GTTQ  GTTN  GTET   GTTVD  
# ...
   05:40:22.642.19-Jan-2020 5052.01 4085.58 81.45 4.00 207.04 2859.87
   05:40:22.842.19-Jan-2020 5052.01 4085.58 81.45 4.00 207.24 2859.87
   05:40:23.042.19-Jan-2020 5052.01 4085.70 81.45 4.00 207.44 2859.87
   05:40:23.243.19-Jan-2020 5052.01 4085.70 81.45 4.00 207.64 2859.87
   05:40:23.443.19-Jan-2020 5052.01 4085.71 81.45 4.00 207.84 2859.87
   05:40:23.643.19-Jan-2020 5052.01 4085.72 81.45 4.00 208.04 2859.87
   05:40:23.843.19-Jan-2020 5052.01 4085.72 81.45 4.00 208.24 2859.87
   05:40:24.043.19-Jan-2020 5052.01 4085.70 81.45 4.00 208.44 2859.87
   05:40:24.243.19-Jan-2020 5052.01 4085.69 81.45 4.00 208.64 2859.87
   05:40:24.443.19-Jan-2020 5052.01 4085.69 81.45 4.00 208.84 2859.87
   05:40:24.643.19-Jan-2020 5052.01 4085.69 81.45 4.00 209.04 2859.87
   05:40:24.843.19-Jan-2020 5052.01 4085.69 81.45 4.00 209.24 2859.87
   05:40:25.043.19-Jan-2020 5052.01 4085.69 81.45 4.00 209.44 2859.87
   05:40:25.243.19-Jan-2020 5052.01 4085.67 81.45 4.00 209.64 2859.87
   05:40:25.443.19-Jan-2020 5052.01 4085.69 81.45 4.00 209.84 2859.87
   05:40:25.643.19-Jan-2020 5052.01 4085.66 81.45 4.00 210.04 2859.87
   05:40:25.843.19-Jan-2020 5052.01 4085.66 81.45 4.00 210.24 2859.87
   05:40:26.043.19-Jan-2020 5052.01 4085.55 81.45 4.00 210.44 2859.87
   05:40:26.243.19-Jan-2020 5052.01 4085.76 81.45 4.00 210.64 2859.87
   05:40:26.443.19-Jan-2020 5052.01 4085.71 81.45 4.00 210.84 2859.87
   05:40:26.643.19-Jan-2020 5052.01 4085.69 81.45 4.00 211.04 2859.87
   05:40:26.843.19-Jan-2020 5052.01 4085.69 81.45 4.00 211.25 2859.87
   05:40:27.043.19-Jan-2020 5052.01 4085.70 81.44 4.00 211.45 2859.87
   05:40:27.243.19-Jan-2020 5052.01 4085.72 81.44 4.00 211.65 2859.87
   05:40:27.443.19-Jan-2020 5052.01 4085.56 81.44 4.00 211.85 2859.87
   05:40:27.643.19-Jan-2020 5052.01 4085.77 81.44 4.00 212.05 2859.87
   05:40:27.843.19-Jan-2020 5052.01 4085.77 81.44 4.00 212.25 2859.87
   05:40:28.044.19-Jan-2020 5052.01 4085.71 81.44 4.00 212.45 2859.87
   05:40:28.244.19-Jan-2020 5052.01 4085.71 81.44 4.00 212.65 2859.87
   05:40:28.444.19-Jan-2020 5052.01 4085.71 81.44 4.00 212.85 2859.87
   05:40:28.644.19-Jan-2020 5052.01 4085.70 81.44 4.00 213.05 2859.87
   05:40:28.844.19-Jan-2020 5052.01 4085.70 81.44 4.00 213.25 2859.87
   05:40:29.044.19-Jan-2020 5052.01 4085.58 81.44 4.00 213.45 2859.87
   05:40:29.244.19-Jan-2020 5052.01 4085.76 81.44 4.00 213.65 2859.87
   05:40:29.444.19-Jan-2020 5052.01 4085.70 81.44 4.00 213.85 2859.87
   05:40:29.644.19-Jan-2020 5052.01 4085.71 81.44 4.00 214.05 2859.87
   05:40:29.844.19-Jan-2020 5052.01 4085.71 81.44 4.00 214.25 2859.87
   05:40:30.044.19-Jan-2020 5052.01 4085.69 81.44 4.00 214.45 2859.87
   05:40:30.244.19-Jan-2020 5052.01 4085.73 81.44 4.00 214.65 2859.87
   05:40:30.444.19-Jan-2020 5052.01 4085.65 81.44 4.00 214.85 2859.87
   05:40:30.644.19-Jan-2020 5052.01 4085.66 81.44 4.00 215.05 2859.87
   05:40:30.844.19-Jan-2020 5052.01 4085.66 81.44 4.00 215.25 2859.87
   05:40:31.044.19-Jan-2020 5052.01 4085.70 81.44 4.00 215.45 2859.87
   05:40:31.244.19-Jan-2020 5052.01 4085.72 81.44 4.00 215.65 2859.87
   05:40:31.444.19-Jan-2020 5052.01 4085.71 81.44 4.00 215.85 2859.87
   05:40:31.644.19-Jan-2020 5052.01 4085.71 81.44 4.00 216.05 2859.87
   05:40:31.844.19-Jan-2020 5052.01 4085.71 81.44 4.00 216.25 2859.87
   05:40:32.044.19-Jan-2020 5052.01 4085.71 81.43 4.00 216.45 2859.87
   05:40:32.244.19-Jan-2020 5052.01 4085.69 81.43 4.00 216.65 2859.87
   05:40:32.444.19-Jan-2020 5052.01 4085.70 81.43 4.00 216.85 2859.87
   05:40:32.645.19-Jan-2020 5052.01 4085.67 81.43 4.00 217.05 2859.87
   05:40:32.845.19-Jan-2020 5052.01 4085.67 81.43 4.00 217.25 2859.87
   05:40:33.045.19-Jan-2020 5052.01 4085.68 81.43 4.00 217.45 2859.87
   05:40:33.245.19-Jan-2020 5052.01 4085.69 81.43 4.00 217.65 2859.87
   05:40:33.445.19-Jan-2020 5052.01 4085.66 81.43 4.00 217.85 2859.87
   05:40:33.645.19-Jan-2020 5052.01 4085.68 81.43 4.00 218.05 2859.87
   05:40:33.845.19-Jan-2020 5052.01 4085.68 81.43 4.00 218.25 2859.87
   05:40:34.045.19-Jan-2020 5052.01 4085.73 81.43 4.00 218.45 2859.87
   05:40:34.245.19-Jan-2020 5052.01 4085.71 81.43 4.00 218.65 2859.87
   05:40:34.445.19-Jan-2020 5052.01 4085.68 81.43 4.00 218.85 2859.87
   05:40:34.645.19-Jan-2020 5052.01 4085.71 81.43 4.00 219.05 2859.87
   05:40:34.845.19-Jan-2020 5052.01 4085.71 81.43 4.00 219.25 2859.87
   05:40:35.045.19-Jan-2020 5052.01 4085.70 81.43 4.00 219.45 2859.87
   05:40:35.245.19-Jan-2020 5052.01 4085.68 81.43 4.00 219.65 2859.87
   05:40:35.445.19-Jan-2020 5052.01 4085.69 81.43 4.00 219.85 2859.87
   05:40:35.645.19-Jan-2020 5052.01 4085.67 81.43 4.00 220.05 2859.87
   05:40:35.845.19-Jan-2020 5052.01 4085.67 81.43 4.00 220.25 2859.87
   05:40:36.045.19-Jan-2020 5052.01 4085.67 81.43 4.00 220.45 2859.87
   05:40:36.245.19-Jan-2020 5052.01 4085.68 81.43 4.00 220.65 2859.87
   05:40:36.445.19-Jan-2020 5052.01 4085.67 81.43 4.00 220.85 2859.87
   05:40:36.645.19-Jan-2020 5052.01 4085.67 81.43 4.00 221.05 2859.87
   05:40:36.845.19-Jan-2020 5052.01 4085.67 81.43 4.00 221.25 2859.87
   05:40:37.045.19-Jan-2020 5052.01 4085.67 81.43 4.00 221.45 2859.87
   05:40:37.245.19-Jan-2020 5052.01 4085.55 81.42 4.00 221.65 2859.87
   05:40:37.446.19-Jan-2020 5052.01 4085.73 81.42 4.00 221.85 2859.87
   05:40:37.646.19-Jan-2020 5052.01 4085.71 81.42 4.00 222.05 2859.87
   05:40:37.846.19-Jan-2020 5052.01 4085.71 81.42 4.00 222.25 2859.87
   05:40:38.046.19-Jan-2020 5052.01 4085.71 81.42 4.00 222.45 2859.87
   05:40:38.246.19-Jan-2020 5052.01 4085.67 81.42 4.00 222.65 2859.87
   05:40:38.446.19-Jan-2020 5052.01 4085.70 81.42 4.00 222.85 2859.87
   05:40:38.646.19-Jan-2020 5052.01 4085.56 81.42 4.00 223.05 2859.87
   05:40:38.846.19-Jan-2020 5052.01 4085.56 81.42 4.00 223.25 2859.87
   05:40:39.046.19-Jan-2020 5052.01 4085.69 81.42 4.00 223.45 2859.87
   05:40:39.246.19-Jan-2020 5052.01 4085.68 81.42 4.00 223.65 2859.87
   05:40:39.446.19-Jan-2020 5052.01 4085.70 81.42 4.00 223.85 2859.87
   05:40:39.646.19-Jan-2020 5052.01 4085.68 81.42 4.00 224.05 2859.87
   05:40:39.846.19-Jan-2020 5052.01 4085.68 81.42 4.00 224.25 2859.87
   05:40:40.046.19-Jan-2020 5052.01 4085.67 81.42 4.00 224.45 2859.87
   05:40:40.246.19-Jan-2020 5052.01 4085.57 81.42 4.00 224.65 2859.87
   05:40:40.446.19-Jan-2020 5052.01 4085.73 81.42 4.00 224.85 2859.87
   05:40:40.646.19-Jan-2020 5052.01 4085.69 81.42 4.00 225.05 2859.87
   05:40:40.846.19-Jan-2020 5052.01 4085.69 81.42 4.00 225.25 2859.87
   05:40:41.046.19-Jan-2020 5052.01 4085.69 81.42 4.00 225.45 2859.87
   05:40:41.246.19-Jan-2020 5052.01 4085.68 81.42 4.00 225.65 2859.87
   05:40:41.446.19-Jan-2020 5052.01 4085.69 81.42 4.00 225.85 2859.87
   05:40:41.646.19-Jan-2020 5052.01 4085.65 81.42 4.00 226.05 2859.87
   05:40:41.846.19-Jan-2020 5052.01 4085.65 81.42 4.00 226.25 2859.87
   05:40:42.047.19-Jan-2020 5052.01 4085.72 81.41 4.00 226.45 2859.87
   05:40:42.247.19-Jan-2020 5052.01 4085.67 81.41 4.00 226.65 2859.87
   05:40:42.447.19-Jan-2020 5052.01 4085.71 81.41 4.00 226.85 2859.87
   05:40:42.647.19-Jan-2020 5052.01 4085.68 81.41 4.00 227.05 2859.87
   05:40:42.847.19-Jan-2020 5052.01 4085.68 81.41 4.00 227.25 2859.87
   05:40:43.047.19-Jan-2020 5052.01 4085.68 81.41 4.00 227.45 2859.87
   05:40:43.247.19-Jan-2020 5052.01 4085.69 81.41 4.00 227.65 2859.87
   05:40:43.447.19-Jan-2020 5052.01 4085.67 81.41 4.00 227.85 2859.87
   05:40:43.647.19-Jan-2020 5052.01 4085.68 81.41 4.00 228.05 2859.87
   05:40:43.847.19-Jan-2020 5052.01 4085.68 81.41 4.00 228.25 2859.87
   05:40:44.047.19-Jan-2020 5052.01 4085.67 81.41 4.00 228.45 2859.87
   05:40:44.247.19-Jan-2020 5052.01 4085.67 81.41 4.00 228.65 2859.87
   05:40:44.447.19-Jan-2020 5052.01 4085.66 81.41 4.00 228.85 2859.87
   05:40:44.647.19-Jan-2020 5052.01 4085.66 81.41 4.00 229.05 2859.87
   05:40:44.847.19-Jan-2020 5052.01 4085.66 81.41 4.00 229.25 2859.87
   05:40:45.047.19-Jan-2020 5052.01 4085.65 81.41 4.00 229.45 2859.87
   05:40:45.247.19-Jan-2020 5052.01 4085.71 81.41 4.00 229.65 2859.87
   05:40:45.447.19-Jan-2020 5052.01 4085.69 81.41 4.00 229.85 2859.87
