~Version Information
 VERS.                  2.0:   CWLS log ASCII Standard -VERSION 2.0
 WRAP.                   NO:   One line per depth step
~Well Information Block
#MNEM.UNIT     VALUE/NAME     DESCRIPTION
#---------     -----------    ---------------------------
 STRT.S             16:13:28 18-Jan-20: START TIME 16:13:28 18-Jan-20
 STOP.S             16:21:32 18-Jan-20: STOP TIME  16:21:32 18-Jan-20
 STEP.S                   0.00: STEP TIME
 NULL.                 -999.25: NULL VALUE
 DFWT.                        :  DIST FWL TEXT
 DFST.                        :  DIST FSL TEXT
 DMF .             Drill Floor:  DRILL MEAS FROM
 STIM.      17.57.20 21-Dec-19:  START TIME
 DATE.      17.57.20 21-Dec-19:  END TIME
 SPUD.               21-Dec-19:  SPUD DATE
 NREF.                    Grid:  NORTH REFERENCE
 HPTY.       Minimum Curvature:  HOLE POS TYPE
 DMOD.             Drill Model:  DRILL MOD DESC
 SVYD.                  Survey:  SURVEY DESC
 ILTD.               Lithology:  INTERP LTH DESC
 FTOP.          Formation Tops:  FORM TOPS DESC
 PDAT.          Mean Sea Level:  PERMANENT DATUM
 FLD .                     ACG:  FIELD NAME
 SON .        AZ-XX-0905715376:  JOB NUMBER
 CTRY.              Azerbaijan:  COUNTRY NAME
 WELL.                    E04Y:  WELL NAME
 SRVC.          TURAN DRILLING:  CONTRACTOR
 COMP.     BP Exploration (Caspian Sea) Ltd.:  COMPANY
 WTYP.                Deviated:  WELL TYPE
 UWI .                     N/a:  UNIQUE WELL IDENTIFIER
 API .                     N/a:  API NUMBER
 BASE.              Azerbaijan:  LOGGING EQUIPMENT BASE LOCATION
 REGN.                   EESSA:  REGION
 MWDS.                    Baku:  MWD SHOP
 RIG .                     DWG:  RIG NAME
 DOE .                     N/a:  DOE NUMBER
 CNTY.                    Baku:  COUNTY NAME
 DCON.         Sperry Drilling:  DIRECTNL CONTR
 UNIT.                     N/a:  LOGGING EQUIPMENT ID
 MDS .        Operator Entered:  MAG DATA SOURCE
 PROV.                        :  PROVINCE
 STAT.                        :  STATE
 LOC .                        :  LOCATION
 LMF .             Drill Floor:  LOG MEASURED FROM
 TVDS.m                  43.16:  TVDSS CORRECTN
 LATI.deg                40.17:  LATITUDE
 LONG.deg                51.17:  LONGITUDE
 WHNS.m                  -0.12:  WELL HEAD N/S
 WHEW.m                  -5.41:  WELL HEAD E/W
 UTMX.m              514337.95:  UTM X
 UTMY.m             4448627.46:  UTM Y
 DFWL.m                   0.00:  DISTANCE FWL
 DFSL.m                   0.00:  DISTANCE FSL
 SDEP.m                   0.00:  START DEPTH
 TDD .m                   0.00:  TOTAL DEPTH (DRILLER)
 VSDR.deg               235.12:  VERT SEC DIRECT
 GVFD.g                   1.00:  GRAVITY FIELD
 MFLD.nT              50294.00:  MAGNETIC FIELD
 MDIP.deg                59.61:  MAGNETIC DIP
 MDEC.deg                 6.58:  MAGNETIC DECL
 GRDC.deg                 0.09:  GRID CORRECTION
 AZTC.deg                 6.49:  AZM TOTAL CORR
 EPD .m                   0.00:  ELEVATION
 EGL .m                   0.00:  GROUND ELEVATION
 WDMS.m                 176.20:  WD ELEV
 APD .m                  43.16:  DEPTH ABOVE PD
 DEP .m                3172.61:  DEPTH
 AGAP.m                  43.16:  AIR GAP
 VSEW.m                  -5.41:  VERT SEC E/W
 VSNS.m                  -0.12:  VERT SEC N/S
 EKB .m                  43.16:  KB ELEVATION
 EDF .m                  43.16:  DF ELEVATION
 TDL .m                 295.00:  TOTAL DEPTH (LOGGER)
 VSC .                       0:  VS TO CLOSURE
 MAGU.                 1852276:  MAGUTM CHECKSUM
~Parameter Information Block
#MNEM.UNIT       Value        Description
#---------     -----------    ---------------------------
 AV  .mps                 1.60:  Ann Velocity 
 AVMX.mps                 2.10:  Max Ann Veloc 
 AZIF.deg               290.59:  Azm, Final 
 BHAT.        Rotary Steerable:  BHA Type 
 BROT.°/30m               1.00:  Build Rotating 
 BS  .in                  6.50:  Bit Size 
 BSZ .in                  6.50:  Bit Size 
 BTPL.psig              120.00:  Bit Press Loss 
 CABU.                     Yes:  Customer Abuse 
 CGEO.          Eldar Huseynov:  Customer Geo 
 COMM.                     Ôs:  Run Comments 1 
 TCS .hr                 87.00:  Time Ciculation Ended 
 CV  .mps                 4.01:  Crit Velocity 
 CVMX.mps                 5.06:  Max Crit Veloc 
 DD1 .             Aziz Aliyev:  Direct Drillr 1 
 DD2 .            Sanan Aliyev:  Direct Drillr 2 
 DDSV.               Geo-Pilot:  DD Service 
 DEFF.%                  95.00:  % Det Eff 
 DLRX.°/30m               0.75:  Dogleg Rot Max 
 DLSO.°/30m               0.65:  Dogleg Oriented 
 DLSX.°/30m               1.39:  Dogleg Str Max 
 DRET.      18.25.00 19-Jan-20:  Drill End Time 
 DRST.      11.56.48 17-Jan-20:  Drill Start Tim 
 DTIM.hr                 27.16:  Time Drilling 
 EDEP.m                5161.01:  End Depth 
 ENG1.          Rasim Hashimov:  Engineer 1 
 ENG2.      Bakhtiyar Jabbarli:  Engineer 2 
 ETIM.      11.56.48 21-Jan-20:  End Time 
 FLOI.gpm               350.00:  Flow In 
 FLON.gpm               300.00:  Flow In Min 
 FLOS.cptm                0.00:  Fluid Loss 
 FLOX.gpm               400.00:  Flow In Max 
 HFLO.                      No:  High Flow 
 HPRE.                      No:  High Pressure 
 HTEM.                      No:  High Temp 
 HYDO.m                   1.85:  Hydro Offset 
 IFIN.deg                71.58:  Inc, Final 
 IMAX.deg                71.83:  Inc Max 
 IMIN.deg                71.12:  Inc Min 
 IMND.m                5099.48:  Inc Min Depth 
 IMXD.m                5071.08:  Inc Max Depth 
 JARR.                      No:  Jarring 
 LETM.      18.25.00 19-Jan-20:  Log End Time 
 LOST.hr                     0:  Lost Rig Time 
 LSTM.      11.56.48 17-Jan-20:  Log Start Time 
 MDCL.ppm             37000.00:  Mud Chlorides 
 MDES.     Inversion Oil/Synthetic:  Mud Desc 
 DFD .sg                  1.34:  Mud Density 
 MDMN.sg                  1.34:  Dens Mud Min 
 MDMX.sg                  1.34:  Dens Mud Max 
 MOIL.                      69:  Run Mud Oil % 
 MOWR.                   69:31:  Run Mud OWR 
 MSND.                     0.1:  Run Mud Sand % 
 MSOL.                    17.6:  Run Mud Solids% 
 DFV .spqt               79.00:  Mud Viscosity 
 MWOD.in                  4.75:  MWD Tool OD 
 MWSI.                      No:  Serv Intrp, MWD 
 OTIM.hr                126.10:  Time Operating 
 PMAX.psia             6000.00:  Press Op, Max 
 PV  .cP                 29.00:  Mud PV 
 RUN .                     400:  Run Number 
 ROPA.m/hr               11.00:  ROP Avg 
 ROPN.m/hr                5.00:  ROP Min 
 ROPX.m/hr               18.00:  ROP Max 
 RPMA.rpm               139.00:  RPM Surface Avg 
 RPMN.rpm               100.00:  RPM Surface Min 
 RPMX.rpm               140.00:  RPM Surface Max 
 RRUN.                     400:  Rig Run Number 
 SAZI.deg               290.22:  Azm, Start 
 SDEP.m                4868.01:  Start Depth 
 SIDD.                      No:  Serv Intrp, DD 
 SINC.deg                71.77:  Inc, Start 
 SPPA.psig             5550.00:  SPP Avg 
 SPPN.psig             4300.00:  SPP Min 
 SPPX.psig             5600.00:  SPP Max 
 STIM.      23.45.48 15-Jan-20:  Start Time 
 SVCS.                 DD, MWD:  Services 
 SVER.                    9.20:  Sperry Version 
 TDAT.m                5161.01:  Tot Depth Attmp 
 TDDF.                      No:  Trip for DD 
 TDLG.m                 295.00:  Tot Depth Loggd 
 TFF .                      No:  Trip for Fail 
 TQAA.f-kp               13.00:  Torque Abs Avg 
 TQAN.f-kp               13.00:  Torque Abs Min 
 TQAX.f-kp               16.00:  Torque Abs Max 
 TRRT.°/30m               0.25:  Turn Rotating 
 MRT .                     ADR:  Maximum Recorded Temperature 
 TTMX.degC               88.00:  Max Tool Temp 
 VS01.                90577859:  Virtual Str1 SN 
 VS02.                90521879:  Virtual Str2 SN 
 VS03.                90580299:  Virtual Str3 SN 
 VS04.                90515982:  Virtual Str4 SN 
 VS05.                90547765:  Virtual Str5 SN 
 WBMN.klb                 2.00:  WOB Min 
 WITN.           Adil Mammadov:  Customer Rep 
 WITN.        Elmaddin Rahimov:  Customer Rep 2 
 WOBA.klb                 3.00:  WOB Avg 
 WOBX.klb                 5.00:  WOB Max 
 YP  .lhf2               30.00:  Yield Point 
~Curve Information Block
#MNEM.UNIT                 API CODE     Curve Description
#---------               -----------    ---------------------------
 TIME.HHMMSS            00 000 000 000:  GT Time & Date
 GTDEPTH.m              00 000 000 000:  GT Depth
 GTPQH.psia             00 000 000 000:  GT HR Quartz Pressure
 GTTQ.degC              00 000 000 000:  GT Quartz Temperature
 GTTN.NONE              00 000 000 000:  GT Test Number
 GTET.sec               00 000 000 000:  GT Elapsed Test Time
 GTTVD.m                00 000 000 000:  GT True Vertical Depth
#Other Information
#
#WARRANTY: Halliburton will use its best efforts to furnish customers with 
#accurate information and interpretations that are part of, and incident to, the services 
#provided.  However, Halliburton cannot and does not warrant the accuracy 
#or correctness of such information and interpretations.  Under no circumstances should any 
#such information or interpretation be relied upon as the sole basis for any drilling, 
#completion, production, or financial decision or any procedure involving any risk to the 
#safety of any drilling venture, drilling rig or its crew or any other third party.  The 
#Customer has full responsibility for all drilling, completion and production operation.  
#Halliburton makes no representations or warranties, either expressed or 
#implied, including, but not limited to, the implied warranties of merchantability or fitness 
#for a particular purpose, with respect to the services rendered.  In no event will 
#Halliburton be liable for failure to obtain any particular results or for 
#any damages, including, but not limited to, indirect, special or consequential damages, 
#resulting from the use of any information or interpretation provided by Halliburton.
#
~A           TIME           GTDEPTH  GTPQH  GTTQ  GTTN  GTET   GTTVD  
# ...
   16:19:36.578.18-Jan-2020 4958.01 4406.80 79.96 2.00 368.03 2829.97
   16:19:36.778.18-Jan-2020 4958.01 4406.80 79.96 2.00 368.23 2829.97
   16:19:36.978.18-Jan-2020 4958.01 4406.89 79.96 2.00 368.43 2829.97
   16:19:37.178.18-Jan-2020 4958.01 4406.79 79.96 2.00 368.63 2829.97
   16:19:37.378.18-Jan-2020 4958.01 4406.80 79.96 2.00 368.83 2829.97
   16:19:37.578.18-Jan-2020 4958.01 4406.83 79.96 2.00 369.03 2829.97
   16:19:37.778.18-Jan-2020 4958.01 4406.83 79.96 2.00 369.23 2829.97
   16:19:37.978.18-Jan-2020 4958.01 4406.80 79.96 2.00 369.43 2829.97
   16:19:38.178.18-Jan-2020 4958.01 4406.70 79.96 2.00 369.63 2829.97
   16:19:38.379.18-Jan-2020 4958.01 4406.82 79.96 2.00 369.83 2829.97
   16:19:38.579.18-Jan-2020 4958.01 4406.84 79.96 2.00 370.03 2829.97
   16:19:38.779.18-Jan-2020 4958.01 4406.84 79.96 2.00 370.23 2829.97
   16:19:38.979.18-Jan-2020 4958.01 4406.81 79.96 2.00 370.43 2829.97
   16:19:39.179.18-Jan-2020 4958.01 4406.79 79.96 2.00 370.63 2829.97
   16:19:39.379.18-Jan-2020 4958.01 4406.81 79.96 2.00 370.83 2829.97
   16:19:39.579.18-Jan-2020 4958.01 4406.79 79.95 2.00 371.03 2829.97
   16:19:39.779.18-Jan-2020 4958.01 4406.79 79.95 2.00 371.23 2829.97
   16:19:39.979.18-Jan-2020 4958.01 4406.76 79.95 2.00 371.43 2829.97
   16:19:40.179.18-Jan-2020 4958.01 4406.78 79.95 2.00 371.63 2829.97
   16:19:40.379.18-Jan-2020 4958.01 4406.77 79.95 2.00 371.83 2829.97
   16:19:40.579.18-Jan-2020 4958.01 4406.78 79.95 2.00 372.03 2829.97
   16:19:40.779.18-Jan-2020 4958.01 4406.78 79.95 2.00 372.23 2829.97
   16:19:40.979.18-Jan-2020 4958.01 4406.78 79.95 2.00 372.43 2829.97
   16:19:41.179.18-Jan-2020 4958.01 4406.77 79.95 2.00 372.63 2829.97
   16:19:41.379.18-Jan-2020 4958.01 4406.68 79.95 2.00 372.83 2829.97
   16:19:41.579.18-Jan-2020 4958.01 4406.80 79.95 2.00 373.03 2829.97
   16:19:41.779.18-Jan-2020 4958.01 4406.80 79.95 2.00 373.23 2829.97
   16:19:41.979.18-Jan-2020 4958.01 4406.82 79.95 2.00 373.43 2829.97
   16:19:42.179.18-Jan-2020 4958.01 4406.78 79.95 2.00 373.63 2829.97
   16:19:42.379.18-Jan-2020 4958.01 4406.81 79.95 2.00 373.83 2829.97
   16:19:42.579.18-Jan-2020 4958.01 4406.77 79.95 2.00 374.03 2829.97
   16:19:42.779.18-Jan-2020 4958.01 4406.77 79.95 2.00 374.23 2829.97
   16:19:42.979.18-Jan-2020 4958.01 4406.76 79.95 2.00 374.43 2829.97
   16:19:43.179.18-Jan-2020 4958.01 4406.79 79.95 2.00 374.63 2829.97
   16:19:43.379.18-Jan-2020 4958.01 4406.77 79.95 2.00 374.83 2829.97
   16:19:43.579.18-Jan-2020 4958.01 4406.77 79.94 2.00 375.03 2829.97
   16:19:43.779.18-Jan-2020 4958.01 4406.77 79.94 2.00 375.23 2829.97
   16:19:43.979.18-Jan-2020 4958.01 4406.76 79.94 2.00 375.43 2829.97
   16:19:44.179.18-Jan-2020 4958.01 4406.77 79.94 2.00 375.63 2829.97
   16:19:44.379.18-Jan-2020 4958.01 4406.76 79.94 2.00 375.83 2829.97
   16:19:44.579.18-Jan-2020 4958.01 4406.78 79.94 2.00 376.03 2829.97
   16:19:44.779.18-Jan-2020 4958.01 4406.78 79.94 2.00 376.23 2829.97
   16:19:44.979.18-Jan-2020 4958.01 4406.92 79.94 2.00 376.43 2829.97
   16:19:45.179.18-Jan-2020 4958.01 4406.84 79.94 2.00 376.63 2829.97
   16:19:45.379.18-Jan-2020 4958.01 4406.80 79.94 2.00 376.83 2829.97
   16:19:45.579.18-Jan-2020 4958.01 4406.80 79.94 2.00 377.03 2829.97
   16:19:45.779.18-Jan-2020 4958.01 4406.80 79.94 2.00 377.23 2829.97
   16:19:45.979.18-Jan-2020 4958.01 4406.90 79.94 2.00 377.43 2829.97
   16:19:46.179.18-Jan-2020 4958.01 4406.77 79.94 2.00 377.63 2829.97
   16:19:46.379.18-Jan-2020 4958.01 4406.82 79.94 2.00 377.83 2829.97
   16:19:46.579.18-Jan-2020 4958.01 4406.80 79.94 2.00 378.03 2829.97
   16:19:46.779.18-Jan-2020 4958.01 4406.80 79.94 2.00 378.23 2829.97
   16:19:46.979.18-Jan-2020 4958.01 4406.71 79.94 2.00 378.43 2829.97
   16:19:47.179.18-Jan-2020 4958.01 4406.81 79.94 2.00 378.63 2829.97
   16:19:47.379.18-Jan-2020 4958.01 4406.82 79.94 2.00 378.83 2829.97
   16:19:47.579.18-Jan-2020 4958.01 4406.81 79.93 2.00 379.03 2829.97
   16:19:47.779.18-Jan-2020 4958.01 4406.81 79.93 2.00 379.23 2829.97
   16:19:47.979.18-Jan-2020 4958.01 4406.81 79.93 2.00 379.43 2829.97
   16:19:48.179.18-Jan-2020 4958.01 4406.63 79.93 2.00 379.63 2829.97
   16:19:48.379.18-Jan-2020 4958.01 4406.91 79.93 2.00 379.83 2829.97
   16:19:48.579.18-Jan-2020 4958.01 4406.79 79.93 2.00 380.03 2829.97
   16:19:48.779.18-Jan-2020 4958.01 4406.79 79.93 2.00 380.23 2829.97
   16:19:48.979.18-Jan-2020 4958.01 4406.82 79.93 2.00 380.43 2829.97
   16:19:49.179.18-Jan-2020 4958.01 4406.78 79.93 2.00 380.63 2829.97
   16:19:49.379.18-Jan-2020 4958.01 4406.81 79.93 2.00 380.83 2829.97
   16:19:49.579.18-Jan-2020 4958.01 4406.77 79.93 2.00 381.03 2829.97
   16:19:49.779.18-Jan-2020 4958.01 4406.77 79.93 2.00 381.23 2829.97
   16:19:49.979.18-Jan-2020 4958.01 4406.75 79.93 2.00 381.43 2829.97
   16:19:50.179.18-Jan-2020 4958.01 4406.79 79.93 2.00 381.63 2829.97
   16:19:50.379.18-Jan-2020 4958.01 4406.77 79.93 2.00 381.83 2829.97
   16:19:50.580.18-Jan-2020 4958.01 4406.79 79.93 2.00 382.03 2829.97
   16:19:50.780.18-Jan-2020 4958.01 4406.79 79.93 2.00 382.23 2829.97
   16:19:50.980.18-Jan-2020 4958.01 4406.77 79.93 2.00 382.43 2829.97
   16:19:51.180.18-Jan-2020 4958.01 4406.77 79.93 2.00 382.63 2829.97
   16:19:51.380.18-Jan-2020 4958.01 4406.61 79.93 2.00 382.83 2829.97
   16:19:51.580.18-Jan-2020 4958.01 4406.89 79.92 2.00 383.03 2829.97
   16:19:51.780.18-Jan-2020 4958.01 4406.89 79.92 2.00 383.23 2829.97
   16:19:51.980.18-Jan-2020 4958.01 4406.82 79.92 2.00 383.43 2829.97
   16:19:52.180.18-Jan-2020 4958.01 4406.79 79.92 2.00 383.63 2829.97
   16:19:52.380.18-Jan-2020 4958.01 4406.80 79.92 2.00 383.83 2829.97
   16:19:52.580.18-Jan-2020 4958.01 4406.76 79.92 2.00 384.03 2829.97
   16:19:52.780.18-Jan-2020 4958.01 4406.76 79.92 2.00 384.23 2829.97
   16:19:52.980.18-Jan-2020 4958.01 4406.75 79.92 2.00 384.43 2829.97
   16:19:53.180.18-Jan-2020 4958.01 4406.77 79.92 2.00 384.63 2829.97
   16:19:53.380.18-Jan-2020 4958.01 4406.76 79.92 2.00 384.83 2829.97
   16:19:53.580.18-Jan-2020 4958.01 4406.77 79.92 2.00 385.03 2829.97
   16:19:53.780.18-Jan-2020 4958.01 4406.77 79.92 2.00 385.23 2829.97
   16:19:53.980.18-Jan-2020 4958.01 4406.76 79.92 2.00 385.43 2829.97
   16:19:54.180.18-Jan-2020 4958.01 4406.77 79.92 2.00 385.63 2829.97
   16:19:54.380.18-Jan-2020 4958.01 4406.74 79.92 2.00 385.83 2829.97
   16:19:54.580.18-Jan-2020 4958.01 4406.78 79.92 2.00 386.03 2829.97
   16:19:54.780.18-Jan-2020 4958.01 4406.78 79.92 2.00 386.23 2829.97
   16:19:54.980.18-Jan-2020 4958.01 4406.78 79.92 2.00 386.43 2829.97
   16:19:55.180.18-Jan-2020 4958.01 4406.72 79.92 2.00 386.63 2829.97
   16:19:55.380.18-Jan-2020 4958.01 4406.85 79.92 2.00 386.83 2829.97
   16:19:55.580.18-Jan-2020 4958.01 4406.78 79.91 2.00 387.03 2829.97
   16:19:55.780.18-Jan-2020 4958.01 4406.78 79.91 2.00 387.23 2829.97
   16:19:55.980.18-Jan-2020 4958.01 4406.70 79.91 2.00 387.43 2829.97
   16:19:56.180.18-Jan-2020 4958.01 4406.78 79.91 2.00 387.63 2829.97
   16:19:56.380.18-Jan-2020 4958.01 4406.83 79.91 2.00 387.83 2829.97
   16:19:56.580.18-Jan-2020 4958.01 4406.77 79.91 2.00 388.03 2829.97
   16:19:56.780.18-Jan-2020 4958.01 4406.77 79.91 2.00 388.23 2829.97
   16:19:56.980.18-Jan-2020 4958.01 4406.62 79.91 2.00 388.43 2829.97
   16:19:57.180.18-Jan-2020 4958.01 4406.90 79.91 2.00 388.63 2829.97
   16:19:57.380.18-Jan-2020 4958.01 4406.77 79.91 2.00 388.83 2829.97
   16:19:57.580.18-Jan-2020 4958.01 4406.82 79.91 2.00 389.03 2829.97
   16:19:57.780.18-Jan-2020 4958.01 4406.82 79.91 2.00 389.23 2829.97
   16:19:57.980.18-Jan-2020 4958.01 4406.81 79.91 2.00 389.43 2829.97
   16:19:58.180.18-Jan-2020 4958.01 4406.77 79.91 2.00 389.63 2829.97
   16:19:58.380.18-Jan-2020 4958.01 4406.69 79.91 2.00 389.83 2829.97
   16:19:58.580.18-Jan-2020 4958.01 4406.81 79.91 2.00 390.03 2829.97
   16:19:58.780.18-Jan-2020 4958.01 4406.81 79.91 2.00 390.23 2829.97
   16:19:58.980.18-Jan-2020 4958.01 4406.80 79.91 2.00 390.43 2829.97
   16:19:59.180.18-Jan-2020 4958.01 4406.78 79.91 2.00 390.63 2829.97
   16:19:59.380.18-Jan-2020 4958.01 4406.80 79.91 2.00 390.83 2829.97
