~Version Information
 VERS.                  2.0:   CWLS log ASCII Standard -VERSION 2.0
 WRAP.                   NO:   One line per depth step
~Well Information Block
#MNEM.UNIT     VALUE/NAME     DESCRIPTION
#---------     -----------    ---------------------------
 STRT.S             10:27:46 18-Jan-20: START TIME 10:27:46 18-Jan-20
 STOP.S             10:35:37 18-Jan-20: STOP TIME  10:35:37 18-Jan-20
 STEP.S                   0.00: STEP TIME
 NULL.                 -999.25: NULL VALUE
 DFWT.                        :  DIST FWL TEXT
 DFST.                        :  DIST FSL TEXT
 DMF .             Drill Floor:  DRILL MEAS FROM
 STIM.      17.57.20 21-Dec-19:  START TIME
 DATE.      17.57.20 21-Dec-19:  END TIME
 SPUD.               21-Dec-19:  SPUD DATE
 NREF.                    Grid:  NORTH REFERENCE
 HPTY.       Minimum Curvature:  HOLE POS TYPE
 DMOD.             Drill Model:  DRILL MOD DESC
 SVYD.                  Survey:  SURVEY DESC
 ILTD.               Lithology:  INTERP LTH DESC
 FTOP.          Formation Tops:  FORM TOPS DESC
 PDAT.          Mean Sea Level:  PERMANENT DATUM
 FLD .                     ACG:  FIELD NAME
 SON .        AZ-XX-0905715376:  JOB NUMBER
 CTRY.              Azerbaijan:  COUNTRY NAME
 WELL.                    E04Y:  WELL NAME
 SRVC.          TURAN DRILLING:  CONTRACTOR
 COMP.     BP Exploration (Caspian Sea) Ltd.:  COMPANY
 WTYP.                Deviated:  WELL TYPE
 UWI .                     N/a:  UNIQUE WELL IDENTIFIER
 API .                     N/a:  API NUMBER
 BASE.              Azerbaijan:  LOGGING EQUIPMENT BASE LOCATION
 REGN.                   EESSA:  REGION
 MWDS.                    Baku:  MWD SHOP
 RIG .                     DWG:  RIG NAME
 DOE .                     N/a:  DOE NUMBER
 CNTY.                    Baku:  COUNTY NAME
 DCON.         Sperry Drilling:  DIRECTNL CONTR
 UNIT.                     N/a:  LOGGING EQUIPMENT ID
 MDS .        Operator Entered:  MAG DATA SOURCE
 PROV.                        :  PROVINCE
 STAT.                        :  STATE
 LOC .                        :  LOCATION
 LMF .             Drill Floor:  LOG MEASURED FROM
 TVDS.m                  43.16:  TVDSS CORRECTN
 LATI.deg                40.17:  LATITUDE
 LONG.deg                51.17:  LONGITUDE
 WHNS.m                  -0.12:  WELL HEAD N/S
 WHEW.m                  -5.41:  WELL HEAD E/W
 UTMX.m              514337.95:  UTM X
 UTMY.m             4448627.46:  UTM Y
 DFWL.m                   0.00:  DISTANCE FWL
 DFSL.m                   0.00:  DISTANCE FSL
 SDEP.m                   0.00:  START DEPTH
 TDD .m                   0.00:  TOTAL DEPTH (DRILLER)
 VSDR.deg               235.12:  VERT SEC DIRECT
 GVFD.g                   1.00:  GRAVITY FIELD
 MFLD.nT              50294.00:  MAGNETIC FIELD
 MDIP.deg                59.61:  MAGNETIC DIP
 MDEC.deg                 6.58:  MAGNETIC DECL
 GRDC.deg                 0.09:  GRID CORRECTION
 AZTC.deg                 6.49:  AZM TOTAL CORR
 EPD .m                   0.00:  ELEVATION
 EGL .m                   0.00:  GROUND ELEVATION
 WDMS.m                 176.20:  WD ELEV
 APD .m                  43.16:  DEPTH ABOVE PD
 DEP .m                3172.61:  DEPTH
 AGAP.m                  43.16:  AIR GAP
 VSEW.m                  -5.41:  VERT SEC E/W
 VSNS.m                  -0.12:  VERT SEC N/S
 EKB .m                  43.16:  KB ELEVATION
 EDF .m                  43.16:  DF ELEVATION
 TDL .m                 295.00:  TOTAL DEPTH (LOGGER)
 VSC .                       0:  VS TO CLOSURE
 MAGU.                 1852276:  MAGUTM CHECKSUM
~Parameter Information Block
#MNEM.UNIT       Value        Description
#---------     -----------    ---------------------------
 AV  .mps                 1.60:  Ann Velocity 
 AVMX.mps                 2.10:  Max Ann Veloc 
 AZIF.deg               290.59:  Azm, Final 
 BHAT.        Rotary Steerable:  BHA Type 
 BROT.°/30m               1.00:  Build Rotating 
 BS  .in                  6.50:  Bit Size 
 BSZ .in                  6.50:  Bit Size 
 BTPL.psig              120.00:  Bit Press Loss 
 CABU.                     Yes:  Customer Abuse 
 CGEO.          Eldar Huseynov:  Customer Geo 
 COMM.                     ¬Øj:  Run Comments 1 
 TCS .hr                 87.00:  Time Ciculation Ended 
 CV  .mps                 4.01:  Crit Velocity 
 CVMX.mps                 5.06:  Max Crit Veloc 
 DD1 .             Aziz Aliyev:  Direct Drillr 1 
 DD2 .            Sanan Aliyev:  Direct Drillr 2 
 DDSV.               Geo-Pilot:  DD Service 
 DEFF.%                  95.00:  % Det Eff 
 DLRX.°/30m               0.75:  Dogleg Rot Max 
 DLSO.°/30m               0.65:  Dogleg Oriented 
 DLSX.°/30m               1.39:  Dogleg Str Max 
 DRET.      18.25.00 19-Jan-20:  Drill End Time 
 DRST.      11.56.48 17-Jan-20:  Drill Start Tim 
 DTIM.hr                 27.16:  Time Drilling 
 EDEP.m                5161.01:  End Depth 
 ENG1.          Rasim Hashimov:  Engineer 1 
 ENG2.      Bakhtiyar Jabbarli:  Engineer 2 
 ETIM.      11.56.48 21-Jan-20:  End Time 
 FLOI.gpm               350.00:  Flow In 
 FLON.gpm               300.00:  Flow In Min 
 FLOS.cptm                0.00:  Fluid Loss 
 FLOX.gpm               400.00:  Flow In Max 
 HFLO.                      No:  High Flow 
 HPRE.                      No:  High Pressure 
 HTEM.                      No:  High Temp 
 HYDO.m                   1.85:  Hydro Offset 
 IFIN.deg                71.58:  Inc, Final 
 IMAX.deg                71.83:  Inc Max 
 IMIN.deg                71.12:  Inc Min 
 IMND.m                5099.48:  Inc Min Depth 
 IMXD.m                5071.08:  Inc Max Depth 
 JARR.                      No:  Jarring 
 LETM.      18.25.00 19-Jan-20:  Log End Time 
 LOST.hr                     0:  Lost Rig Time 
 LSTM.      11.56.48 17-Jan-20:  Log Start Time 
 MDCL.ppm             37000.00:  Mud Chlorides 
 MDES.     Inversion Oil/Synthetic:  Mud Desc 
 DFD .sg                  1.34:  Mud Density 
 MDMN.sg                  1.34:  Dens Mud Min 
 MDMX.sg                  1.34:  Dens Mud Max 
 MOIL.                      69:  Run Mud Oil % 
 MOWR.                   69:31:  Run Mud OWR 
 MSND.                     0.1:  Run Mud Sand % 
 MSOL.                    17.6:  Run Mud Solids% 
 DFV .spqt               79.00:  Mud Viscosity 
 MWOD.in                  4.75:  MWD Tool OD 
 MWSI.                      No:  Serv Intrp, MWD 
 OTIM.hr                126.10:  Time Operating 
 PMAX.psia             6000.00:  Press Op, Max 
 PV  .cP                 29.00:  Mud PV 
 RUN .                     400:  Run Number 
 ROPA.m/hr               11.00:  ROP Avg 
 ROPN.m/hr                5.00:  ROP Min 
 ROPX.m/hr               18.00:  ROP Max 
 RPMA.rpm               139.00:  RPM Surface Avg 
 RPMN.rpm               100.00:  RPM Surface Min 
 RPMX.rpm               140.00:  RPM Surface Max 
 RRUN.                     400:  Rig Run Number 
 SAZI.deg               290.22:  Azm, Start 
 SDEP.m                4868.01:  Start Depth 
 SIDD.                      No:  Serv Intrp, DD 
 SINC.deg                71.77:  Inc, Start 
 SPPA.psig             5550.00:  SPP Avg 
 SPPN.psig             4300.00:  SPP Min 
 SPPX.psig             5600.00:  SPP Max 
 STIM.      23.45.48 15-Jan-20:  Start Time 
 SVCS.                 DD, MWD:  Services 
 SVER.                    9.20:  Sperry Version 
 TDAT.m                5161.01:  Tot Depth Attmp 
 TDDF.                      No:  Trip for DD 
 TDLG.m                 295.00:  Tot Depth Loggd 
 TFF .                      No:  Trip for Fail 
 TQAA.f-kp               13.00:  Torque Abs Avg 
 TQAN.f-kp               13.00:  Torque Abs Min 
 TQAX.f-kp               16.00:  Torque Abs Max 
 TRRT.°/30m               0.25:  Turn Rotating 
 MRT .                     ADR:  Maximum Recorded Temperature 
 TTMX.degC               88.00:  Max Tool Temp 
 VS01.                90577859:  Virtual Str1 SN 
 VS02.                90521879:  Virtual Str2 SN 
 VS03.                90580299:  Virtual Str3 SN 
 VS04.                90515982:  Virtual Str4 SN 
 VS05.                90547765:  Virtual Str5 SN 
 WBMN.klb                 2.00:  WOB Min 
 WITN.           Adil Mammadov:  Customer Rep 
 WITN.        Elmaddin Rahimov:  Customer Rep 2 
 WOBA.klb                 3.00:  WOB Avg 
 WOBX.klb                 5.00:  WOB Max 
 YP  .lhf2               30.00:  Yield Point 
~Curve Information Block
#MNEM.UNIT                 API CODE     Curve Description
#---------               -----------    ---------------------------
 TIME.HHMMSS            00 000 000 000:  GT Time & Date
 GTDEPTH.m              00 000 000 000:  GT Depth
 GTPQH.psia             00 000 000 000:  GT HR Quartz Pressure
 GTTQ.degC              00 000 000 000:  GT Quartz Temperature
 GTTN.NONE              00 000 000 000:  GT Test Number
 GTET.sec               00 000 000 000:  GT Elapsed Test Time
 GTTVD.m                00 000 000 000:  GT True Vertical Depth
#Other Information
#
#WARRANTY: Halliburton will use its best efforts to furnish customers with 
#accurate information and interpretations that are part of, and incident to, the services 
#provided.  However, Halliburton cannot and does not warrant the accuracy 
#or correctness of such information and interpretations.  Under no circumstances should any 
#such information or interpretation be relied upon as the sole basis for any drilling, 
#completion, production, or financial decision or any procedure involving any risk to the 
#safety of any drilling venture, drilling rig or its crew or any other third party.  The 
#Customer has full responsibility for all drilling, completion and production operation.  
#Halliburton makes no representations or warranties, either expressed or 
#implied, including, but not limited to, the implied warranties of merchantability or fitness 
#for a particular purpose, with respect to the services rendered.  In no event will 
#Halliburton be liable for failure to obtain any particular results or for 
#any damages, including, but not limited to, indirect, special or consequential damages, 
#resulting from the use of any information or interpretation provided by Halliburton.
#
~A           TIME           GTDEPTH  GTPQH  GTTQ  GTTN  GTET   GTTVD  
# ...
   10:29:18.303.18-Jan-2020 4898.01 4078.93 73.52 1.00  92.01 2811.04
   10:29:18.503.18-Jan-2020 4898.01 4078.93 73.52 1.00  92.21 2811.04
   10:29:18.703.18-Jan-2020 4898.01 4078.95 73.52 1.00  92.41 2811.04
   10:29:18.903.18-Jan-2020 4898.01 4078.92 73.52 1.00  92.61 2811.04
   10:29:19.103.18-Jan-2020 4898.01 4078.94 73.52 1.00  92.81 2811.04
   10:29:19.303.18-Jan-2020 4898.01 4078.78 73.52 1.00  93.01 2811.04
   10:29:19.503.18-Jan-2020 4898.01 4078.78 73.52 1.00  93.21 2811.04
   10:29:19.703.18-Jan-2020 4898.01 4078.93 73.52 1.00  93.41 2811.04
   10:29:19.903.18-Jan-2020 4898.01 4078.95 73.52 1.00  93.61 2811.04
   10:29:20.103.18-Jan-2020 4898.01 4078.95 73.52 1.00  93.81 2811.04
   10:29:20.303.18-Jan-2020 4898.01 4078.92 73.52 1.00  94.01 2811.04
   10:29:20.503.18-Jan-2020 4898.01 4078.92 73.52 1.00  94.21 2811.04
   10:29:20.703.18-Jan-2020 4898.01 4078.71 73.52 1.00  94.41 2811.04
   10:29:20.903.18-Jan-2020 4898.01 4078.98 73.52 1.00  94.61 2811.04
   10:29:21.103.18-Jan-2020 4898.01 4078.93 73.52 1.00  94.81 2811.04
   10:29:21.303.18-Jan-2020 4898.01 4078.94 73.52 1.00  95.01 2811.04
   10:29:21.503.18-Jan-2020 4898.01 4078.94 73.52 1.00  95.21 2811.04
   10:29:21.703.18-Jan-2020 4898.01 4078.92 73.52 1.00  95.41 2811.04
   10:29:21.903.18-Jan-2020 4898.01 4078.70 73.52 1.00  95.61 2811.04
   10:29:22.103.18-Jan-2020 4898.01 4078.99 73.52 1.00  95.81 2811.04
   10:29:22.303.18-Jan-2020 4898.01 4078.95 73.52 1.00  96.01 2811.04
   10:29:22.503.18-Jan-2020 4898.01 4078.95 73.52 1.00  96.21 2811.04
   10:29:22.703.18-Jan-2020 4898.01 4078.91 73.52 1.00  96.41 2811.04
   10:29:22.903.18-Jan-2020 4898.01 4078.95 73.52 1.00  96.61 2811.04
   10:29:23.103.18-Jan-2020 4898.01 4078.90 73.52 1.00  96.81 2811.04
   10:29:23.303.18-Jan-2020 4898.01 4078.94 73.52 1.00  97.01 2811.04
   10:29:23.503.18-Jan-2020 4898.01 4078.94 73.52 1.00  97.21 2811.04
   10:29:23.703.18-Jan-2020 4898.01 4078.91 73.51 1.00  97.41 2811.04
   10:29:23.903.18-Jan-2020 4898.01 4078.92 73.51 1.00  97.61 2811.04
   10:29:24.103.18-Jan-2020 4898.01 4078.90 73.51 1.00  97.81 2811.04
   10:29:24.303.18-Jan-2020 4898.01 4078.96 73.51 1.00  98.01 2811.04
   10:29:24.503.18-Jan-2020 4898.01 4078.96 73.51 1.00  98.21 2811.04
   10:29:24.703.18-Jan-2020 4898.01 4078.93 73.51 1.00  98.41 2811.04
   10:29:24.903.18-Jan-2020 4898.01 4078.93 73.51 1.00  98.61 2811.04
   10:29:25.103.18-Jan-2020 4898.01 4078.90 73.51 1.00  98.81 2811.04
   10:29:25.303.18-Jan-2020 4898.01 4078.74 73.51 1.00  99.01 2811.04
   10:29:25.503.18-Jan-2020 4898.01 4078.74 73.51 1.00  99.21 2811.04
   10:29:25.703.18-Jan-2020 4898.01 4078.96 73.51 1.00  99.41 2811.04
   10:29:25.903.18-Jan-2020 4898.01 4078.92 73.51 1.00  99.61 2811.04
   10:29:26.103.18-Jan-2020 4898.01 4078.93 73.51 1.00  99.81 2811.04
   10:29:26.304.18-Jan-2020 4898.01 4078.93 73.51 1.00 100.01 2811.04
   10:29:26.504.18-Jan-2020 4898.01 4078.93 73.51 1.00 100.21 2811.04
   10:29:26.704.18-Jan-2020 4898.01 4078.92 73.51 1.00 100.41 2811.04
   10:29:26.904.18-Jan-2020 4898.01 4078.89 73.51 1.00 100.61 2811.04
   10:29:27.104.18-Jan-2020 4898.01 4078.93 73.51 1.00 100.81 2811.04
   10:29:27.304.18-Jan-2020 4898.01 4078.91 73.51 1.00 101.01 2811.04
   10:29:27.504.18-Jan-2020 4898.01 4078.91 73.51 1.00 101.21 2811.04
   10:29:27.704.18-Jan-2020 4898.01 4078.94 73.51 1.00 101.41 2811.04
   10:29:27.904.18-Jan-2020 4898.01 4078.91 73.51 1.00 101.61 2811.04
   10:29:28.104.18-Jan-2020 4898.01 4078.94 73.51 1.00 101.81 2811.04
   10:29:28.304.18-Jan-2020 4898.01 4078.91 73.51 1.00 102.01 2811.04
   10:29:28.504.18-Jan-2020 4898.01 4078.91 73.51 1.00 102.21 2811.04
   10:29:28.704.18-Jan-2020 4898.01 4078.79 73.51 1.00 102.41 2811.04
   10:29:28.904.18-Jan-2020 4898.01 4078.96 73.51 1.00 102.61 2811.04
   10:29:29.104.18-Jan-2020 4898.01 4078.96 73.51 1.00 102.81 2811.04
   10:29:29.304.18-Jan-2020 4898.01 4078.91 73.51 1.00 103.01 2811.04
   10:29:29.504.18-Jan-2020 4898.01 4078.91 73.51 1.00 103.21 2811.04
   10:29:29.704.18-Jan-2020 4898.01 4078.92 73.50 1.00 103.41 2811.04
   10:29:29.904.18-Jan-2020 4898.01 4078.91 73.50 1.00 103.61 2811.04
   10:29:30.104.18-Jan-2020 4898.01 4078.78 73.50 1.00 103.81 2811.04
   10:29:30.304.18-Jan-2020 4898.01 4078.89 73.50 1.00 104.01 2811.04
   10:29:30.504.18-Jan-2020 4898.01 4078.89 73.50 1.00 104.21 2811.04
   10:29:30.704.18-Jan-2020 4898.01 4078.91 73.50 1.00 104.41 2811.04
   10:29:30.904.18-Jan-2020 4898.01 4078.93 73.50 1.00 104.61 2811.04
   10:29:31.104.18-Jan-2020 4898.01 4078.92 73.50 1.00 104.81 2811.04
   10:29:31.304.18-Jan-2020 4898.01 4078.91 73.50 1.00 105.01 2811.04
   10:29:31.504.18-Jan-2020 4898.01 4078.91 73.50 1.00 105.21 2811.04
   10:29:31.704.18-Jan-2020 4898.01 4078.94 73.50 1.00 105.41 2811.04
   10:29:31.904.18-Jan-2020 4898.01 4078.95 73.50 1.00 105.61 2811.04
   10:29:32.104.18-Jan-2020 4898.01 4078.92 73.50 1.00 105.81 2811.04
   10:29:32.304.18-Jan-2020 4898.01 4078.95 73.50 1.00 106.01 2811.04
   10:29:32.504.18-Jan-2020 4898.01 4078.95 73.50 1.00 106.21 2811.04
   10:29:32.704.18-Jan-2020 4898.01 4078.66 73.50 1.00 106.41 2811.04
   10:29:32.904.18-Jan-2020 4898.01 4079.01 73.50 1.00 106.61 2811.04
   10:29:33.104.18-Jan-2020 4898.01 4078.91 73.50 1.00 106.81 2811.04
   10:29:33.304.18-Jan-2020 4898.01 4078.93 73.50 1.00 107.01 2811.04
   10:29:33.504.18-Jan-2020 4898.01 4078.93 73.50 1.00 107.21 2811.04
   10:29:33.704.18-Jan-2020 4898.01 4078.92 73.50 1.00 107.41 2811.04
   10:29:33.904.18-Jan-2020 4898.01 4078.92 73.50 1.00 107.61 2811.04
   10:29:34.104.18-Jan-2020 4898.01 4078.89 73.50 1.00 107.81 2811.04
   10:29:34.304.18-Jan-2020 4898.01 4078.92 73.50 1.00 108.01 2811.04
   10:29:34.505.18-Jan-2020 4898.01 4078.92 73.50 1.00 108.21 2811.04
   10:29:34.705.18-Jan-2020 4898.01 4078.90 73.50 1.00 108.41 2811.04
   10:29:34.905.18-Jan-2020 4898.01 4078.90 73.50 1.00 108.61 2811.04
   10:29:35.105.18-Jan-2020 4898.01 4078.90 73.50 1.00 108.81 2811.04
   10:29:35.305.18-Jan-2020 4898.01 4078.93 73.50 1.00 109.01 2811.04
   10:29:35.505.18-Jan-2020 4898.01 4078.93 73.50 1.00 109.21 2811.04
   10:29:35.705.18-Jan-2020 4898.01 4078.93 73.49 1.00 109.41 2811.04
   10:29:35.905.18-Jan-2020 4898.01 4078.88 73.49 1.00 109.61 2811.04
   10:29:36.105.18-Jan-2020 4898.01 4078.71 73.49 1.00 109.81 2811.04
   10:29:36.305.18-Jan-2020 4898.01 4078.97 73.49 1.00 110.01 2811.04
   10:29:36.505.18-Jan-2020 4898.01 4078.97 73.49 1.00 110.21 2811.04
   10:29:36.705.18-Jan-2020 4898.01 4078.95 73.49 1.00 110.41 2811.04
   10:29:36.905.18-Jan-2020 4898.01 4078.89 73.49 1.00 110.61 2811.04
   10:29:37.105.18-Jan-2020 4898.01 4078.93 73.49 1.00 110.81 2811.04
   10:29:37.305.18-Jan-2020 4898.01 4078.89 73.49 1.00 111.01 2811.04
   10:29:37.505.18-Jan-2020 4898.01 4078.89 73.49 1.00 111.21 2811.04
   10:29:37.705.18-Jan-2020 4898.01 4078.92 73.49 1.00 111.41 2811.04
   10:29:37.905.18-Jan-2020 4898.01 4078.87 73.49 1.00 111.61 2811.04
   10:29:38.105.18-Jan-2020 4898.01 4078.92 73.49 1.00 111.81 2811.04
   10:29:38.305.18-Jan-2020 4898.01 4078.89 73.49 1.00 112.01 2811.04
   10:29:38.505.18-Jan-2020 4898.01 4078.89 73.49 1.00 112.21 2811.04
   10:29:38.705.18-Jan-2020 4898.01 4078.91 73.49 1.00 112.41 2811.04
   10:29:38.905.18-Jan-2020 4898.01 4078.90 73.49 1.00 112.61 2811.04
   10:29:39.105.18-Jan-2020 4898.01 4078.92 73.49 1.00 112.81 2811.04
   10:29:39.305.18-Jan-2020 4898.01 4078.84 73.49 1.00 113.01 2811.04
   10:29:39.505.18-Jan-2020 4898.01 4078.84 73.49 1.00 113.21 2811.04
   10:29:39.705.18-Jan-2020 4898.01 4078.96 73.49 1.00 113.41 2811.04
   10:29:39.905.18-Jan-2020 4898.01 4078.92 73.49 1.00 113.61 2811.04
   10:29:40.105.18-Jan-2020 4898.01 4078.93 73.49 1.00 113.81 2811.04
   10:29:40.305.18-Jan-2020 4898.01 4078.90 73.49 1.00 114.01 2811.04
   10:29:40.505.18-Jan-2020 4898.01 4078.90 73.49 1.00 114.21 2811.04
   10:29:40.705.18-Jan-2020 4898.01 4078.88 73.49 1.00 114.41 2811.04
   10:29:40.905.18-Jan-2020 4898.01 4078.77 73.49 1.00 114.61 2811.04
   10:29:41.105.18-Jan-2020 4898.01 4078.90 73.49 1.00 114.81 2811.04
