~Version Information
 VERS.                  2.0:   CWLS log ASCII Standard -VERSION 2.0
 WRAP.                   NO:   One line per depth step
~Well Information Block
#MNEM.UNIT     VALUE/NAME     DESCRIPTION
#---------     -----------    ---------------------------
 STRT.S             16:13:28 18-Jan-20: START TIME 16:13:28 18-Jan-20
 STOP.S             16:21:32 18-Jan-20: STOP TIME  16:21:32 18-Jan-20
 STEP.S                   0.00: STEP TIME
 NULL.                 -999.25: NULL VALUE
 DFWT.                        :  DIST FWL TEXT
 DFST.                        :  DIST FSL TEXT
 DMF .             Drill Floor:  DRILL MEAS FROM
 STIM.      17.57.20 21-Dec-19:  START TIME
 DATE.      17.57.20 21-Dec-19:  END TIME
 SPUD.               21-Dec-19:  SPUD DATE
 NREF.                    Grid:  NORTH REFERENCE
 HPTY.       Minimum Curvature:  HOLE POS TYPE
 DMOD.             Drill Model:  DRILL MOD DESC
 SVYD.                  Survey:  SURVEY DESC
 ILTD.               Lithology:  INTERP LTH DESC
 FTOP.          Formation Tops:  FORM TOPS DESC
 PDAT.          Mean Sea Level:  PERMANENT DATUM
 FLD .                     ACG:  FIELD NAME
 SON .        AZ-XX-0905715376:  JOB NUMBER
 CTRY.              Azerbaijan:  COUNTRY NAME
 WELL.                    E04Y:  WELL NAME
 SRVC.          TURAN DRILLING:  CONTRACTOR
 COMP.     BP Exploration (Caspian Sea) Ltd.:  COMPANY
 WTYP.                Deviated:  WELL TYPE
 UWI .                     N/a:  UNIQUE WELL IDENTIFIER
 API .                     N/a:  API NUMBER
 BASE.              Azerbaijan:  LOGGING EQUIPMENT BASE LOCATION
 REGN.                   EESSA:  REGION
 MWDS.                    Baku:  MWD SHOP
 RIG .                     DWG:  RIG NAME
 DOE .                     N/a:  DOE NUMBER
 CNTY.                    Baku:  COUNTY NAME
 DCON.         Sperry Drilling:  DIRECTNL CONTR
 UNIT.                     N/a:  LOGGING EQUIPMENT ID
 MDS .        Operator Entered:  MAG DATA SOURCE
 PROV.                        :  PROVINCE
 STAT.                        :  STATE
 LOC .                        :  LOCATION
 LMF .             Drill Floor:  LOG MEASURED FROM
 TVDS.m                  43.16:  TVDSS CORRECTN
 LATI.deg                40.17:  LATITUDE
 LONG.deg                51.17:  LONGITUDE
 WHNS.m                  -0.12:  WELL HEAD N/S
 WHEW.m                  -5.41:  WELL HEAD E/W
 UTMX.m              514337.95:  UTM X
 UTMY.m             4448627.46:  UTM Y
 DFWL.m                   0.00:  DISTANCE FWL
 DFSL.m                   0.00:  DISTANCE FSL
 SDEP.m                   0.00:  START DEPTH
 TDD .m                   0.00:  TOTAL DEPTH (DRILLER)
 VSDR.deg               235.12:  VERT SEC DIRECT
 GVFD.g                   1.00:  GRAVITY FIELD
 MFLD.nT              50294.00:  MAGNETIC FIELD
 MDIP.deg                59.61:  MAGNETIC DIP
 MDEC.deg                 6.58:  MAGNETIC DECL
 GRDC.deg                 0.09:  GRID CORRECTION
 AZTC.deg                 6.49:  AZM TOTAL CORR
 EPD .m                   0.00:  ELEVATION
 EGL .m                   0.00:  GROUND ELEVATION
 WDMS.m                 176.20:  WD ELEV
 APD .m                  43.16:  DEPTH ABOVE PD
 DEP .m                3172.61:  DEPTH
 AGAP.m                  43.16:  AIR GAP
 VSEW.m                  -5.41:  VERT SEC E/W
 VSNS.m                  -0.12:  VERT SEC N/S
 EKB .m                  43.16:  KB ELEVATION
 EDF .m                  43.16:  DF ELEVATION
 TDL .m                 295.00:  TOTAL DEPTH (LOGGER)
 VSC .                       0:  VS TO CLOSURE
 MAGU.                 1852276:  MAGUTM CHECKSUM
~Parameter Information Block
#MNEM.UNIT       Value        Description
#---------     -----------    ---------------------------
 AV  .mps                 1.60:  Ann Velocity 
 AVMX.mps                 2.10:  Max Ann Veloc 
 AZIF.deg               290.59:  Azm, Final 
 BHAT.        Rotary Steerable:  BHA Type 
 BROT.°/30m               1.00:  Build Rotating 
 BS  .in                  6.50:  Bit Size 
 BSZ .in                  6.50:  Bit Size 
 BTPL.psig              120.00:  Bit Press Loss 
 CABU.                     Yes:  Customer Abuse 
 CGEO.          Eldar Huseynov:  Customer Geo 
 COMM.                     Ôs:  Run Comments 1 
 TCS .hr                 87.00:  Time Ciculation Ended 
 CV  .mps                 4.01:  Crit Velocity 
 CVMX.mps                 5.06:  Max Crit Veloc 
 DD1 .             Aziz Aliyev:  Direct Drillr 1 
 DD2 .            Sanan Aliyev:  Direct Drillr 2 
 DDSV.               Geo-Pilot:  DD Service 
 DEFF.%                  95.00:  % Det Eff 
 DLRX.°/30m               0.75:  Dogleg Rot Max 
 DLSO.°/30m               0.65:  Dogleg Oriented 
 DLSX.°/30m               1.39:  Dogleg Str Max 
 DRET.      18.25.00 19-Jan-20:  Drill End Time 
 DRST.      11.56.48 17-Jan-20:  Drill Start Tim 
 DTIM.hr                 27.16:  Time Drilling 
 EDEP.m                5161.01:  End Depth 
 ENG1.          Rasim Hashimov:  Engineer 1 
 ENG2.      Bakhtiyar Jabbarli:  Engineer 2 
 ETIM.      11.56.48 21-Jan-20:  End Time 
 FLOI.gpm               350.00:  Flow In 
 FLON.gpm               300.00:  Flow In Min 
 FLOS.cptm                0.00:  Fluid Loss 
 FLOX.gpm               400.00:  Flow In Max 
 HFLO.                      No:  High Flow 
 HPRE.                      No:  High Pressure 
 HTEM.                      No:  High Temp 
 HYDO.m                   1.85:  Hydro Offset 
 IFIN.deg                71.58:  Inc, Final 
 IMAX.deg                71.83:  Inc Max 
 IMIN.deg                71.12:  Inc Min 
 IMND.m                5099.48:  Inc Min Depth 
 IMXD.m                5071.08:  Inc Max Depth 
 JARR.                      No:  Jarring 
 LETM.      18.25.00 19-Jan-20:  Log End Time 
 LOST.hr                     0:  Lost Rig Time 
 LSTM.      11.56.48 17-Jan-20:  Log Start Time 
 MDCL.ppm             37000.00:  Mud Chlorides 
 MDES.     Inversion Oil/Synthetic:  Mud Desc 
 DFD .sg                  1.34:  Mud Density 
 MDMN.sg                  1.34:  Dens Mud Min 
 MDMX.sg                  1.34:  Dens Mud Max 
 MOIL.                      69:  Run Mud Oil % 
 MOWR.                   69:31:  Run Mud OWR 
 MSND.                     0.1:  Run Mud Sand % 
 MSOL.                    17.6:  Run Mud Solids% 
 DFV .spqt               79.00:  Mud Viscosity 
 MWOD.in                  4.75:  MWD Tool OD 
 MWSI.                      No:  Serv Intrp, MWD 
 OTIM.hr                126.10:  Time Operating 
 PMAX.psia             6000.00:  Press Op, Max 
 PV  .cP                 29.00:  Mud PV 
 RUN .                     400:  Run Number 
 ROPA.m/hr               11.00:  ROP Avg 
 ROPN.m/hr                5.00:  ROP Min 
 ROPX.m/hr               18.00:  ROP Max 
 RPMA.rpm               139.00:  RPM Surface Avg 
 RPMN.rpm               100.00:  RPM Surface Min 
 RPMX.rpm               140.00:  RPM Surface Max 
 RRUN.                     400:  Rig Run Number 
 SAZI.deg               290.22:  Azm, Start 
 SDEP.m                4868.01:  Start Depth 
 SIDD.                      No:  Serv Intrp, DD 
 SINC.deg                71.77:  Inc, Start 
 SPPA.psig             5550.00:  SPP Avg 
 SPPN.psig             4300.00:  SPP Min 
 SPPX.psig             5600.00:  SPP Max 
 STIM.      23.45.48 15-Jan-20:  Start Time 
 SVCS.                 DD, MWD:  Services 
 SVER.                    9.20:  Sperry Version 
 TDAT.m                5161.01:  Tot Depth Attmp 
 TDDF.                      No:  Trip for DD 
 TDLG.m                 295.00:  Tot Depth Loggd 
 TFF .                      No:  Trip for Fail 
 TQAA.f-kp               13.00:  Torque Abs Avg 
 TQAN.f-kp               13.00:  Torque Abs Min 
 TQAX.f-kp               16.00:  Torque Abs Max 
 TRRT.°/30m               0.25:  Turn Rotating 
 MRT .                     ADR:  Maximum Recorded Temperature 
 TTMX.degC               88.00:  Max Tool Temp 
 VS01.                90577859:  Virtual Str1 SN 
 VS02.                90521879:  Virtual Str2 SN 
 VS03.                90580299:  Virtual Str3 SN 
 VS04.                90515982:  Virtual Str4 SN 
 VS05.                90547765:  Virtual Str5 SN 
 WBMN.klb                 2.00:  WOB Min 
 WITN.           Adil Mammadov:  Customer Rep 
 WITN.        Elmaddin Rahimov:  Customer Rep 2 
 WOBA.klb                 3.00:  WOB Avg 
 WOBX.klb                 5.00:  WOB Max 
 YP  .lhf2               30.00:  Yield Point 
~Curve Information Block
#MNEM.UNIT                 API CODE     Curve Description
#---------               -----------    ---------------------------
 TIME.HHMMSS            00 000 000 000:  GT Time & Date
 GTDEPTH.m              00 000 000 000:  GT Depth
 GTPQH.psia             00 000 000 000:  GT HR Quartz Pressure
 GTTQ.degC              00 000 000 000:  GT Quartz Temperature
 GTTN.NONE              00 000 000 000:  GT Test Number
 GTET.sec               00 000 000 000:  GT Elapsed Test Time
 GTTVD.m                00 000 000 000:  GT True Vertical Depth
#Other Information
#
#WARRANTY: Halliburton will use its best efforts to furnish customers with 
#accurate information and interpretations that are part of, and incident to, the services 
#provided.  However, Halliburton cannot and does not warrant the accuracy 
#or correctness of such information and interpretations.  Under no circumstances should any 
#such information or interpretation be relied upon as the sole basis for any drilling, 
#completion, production, or financial decision or any procedure involving any risk to the 
#safety of any drilling venture, drilling rig or its crew or any other third party.  The 
#Customer has full responsibility for all drilling, completion and production operation.  
#Halliburton makes no representations or warranties, either expressed or 
#implied, including, but not limited to, the implied warranties of merchantability or fitness 
#for a particular purpose, with respect to the services rendered.  In no event will 
#Halliburton be liable for failure to obtain any particular results or for 
#any damages, including, but not limited to, indirect, special or consequential damages, 
#resulting from the use of any information or interpretation provided by Halliburton.
#
~A           TIME           GTDEPTH  GTPQH  GTTQ  GTTN  GTET   GTTVD  
# ...
   16:15:23.558.18-Jan-2020 4958.01 4407.11 80.67 2.00 115.01 2829.97
   16:15:23.758.18-Jan-2020 4958.01 4407.11 80.67 2.00 115.21 2829.97
   16:15:23.958.18-Jan-2020 4958.01 4407.09 80.67 2.00 115.41 2829.97
   16:15:24.158.18-Jan-2020 4958.01 4407.17 80.67 2.00 115.61 2829.97
   16:15:24.358.18-Jan-2020 4958.01 4407.16 80.67 2.00 115.81 2829.97
   16:15:24.558.18-Jan-2020 4958.01 4407.14 80.66 2.00 116.01 2829.97
   16:15:24.758.18-Jan-2020 4958.01 4407.14 80.66 2.00 116.21 2829.97
   16:15:24.958.18-Jan-2020 4958.01 4407.06 80.66 2.00 116.41 2829.97
   16:15:25.158.18-Jan-2020 4958.01 4407.17 80.66 2.00 116.61 2829.97
   16:15:25.358.18-Jan-2020 4958.01 4407.14 80.66 2.00 116.81 2829.97
   16:15:25.558.18-Jan-2020 4958.01 4407.14 80.66 2.00 117.01 2829.97
   16:15:25.758.18-Jan-2020 4958.01 4407.14 80.66 2.00 117.21 2829.97
   16:15:25.958.18-Jan-2020 4958.01 4407.10 80.66 2.00 117.41 2829.97
   16:15:26.158.18-Jan-2020 4958.01 4407.10 80.66 2.00 117.61 2829.97
   16:15:26.358.18-Jan-2020 4958.01 4407.16 80.66 2.00 117.81 2829.97
   16:15:26.558.18-Jan-2020 4958.01 4407.15 80.66 2.00 118.01 2829.97
   16:15:26.758.18-Jan-2020 4958.01 4407.15 80.66 2.00 118.21 2829.97
   16:15:26.958.18-Jan-2020 4958.01 4407.12 80.66 2.00 118.41 2829.97
   16:15:27.158.18-Jan-2020 4958.01 4407.11 80.66 2.00 118.61 2829.97
   16:15:27.358.18-Jan-2020 4958.01 4407.09 80.66 2.00 118.81 2829.97
   16:15:27.558.18-Jan-2020 4958.01 4407.16 80.66 2.00 119.01 2829.97
   16:15:27.758.18-Jan-2020 4958.01 4407.16 80.66 2.00 119.21 2829.97
   16:15:27.958.18-Jan-2020 4958.01 4407.13 80.65 2.00 119.41 2829.97
   16:15:28.158.18-Jan-2020 4958.01 4407.12 80.65 2.00 119.61 2829.97
   16:15:28.358.18-Jan-2020 4958.01 4407.13 80.65 2.00 119.81 2829.97
   16:15:28.558.18-Jan-2020 4958.01 4407.11 80.65 2.00 120.01 2829.97
   16:15:28.758.18-Jan-2020 4958.01 4407.11 80.65 2.00 120.21 2829.97
   16:15:28.958.18-Jan-2020 4958.01 4407.13 80.65 2.00 120.41 2829.97
   16:15:29.158.18-Jan-2020 4958.01 4407.13 80.65 2.00 120.61 2829.97
   16:15:29.358.18-Jan-2020 4958.01 4407.10 80.65 2.00 120.81 2829.97
   16:15:29.558.18-Jan-2020 4958.01 4407.12 80.65 2.00 121.01 2829.97
   16:15:29.758.18-Jan-2020 4958.01 4407.12 80.65 2.00 121.21 2829.97
   16:15:29.958.18-Jan-2020 4958.01 4407.12 80.65 2.00 121.41 2829.97
   16:15:30.158.18-Jan-2020 4958.01 4407.08 80.65 2.00 121.61 2829.97
   16:15:30.358.18-Jan-2020 4958.01 4407.08 80.65 2.00 121.81 2829.97
   16:15:30.558.18-Jan-2020 4958.01 4407.06 80.65 2.00 122.01 2829.97
   16:15:30.758.18-Jan-2020 4958.01 4407.06 80.65 2.00 122.21 2829.97
   16:15:30.958.18-Jan-2020 4958.01 4407.14 80.64 2.00 122.41 2829.97
   16:15:31.158.18-Jan-2020 4958.01 4407.10 80.64 2.00 122.61 2829.97
   16:15:31.358.18-Jan-2020 4958.01 4407.13 80.64 2.00 122.81 2829.97
   16:15:31.558.18-Jan-2020 4958.01 4407.09 80.64 2.00 123.01 2829.97
   16:15:31.758.18-Jan-2020 4958.01 4407.09 80.64 2.00 123.21 2829.97
   16:15:31.958.18-Jan-2020 4958.01 4407.09 80.64 2.00 123.41 2829.97
   16:15:32.158.18-Jan-2020 4958.01 4407.11 80.64 2.00 123.61 2829.97
   16:15:32.358.18-Jan-2020 4958.01 4407.09 80.64 2.00 123.81 2829.97
   16:15:32.558.18-Jan-2020 4958.01 4407.10 80.64 2.00 124.01 2829.97
   16:15:32.758.18-Jan-2020 4958.01 4407.10 80.64 2.00 124.21 2829.97
   16:15:32.958.18-Jan-2020 4958.01 4407.10 80.64 2.00 124.41 2829.97
   16:15:33.158.18-Jan-2020 4958.01 4407.10 80.64 2.00 124.61 2829.97
   16:15:33.358.18-Jan-2020 4958.01 4407.08 80.64 2.00 124.81 2829.97
   16:15:33.558.18-Jan-2020 4958.01 4407.09 80.64 2.00 125.01 2829.97
   16:15:33.758.18-Jan-2020 4958.01 4407.09 80.64 2.00 125.21 2829.97
   16:15:33.959.18-Jan-2020 4958.01 4407.11 80.63 2.00 125.41 2829.97
   16:15:34.159.18-Jan-2020 4958.01 4407.12 80.63 2.00 125.61 2829.97
   16:15:34.359.18-Jan-2020 4958.01 4407.10 80.63 2.00 125.81 2829.97
   16:15:34.559.18-Jan-2020 4958.01 4407.10 80.63 2.00 126.01 2829.97
   16:15:34.759.18-Jan-2020 4958.01 4407.10 80.63 2.00 126.21 2829.97
   16:15:34.959.18-Jan-2020 4958.01 4407.20 80.63 2.00 126.41 2829.97
   16:15:35.159.18-Jan-2020 4958.01 4407.14 80.63 2.00 126.61 2829.97
   16:15:35.359.18-Jan-2020 4958.01 4407.09 80.63 2.00 126.81 2829.97
   16:15:35.559.18-Jan-2020 4958.01 4407.10 80.63 2.00 127.01 2829.97
   16:15:35.759.18-Jan-2020 4958.01 4407.10 80.63 2.00 127.21 2829.97
   16:15:35.959.18-Jan-2020 4958.01 4407.01 80.63 2.00 127.41 2829.97
   16:15:36.159.18-Jan-2020 4958.01 4407.10 80.63 2.00 127.61 2829.97
   16:15:36.359.18-Jan-2020 4958.01 4407.11 80.63 2.00 127.81 2829.97
   16:15:36.559.18-Jan-2020 4958.01 4407.10 80.63 2.00 128.01 2829.97
   16:15:36.759.18-Jan-2020 4958.01 4407.10 80.63 2.00 128.21 2829.97
   16:15:36.959.18-Jan-2020 4958.01 4407.09 80.63 2.00 128.41 2829.97
   16:15:37.159.18-Jan-2020 4958.01 4407.01 80.62 2.00 128.61 2829.97
   16:15:37.359.18-Jan-2020 4958.01 4407.09 80.62 2.00 128.81 2829.97
   16:15:37.559.18-Jan-2020 4958.01 4407.13 80.62 2.00 129.01 2829.97
   16:15:37.759.18-Jan-2020 4958.01 4407.13 80.62 2.00 129.21 2829.97
   16:15:37.959.18-Jan-2020 4958.01 4407.09 80.62 2.00 129.41 2829.97
   16:15:38.159.18-Jan-2020 4958.01 4407.08 80.62 2.00 129.61 2829.97
   16:15:38.359.18-Jan-2020 4958.01 4407.10 80.62 2.00 129.81 2829.97
   16:15:38.559.18-Jan-2020 4958.01 4407.07 80.62 2.00 130.01 2829.97
   16:15:38.759.18-Jan-2020 4958.01 4407.07 80.62 2.00 130.21 2829.97
   16:15:38.959.18-Jan-2020 4958.01 4407.06 80.62 2.00 130.41 2829.97
   16:15:39.159.18-Jan-2020 4958.01 4407.09 80.62 2.00 130.61 2829.97
   16:15:39.359.18-Jan-2020 4958.01 4407.06 80.62 2.00 130.81 2829.97
   16:15:39.559.18-Jan-2020 4958.01 4407.08 80.62 2.00 131.01 2829.97
   16:15:39.759.18-Jan-2020 4958.01 4407.08 80.62 2.00 131.21 2829.97
   16:15:39.959.18-Jan-2020 4958.01 4407.07 80.62 2.00 131.41 2829.97
   16:15:40.159.18-Jan-2020 4958.01 4407.07 80.62 2.00 131.61 2829.97
   16:15:40.359.18-Jan-2020 4958.01 4406.97 80.61 2.00 131.81 2829.97
   16:15:40.559.18-Jan-2020 4958.01 4407.08 80.61 2.00 132.01 2829.97
   16:15:40.759.18-Jan-2020 4958.01 4407.08 80.61 2.00 132.21 2829.97
   16:15:40.959.18-Jan-2020 4958.01 4407.11 80.61 2.00 132.41 2829.97
   16:15:41.159.18-Jan-2020 4958.01 4407.06 80.61 2.00 132.61 2829.97
   16:15:41.359.18-Jan-2020 4958.01 4407.09 80.61 2.00 132.81 2829.97
   16:15:41.559.18-Jan-2020 4958.01 4407.05 80.61 2.00 133.01 2829.97
   16:15:41.759.18-Jan-2020 4958.01 4407.05 80.61 2.00 133.21 2829.97
   16:15:41.959.18-Jan-2020 4958.01 4407.05 80.61 2.00 133.41 2829.97
   16:15:42.159.18-Jan-2020 4958.01 4407.07 80.61 2.00 133.61 2829.97
   16:15:42.359.18-Jan-2020 4958.01 4407.05 80.61 2.00 133.81 2829.97
   16:15:42.559.18-Jan-2020 4958.01 4407.07 80.61 2.00 134.01 2829.97
   16:15:42.759.18-Jan-2020 4958.01 4407.07 80.61 2.00 134.21 2829.97
   16:15:42.959.18-Jan-2020 4958.01 4407.04 80.61 2.00 134.41 2829.97
   16:15:43.159.18-Jan-2020 4958.01 4407.06 80.61 2.00 134.61 2829.97
   16:15:43.359.18-Jan-2020 4958.01 4407.04 80.61 2.00 134.81 2829.97
   16:15:43.559.18-Jan-2020 4958.01 4407.05 80.60 2.00 135.01 2829.97
   16:15:43.759.18-Jan-2020 4958.01 4407.05 80.60 2.00 135.21 2829.97
   16:15:43.959.18-Jan-2020 4958.01 4407.18 80.60 2.00 135.41 2829.97
   16:15:44.159.18-Jan-2020 4958.01 4407.08 80.60 2.00 135.61 2829.97
   16:15:44.359.18-Jan-2020 4958.01 4407.08 80.60 2.00 135.81 2829.97
   16:15:44.559.18-Jan-2020 4958.01 4407.06 80.60 2.00 136.01 2829.97
   16:15:44.759.18-Jan-2020 4958.01 4407.06 80.60 2.00 136.21 2829.97
   16:15:44.959.18-Jan-2020 4958.01 4407.00 80.60 2.00 136.41 2829.97
   16:15:45.159.18-Jan-2020 4958.01 4407.00 80.60 2.00 136.61 2829.97
   16:15:45.359.18-Jan-2020 4958.01 4407.07 80.60 2.00 136.81 2829.97
   16:15:45.559.18-Jan-2020 4958.01 4407.07 80.60 2.00 137.01 2829.97
   16:15:45.759.18-Jan-2020 4958.01 4407.07 80.60 2.00 137.21 2829.97
   16:15:45.959.18-Jan-2020 4958.01 4406.85 80.60 2.00 137.41 2829.97
   16:15:46.160.18-Jan-2020 4958.01 4407.19 80.60 2.00 137.61 2829.97
   16:15:46.360.18-Jan-2020 4958.01 4407.08 80.60 2.00 137.81 2829.97
