~Version Information
 VERS.                  2.0:   CWLS log ASCII Standard -VERSION 2.0
 WRAP.                   NO:   One line per depth step
~Well Information Block
#MNEM.UNIT     VALUE/NAME     DESCRIPTION
#---------     -----------    ---------------------------
 STRT.S             16:13:28 18-Jan-20: START TIME 16:13:28 18-Jan-20
 STOP.S             16:21:32 18-Jan-20: STOP TIME  16:21:32 18-Jan-20
 STEP.S                   0.00: STEP TIME
 NULL.                 -999.25: NULL VALUE
 DFWT.                        :  DIST FWL TEXT
 DFST.                        :  DIST FSL TEXT
 DMF .             Drill Floor:  DRILL MEAS FROM
 STIM.      17.57.20 21-Dec-19:  START TIME
 DATE.      17.57.20 21-Dec-19:  END TIME
 SPUD.               21-Dec-19:  SPUD DATE
 NREF.                    Grid:  NORTH REFERENCE
 HPTY.       Minimum Curvature:  HOLE POS TYPE
 DMOD.             Drill Model:  DRILL MOD DESC
 SVYD.                  Survey:  SURVEY DESC
 ILTD.               Lithology:  INTERP LTH DESC
 FTOP.          Formation Tops:  FORM TOPS DESC
 PDAT.          Mean Sea Level:  PERMANENT DATUM
 FLD .                     ACG:  FIELD NAME
 SON .        AZ-XX-0905715376:  JOB NUMBER
 CTRY.              Azerbaijan:  COUNTRY NAME
 WELL.                    E04Y:  WELL NAME
 SRVC.          TURAN DRILLING:  CONTRACTOR
 COMP.     BP Exploration (Caspian Sea) Ltd.:  COMPANY
 WTYP.                Deviated:  WELL TYPE
 UWI .                     N/a:  UNIQUE WELL IDENTIFIER
 API .                     N/a:  API NUMBER
 BASE.              Azerbaijan:  LOGGING EQUIPMENT BASE LOCATION
 REGN.                   EESSA:  REGION
 MWDS.                    Baku:  MWD SHOP
 RIG .                     DWG:  RIG NAME
 DOE .                     N/a:  DOE NUMBER
 CNTY.                    Baku:  COUNTY NAME
 DCON.         Sperry Drilling:  DIRECTNL CONTR
 UNIT.                     N/a:  LOGGING EQUIPMENT ID
 MDS .        Operator Entered:  MAG DATA SOURCE
 PROV.                        :  PROVINCE
 STAT.                        :  STATE
 LOC .                        :  LOCATION
 LMF .             Drill Floor:  LOG MEASURED FROM
 TVDS.m                  43.16:  TVDSS CORRECTN
 LATI.deg                40.17:  LATITUDE
 LONG.deg                51.17:  LONGITUDE
 WHNS.m                  -0.12:  WELL HEAD N/S
 WHEW.m                  -5.41:  WELL HEAD E/W
 UTMX.m              514337.95:  UTM X
 UTMY.m             4448627.46:  UTM Y
 DFWL.m                   0.00:  DISTANCE FWL
 DFSL.m                   0.00:  DISTANCE FSL
 SDEP.m                   0.00:  START DEPTH
 TDD .m                   0.00:  TOTAL DEPTH (DRILLER)
 VSDR.deg               235.12:  VERT SEC DIRECT
 GVFD.g                   1.00:  GRAVITY FIELD
 MFLD.nT              50294.00:  MAGNETIC FIELD
 MDIP.deg                59.61:  MAGNETIC DIP
 MDEC.deg                 6.58:  MAGNETIC DECL
 GRDC.deg                 0.09:  GRID CORRECTION
 AZTC.deg                 6.49:  AZM TOTAL CORR
 EPD .m                   0.00:  ELEVATION
 EGL .m                   0.00:  GROUND ELEVATION
 WDMS.m                 176.20:  WD ELEV
 APD .m                  43.16:  DEPTH ABOVE PD
 DEP .m                3172.61:  DEPTH
 AGAP.m                  43.16:  AIR GAP
 VSEW.m                  -5.41:  VERT SEC E/W
 VSNS.m                  -0.12:  VERT SEC N/S
 EKB .m                  43.16:  KB ELEVATION
 EDF .m                  43.16:  DF ELEVATION
 TDL .m                 295.00:  TOTAL DEPTH (LOGGER)
 VSC .                       0:  VS TO CLOSURE
 MAGU.                 1852276:  MAGUTM CHECKSUM
~Parameter Information Block
#MNEM.UNIT       Value        Description
#---------     -----------    ---------------------------
 AV  .mps                 1.60:  Ann Velocity 
 AVMX.mps                 2.10:  Max Ann Veloc 
 AZIF.deg               290.59:  Azm, Final 
 BHAT.        Rotary Steerable:  BHA Type 
 BROT.°/30m               1.00:  Build Rotating 
 BS  .in                  6.50:  Bit Size 
 BSZ .in                  6.50:  Bit Size 
 BTPL.psig              120.00:  Bit Press Loss 
 CABU.                     Yes:  Customer Abuse 
 CGEO.          Eldar Huseynov:  Customer Geo 
 COMM.                     Ôs:  Run Comments 1 
 TCS .hr                 87.00:  Time Ciculation Ended 
 CV  .mps                 4.01:  Crit Velocity 
 CVMX.mps                 5.06:  Max Crit Veloc 
 DD1 .             Aziz Aliyev:  Direct Drillr 1 
 DD2 .            Sanan Aliyev:  Direct Drillr 2 
 DDSV.               Geo-Pilot:  DD Service 
 DEFF.%                  95.00:  % Det Eff 
 DLRX.°/30m               0.75:  Dogleg Rot Max 
 DLSO.°/30m               0.65:  Dogleg Oriented 
 DLSX.°/30m               1.39:  Dogleg Str Max 
 DRET.      18.25.00 19-Jan-20:  Drill End Time 
 DRST.      11.56.48 17-Jan-20:  Drill Start Tim 
 DTIM.hr                 27.16:  Time Drilling 
 EDEP.m                5161.01:  End Depth 
 ENG1.          Rasim Hashimov:  Engineer 1 
 ENG2.      Bakhtiyar Jabbarli:  Engineer 2 
 ETIM.      11.56.48 21-Jan-20:  End Time 
 FLOI.gpm               350.00:  Flow In 
 FLON.gpm               300.00:  Flow In Min 
 FLOS.cptm                0.00:  Fluid Loss 
 FLOX.gpm               400.00:  Flow In Max 
 HFLO.                      No:  High Flow 
 HPRE.                      No:  High Pressure 
 HTEM.                      No:  High Temp 
 HYDO.m                   1.85:  Hydro Offset 
 IFIN.deg                71.58:  Inc, Final 
 IMAX.deg                71.83:  Inc Max 
 IMIN.deg                71.12:  Inc Min 
 IMND.m                5099.48:  Inc Min Depth 
 IMXD.m                5071.08:  Inc Max Depth 
 JARR.                      No:  Jarring 
 LETM.      18.25.00 19-Jan-20:  Log End Time 
 LOST.hr                     0:  Lost Rig Time 
 LSTM.      11.56.48 17-Jan-20:  Log Start Time 
 MDCL.ppm             37000.00:  Mud Chlorides 
 MDES.     Inversion Oil/Synthetic:  Mud Desc 
 DFD .sg                  1.34:  Mud Density 
 MDMN.sg                  1.34:  Dens Mud Min 
 MDMX.sg                  1.34:  Dens Mud Max 
 MOIL.                      69:  Run Mud Oil % 
 MOWR.                   69:31:  Run Mud OWR 
 MSND.                     0.1:  Run Mud Sand % 
 MSOL.                    17.6:  Run Mud Solids% 
 DFV .spqt               79.00:  Mud Viscosity 
 MWOD.in                  4.75:  MWD Tool OD 
 MWSI.                      No:  Serv Intrp, MWD 
 OTIM.hr                126.10:  Time Operating 
 PMAX.psia             6000.00:  Press Op, Max 
 PV  .cP                 29.00:  Mud PV 
 RUN .                     400:  Run Number 
 ROPA.m/hr               11.00:  ROP Avg 
 ROPN.m/hr                5.00:  ROP Min 
 ROPX.m/hr               18.00:  ROP Max 
 RPMA.rpm               139.00:  RPM Surface Avg 
 RPMN.rpm               100.00:  RPM Surface Min 
 RPMX.rpm               140.00:  RPM Surface Max 
 RRUN.                     400:  Rig Run Number 
 SAZI.deg               290.22:  Azm, Start 
 SDEP.m                4868.01:  Start Depth 
 SIDD.                      No:  Serv Intrp, DD 
 SINC.deg                71.77:  Inc, Start 
 SPPA.psig             5550.00:  SPP Avg 
 SPPN.psig             4300.00:  SPP Min 
 SPPX.psig             5600.00:  SPP Max 
 STIM.      23.45.48 15-Jan-20:  Start Time 
 SVCS.                 DD, MWD:  Services 
 SVER.                    9.20:  Sperry Version 
 TDAT.m                5161.01:  Tot Depth Attmp 
 TDDF.                      No:  Trip for DD 
 TDLG.m                 295.00:  Tot Depth Loggd 
 TFF .                      No:  Trip for Fail 
 TQAA.f-kp               13.00:  Torque Abs Avg 
 TQAN.f-kp               13.00:  Torque Abs Min 
 TQAX.f-kp               16.00:  Torque Abs Max 
 TRRT.°/30m               0.25:  Turn Rotating 
 MRT .                     ADR:  Maximum Recorded Temperature 
 TTMX.degC               88.00:  Max Tool Temp 
 VS01.                90577859:  Virtual Str1 SN 
 VS02.                90521879:  Virtual Str2 SN 
 VS03.                90580299:  Virtual Str3 SN 
 VS04.                90515982:  Virtual Str4 SN 
 VS05.                90547765:  Virtual Str5 SN 
 WBMN.klb                 2.00:  WOB Min 
 WITN.           Adil Mammadov:  Customer Rep 
 WITN.        Elmaddin Rahimov:  Customer Rep 2 
 WOBA.klb                 3.00:  WOB Avg 
 WOBX.klb                 5.00:  WOB Max 
 YP  .lhf2               30.00:  Yield Point 
~Curve Information Block
#MNEM.UNIT                 API CODE     Curve Description
#---------               -----------    ---------------------------
 TIME.HHMMSS            00 000 000 000:  GT Time & Date
 GTDEPTH.m              00 000 000 000:  GT Depth
 GTPQH.psia             00 000 000 000:  GT HR Quartz Pressure
 GTTQ.degC              00 000 000 000:  GT Quartz Temperature
 GTTN.NONE              00 000 000 000:  GT Test Number
 GTET.sec               00 000 000 000:  GT Elapsed Test Time
 GTTVD.m                00 000 000 000:  GT True Vertical Depth
#Other Information
#
#WARRANTY: Halliburton will use its best efforts to furnish customers with 
#accurate information and interpretations that are part of, and incident to, the services 
#provided.  However, Halliburton cannot and does not warrant the accuracy 
#or correctness of such information and interpretations.  Under no circumstances should any 
#such information or interpretation be relied upon as the sole basis for any drilling, 
#completion, production, or financial decision or any procedure involving any risk to the 
#safety of any drilling venture, drilling rig or its crew or any other third party.  The 
#Customer has full responsibility for all drilling, completion and production operation.  
#Halliburton makes no representations or warranties, either expressed or 
#implied, including, but not limited to, the implied warranties of merchantability or fitness 
#for a particular purpose, with respect to the services rendered.  In no event will 
#Halliburton be liable for failure to obtain any particular results or for 
#any damages, including, but not limited to, indirect, special or consequential damages, 
#resulting from the use of any information or interpretation provided by Halliburton.
#
~A           TIME           GTDEPTH  GTPQH  GTTQ  GTTN  GTET   GTTVD  
# ...
   16:18:27.573.18-Jan-2020 4958.01 4406.86 80.14 2.00 299.02 2829.97
   16:18:27.773.18-Jan-2020 4958.01 4406.86 80.14 2.00 299.22 2829.97
   16:18:27.973.18-Jan-2020 4958.01 4406.71 80.14 2.00 299.42 2829.97
   16:18:28.173.18-Jan-2020 4958.01 4406.92 80.14 2.00 299.62 2829.97
   16:18:28.373.18-Jan-2020 4958.01 4406.82 80.14 2.00 299.82 2829.97
   16:18:28.573.18-Jan-2020 4958.01 4406.84 80.14 2.00 300.02 2829.97
   16:18:28.773.18-Jan-2020 4958.01 4406.84 80.14 2.00 300.22 2829.97
   16:18:28.973.18-Jan-2020 4958.01 4406.82 80.14 2.00 300.42 2829.97
   16:18:29.173.18-Jan-2020 4958.01 4406.82 80.14 2.00 300.62 2829.97
   16:18:29.373.18-Jan-2020 4958.01 4406.83 80.14 2.00 300.82 2829.97
   16:18:29.573.18-Jan-2020 4958.01 4406.83 80.13 2.00 301.02 2829.97
   16:18:29.773.18-Jan-2020 4958.01 4406.83 80.13 2.00 301.22 2829.97
   16:18:29.973.18-Jan-2020 4958.01 4406.81 80.13 2.00 301.42 2829.97
   16:18:30.173.18-Jan-2020 4958.01 4406.83 80.13 2.00 301.62 2829.97
   16:18:30.373.18-Jan-2020 4958.01 4406.80 80.13 2.00 301.82 2829.97
   16:18:30.573.18-Jan-2020 4958.01 4406.83 80.13 2.00 302.02 2829.97
   16:18:30.773.18-Jan-2020 4958.01 4406.83 80.13 2.00 302.22 2829.97
   16:18:30.973.18-Jan-2020 4958.01 4406.80 80.13 2.00 302.42 2829.97
   16:18:31.173.18-Jan-2020 4958.01 4406.66 80.13 2.00 302.62 2829.97
   16:18:31.373.18-Jan-2020 4958.01 4406.90 80.13 2.00 302.82 2829.97
   16:18:31.573.18-Jan-2020 4958.01 4406.80 80.13 2.00 303.02 2829.97
   16:18:31.773.18-Jan-2020 4958.01 4406.80 80.13 2.00 303.22 2829.97
   16:18:31.973.18-Jan-2020 4958.01 4406.84 80.13 2.00 303.42 2829.97
   16:18:32.173.18-Jan-2020 4958.01 4406.81 80.13 2.00 303.62 2829.97
   16:18:32.373.18-Jan-2020 4958.01 4406.83 80.13 2.00 303.82 2829.97
   16:18:32.573.18-Jan-2020 4958.01 4406.79 80.13 2.00 304.02 2829.97
   16:18:32.773.18-Jan-2020 4958.01 4406.79 80.13 2.00 304.22 2829.97
   16:18:32.973.18-Jan-2020 4958.01 4406.79 80.13 2.00 304.42 2829.97
   16:18:33.173.18-Jan-2020 4958.01 4406.81 80.12 2.00 304.62 2829.97
   16:18:33.373.18-Jan-2020 4958.01 4406.79 80.12 2.00 304.82 2829.97
   16:18:33.573.18-Jan-2020 4958.01 4406.81 80.12 2.00 305.02 2829.97
   16:18:33.773.18-Jan-2020 4958.01 4406.81 80.12 2.00 305.22 2829.97
   16:18:33.973.18-Jan-2020 4958.01 4406.80 80.12 2.00 305.42 2829.97
   16:18:34.173.18-Jan-2020 4958.01 4406.80 80.12 2.00 305.63 2829.97
   16:18:34.373.18-Jan-2020 4958.01 4406.79 80.12 2.00 305.83 2829.97
   16:18:34.573.18-Jan-2020 4958.01 4406.77 80.12 2.00 306.03 2829.97
   16:18:34.773.18-Jan-2020 4958.01 4406.77 80.12 2.00 306.23 2829.97
   16:18:34.973.18-Jan-2020 4958.01 4406.80 80.12 2.00 306.43 2829.97
   16:18:35.173.18-Jan-2020 4958.01 4406.85 80.12 2.00 306.63 2829.97
   16:18:35.373.18-Jan-2020 4958.01 4406.84 80.12 2.00 306.83 2829.97
   16:18:35.573.18-Jan-2020 4958.01 4406.80 80.12 2.00 307.03 2829.97
   16:18:35.773.18-Jan-2020 4958.01 4406.80 80.12 2.00 307.23 2829.97
   16:18:35.973.18-Jan-2020 4958.01 4406.82 80.12 2.00 307.43 2829.97
   16:18:36.173.18-Jan-2020 4958.01 4406.86 80.12 2.00 307.63 2829.97
   16:18:36.373.18-Jan-2020 4958.01 4406.82 80.12 2.00 307.83 2829.97
   16:18:36.573.18-Jan-2020 4958.01 4406.83 80.12 2.00 308.03 2829.97
   16:18:36.773.18-Jan-2020 4958.01 4406.83 80.12 2.00 308.23 2829.97
   16:18:36.973.18-Jan-2020 4958.01 4406.91 80.12 2.00 308.43 2829.97
   16:18:37.174.18-Jan-2020 4958.01 4406.80 80.11 2.00 308.63 2829.97
   16:18:37.374.18-Jan-2020 4958.01 4406.82 80.11 2.00 308.83 2829.97
   16:18:37.574.18-Jan-2020 4958.01 4406.85 80.11 2.00 309.03 2829.97
   16:18:37.774.18-Jan-2020 4958.01 4406.85 80.11 2.00 309.23 2829.97
   16:18:37.974.18-Jan-2020 4958.01 4406.83 80.11 2.00 309.43 2829.97
   16:18:38.174.18-Jan-2020 4958.01 4406.72 80.11 2.00 309.63 2829.97
   16:18:38.374.18-Jan-2020 4958.01 4406.85 80.11 2.00 309.83 2829.97
   16:18:38.574.18-Jan-2020 4958.01 4406.86 80.11 2.00 310.03 2829.97
   16:18:38.774.18-Jan-2020 4958.01 4406.86 80.11 2.00 310.23 2829.97
   16:18:38.974.18-Jan-2020 4958.01 4406.83 80.11 2.00 310.43 2829.97
   16:18:39.174.18-Jan-2020 4958.01 4406.81 80.11 2.00 310.63 2829.97
   16:18:39.374.18-Jan-2020 4958.01 4406.83 80.11 2.00 310.83 2829.97
   16:18:39.574.18-Jan-2020 4958.01 4406.81 80.11 2.00 311.03 2829.97
   16:18:39.774.18-Jan-2020 4958.01 4406.81 80.11 2.00 311.23 2829.97
   16:18:39.974.18-Jan-2020 4958.01 4406.80 80.11 2.00 311.43 2829.97
   16:18:40.174.18-Jan-2020 4958.01 4406.82 80.11 2.00 311.63 2829.97
   16:18:40.374.18-Jan-2020 4958.01 4406.79 80.11 2.00 311.83 2829.97
   16:18:40.574.18-Jan-2020 4958.01 4406.81 80.11 2.00 312.03 2829.97
   16:18:40.774.18-Jan-2020 4958.01 4406.81 80.11 2.00 312.23 2829.97
   16:18:40.974.18-Jan-2020 4958.01 4406.81 80.11 2.00 312.43 2829.97
   16:18:41.174.18-Jan-2020 4958.01 4406.79 80.10 2.00 312.63 2829.97
   16:18:41.374.18-Jan-2020 4958.01 4406.70 80.10 2.00 312.83 2829.97
   16:18:41.574.18-Jan-2020 4958.01 4406.82 80.10 2.00 313.03 2829.97
   16:18:41.774.18-Jan-2020 4958.01 4406.82 80.10 2.00 313.23 2829.97
   16:18:41.974.18-Jan-2020 4958.01 4393.67 80.10 2.00 313.43 2829.97
   16:18:42.174.18-Jan-2020 4958.01 4390.91 80.10 2.00 313.63 2829.97
   16:18:42.374.18-Jan-2020 4958.01 4390.98 80.10 2.00 313.83 2829.97
   16:18:42.574.18-Jan-2020 4958.01 4390.53 80.10 2.00 314.03 2829.97
   16:18:42.774.18-Jan-2020 4958.01 4390.53 80.10 2.00 314.23 2829.97
   16:18:42.974.18-Jan-2020 4958.01 4391.12 80.10 2.00 314.43 2829.97
   16:18:43.174.18-Jan-2020 4958.01 4390.82 80.10 2.00 314.63 2829.97
   16:18:43.374.18-Jan-2020 4958.01 4390.15 80.10 2.00 314.83 2829.97
   16:18:43.574.18-Jan-2020 4958.01 4390.56 80.10 2.00 315.03 2829.97
   16:18:43.774.18-Jan-2020 4958.01 4390.56 80.10 2.00 315.23 2829.97
   16:18:43.974.18-Jan-2020 4958.01 4390.76 80.10 2.00 315.43 2829.97
   16:18:44.174.18-Jan-2020 4958.01 4390.48 80.10 2.00 315.63 2829.97
   16:18:44.374.18-Jan-2020 4958.01 4390.34 80.10 2.00 315.83 2829.97
   16:18:44.574.18-Jan-2020 4958.01 4390.36 80.10 2.00 316.03 2829.97
   16:18:44.774.18-Jan-2020 4958.01 4390.36 80.10 2.00 316.23 2829.97
   16:18:44.974.18-Jan-2020 4958.01 4390.94 80.09 2.00 316.43 2829.97
   16:18:45.174.18-Jan-2020 4958.01 4390.46 80.09 2.00 316.63 2829.97
   16:18:45.374.18-Jan-2020 4958.01 4390.04 80.09 2.00 316.83 2829.97
   16:18:45.574.18-Jan-2020 4958.01 4390.22 80.09 2.00 317.03 2829.97
   16:18:45.774.18-Jan-2020 4958.01 4390.22 80.09 2.00 317.23 2829.97
   16:18:45.974.18-Jan-2020 4958.01 4390.44 80.09 2.00 317.43 2829.97
   16:18:46.174.18-Jan-2020 4958.01 4390.22 80.09 2.00 317.63 2829.97
   16:18:46.374.18-Jan-2020 4958.01 4390.19 80.09 2.00 317.83 2829.97
   16:18:46.574.18-Jan-2020 4958.01 4390.73 80.09 2.00 318.03 2829.97
   16:18:46.774.18-Jan-2020 4958.01 4390.73 80.09 2.00 318.23 2829.97
   16:18:46.974.18-Jan-2020 4958.01 4389.88 80.09 2.00 318.43 2829.97
   16:18:47.174.18-Jan-2020 4958.01 4390.98 80.09 2.00 318.63 2829.97
   16:18:47.374.18-Jan-2020 4958.01 4390.58 80.09 2.00 318.83 2829.97
   16:18:47.574.18-Jan-2020 4958.01 4390.41 80.09 2.00 319.03 2829.97
   16:18:47.774.18-Jan-2020 4958.01 4390.41 80.09 2.00 319.23 2829.97
   16:18:47.974.18-Jan-2020 4958.01 4390.39 80.09 2.00 319.43 2829.97
   16:18:48.174.18-Jan-2020 4958.01 4389.92 80.09 2.00 319.63 2829.97
   16:18:48.374.18-Jan-2020 4958.01 4390.31 80.09 2.00 319.83 2829.97
   16:18:48.574.18-Jan-2020 4958.01 4390.89 80.09 2.00 320.03 2829.97
   16:18:48.774.18-Jan-2020 4958.01 4390.89 80.09 2.00 320.23 2829.97
   16:18:48.974.18-Jan-2020 4958.01 4390.63 80.08 2.00 320.43 2829.97
   16:18:49.174.18-Jan-2020 4958.01 4390.52 80.08 2.00 320.63 2829.97
   16:18:49.375.18-Jan-2020 4958.01 4390.30 80.08 2.00 320.83 2829.97
   16:18:49.575.18-Jan-2020 4958.01 4390.14 80.08 2.00 321.03 2829.97
   16:18:49.775.18-Jan-2020 4958.01 4390.14 80.08 2.00 321.23 2829.97
   16:18:49.975.18-Jan-2020 4958.01 4390.24 80.08 2.00 321.43 2829.97
   16:18:50.175.18-Jan-2020 4958.01 4390.31 80.08 2.00 321.63 2829.97
   16:18:50.375.18-Jan-2020 4958.01 4390.15 80.08 2.00 321.83 2829.97
