~Version Information
 VERS.                  2.0:   CWLS log ASCII Standard -VERSION 2.0
 WRAP.                   NO:   One line per depth step
~Well Information Block
#MNEM.UNIT     VALUE/NAME     DESCRIPTION
#---------     -----------    ---------------------------
 STRT.S             14:05:37 19-Jan-20: START TIME 14:05:37 19-Jan-20
 STOP.S             14:13:29 19-Jan-20: STOP TIME  14:13:29 19-Jan-20
 STEP.S                   0.00: STEP TIME
 NULL.                 -999.25: NULL VALUE
 DFWT.                        :  DIST FWL TEXT
 DFST.                        :  DIST FSL TEXT
 DMF .             Drill Floor:  DRILL MEAS FROM
 STIM.      17.57.20 21-Dec-19:  START TIME
 DATE.      17.57.20 21-Dec-19:  END TIME
 SPUD.               21-Dec-19:  SPUD DATE
 NREF.                    Grid:  NORTH REFERENCE
 HPTY.       Minimum Curvature:  HOLE POS TYPE
 DMOD.             Drill Model:  DRILL MOD DESC
 SVYD.                  Survey:  SURVEY DESC
 ILTD.               Lithology:  INTERP LTH DESC
 FTOP.          Formation Tops:  FORM TOPS DESC
 PDAT.          Mean Sea Level:  PERMANENT DATUM
 FLD .                     ACG:  FIELD NAME
 SON .        AZ-XX-0905715376:  JOB NUMBER
 CTRY.              Azerbaijan:  COUNTRY NAME
 WELL.                    E04Y:  WELL NAME
 SRVC.          TURAN DRILLING:  CONTRACTOR
 COMP.     BP Exploration (Caspian Sea) Ltd.:  COMPANY
 WTYP.                Deviated:  WELL TYPE
 UWI .                     N/a:  UNIQUE WELL IDENTIFIER
 API .                     N/a:  API NUMBER
 BASE.              Azerbaijan:  LOGGING EQUIPMENT BASE LOCATION
 REGN.                   EESSA:  REGION
 MWDS.                    Baku:  MWD SHOP
 RIG .                     DWG:  RIG NAME
 DOE .                     N/a:  DOE NUMBER
 CNTY.                    Baku:  COUNTY NAME
 DCON.         Sperry Drilling:  DIRECTNL CONTR
 UNIT.                     N/a:  LOGGING EQUIPMENT ID
 MDS .        Operator Entered:  MAG DATA SOURCE
 PROV.                        :  PROVINCE
 STAT.                        :  STATE
 LOC .                        :  LOCATION
 LMF .             Drill Floor:  LOG MEASURED FROM
 TVDS.m                  43.16:  TVDSS CORRECTN
 LATI.deg                40.17:  LATITUDE
 LONG.deg                51.17:  LONGITUDE
 WHNS.m                  -0.12:  WELL HEAD N/S
 WHEW.m                  -5.41:  WELL HEAD E/W
 UTMX.m              514337.95:  UTM X
 UTMY.m             4448627.46:  UTM Y
 DFWL.m                   0.00:  DISTANCE FWL
 DFSL.m                   0.00:  DISTANCE FSL
 SDEP.m                   0.00:  START DEPTH
 TDD .m                   0.00:  TOTAL DEPTH (DRILLER)
 VSDR.deg               235.12:  VERT SEC DIRECT
 GVFD.g                   1.00:  GRAVITY FIELD
 MFLD.nT              50294.00:  MAGNETIC FIELD
 MDIP.deg                59.61:  MAGNETIC DIP
 MDEC.deg                 6.58:  MAGNETIC DECL
 GRDC.deg                 0.09:  GRID CORRECTION
 AZTC.deg                 6.49:  AZM TOTAL CORR
 EPD .m                   0.00:  ELEVATION
 EGL .m                   0.00:  GROUND ELEVATION
 WDMS.m                 176.20:  WD ELEV
 APD .m                  43.16:  DEPTH ABOVE PD
 DEP .m                3172.61:  DEPTH
 AGAP.m                  43.16:  AIR GAP
 VSEW.m                  -5.41:  VERT SEC E/W
 VSNS.m                  -0.12:  VERT SEC N/S
 EKB .m                  43.16:  KB ELEVATION
 EDF .m                  43.16:  DF ELEVATION
 TDL .m                 295.00:  TOTAL DEPTH (LOGGER)
 VSC .                       0:  VS TO CLOSURE
 MAGU.                 1852276:  MAGUTM CHECKSUM
~Parameter Information Block
#MNEM.UNIT       Value        Description
#---------     -----------    ---------------------------
 AV  .mps                 1.60:  Ann Velocity 
 AVMX.mps                 2.10:  Max Ann Veloc 
 AZIF.deg               290.59:  Azm, Final 
 BHAT.        Rotary Steerable:  BHA Type 
 BROT.°/30m               1.00:  Build Rotating 
 BS  .in                  6.50:  Bit Size 
 BSZ .in                  6.50:  Bit Size 
 BTPL.psig              120.00:  Bit Press Loss 
 CABU.                     Yes:  Customer Abuse 
 CGEO.          Eldar Huseynov:  Customer Geo 
 COMM.                     Tì‚:  Run Comments 1 
 TCS .hr                 87.00:  Time Ciculation Ended 
 CV  .mps                 4.01:  Crit Velocity 
 CVMX.mps                 5.06:  Max Crit Veloc 
 DD1 .             Aziz Aliyev:  Direct Drillr 1 
 DD2 .            Sanan Aliyev:  Direct Drillr 2 
 DDSV.               Geo-Pilot:  DD Service 
 DEFF.%                  95.00:  % Det Eff 
 DLRX.°/30m               0.75:  Dogleg Rot Max 
 DLSO.°/30m               0.65:  Dogleg Oriented 
 DLSX.°/30m               1.39:  Dogleg Str Max 
 DRET.      18.25.00 19-Jan-20:  Drill End Time 
 DRST.      11.56.48 17-Jan-20:  Drill Start Tim 
 DTIM.hr                 27.16:  Time Drilling 
 EDEP.m                5161.01:  End Depth 
 ENG1.          Rasim Hashimov:  Engineer 1 
 ENG2.      Bakhtiyar Jabbarli:  Engineer 2 
 ETIM.      11.56.48 21-Jan-20:  End Time 
 FLOI.gpm               350.00:  Flow In 
 FLON.gpm               300.00:  Flow In Min 
 FLOS.cptm                0.00:  Fluid Loss 
 FLOX.gpm               400.00:  Flow In Max 
 HFLO.                      No:  High Flow 
 HPRE.                      No:  High Pressure 
 HTEM.                      No:  High Temp 
 HYDO.m                   1.85:  Hydro Offset 
 IFIN.deg                71.58:  Inc, Final 
 IMAX.deg                71.83:  Inc Max 
 IMIN.deg                71.12:  Inc Min 
 IMND.m                5099.48:  Inc Min Depth 
 IMXD.m                5071.08:  Inc Max Depth 
 JARR.                      No:  Jarring 
 LETM.      18.25.00 19-Jan-20:  Log End Time 
 LOST.hr                     0:  Lost Rig Time 
 LSTM.      11.56.48 17-Jan-20:  Log Start Time 
 MDCL.ppm             37000.00:  Mud Chlorides 
 MDES.     Inversion Oil/Synthetic:  Mud Desc 
 DFD .sg                  1.34:  Mud Density 
 MDMN.sg                  1.34:  Dens Mud Min 
 MDMX.sg                  1.34:  Dens Mud Max 
 MOIL.                      69:  Run Mud Oil % 
 MOWR.                   69:31:  Run Mud OWR 
 MSND.                     0.1:  Run Mud Sand % 
 MSOL.                    17.6:  Run Mud Solids% 
 DFV .spqt               79.00:  Mud Viscosity 
 MWOD.in                  4.75:  MWD Tool OD 
 MWSI.                      No:  Serv Intrp, MWD 
 OTIM.hr                126.10:  Time Operating 
 PMAX.psia             6000.00:  Press Op, Max 
 PV  .cP                 29.00:  Mud PV 
 RUN .                     400:  Run Number 
 ROPA.m/hr               11.00:  ROP Avg 
 ROPN.m/hr                5.00:  ROP Min 
 ROPX.m/hr               18.00:  ROP Max 
 RPMA.rpm               139.00:  RPM Surface Avg 
 RPMN.rpm               100.00:  RPM Surface Min 
 RPMX.rpm               140.00:  RPM Surface Max 
 RRUN.                     400:  Rig Run Number 
 SAZI.deg               290.22:  Azm, Start 
 SDEP.m                4868.01:  Start Depth 
 SIDD.                      No:  Serv Intrp, DD 
 SINC.deg                71.77:  Inc, Start 
 SPPA.psig             5550.00:  SPP Avg 
 SPPN.psig             4300.00:  SPP Min 
 SPPX.psig             5600.00:  SPP Max 
 STIM.      23.45.48 15-Jan-20:  Start Time 
 SVCS.                 DD, MWD:  Services 
 SVER.                    9.20:  Sperry Version 
 TDAT.m                5161.01:  Tot Depth Attmp 
 TDDF.                      No:  Trip for DD 
 TDLG.m                 295.00:  Tot Depth Loggd 
 TFF .                      No:  Trip for Fail 
 TQAA.f-kp               13.00:  Torque Abs Avg 
 TQAN.f-kp               13.00:  Torque Abs Min 
 TQAX.f-kp               16.00:  Torque Abs Max 
 TRRT.°/30m               0.25:  Turn Rotating 
 MRT .                     ADR:  Maximum Recorded Temperature 
 TTMX.degC               88.00:  Max Tool Temp 
 VS01.                90577859:  Virtual Str1 SN 
 VS02.                90521879:  Virtual Str2 SN 
 VS03.                90580299:  Virtual Str3 SN 
 VS04.                90515982:  Virtual Str4 SN 
 VS05.                90547765:  Virtual Str5 SN 
 WBMN.klb                 2.00:  WOB Min 
 WITN.           Adil Mammadov:  Customer Rep 
 WITN.        Elmaddin Rahimov:  Customer Rep 2 
 WOBA.klb                 3.00:  WOB Avg 
 WOBX.klb                 5.00:  WOB Max 
 YP  .lhf2               30.00:  Yield Point 
~Curve Information Block
#MNEM.UNIT                 API CODE     Curve Description
#---------               -----------    ---------------------------
 TIME.HHMMSS            00 000 000 000:  GT Time & Date
 GTDEPTH.m              00 000 000 000:  GT Depth
 GTPQH.psia             00 000 000 000:  GT HR Quartz Pressure
 GTTQ.degC              00 000 000 000:  GT Quartz Temperature
 GTTN.NONE              00 000 000 000:  GT Test Number
 GTET.sec               00 000 000 000:  GT Elapsed Test Time
 GTTVD.m                00 000 000 000:  GT True Vertical Depth
#Other Information
#
#WARRANTY: Halliburton will use its best efforts to furnish customers with 
#accurate information and interpretations that are part of, and incident to, the services 
#provided.  However, Halliburton cannot and does not warrant the accuracy 
#or correctness of such information and interpretations.  Under no circumstances should any 
#such information or interpretation be relied upon as the sole basis for any drilling, 
#completion, production, or financial decision or any procedure involving any risk to the 
#safety of any drilling venture, drilling rig or its crew or any other third party.  The 
#Customer has full responsibility for all drilling, completion and production operation.  
#Halliburton makes no representations or warranties, either expressed or 
#implied, including, but not limited to, the implied warranties of merchantability or fitness 
#for a particular purpose, with respect to the services rendered.  In no event will 
#Halliburton be liable for failure to obtain any particular results or for 
#any damages, including, but not limited to, indirect, special or consequential damages, 
#resulting from the use of any information or interpretation provided by Halliburton.
#
~A           TIME           GTDEPTH  GTPQH  GTTQ  GTTN  GTET   GTTVD  
# ...
   14:06:00.632.19-Jan-2020 5113.51 7396.50 82.00 6.00  23.00 2879.41
   14:06:00.832.19-Jan-2020 5113.51 7396.50 82.00 6.00  23.20 2879.41
   14:06:01.032.19-Jan-2020 5113.51 7405.31 82.00 6.00  23.40 2879.41
   14:06:01.232.19-Jan-2020 5113.51 7410.95 82.00 6.00  23.60 2879.41
   14:06:01.432.19-Jan-2020 5113.51 7414.45 82.00 6.00  23.80 2879.41
   14:06:01.632.19-Jan-2020 5113.51 7418.24 82.00 6.00  24.00 2879.41
   14:06:01.832.19-Jan-2020 5113.51 7418.24 82.00 6.00  24.20 2879.41
   14:06:02.032.19-Jan-2020 5113.51 7424.54 82.00 6.00  24.41 2879.41
   14:06:02.232.19-Jan-2020 5113.51 7426.91 82.00 6.00  24.61 2879.41
   14:06:02.432.19-Jan-2020 5113.51 7428.64 82.00 6.00  24.81 2879.41
   14:06:02.632.19-Jan-2020 5113.51 7430.81 81.99 6.00  25.01 2879.41
   14:06:02.832.19-Jan-2020 5113.51 7430.81 81.99 6.00  25.21 2879.41
   14:06:03.033.19-Jan-2020 5113.51 7163.09 81.99 6.00  25.41 2879.41
   14:06:03.233.19-Jan-2020 5113.51 6349.29 81.99 6.00  25.61 2879.41
   14:06:03.433.19-Jan-2020 5113.51 6097.63 81.99 6.00  25.81 2879.41
   14:06:03.633.19-Jan-2020 5113.51 5875.16 81.99 6.00  26.01 2879.41
   14:06:03.833.19-Jan-2020 5113.51 5875.16 81.99 6.00  26.21 2879.41
   14:06:04.033.19-Jan-2020 5113.51 5249.03 81.99 6.00  26.41 2879.41
   14:06:04.233.19-Jan-2020 5113.51 4864.77 81.99 6.00  26.61 2879.41
   14:06:04.433.19-Jan-2020 5113.51 4463.83 81.99 6.00  26.81 2879.41
   14:06:04.633.19-Jan-2020 5113.51 4140.85 81.99 6.00  27.01 2879.41
   14:06:04.833.19-Jan-2020 5113.51 4140.85 81.99 6.00  27.21 2879.41
   14:06:05.033.19-Jan-2020 5113.51 4103.85 81.99 6.00  27.41 2879.41
   14:06:05.233.19-Jan-2020 5113.51 4103.67 81.99 6.00  27.61 2879.41
   14:06:05.433.19-Jan-2020 5113.51 4103.36 81.99 6.00  27.81 2879.41
   14:06:05.633.19-Jan-2020 5113.51 4103.29 81.99 6.00  28.01 2879.41
   14:06:05.833.19-Jan-2020 5113.51 4103.29 81.99 6.00  28.21 2879.41
   14:06:06.033.19-Jan-2020 5113.51 4102.23 81.99 6.00  28.41 2879.41
   14:06:06.233.19-Jan-2020 5113.51 4102.12 81.99 6.00  28.61 2879.41
   14:06:06.433.19-Jan-2020 5113.51 4103.41 81.99 6.00  28.81 2879.41
   14:06:06.633.19-Jan-2020 5113.51 4103.08 81.99 6.00  29.01 2879.41
   14:06:06.833.19-Jan-2020 5113.51 4103.08 81.99 6.00  29.21 2879.41
   14:06:07.033.19-Jan-2020 5113.51 4101.91 81.98 6.00  29.41 2879.41
   14:06:07.233.19-Jan-2020 5113.51 4101.21 81.98 6.00  29.61 2879.41
   14:06:07.433.19-Jan-2020 5113.51 4101.40 81.98 6.00  29.81 2879.41
   14:06:07.633.19-Jan-2020 5113.51 4101.34 81.98 6.00  30.01 2879.41
   14:06:07.834.19-Jan-2020 5113.51 4101.34 81.98 6.00  30.21 2879.41
   14:06:08.034.19-Jan-2020 5113.51 4100.69 81.98 6.00  30.41 2879.41
   14:06:08.234.19-Jan-2020 5113.51 4100.76 81.98 6.00  30.61 2879.41
   14:06:08.434.19-Jan-2020 5113.51 4101.02 81.98 6.00  30.81 2879.41
   14:06:08.634.19-Jan-2020 5113.51 4100.35 81.97 6.00  31.01 2879.41
   14:06:08.834.19-Jan-2020 5113.51 4100.35 81.97 6.00  31.21 2879.41
   14:06:09.034.19-Jan-2020 5113.51 4101.05 81.97 6.00  31.41 2879.41
   14:06:09.234.19-Jan-2020 5113.51 4101.33 81.97 6.00  31.61 2879.41
   14:06:09.434.19-Jan-2020 5113.51 4101.71 81.97 6.00  31.81 2879.41
   14:06:09.634.19-Jan-2020 5113.51 4101.72 81.97 6.00  32.01 2879.41
   14:06:09.834.19-Jan-2020 5113.51 4101.72 81.97 6.00  32.21 2879.41
   14:06:10.034.19-Jan-2020 5113.51 4101.76 81.97 6.00  32.41 2879.41
   14:06:10.234.19-Jan-2020 5113.51 4101.67 81.96 6.00  32.61 2879.41
   14:06:10.434.19-Jan-2020 5113.51 4101.99 81.96 6.00  32.81 2879.41
   14:06:10.634.19-Jan-2020 5113.51 4101.43 81.96 6.00  33.01 2879.41
   14:06:10.834.19-Jan-2020 5113.51 4101.43 81.96 6.00  33.21 2879.41
   14:06:11.034.19-Jan-2020 5113.51 4102.11 81.96 6.00  33.41 2879.41
   14:06:11.234.19-Jan-2020 5113.51 4101.90 81.96 6.00  33.61 2879.41
   14:06:11.434.19-Jan-2020 5113.51 4102.42 81.96 6.00  33.81 2879.41
   14:06:11.634.19-Jan-2020 5113.51 4102.21 81.96 6.00  34.01 2879.41
   14:06:11.834.19-Jan-2020 5113.51 4102.21 81.96 6.00  34.21 2879.41
   14:06:12.034.19-Jan-2020 5113.51 4102.27 81.95 6.00  34.41 2879.41
   14:06:12.234.19-Jan-2020 5113.51 4102.63 81.95 6.00  34.61 2879.41
   14:06:12.434.19-Jan-2020 5113.51 4102.61 81.95 6.00  34.81 2879.41
   14:06:12.635.19-Jan-2020 5113.51 4102.80 81.95 6.00  35.01 2879.41
   14:06:12.835.19-Jan-2020 5113.51 4102.80 81.95 6.00  35.21 2879.41
   14:06:13.035.19-Jan-2020 5113.51 4116.25 81.95 6.00  35.41 2879.41
   14:06:13.235.19-Jan-2020 5113.51 4116.99 81.95 6.00  35.61 2879.41
   14:06:13.435.19-Jan-2020 5113.51 4116.38 81.95 6.00  35.81 2879.41
   14:06:13.635.19-Jan-2020 5113.51 4116.39 81.95 6.00  36.01 2879.41
   14:06:13.835.19-Jan-2020 5113.51 4116.39 81.95 6.00  36.21 2879.41
   14:06:14.035.19-Jan-2020 5113.51 4116.45 81.94 6.00  36.41 2879.41
   14:06:14.235.19-Jan-2020 5113.51 4116.37 81.94 6.00  36.61 2879.41
   14:06:14.435.19-Jan-2020 5113.51 4116.45 81.94 6.00  36.81 2879.41
   14:06:14.635.19-Jan-2020 5113.51 4116.49 81.94 6.00  37.01 2879.41
   14:06:14.835.19-Jan-2020 5113.51 4116.49 81.94 6.00  37.21 2879.41
   14:06:15.035.19-Jan-2020 5113.51 4116.37 81.94 6.00  37.41 2879.41
   14:06:15.235.19-Jan-2020 5113.51 4116.62 81.94 6.00  37.61 2879.41
   14:06:15.435.19-Jan-2020 5113.51 4116.55 81.94 6.00  37.81 2879.41
   14:06:15.635.19-Jan-2020 5113.51 4116.58 81.94 6.00  38.01 2879.41
   14:06:15.835.19-Jan-2020 5113.51 4116.58 81.94 6.00  38.21 2879.41
   14:06:16.035.19-Jan-2020 5113.51 4116.58 81.94 6.00  38.41 2879.41
   14:06:16.235.19-Jan-2020 5113.51 4116.59 81.93 6.00  38.61 2879.41
   14:06:16.435.19-Jan-2020 5113.51 4116.65 81.93 6.00  38.81 2879.41
   14:06:16.635.19-Jan-2020 5113.51 4116.62 81.93 6.00  39.01 2879.41
   14:06:16.835.19-Jan-2020 5113.51 4116.62 81.93 6.00  39.21 2879.41
   14:06:17.035.19-Jan-2020 5113.51 4116.66 81.93 6.00  39.41 2879.41
   14:06:17.235.19-Jan-2020 5113.51 4116.70 81.93 6.00  39.61 2879.41
   14:06:17.435.19-Jan-2020 5113.51 4116.75 81.93 6.00  39.81 2879.41
   14:06:17.636.19-Jan-2020 5113.51 4116.76 81.93 6.00  40.01 2879.41
   14:06:17.836.19-Jan-2020 5113.51 4116.76 81.93 6.00  40.21 2879.41
   14:06:18.036.19-Jan-2020 5113.51 4116.81 81.93 6.00  40.41 2879.41
   14:06:18.236.19-Jan-2020 5113.51 4116.85 81.93 6.00  40.61 2879.41
   14:06:18.436.19-Jan-2020 5113.51 4116.85 81.93 6.00  40.81 2879.41
   14:06:18.636.19-Jan-2020 5113.51 4116.85 81.93 6.00  41.01 2879.41
   14:06:18.836.19-Jan-2020 5113.51 4116.85 81.93 6.00  41.21 2879.41
   14:06:19.036.19-Jan-2020 5113.51 4116.88 81.92 6.00  41.41 2879.41
   14:06:19.236.19-Jan-2020 5113.51 4116.91 81.92 6.00  41.61 2879.41
   14:06:19.436.19-Jan-2020 5113.51 4116.89 81.92 6.00  41.81 2879.41
   14:06:19.636.19-Jan-2020 5113.51 4116.92 81.92 6.00  42.01 2879.41
   14:06:19.836.19-Jan-2020 5113.51 4116.92 81.92 6.00  42.21 2879.41
   14:06:20.036.19-Jan-2020 5113.51 4116.96 81.92 6.00  42.41 2879.41
   14:06:20.236.19-Jan-2020 5113.51 4116.91 81.92 6.00  42.61 2879.41
   14:06:20.436.19-Jan-2020 5113.51 4116.76 81.92 6.00  42.81 2879.41
   14:06:20.636.19-Jan-2020 5113.51 4116.83 81.92 6.00  43.01 2879.41
   14:06:20.836.19-Jan-2020 5113.51 4116.83 81.92 6.00  43.21 2879.41
   14:06:21.036.19-Jan-2020 5113.51 4116.86 81.92 6.00  43.41 2879.41
   14:06:21.236.19-Jan-2020 5113.51 4116.92 81.92 6.00  43.61 2879.41
   14:06:21.436.19-Jan-2020 5113.51 4116.96 81.92 6.00  43.81 2879.41
   14:06:21.636.19-Jan-2020 5113.51 4116.96 81.92 6.00  44.01 2879.41
   14:06:21.836.19-Jan-2020 5113.51 4116.96 81.92 6.00  44.21 2879.41
   14:06:22.036.19-Jan-2020 5113.51 4117.00 81.92 6.00  44.41 2879.41
   14:06:22.236.19-Jan-2020 5113.51 4117.02 81.91 6.00  44.61 2879.41
   14:06:22.437.19-Jan-2020 5113.51 4117.00 81.91 6.00  44.81 2879.41
   14:06:22.637.19-Jan-2020 5113.51 4117.05 81.91 6.00  45.01 2879.41
   14:06:22.837.19-Jan-2020 5113.51 4117.05 81.91 6.00  45.21 2879.41
   14:06:23.037.19-Jan-2020 5113.51 4117.04 81.91 6.00  45.41 2879.41
   14:06:23.237.19-Jan-2020 5113.51 4117.05 81.91 6.00  45.61 2879.41
   14:06:23.437.19-Jan-2020 5113.51 4117.06 81.91 6.00  45.81 2879.41
