~Version Information
 VERS.                  2.0:   CWLS log ASCII Standard -VERSION 2.0
 WRAP.                   NO:   One line per depth step
~Well Information Block
#MNEM.UNIT     VALUE/NAME     DESCRIPTION
#---------     -----------    ---------------------------
 STRT.S             19:23:23 18-Jan-20: START TIME 19:23:23 18-Jan-20
 STOP.S             19:31:15 18-Jan-20: STOP TIME  19:31:15 18-Jan-20
 STEP.S                   0.00: STEP TIME
 NULL.                 -999.25: NULL VALUE
 DFWT.                        :  DIST FWL TEXT
 DFST.                        :  DIST FSL TEXT
 DMF .             Drill Floor:  DRILL MEAS FROM
 STIM.      17.57.20 21-Dec-19:  START TIME
 DATE.      17.57.20 21-Dec-19:  END TIME
 SPUD.               21-Dec-19:  SPUD DATE
 NREF.                    Grid:  NORTH REFERENCE
 HPTY.       Minimum Curvature:  HOLE POS TYPE
 DMOD.             Drill Model:  DRILL MOD DESC
 SVYD.                  Survey:  SURVEY DESC
 ILTD.               Lithology:  INTERP LTH DESC
 FTOP.          Formation Tops:  FORM TOPS DESC
 PDAT.          Mean Sea Level:  PERMANENT DATUM
 FLD .                     ACG:  FIELD NAME
 SON .        AZ-XX-0905715376:  JOB NUMBER
 CTRY.              Azerbaijan:  COUNTRY NAME
 WELL.                    E04Y:  WELL NAME
 SRVC.          TURAN DRILLING:  CONTRACTOR
 COMP.     BP Exploration (Caspian Sea) Ltd.:  COMPANY
 WTYP.                Deviated:  WELL TYPE
 UWI .                     N/a:  UNIQUE WELL IDENTIFIER
 API .                     N/a:  API NUMBER
 BASE.              Azerbaijan:  LOGGING EQUIPMENT BASE LOCATION
 REGN.                   EESSA:  REGION
 MWDS.                    Baku:  MWD SHOP
 RIG .                     DWG:  RIG NAME
 DOE .                     N/a:  DOE NUMBER
 CNTY.                    Baku:  COUNTY NAME
 DCON.         Sperry Drilling:  DIRECTNL CONTR
 UNIT.                     N/a:  LOGGING EQUIPMENT ID
 MDS .        Operator Entered:  MAG DATA SOURCE
 PROV.                        :  PROVINCE
 STAT.                        :  STATE
 LOC .                        :  LOCATION
 LMF .             Drill Floor:  LOG MEASURED FROM
 TVDS.m                  43.16:  TVDSS CORRECTN
 LATI.deg                40.17:  LATITUDE
 LONG.deg                51.17:  LONGITUDE
 WHNS.m                  -0.12:  WELL HEAD N/S
 WHEW.m                  -5.41:  WELL HEAD E/W
 UTMX.m              514337.95:  UTM X
 UTMY.m             4448627.46:  UTM Y
 DFWL.m                   0.00:  DISTANCE FWL
 DFSL.m                   0.00:  DISTANCE FSL
 SDEP.m                   0.00:  START DEPTH
 TDD .m                   0.00:  TOTAL DEPTH (DRILLER)
 VSDR.deg               235.12:  VERT SEC DIRECT
 GVFD.g                   1.00:  GRAVITY FIELD
 MFLD.nT              50294.00:  MAGNETIC FIELD
 MDIP.deg                59.61:  MAGNETIC DIP
 MDEC.deg                 6.58:  MAGNETIC DECL
 GRDC.deg                 0.09:  GRID CORRECTION
 AZTC.deg                 6.49:  AZM TOTAL CORR
 EPD .m                   0.00:  ELEVATION
 EGL .m                   0.00:  GROUND ELEVATION
 WDMS.m                 176.20:  WD ELEV
 APD .m                  43.16:  DEPTH ABOVE PD
 DEP .m                3172.61:  DEPTH
 AGAP.m                  43.16:  AIR GAP
 VSEW.m                  -5.41:  VERT SEC E/W
 VSNS.m                  -0.12:  VERT SEC N/S
 EKB .m                  43.16:  KB ELEVATION
 EDF .m                  43.16:  DF ELEVATION
 TDL .m                 295.00:  TOTAL DEPTH (LOGGER)
 VSC .                       0:  VS TO CLOSURE
 MAGU.                 1852276:  MAGUTM CHECKSUM
~Parameter Information Block
#MNEM.UNIT       Value        Description
#---------     -----------    ---------------------------
 AV  .mps                 1.60:  Ann Velocity 
 AVMX.mps                 2.10:  Max Ann Veloc 
 AZIF.deg               290.59:  Azm, Final 
 BHAT.        Rotary Steerable:  BHA Type 
 BROT.°/30m               1.00:  Build Rotating 
 BS  .in                  6.50:  Bit Size 
 BSZ .in                  6.50:  Bit Size 
 BTPL.psig              120.00:  Bit Press Loss 
 CABU.                     Yes:  Customer Abuse 
 CGEO.          Eldar Huseynov:  Customer Geo 
 COMM.                     ”%\:  Run Comments 1 
 TCS .hr                 87.00:  Time Ciculation Ended 
 CV  .mps                 4.01:  Crit Velocity 
 CVMX.mps                 5.06:  Max Crit Veloc 
 DD1 .             Aziz Aliyev:  Direct Drillr 1 
 DD2 .            Sanan Aliyev:  Direct Drillr 2 
 DDSV.               Geo-Pilot:  DD Service 
 DEFF.%                  95.00:  % Det Eff 
 DLRX.°/30m               0.75:  Dogleg Rot Max 
 DLSO.°/30m               0.65:  Dogleg Oriented 
 DLSX.°/30m               1.39:  Dogleg Str Max 
 DRET.      18.25.00 19-Jan-20:  Drill End Time 
 DRST.      11.56.48 17-Jan-20:  Drill Start Tim 
 DTIM.hr                 27.16:  Time Drilling 
 EDEP.m                5161.01:  End Depth 
 ENG1.          Rasim Hashimov:  Engineer 1 
 ENG2.      Bakhtiyar Jabbarli:  Engineer 2 
 ETIM.      11.56.48 21-Jan-20:  End Time 
 FLOI.gpm               350.00:  Flow In 
 FLON.gpm               300.00:  Flow In Min 
 FLOS.cptm                0.00:  Fluid Loss 
 FLOX.gpm               400.00:  Flow In Max 
 HFLO.                      No:  High Flow 
 HPRE.                      No:  High Pressure 
 HTEM.                      No:  High Temp 
 HYDO.m                   1.85:  Hydro Offset 
 IFIN.deg                71.58:  Inc, Final 
 IMAX.deg                71.83:  Inc Max 
 IMIN.deg                71.12:  Inc Min 
 IMND.m                5099.48:  Inc Min Depth 
 IMXD.m                5071.08:  Inc Max Depth 
 JARR.                      No:  Jarring 
 LETM.      18.25.00 19-Jan-20:  Log End Time 
 LOST.hr                     0:  Lost Rig Time 
 LSTM.      11.56.48 17-Jan-20:  Log Start Time 
 MDCL.ppm             37000.00:  Mud Chlorides 
 MDES.     Inversion Oil/Synthetic:  Mud Desc 
 DFD .sg                  1.34:  Mud Density 
 MDMN.sg                  1.34:  Dens Mud Min 
 MDMX.sg                  1.34:  Dens Mud Max 
 MOIL.                      69:  Run Mud Oil % 
 MOWR.                   69:31:  Run Mud OWR 
 MSND.                     0.1:  Run Mud Sand % 
 MSOL.                    17.6:  Run Mud Solids% 
 DFV .spqt               79.00:  Mud Viscosity 
 MWOD.in                  4.75:  MWD Tool OD 
 MWSI.                      No:  Serv Intrp, MWD 
 OTIM.hr                126.10:  Time Operating 
 PMAX.psia             6000.00:  Press Op, Max 
 PV  .cP                 29.00:  Mud PV 
 RUN .                     400:  Run Number 
 ROPA.m/hr               11.00:  ROP Avg 
 ROPN.m/hr                5.00:  ROP Min 
 ROPX.m/hr               18.00:  ROP Max 
 RPMA.rpm               139.00:  RPM Surface Avg 
 RPMN.rpm               100.00:  RPM Surface Min 
 RPMX.rpm               140.00:  RPM Surface Max 
 RRUN.                     400:  Rig Run Number 
 SAZI.deg               290.22:  Azm, Start 
 SDEP.m                4868.01:  Start Depth 
 SIDD.                      No:  Serv Intrp, DD 
 SINC.deg                71.77:  Inc, Start 
 SPPA.psig             5550.00:  SPP Avg 
 SPPN.psig             4300.00:  SPP Min 
 SPPX.psig             5600.00:  SPP Max 
 STIM.      23.45.48 15-Jan-20:  Start Time 
 SVCS.                 DD, MWD:  Services 
 SVER.                    9.20:  Sperry Version 
 TDAT.m                5161.01:  Tot Depth Attmp 
 TDDF.                      No:  Trip for DD 
 TDLG.m                 295.00:  Tot Depth Loggd 
 TFF .                      No:  Trip for Fail 
 TQAA.f-kp               13.00:  Torque Abs Avg 
 TQAN.f-kp               13.00:  Torque Abs Min 
 TQAX.f-kp               16.00:  Torque Abs Max 
 TRRT.°/30m               0.25:  Turn Rotating 
 MRT .                     ADR:  Maximum Recorded Temperature 
 TTMX.degC               88.00:  Max Tool Temp 
 VS01.                90577859:  Virtual Str1 SN 
 VS02.                90521879:  Virtual Str2 SN 
 VS03.                90580299:  Virtual Str3 SN 
 VS04.                90515982:  Virtual Str4 SN 
 VS05.                90547765:  Virtual Str5 SN 
 WBMN.klb                 2.00:  WOB Min 
 WITN.           Adil Mammadov:  Customer Rep 
 WITN.        Elmaddin Rahimov:  Customer Rep 2 
 WOBA.klb                 3.00:  WOB Avg 
 WOBX.klb                 5.00:  WOB Max 
 YP  .lhf2               30.00:  Yield Point 
~Curve Information Block
#MNEM.UNIT                 API CODE     Curve Description
#---------               -----------    ---------------------------
 TIME.HHMMSS            00 000 000 000:  GT Time & Date
 GTDEPTH.m              00 000 000 000:  GT Depth
 GTPQH.psia             00 000 000 000:  GT HR Quartz Pressure
 GTTQ.degC              00 000 000 000:  GT Quartz Temperature
 GTTN.NONE              00 000 000 000:  GT Test Number
 GTET.sec               00 000 000 000:  GT Elapsed Test Time
 GTTVD.m                00 000 000 000:  GT True Vertical Depth
#Other Information
#
#WARRANTY: Halliburton will use its best efforts to furnish customers with 
#accurate information and interpretations that are part of, and incident to, the services 
#provided.  However, Halliburton cannot and does not warrant the accuracy 
#or correctness of such information and interpretations.  Under no circumstances should any 
#such information or interpretation be relied upon as the sole basis for any drilling, 
#completion, production, or financial decision or any procedure involving any risk to the 
#safety of any drilling venture, drilling rig or its crew or any other third party.  The 
#Customer has full responsibility for all drilling, completion and production operation.  
#Halliburton makes no representations or warranties, either expressed or 
#implied, including, but not limited to, the implied warranties of merchantability or fitness 
#for a particular purpose, with respect to the services rendered.  In no event will 
#Halliburton be liable for failure to obtain any particular results or for 
#any damages, including, but not limited to, indirect, special or consequential damages, 
#resulting from the use of any information or interpretation provided by Halliburton.
#
~A           TIME           GTDEPTH  GTPQH  GTTQ  GTTN  GTET   GTTVD  
# ...
   19:26:50.179.18-Jan-2020 4980.01 4428.36 81.18 3.00 207.04 2836.95
   19:26:50.379.18-Jan-2020 4980.01 4428.36 81.18 3.00 207.24 2836.95
   19:26:50.579.18-Jan-2020 4980.01 4428.31 81.18 3.00 207.44 2836.95
   19:26:50.779.18-Jan-2020 4980.01 4428.27 81.18 3.00 207.64 2836.95
   19:26:50.979.18-Jan-2020 4980.01 4428.18 81.18 3.00 207.84 2836.95
   19:26:51.180.18-Jan-2020 4980.01 4428.30 81.18 3.00 208.04 2836.95
   19:26:51.380.18-Jan-2020 4980.01 4428.30 81.18 3.00 208.24 2836.95
   19:26:51.580.18-Jan-2020 4980.01 4428.30 81.18 3.00 208.44 2836.95
   19:26:51.780.18-Jan-2020 4980.01 4428.26 81.18 3.00 208.64 2836.95
   19:26:51.980.18-Jan-2020 4980.01 4428.29 81.18 3.00 208.84 2836.95
   19:26:52.180.18-Jan-2020 4980.01 4428.15 81.18 3.00 209.04 2836.95
   19:26:52.380.18-Jan-2020 4980.01 4428.15 81.18 3.00 209.24 2836.95
   19:26:52.580.18-Jan-2020 4980.01 4428.22 81.18 3.00 209.44 2836.95
   19:26:52.780.18-Jan-2020 4980.01 4428.31 81.18 3.00 209.64 2836.95
   19:26:52.980.18-Jan-2020 4980.01 4428.28 81.18 3.00 209.84 2836.95
   19:26:53.180.18-Jan-2020 4980.01 4428.27 81.18 3.00 210.04 2836.95
   19:26:53.380.18-Jan-2020 4980.01 4428.27 81.18 3.00 210.24 2836.95
   19:26:53.580.18-Jan-2020 4980.01 4428.25 81.18 3.00 210.44 2836.95
   19:26:53.780.18-Jan-2020 4980.01 4428.20 81.17 3.00 210.64 2836.95
   19:26:53.980.18-Jan-2020 4980.01 4428.28 81.17 3.00 210.84 2836.95
   19:26:54.180.18-Jan-2020 4980.01 4428.30 81.17 3.00 211.04 2836.95
   19:26:54.380.18-Jan-2020 4980.01 4428.30 81.17 3.00 211.24 2836.95
   19:26:54.580.18-Jan-2020 4980.01 4428.29 81.17 3.00 211.44 2836.95
   19:26:54.780.18-Jan-2020 4980.01 4428.26 81.17 3.00 211.64 2836.95
   19:26:54.980.18-Jan-2020 4980.01 4428.27 81.17 3.00 211.84 2836.95
   19:26:55.180.18-Jan-2020 4980.01 4428.25 81.17 3.00 212.04 2836.95
   19:26:55.380.18-Jan-2020 4980.01 4428.25 81.17 3.00 212.24 2836.95
   19:26:55.580.18-Jan-2020 4980.01 4428.26 81.17 3.00 212.44 2836.95
   19:26:55.780.18-Jan-2020 4980.01 4428.25 81.17 3.00 212.64 2836.95
   19:26:55.980.18-Jan-2020 4980.01 4428.26 81.17 3.00 212.84 2836.95
   19:26:56.180.18-Jan-2020 4980.01 4428.25 81.17 3.00 213.04 2836.95
   19:26:56.381.18-Jan-2020 4980.01 4428.25 81.17 3.00 213.24 2836.95
   19:26:56.581.18-Jan-2020 4980.01 4428.23 81.17 3.00 213.44 2836.95
   19:26:56.781.18-Jan-2020 4980.01 4428.25 81.17 3.00 213.64 2836.95
   19:26:56.981.18-Jan-2020 4980.01 4428.15 81.17 3.00 213.84 2836.95
   19:26:57.181.18-Jan-2020 4980.01 4428.29 81.17 3.00 214.04 2836.95
   19:26:57.381.18-Jan-2020 4980.01 4428.29 81.17 3.00 214.24 2836.95
   19:26:57.581.18-Jan-2020 4980.01 4428.28 81.16 3.00 214.44 2836.95
   19:26:57.781.18-Jan-2020 4980.01 4428.27 81.16 3.00 214.64 2836.95
   19:26:57.981.18-Jan-2020 4980.01 4428.25 81.16 3.00 214.84 2836.95
   19:26:58.181.18-Jan-2020 4980.01 4428.27 81.16 3.00 215.04 2836.95
   19:26:58.381.18-Jan-2020 4980.01 4428.27 81.16 3.00 215.24 2836.95
   19:26:58.581.18-Jan-2020 4980.01 4428.26 81.16 3.00 215.44 2836.95
   19:26:58.781.18-Jan-2020 4980.01 4428.25 81.16 3.00 215.64 2836.95
   19:26:58.981.18-Jan-2020 4980.01 4428.25 81.16 3.00 215.84 2836.95
   19:26:59.181.18-Jan-2020 4980.01 4428.23 81.16 3.00 216.04 2836.95
   19:26:59.381.18-Jan-2020 4980.01 4428.23 81.16 3.00 216.24 2836.95
   19:26:59.581.18-Jan-2020 4980.01 4428.22 81.16 3.00 216.44 2836.95
   19:26:59.781.18-Jan-2020 4980.01 4428.26 81.16 3.00 216.64 2836.95
   19:26:59.981.18-Jan-2020 4980.01 4428.22 81.16 3.00 216.84 2836.95
   19:27:00.181.18-Jan-2020 4980.01 4428.24 81.16 3.00 217.04 2836.95
   19:27:00.381.18-Jan-2020 4980.01 4428.24 81.16 3.00 217.24 2836.95
   19:27:00.581.18-Jan-2020 4980.01 4428.37 81.16 3.00 217.44 2836.95
   19:27:00.781.18-Jan-2020 4980.01 4428.26 81.16 3.00 217.64 2836.95
   19:27:00.981.18-Jan-2020 4980.01 4428.26 81.15 3.00 217.84 2836.95
   19:27:01.181.18-Jan-2020 4980.01 4428.22 81.15 3.00 218.04 2836.95
   19:27:01.382.18-Jan-2020 4980.01 4428.22 81.15 3.00 218.24 2836.95
   19:27:01.582.18-Jan-2020 4980.01 4428.26 81.15 3.00 218.44 2836.95
   19:27:01.782.18-Jan-2020 4980.01 4428.27 81.15 3.00 218.64 2836.95
   19:27:01.982.18-Jan-2020 4980.01 4428.27 81.15 3.00 218.84 2836.95
   19:27:02.182.18-Jan-2020 4980.01 4428.25 81.15 3.00 219.04 2836.95
   19:27:02.382.18-Jan-2020 4980.01 4428.25 81.15 3.00 219.24 2836.95
   19:27:02.582.18-Jan-2020 4980.01 4428.08 81.15 3.00 219.44 2836.95
   19:27:02.782.18-Jan-2020 4980.01 4428.39 81.15 3.00 219.64 2836.95
   19:27:02.982.18-Jan-2020 4980.01 4428.24 81.15 3.00 219.84 2836.95
   19:27:03.182.18-Jan-2020 4980.01 4428.27 81.15 3.00 220.04 2836.95
   19:27:03.382.18-Jan-2020 4980.01 4428.27 81.15 3.00 220.24 2836.95
   19:27:03.582.18-Jan-2020 4980.01 4428.25 81.15 3.00 220.44 2836.95
   19:27:03.782.18-Jan-2020 4980.01 4428.26 81.15 3.00 220.64 2836.95
   19:27:03.982.18-Jan-2020 4980.01 4428.18 81.15 3.00 220.84 2836.95
   19:27:04.182.18-Jan-2020 4980.01 4428.28 81.15 3.00 221.04 2836.95
   19:27:04.382.18-Jan-2020 4980.01 4428.28 81.15 3.00 221.24 2836.95
   19:27:04.582.18-Jan-2020 4980.01 4428.31 81.14 3.00 221.44 2836.95
   19:27:04.782.18-Jan-2020 4980.01 4428.23 81.14 3.00 221.64 2836.95
   19:27:04.982.18-Jan-2020 4980.01 4428.27 81.14 3.00 221.84 2836.95
   19:27:05.182.18-Jan-2020 4980.01 4428.24 81.14 3.00 222.04 2836.95
   19:27:05.382.18-Jan-2020 4980.01 4428.24 81.14 3.00 222.24 2836.95
   19:27:05.582.18-Jan-2020 4980.01 4428.24 81.14 3.00 222.44 2836.95
   19:27:05.782.18-Jan-2020 4980.01 4428.24 81.14 3.00 222.64 2836.95
   19:27:05.982.18-Jan-2020 4980.01 4428.25 81.14 3.00 222.84 2836.95
   19:27:06.182.18-Jan-2020 4980.01 4428.23 81.14 3.00 223.04 2836.95
   19:27:06.382.18-Jan-2020 4980.01 4428.23 81.14 3.00 223.24 2836.95
   19:27:06.583.18-Jan-2020 4980.01 4428.23 81.14 3.00 223.44 2836.95
   19:27:06.783.18-Jan-2020 4980.01 4428.25 81.14 3.00 223.64 2836.95
   19:27:06.983.18-Jan-2020 4980.01 4428.20 81.14 3.00 223.84 2836.95
   19:27:07.183.18-Jan-2020 4980.01 4428.19 81.14 3.00 224.04 2836.95
   19:27:07.383.18-Jan-2020 4980.01 4428.19 81.14 3.00 224.24 2836.95
   19:27:07.583.18-Jan-2020 4980.01 4428.23 81.14 3.00 224.44 2836.95
   19:27:07.783.18-Jan-2020 4980.01 4428.28 81.14 3.00 224.64 2836.95
   19:27:07.983.18-Jan-2020 4980.01 4428.25 81.14 3.00 224.84 2836.95
   19:27:08.183.18-Jan-2020 4980.01 4428.25 81.13 3.00 225.04 2836.95
   19:27:08.383.18-Jan-2020 4980.01 4428.25 81.13 3.00 225.24 2836.95
   19:27:08.583.18-Jan-2020 4980.01 4428.25 81.13 3.00 225.44 2836.95
   19:27:08.783.18-Jan-2020 4980.01 4428.22 81.13 3.00 225.64 2836.95
   19:27:08.983.18-Jan-2020 4980.01 4428.25 81.13 3.00 225.84 2836.95
   19:27:09.183.18-Jan-2020 4980.01 4428.21 81.13 3.00 226.04 2836.95
   19:27:09.383.18-Jan-2020 4980.01 4428.21 81.13 3.00 226.24 2836.95
   19:27:09.583.18-Jan-2020 4980.01 4428.22 81.13 3.00 226.44 2836.95
   19:27:09.783.18-Jan-2020 4980.01 4428.24 81.13 3.00 226.64 2836.95
   19:27:09.983.18-Jan-2020 4980.01 4428.21 81.13 3.00 226.84 2836.95
   19:27:10.183.18-Jan-2020 4980.01 4428.23 81.13 3.00 227.04 2836.95
   19:27:10.383.18-Jan-2020 4980.01 4428.23 81.13 3.00 227.24 2836.95
   19:27:10.583.18-Jan-2020 4980.01 4428.21 81.13 3.00 227.44 2836.95
   19:27:10.783.18-Jan-2020 4980.01 4428.14 81.13 3.00 227.64 2836.95
   19:27:10.983.18-Jan-2020 4980.01 4428.26 81.13 3.00 227.84 2836.95
   19:27:11.183.18-Jan-2020 4980.01 4428.28 81.13 3.00 228.04 2836.95
   19:27:11.383.18-Jan-2020 4980.01 4428.28 81.13 3.00 228.24 2836.95
   19:27:11.583.18-Jan-2020 4980.01 4428.15 81.13 3.00 228.44 2836.95
   19:27:11.784.18-Jan-2020 4980.01 4428.32 81.13 3.00 228.64 2836.95
   19:27:11.984.18-Jan-2020 4980.01 4428.22 81.12 3.00 228.84 2836.95
   19:27:12.184.18-Jan-2020 4980.01 4428.26 81.12 3.00 229.04 2836.95
   19:27:12.384.18-Jan-2020 4980.01 4428.26 81.12 3.00 229.24 2836.95
   19:27:12.584.18-Jan-2020 4980.01 4428.25 81.12 3.00 229.44 2836.95
   19:27:12.784.18-Jan-2020 4980.01 4428.24 81.12 3.00 229.64 2836.95
   19:27:12.984.18-Jan-2020 4980.01 4428.16 81.12 3.00 229.84 2836.95
