~Version Information
 VERS.                  2.0:   CWLS log ASCII Standard -VERSION 2.0
 WRAP.                   NO:   One line per depth step
~Well Information Block
#MNEM.UNIT     VALUE/NAME     DESCRIPTION
#---------     -----------    ---------------------------
 STRT.S             10:27:46 18-Jan-20: START TIME 10:27:46 18-Jan-20
 STOP.S             10:35:37 18-Jan-20: STOP TIME  10:35:37 18-Jan-20
 STEP.S                   0.00: STEP TIME
 NULL.                 -999.25: NULL VALUE
 DFWT.                        :  DIST FWL TEXT
 DFST.                        :  DIST FSL TEXT
 DMF .             Drill Floor:  DRILL MEAS FROM
 STIM.      17.57.20 21-Dec-19:  START TIME
 DATE.      17.57.20 21-Dec-19:  END TIME
 SPUD.               21-Dec-19:  SPUD DATE
 NREF.                    Grid:  NORTH REFERENCE
 HPTY.       Minimum Curvature:  HOLE POS TYPE
 DMOD.             Drill Model:  DRILL MOD DESC
 SVYD.                  Survey:  SURVEY DESC
 ILTD.               Lithology:  INTERP LTH DESC
 FTOP.          Formation Tops:  FORM TOPS DESC
 PDAT.          Mean Sea Level:  PERMANENT DATUM
 FLD .                     ACG:  FIELD NAME
 SON .        AZ-XX-0905715376:  JOB NUMBER
 CTRY.              Azerbaijan:  COUNTRY NAME
 WELL.                    E04Y:  WELL NAME
 SRVC.          TURAN DRILLING:  CONTRACTOR
 COMP.     BP Exploration (Caspian Sea) Ltd.:  COMPANY
 WTYP.                Deviated:  WELL TYPE
 UWI .                     N/a:  UNIQUE WELL IDENTIFIER
 API .                     N/a:  API NUMBER
 BASE.              Azerbaijan:  LOGGING EQUIPMENT BASE LOCATION
 REGN.                   EESSA:  REGION
 MWDS.                    Baku:  MWD SHOP
 RIG .                     DWG:  RIG NAME
 DOE .                     N/a:  DOE NUMBER
 CNTY.                    Baku:  COUNTY NAME
 DCON.         Sperry Drilling:  DIRECTNL CONTR
 UNIT.                     N/a:  LOGGING EQUIPMENT ID
 MDS .        Operator Entered:  MAG DATA SOURCE
 PROV.                        :  PROVINCE
 STAT.                        :  STATE
 LOC .                        :  LOCATION
 LMF .             Drill Floor:  LOG MEASURED FROM
 TVDS.m                  43.16:  TVDSS CORRECTN
 LATI.deg                40.17:  LATITUDE
 LONG.deg                51.17:  LONGITUDE
 WHNS.m                  -0.12:  WELL HEAD N/S
 WHEW.m                  -5.41:  WELL HEAD E/W
 UTMX.m              514337.95:  UTM X
 UTMY.m             4448627.46:  UTM Y
 DFWL.m                   0.00:  DISTANCE FWL
 DFSL.m                   0.00:  DISTANCE FSL
 SDEP.m                   0.00:  START DEPTH
 TDD .m                   0.00:  TOTAL DEPTH (DRILLER)
 VSDR.deg               235.12:  VERT SEC DIRECT
 GVFD.g                   1.00:  GRAVITY FIELD
 MFLD.nT              50294.00:  MAGNETIC FIELD
 MDIP.deg                59.61:  MAGNETIC DIP
 MDEC.deg                 6.58:  MAGNETIC DECL
 GRDC.deg                 0.09:  GRID CORRECTION
 AZTC.deg                 6.49:  AZM TOTAL CORR
 EPD .m                   0.00:  ELEVATION
 EGL .m                   0.00:  GROUND ELEVATION
 WDMS.m                 176.20:  WD ELEV
 APD .m                  43.16:  DEPTH ABOVE PD
 DEP .m                3172.61:  DEPTH
 AGAP.m                  43.16:  AIR GAP
 VSEW.m                  -5.41:  VERT SEC E/W
 VSNS.m                  -0.12:  VERT SEC N/S
 EKB .m                  43.16:  KB ELEVATION
 EDF .m                  43.16:  DF ELEVATION
 TDL .m                 295.00:  TOTAL DEPTH (LOGGER)
 VSC .                       0:  VS TO CLOSURE
 MAGU.                 1852276:  MAGUTM CHECKSUM
~Parameter Information Block
#MNEM.UNIT       Value        Description
#---------     -----------    ---------------------------
 AV  .mps                 1.60:  Ann Velocity 
 AVMX.mps                 2.10:  Max Ann Veloc 
 AZIF.deg               290.59:  Azm, Final 
 BHAT.        Rotary Steerable:  BHA Type 
 BROT.°/30m               1.00:  Build Rotating 
 BS  .in                  6.50:  Bit Size 
 BSZ .in                  6.50:  Bit Size 
 BTPL.psig              120.00:  Bit Press Loss 
 CABU.                     Yes:  Customer Abuse 
 CGEO.          Eldar Huseynov:  Customer Geo 
 COMM.                     ¬Øj:  Run Comments 1 
 TCS .hr                 87.00:  Time Ciculation Ended 
 CV  .mps                 4.01:  Crit Velocity 
 CVMX.mps                 5.06:  Max Crit Veloc 
 DD1 .             Aziz Aliyev:  Direct Drillr 1 
 DD2 .            Sanan Aliyev:  Direct Drillr 2 
 DDSV.               Geo-Pilot:  DD Service 
 DEFF.%                  95.00:  % Det Eff 
 DLRX.°/30m               0.75:  Dogleg Rot Max 
 DLSO.°/30m               0.65:  Dogleg Oriented 
 DLSX.°/30m               1.39:  Dogleg Str Max 
 DRET.      18.25.00 19-Jan-20:  Drill End Time 
 DRST.      11.56.48 17-Jan-20:  Drill Start Tim 
 DTIM.hr                 27.16:  Time Drilling 
 EDEP.m                5161.01:  End Depth 
 ENG1.          Rasim Hashimov:  Engineer 1 
 ENG2.      Bakhtiyar Jabbarli:  Engineer 2 
 ETIM.      11.56.48 21-Jan-20:  End Time 
 FLOI.gpm               350.00:  Flow In 
 FLON.gpm               300.00:  Flow In Min 
 FLOS.cptm                0.00:  Fluid Loss 
 FLOX.gpm               400.00:  Flow In Max 
 HFLO.                      No:  High Flow 
 HPRE.                      No:  High Pressure 
 HTEM.                      No:  High Temp 
 HYDO.m                   1.85:  Hydro Offset 
 IFIN.deg                71.58:  Inc, Final 
 IMAX.deg                71.83:  Inc Max 
 IMIN.deg                71.12:  Inc Min 
 IMND.m                5099.48:  Inc Min Depth 
 IMXD.m                5071.08:  Inc Max Depth 
 JARR.                      No:  Jarring 
 LETM.      18.25.00 19-Jan-20:  Log End Time 
 LOST.hr                     0:  Lost Rig Time 
 LSTM.      11.56.48 17-Jan-20:  Log Start Time 
 MDCL.ppm             37000.00:  Mud Chlorides 
 MDES.     Inversion Oil/Synthetic:  Mud Desc 
 DFD .sg                  1.34:  Mud Density 
 MDMN.sg                  1.34:  Dens Mud Min 
 MDMX.sg                  1.34:  Dens Mud Max 
 MOIL.                      69:  Run Mud Oil % 
 MOWR.                   69:31:  Run Mud OWR 
 MSND.                     0.1:  Run Mud Sand % 
 MSOL.                    17.6:  Run Mud Solids% 
 DFV .spqt               79.00:  Mud Viscosity 
 MWOD.in                  4.75:  MWD Tool OD 
 MWSI.                      No:  Serv Intrp, MWD 
 OTIM.hr                126.10:  Time Operating 
 PMAX.psia             6000.00:  Press Op, Max 
 PV  .cP                 29.00:  Mud PV 
 RUN .                     400:  Run Number 
 ROPA.m/hr               11.00:  ROP Avg 
 ROPN.m/hr                5.00:  ROP Min 
 ROPX.m/hr               18.00:  ROP Max 
 RPMA.rpm               139.00:  RPM Surface Avg 
 RPMN.rpm               100.00:  RPM Surface Min 
 RPMX.rpm               140.00:  RPM Surface Max 
 RRUN.                     400:  Rig Run Number 
 SAZI.deg               290.22:  Azm, Start 
 SDEP.m                4868.01:  Start Depth 
 SIDD.                      No:  Serv Intrp, DD 
 SINC.deg                71.77:  Inc, Start 
 SPPA.psig             5550.00:  SPP Avg 
 SPPN.psig             4300.00:  SPP Min 
 SPPX.psig             5600.00:  SPP Max 
 STIM.      23.45.48 15-Jan-20:  Start Time 
 SVCS.                 DD, MWD:  Services 
 SVER.                    9.20:  Sperry Version 
 TDAT.m                5161.01:  Tot Depth Attmp 
 TDDF.                      No:  Trip for DD 
 TDLG.m                 295.00:  Tot Depth Loggd 
 TFF .                      No:  Trip for Fail 
 TQAA.f-kp               13.00:  Torque Abs Avg 
 TQAN.f-kp               13.00:  Torque Abs Min 
 TQAX.f-kp               16.00:  Torque Abs Max 
 TRRT.°/30m               0.25:  Turn Rotating 
 MRT .                     ADR:  Maximum Recorded Temperature 
 TTMX.degC               88.00:  Max Tool Temp 
 VS01.                90577859:  Virtual Str1 SN 
 VS02.                90521879:  Virtual Str2 SN 
 VS03.                90580299:  Virtual Str3 SN 
 VS04.                90515982:  Virtual Str4 SN 
 VS05.                90547765:  Virtual Str5 SN 
 WBMN.klb                 2.00:  WOB Min 
 WITN.           Adil Mammadov:  Customer Rep 
 WITN.        Elmaddin Rahimov:  Customer Rep 2 
 WOBA.klb                 3.00:  WOB Avg 
 WOBX.klb                 5.00:  WOB Max 
 YP  .lhf2               30.00:  Yield Point 
~Curve Information Block
#MNEM.UNIT                 API CODE     Curve Description
#---------               -----------    ---------------------------
 TIME.HHMMSS            00 000 000 000:  GT Time & Date
 GTDEPTH.m              00 000 000 000:  GT Depth
 GTPQH.psia             00 000 000 000:  GT HR Quartz Pressure
 GTTQ.degC              00 000 000 000:  GT Quartz Temperature
 GTTN.NONE              00 000 000 000:  GT Test Number
 GTET.sec               00 000 000 000:  GT Elapsed Test Time
 GTTVD.m                00 000 000 000:  GT True Vertical Depth
#Other Information
#
#WARRANTY: Halliburton will use its best efforts to furnish customers with 
#accurate information and interpretations that are part of, and incident to, the services 
#provided.  However, Halliburton cannot and does not warrant the accuracy 
#or correctness of such information and interpretations.  Under no circumstances should any 
#such information or interpretation be relied upon as the sole basis for any drilling, 
#completion, production, or financial decision or any procedure involving any risk to the 
#safety of any drilling venture, drilling rig or its crew or any other third party.  The 
#Customer has full responsibility for all drilling, completion and production operation.  
#Halliburton makes no representations or warranties, either expressed or 
#implied, including, but not limited to, the implied warranties of merchantability or fitness 
#for a particular purpose, with respect to the services rendered.  In no event will 
#Halliburton be liable for failure to obtain any particular results or for 
#any damages, including, but not limited to, indirect, special or consequential damages, 
#resulting from the use of any information or interpretation provided by Halliburton.
#
~A           TIME           GTDEPTH  GTPQH  GTTQ  GTTN  GTET   GTTVD  
   10:27:46.291.18-Jan-2020 4898.01 -999.25 73.73 1.00   0.00 2811.04
   10:27:46.491.18-Jan-2020 4898.01    0.00 73.73 1.00   0.20 2811.04
   10:27:46.691.18-Jan-2020 4898.01    0.00 73.73 1.00   0.40 2811.04
   10:27:46.891.18-Jan-2020 4898.01 5885.98 73.73 1.00   0.60 2811.04
   10:27:47.091.18-Jan-2020 4898.01 5890.17 73.73 1.00   0.80 2811.04
   10:27:47.291.18-Jan-2020 4898.01 5891.56 73.73 1.00   1.00 2811.04
   10:27:47.491.18-Jan-2020 4898.01 5891.56 73.73 1.00   1.20 2811.04
   10:27:47.692.18-Jan-2020 4898.01 5892.43 73.73 1.00   1.40 2811.04
   10:27:47.892.18-Jan-2020 4898.01 5891.67 73.73 1.00   1.60 2811.04
   10:27:48.092.18-Jan-2020 4898.01 5894.11 73.73 1.00   1.80 2811.04
   10:27:48.292.18-Jan-2020 4898.01 5893.82 73.73 1.00   2.00 2811.04
   10:27:48.492.18-Jan-2020 4898.01 5893.82 73.73 1.00   2.20 2811.04
   10:27:48.692.18-Jan-2020 4898.01 5893.71 73.73 1.00   2.40 2811.04
   10:27:48.892.18-Jan-2020 4898.01 5894.12 73.73 1.00   2.60 2811.04
   10:27:49.092.18-Jan-2020 4898.01 5895.24 73.73 1.00   2.80 2811.04
   10:27:49.292.18-Jan-2020 4898.01 5886.20 73.73 1.00   3.00 2811.04
   10:27:49.492.18-Jan-2020 4898.01 5886.20 73.73 1.00   3.20 2811.04
   10:27:49.692.18-Jan-2020 4898.01 5892.52 73.73 1.00   3.40 2811.04
   10:27:49.892.18-Jan-2020 4898.01 5893.85 73.72 1.00   3.60 2811.04
   10:27:50.092.18-Jan-2020 4898.01 5894.38 73.72 1.00   3.80 2811.04
   10:27:50.292.18-Jan-2020 4898.01 5884.26 73.72 1.00   4.00 2811.04
   10:27:50.492.18-Jan-2020 4898.01 5884.26 73.72 1.00   4.20 2811.04
   10:27:50.692.18-Jan-2020 4898.01 5893.55 73.72 1.00   4.40 2811.04
   10:27:50.892.18-Jan-2020 4898.01 5895.62 73.72 1.00   4.60 2811.04
   10:27:51.092.18-Jan-2020 4898.01 5887.36 73.72 1.00   4.80 2811.04
   10:27:51.292.18-Jan-2020 4898.01 5889.65 73.72 1.00   5.00 2811.04
   10:27:51.492.18-Jan-2020 4898.01 5889.65 73.72 1.00   5.20 2811.04
   10:27:51.692.18-Jan-2020 4898.01 5893.25 73.72 1.00   5.40 2811.04
   10:27:51.892.18-Jan-2020 4898.01 5894.89 73.72 1.00   5.60 2811.04
   10:27:52.092.18-Jan-2020 4898.01 5893.51 73.72 1.00   5.80 2811.04
   10:27:52.292.18-Jan-2020 4898.01 5894.46 73.72 1.00   6.00 2811.04
   10:27:52.492.18-Jan-2020 4898.01 5894.46 73.72 1.00   6.20 2811.04
   10:27:52.692.18-Jan-2020 4898.01 5889.20 73.72 1.00   6.40 2811.04
   10:27:52.892.18-Jan-2020 4898.01 5893.77 73.72 1.00   6.60 2811.04
   10:27:53.092.18-Jan-2020 4898.01 5894.14 73.72 1.00   6.80 2811.04
   10:27:53.292.18-Jan-2020 4898.01 5894.69 73.72 1.00   7.00 2811.04
   10:27:53.492.18-Jan-2020 4898.01 5894.69 73.72 1.00   7.20 2811.04
   10:27:53.692.18-Jan-2020 4898.01 5893.59 73.72 1.00   7.40 2811.04
   10:27:53.892.18-Jan-2020 4898.01 5884.10 73.72 1.00   7.60 2811.04
   10:27:54.092.18-Jan-2020 4898.01 5891.08 73.72 1.00   7.80 2811.04
   10:27:54.292.18-Jan-2020 4898.01 5893.44 73.72 1.00   8.00 2811.04
   10:27:54.492.18-Jan-2020 4898.01 5893.44 73.72 1.00   8.20 2811.04
   10:27:54.692.18-Jan-2020 4898.01 5895.17 73.71 1.00   8.40 2811.04
   10:27:54.892.18-Jan-2020 4898.01 5894.71 73.71 1.00   8.60 2811.04
   10:27:55.092.18-Jan-2020 4898.01 5894.25 73.71 1.00   8.80 2811.04
   10:27:55.292.18-Jan-2020 4898.01 5895.02 73.71 1.00   9.00 2811.04
   10:27:55.492.18-Jan-2020 4898.01 5895.02 73.71 1.00   9.20 2811.04
   10:27:55.692.18-Jan-2020 4898.01 5894.85 73.71 1.00   9.40 2811.04
   10:27:55.893.18-Jan-2020 4898.01 5893.69 73.71 1.00   9.60 2811.04
   10:27:56.093.18-Jan-2020 4898.01 5895.10 73.71 1.00   9.80 2811.04
   10:27:56.293.18-Jan-2020 4898.01 5895.03 73.71 1.00  10.00 2811.04
   10:27:56.493.18-Jan-2020 4898.01 5895.03 73.71 1.00  10.20 2811.04
   10:27:56.693.18-Jan-2020 4898.01 5895.03 73.71 1.00  10.40 2811.04
   10:27:56.893.18-Jan-2020 4898.01 5894.09 73.71 1.00  10.60 2811.04
   10:27:57.093.18-Jan-2020 4898.01 5895.11 73.71 1.00  10.80 2811.04
   10:27:57.293.18-Jan-2020 4898.01 5894.02 73.71 1.00  11.00 2811.04
   10:27:57.493.18-Jan-2020 4898.01 5894.02 73.71 1.00  11.20 2811.04
   10:27:57.693.18-Jan-2020 4898.01 5889.62 73.71 1.00  11.40 2811.04
   10:27:57.893.18-Jan-2020 4898.01 5888.05 73.71 1.00  11.60 2811.04
   10:27:58.093.18-Jan-2020 4898.01 5882.24 73.71 1.00  11.80 2811.04
   10:27:58.293.18-Jan-2020 4898.01 5873.58 73.71 1.00  12.00 2811.04
   10:27:58.493.18-Jan-2020 4898.01 5873.58 73.71 1.00  12.20 2811.04
   10:27:58.693.18-Jan-2020 4898.01 5858.63 73.71 1.00  12.40 2811.04
   10:27:58.893.18-Jan-2020 4898.01 5847.96 73.71 1.00  12.60 2811.04
   10:27:59.093.18-Jan-2020 4898.01 5836.81 73.70 1.00  12.80 2811.04
   10:27:59.293.18-Jan-2020 4898.01 5804.84 73.70 1.00  13.00 2811.04
   10:27:59.493.18-Jan-2020 4898.01 5804.84 73.70 1.00  13.20 2811.04
   10:27:59.693.18-Jan-2020 4898.01 5736.05 73.70 1.00  13.40 2811.04
   10:27:59.893.18-Jan-2020 4898.01 5691.09 73.70 1.00  13.60 2811.04
   10:28:00.093.18-Jan-2020 4898.01 5638.18 73.70 1.00  13.80 2811.04
   10:28:00.293.18-Jan-2020 4898.01 5621.42 73.70 1.00  14.00 2811.04
   10:28:00.493.18-Jan-2020 4898.01 5621.42 73.70 1.00  14.20 2811.04
   10:28:00.693.18-Jan-2020 4898.01 5606.00 73.70 1.00  14.40 2811.04
   10:28:00.893.18-Jan-2020 4898.01 5593.85 73.70 1.00  14.60 2811.04
   10:28:01.093.18-Jan-2020 4898.01 5508.56 73.70 1.00  14.80 2811.04
   10:28:01.293.18-Jan-2020 4898.01 5431.45 73.70 1.00  15.00 2811.04
   10:28:01.493.18-Jan-2020 4898.01 5431.45 73.70 1.00  15.20 2811.04
   10:28:01.693.18-Jan-2020 4898.01 5263.74 73.70 1.00  15.40 2811.04
   10:28:01.893.18-Jan-2020 4898.01 5273.89 73.70 1.00  15.60 2811.04
   10:28:02.093.18-Jan-2020 4898.01 5213.84 73.70 1.00  15.80 2811.04
   10:28:02.293.18-Jan-2020 4898.01 5153.11 73.70 1.00  16.00 2811.04
   10:28:02.493.18-Jan-2020 4898.01 5153.11 73.70 1.00  16.20 2811.04
   10:28:02.693.18-Jan-2020 4898.01 5057.91 73.70 1.00  16.40 2811.04
   10:28:02.893.18-Jan-2020 4898.01 5020.43 73.70 1.00  16.60 2811.04
   10:28:03.093.18-Jan-2020 4898.01 4980.83 73.70 1.00  16.80 2811.04
   10:28:03.293.18-Jan-2020 4898.01 4954.49 73.70 1.00  17.00 2811.04
   10:28:03.493.18-Jan-2020 4898.01 4954.49 73.70 1.00  17.20 2811.04
   10:28:03.693.18-Jan-2020 4898.01 4906.14 73.69 1.00  17.40 2811.04
   10:28:03.893.18-Jan-2020 4898.01 4886.66 73.69 1.00  17.60 2811.04
   10:28:04.094.18-Jan-2020 4898.01 4859.45 73.69 1.00  17.80 2811.04
   10:28:04.294.18-Jan-2020 4898.01 4843.53 73.69 1.00  18.00 2811.04
   10:28:04.494.18-Jan-2020 4898.01 4843.53 73.69 1.00  18.20 2811.04
   10:28:04.694.18-Jan-2020 4898.01 6036.95 73.69 1.00  18.40 2811.04
   10:28:04.894.18-Jan-2020 4898.01 6391.91 73.69 1.00  18.60 2811.04
   10:28:05.094.18-Jan-2020 4898.01 6704.47 73.69 1.00  18.80 2811.04
   10:28:05.294.18-Jan-2020 4898.01 6796.73 73.69 1.00  19.00 2811.04
   10:28:05.494.18-Jan-2020 4898.01 6796.73 73.69 1.00  19.20 2811.04
   10:28:05.694.18-Jan-2020 4898.01 6728.47 73.69 1.00  19.40 2811.04
   10:28:05.894.18-Jan-2020 4898.01 6728.75 73.69 1.00  19.60 2811.04
   10:28:06.094.18-Jan-2020 4898.01 6762.13 73.69 1.00  19.80 2811.04
   10:28:06.294.18-Jan-2020 4898.01 6750.79 73.69 1.00  20.00 2811.04
   10:28:06.494.18-Jan-2020 4898.01 6750.79 73.69 1.00  20.20 2811.04
   10:28:06.694.18-Jan-2020 4898.01 6829.16 73.69 1.00  20.40 2811.04
   10:28:06.894.18-Jan-2020 4898.01 6825.36 73.69 1.00  20.60 2811.04
   10:28:07.094.18-Jan-2020 4898.01 6891.38 73.69 1.00  20.80 2811.04
   10:28:07.294.18-Jan-2020 4898.01 6857.97 73.68 1.00  21.00 2811.04
   10:28:07.494.18-Jan-2020 4898.01 6857.97 73.68 1.00  21.20 2811.04
   10:28:07.694.18-Jan-2020 4898.01 6928.25 73.68 1.00  21.40 2811.04
   10:28:07.894.18-Jan-2020 4898.01 6942.60 73.68 1.00  21.60 2811.04
   10:28:08.094.18-Jan-2020 4898.01 6952.81 73.68 1.00  21.80 2811.04
   10:28:08.294.18-Jan-2020 4898.01 6959.93 73.68 1.00  22.00 2811.04
   10:28:08.494.18-Jan-2020 4898.01 6959.93 73.68 1.00  22.20 2811.04
   10:28:08.694.18-Jan-2020 4898.01 6842.45 73.68 1.00  22.40 2811.04
   10:28:08.894.18-Jan-2020 4898.01 6652.53 73.68 1.00  22.60 2811.04
   10:28:09.094.18-Jan-2020 4898.01 6683.08 73.68 1.00  22.80 2811.04
