~Version Information
 VERS.                  2.0:   CWLS log ASCII Standard -VERSION 2.0
 WRAP.                   NO:   One line per depth step
~Well Information Block
#MNEM.UNIT     VALUE/NAME     DESCRIPTION
#---------     -----------    ---------------------------
 STRT.S             10:03:43 19-Jan-20: START TIME 10:03:43 19-Jan-20
 STOP.S             10:11:36 19-Jan-20: STOP TIME  10:11:36 19-Jan-20
 STEP.S                   0.00: STEP TIME
 NULL.                 -999.25: NULL VALUE
 DFWT.                        :  DIST FWL TEXT
 DFST.                        :  DIST FSL TEXT
 DMF .             Drill Floor:  DRILL MEAS FROM
 STIM.      17.57.20 21-Dec-19:  START TIME
 DATE.      17.57.20 21-Dec-19:  END TIME
 SPUD.               21-Dec-19:  SPUD DATE
 NREF.                    Grid:  NORTH REFERENCE
 HPTY.       Minimum Curvature:  HOLE POS TYPE
 DMOD.             Drill Model:  DRILL MOD DESC
 SVYD.                  Survey:  SURVEY DESC
 ILTD.               Lithology:  INTERP LTH DESC
 FTOP.          Formation Tops:  FORM TOPS DESC
 PDAT.          Mean Sea Level:  PERMANENT DATUM
 FLD .                     ACG:  FIELD NAME
 SON .        AZ-XX-0905715376:  JOB NUMBER
 CTRY.              Azerbaijan:  COUNTRY NAME
 WELL.                    E04Y:  WELL NAME
 SRVC.          TURAN DRILLING:  CONTRACTOR
 COMP.     BP Exploration (Caspian Sea) Ltd.:  COMPANY
 WTYP.                Deviated:  WELL TYPE
 UWI .                     N/a:  UNIQUE WELL IDENTIFIER
 API .                     N/a:  API NUMBER
 BASE.              Azerbaijan:  LOGGING EQUIPMENT BASE LOCATION
 REGN.                   EESSA:  REGION
 MWDS.                    Baku:  MWD SHOP
 RIG .                     DWG:  RIG NAME
 DOE .                     N/a:  DOE NUMBER
 CNTY.                    Baku:  COUNTY NAME
 DCON.         Sperry Drilling:  DIRECTNL CONTR
 UNIT.                     N/a:  LOGGING EQUIPMENT ID
 MDS .        Operator Entered:  MAG DATA SOURCE
 PROV.                        :  PROVINCE
 STAT.                        :  STATE
 LOC .                        :  LOCATION
 LMF .             Drill Floor:  LOG MEASURED FROM
 TVDS.m                  43.16:  TVDSS CORRECTN
 LATI.deg                40.17:  LATITUDE
 LONG.deg                51.17:  LONGITUDE
 WHNS.m                  -0.12:  WELL HEAD N/S
 WHEW.m                  -5.41:  WELL HEAD E/W
 UTMX.m              514337.95:  UTM X
 UTMY.m             4448627.46:  UTM Y
 DFWL.m                   0.00:  DISTANCE FWL
 DFSL.m                   0.00:  DISTANCE FSL
 SDEP.m                   0.00:  START DEPTH
 TDD .m                   0.00:  TOTAL DEPTH (DRILLER)
 VSDR.deg               235.12:  VERT SEC DIRECT
 GVFD.g                   1.00:  GRAVITY FIELD
 MFLD.nT              50294.00:  MAGNETIC FIELD
 MDIP.deg                59.61:  MAGNETIC DIP
 MDEC.deg                 6.58:  MAGNETIC DECL
 GRDC.deg                 0.09:  GRID CORRECTION
 AZTC.deg                 6.49:  AZM TOTAL CORR
 EPD .m                   0.00:  ELEVATION
 EGL .m                   0.00:  GROUND ELEVATION
 WDMS.m                 176.20:  WD ELEV
 APD .m                  43.16:  DEPTH ABOVE PD
 DEP .m                3172.61:  DEPTH
 AGAP.m                  43.16:  AIR GAP
 VSEW.m                  -5.41:  VERT SEC E/W
 VSNS.m                  -0.12:  VERT SEC N/S
 EKB .m                  43.16:  KB ELEVATION
 EDF .m                  43.16:  DF ELEVATION
 TDL .m                 295.00:  TOTAL DEPTH (LOGGER)
 VSC .                       0:  VS TO CLOSURE
 MAGU.                 1852276:  MAGUTM CHECKSUM
~Parameter Information Block
#MNEM.UNIT       Value        Description
#---------     -----------    ---------------------------
 AV  .mps                 1.60:  Ann Velocity 
 AVMX.mps                 2.10:  Max Ann Veloc 
 AZIF.deg               290.59:  Azm, Final 
 BHAT.        Rotary Steerable:  BHA Type 
 BROT.°/30m               1.00:  Build Rotating 
 BS  .in                  6.50:  Bit Size 
 BSZ .in                  6.50:  Bit Size 
 BTPL.psig              120.00:  Bit Press Loss 
 CABU.                     Yes:  Customer Abuse 
 CGEO.          Eldar Huseynov:  Customer Geo 
 COMM.                     Œòk:  Run Comments 1 
 TCS .hr                 87.00:  Time Ciculation Ended 
 CV  .mps                 4.01:  Crit Velocity 
 CVMX.mps                 5.06:  Max Crit Veloc 
 DD1 .             Aziz Aliyev:  Direct Drillr 1 
 DD2 .            Sanan Aliyev:  Direct Drillr 2 
 DDSV.               Geo-Pilot:  DD Service 
 DEFF.%                  95.00:  % Det Eff 
 DLRX.°/30m               0.75:  Dogleg Rot Max 
 DLSO.°/30m               0.65:  Dogleg Oriented 
 DLSX.°/30m               1.39:  Dogleg Str Max 
 DRET.      18.25.00 19-Jan-20:  Drill End Time 
 DRST.      11.56.48 17-Jan-20:  Drill Start Tim 
 DTIM.hr                 27.16:  Time Drilling 
 EDEP.m                5161.01:  End Depth 
 ENG1.          Rasim Hashimov:  Engineer 1 
 ENG2.      Bakhtiyar Jabbarli:  Engineer 2 
 ETIM.      11.56.48 21-Jan-20:  End Time 
 FLOI.gpm               350.00:  Flow In 
 FLON.gpm               300.00:  Flow In Min 
 FLOS.cptm                0.00:  Fluid Loss 
 FLOX.gpm               400.00:  Flow In Max 
 HFLO.                      No:  High Flow 
 HPRE.                      No:  High Pressure 
 HTEM.                      No:  High Temp 
 HYDO.m                   1.85:  Hydro Offset 
 IFIN.deg                71.58:  Inc, Final 
 IMAX.deg                71.83:  Inc Max 
 IMIN.deg                71.12:  Inc Min 
 IMND.m                5099.48:  Inc Min Depth 
 IMXD.m                5071.08:  Inc Max Depth 
 JARR.                      No:  Jarring 
 LETM.      18.25.00 19-Jan-20:  Log End Time 
 LOST.hr                     0:  Lost Rig Time 
 LSTM.      11.56.48 17-Jan-20:  Log Start Time 
 MDCL.ppm             37000.00:  Mud Chlorides 
 MDES.     Inversion Oil/Synthetic:  Mud Desc 
 DFD .sg                  1.34:  Mud Density 
 MDMN.sg                  1.34:  Dens Mud Min 
 MDMX.sg                  1.34:  Dens Mud Max 
 MOIL.                      69:  Run Mud Oil % 
 MOWR.                   69:31:  Run Mud OWR 
 MSND.                     0.1:  Run Mud Sand % 
 MSOL.                    17.6:  Run Mud Solids% 
 DFV .spqt               79.00:  Mud Viscosity 
 MWOD.in                  4.75:  MWD Tool OD 
 MWSI.                      No:  Serv Intrp, MWD 
 OTIM.hr                126.10:  Time Operating 
 PMAX.psia             6000.00:  Press Op, Max 
 PV  .cP                 29.00:  Mud PV 
 RUN .                     400:  Run Number 
 ROPA.m/hr               11.00:  ROP Avg 
 ROPN.m/hr                5.00:  ROP Min 
 ROPX.m/hr               18.00:  ROP Max 
 RPMA.rpm               139.00:  RPM Surface Avg 
 RPMN.rpm               100.00:  RPM Surface Min 
 RPMX.rpm               140.00:  RPM Surface Max 
 RRUN.                     400:  Rig Run Number 
 SAZI.deg               290.22:  Azm, Start 
 SDEP.m                4868.01:  Start Depth 
 SIDD.                      No:  Serv Intrp, DD 
 SINC.deg                71.77:  Inc, Start 
 SPPA.psig             5550.00:  SPP Avg 
 SPPN.psig             4300.00:  SPP Min 
 SPPX.psig             5600.00:  SPP Max 
 STIM.      23.45.48 15-Jan-20:  Start Time 
 SVCS.                 DD, MWD:  Services 
 SVER.                    9.20:  Sperry Version 
 TDAT.m                5161.01:  Tot Depth Attmp 
 TDDF.                      No:  Trip for DD 
 TDLG.m                 295.00:  Tot Depth Loggd 
 TFF .                      No:  Trip for Fail 
 TQAA.f-kp               13.00:  Torque Abs Avg 
 TQAN.f-kp               13.00:  Torque Abs Min 
 TQAX.f-kp               16.00:  Torque Abs Max 
 TRRT.°/30m               0.25:  Turn Rotating 
 MRT .                     ADR:  Maximum Recorded Temperature 
 TTMX.degC               88.00:  Max Tool Temp 
 VS01.                90577859:  Virtual Str1 SN 
 VS02.                90521879:  Virtual Str2 SN 
 VS03.                90580299:  Virtual Str3 SN 
 VS04.                90515982:  Virtual Str4 SN 
 VS05.                90547765:  Virtual Str5 SN 
 WBMN.klb                 2.00:  WOB Min 
 WITN.           Adil Mammadov:  Customer Rep 
 WITN.        Elmaddin Rahimov:  Customer Rep 2 
 WOBA.klb                 3.00:  WOB Avg 
 WOBX.klb                 5.00:  WOB Max 
 YP  .lhf2               30.00:  Yield Point 
~Curve Information Block
#MNEM.UNIT                 API CODE     Curve Description
#---------               -----------    ---------------------------
 TIME.HHMMSS            00 000 000 000:  GT Time & Date
 GTDEPTH.m              00 000 000 000:  GT Depth
 GTPQH.psia             00 000 000 000:  GT HR Quartz Pressure
 GTTQ.degC              00 000 000 000:  GT Quartz Temperature
 GTTN.NONE              00 000 000 000:  GT Test Number
 GTET.sec               00 000 000 000:  GT Elapsed Test Time
 GTTVD.m                00 000 000 000:  GT True Vertical Depth
#Other Information
#
#WARRANTY: Halliburton will use its best efforts to furnish customers with 
#accurate information and interpretations that are part of, and incident to, the services 
#provided.  However, Halliburton cannot and does not warrant the accuracy 
#or correctness of such information and interpretations.  Under no circumstances should any 
#such information or interpretation be relied upon as the sole basis for any drilling, 
#completion, production, or financial decision or any procedure involving any risk to the 
#safety of any drilling venture, drilling rig or its crew or any other third party.  The 
#Customer has full responsibility for all drilling, completion and production operation.  
#Halliburton makes no representations or warranties, either expressed or 
#implied, including, but not limited to, the implied warranties of merchantability or fitness 
#for a particular purpose, with respect to the services rendered.  In no event will 
#Halliburton be liable for failure to obtain any particular results or for 
#any damages, including, but not limited to, indirect, special or consequential damages, 
#resulting from the use of any information or interpretation provided by Halliburton.
#
~A           TIME           GTDEPTH  GTPQH  GTTQ  GTTN  GTET   GTTVD  
# ...
   10:11:00.837.19-Jan-2020 5081.51 4213.98 81.44 5.00 437.06 2869.15
   10:11:01.037.19-Jan-2020 5081.51 4213.98 81.44 5.00 437.26 2869.15
   10:11:01.237.19-Jan-2020 5081.51 4214.27 81.44 5.00 437.46 2869.15
   10:11:01.437.19-Jan-2020 5081.51 4214.20 81.44 5.00 437.66 2869.15
   10:11:01.637.19-Jan-2020 5081.51 4214.28 81.44 5.00 437.86 2869.15
   10:11:01.837.19-Jan-2020 5081.51 4214.20 81.44 5.00 438.06 2869.15
   10:11:02.037.19-Jan-2020 5081.51 4214.20 81.44 5.00 438.26 2869.15
   10:11:02.237.19-Jan-2020 5081.51 4214.24 81.44 5.00 438.46 2869.15
   10:11:02.437.19-Jan-2020 5081.51 4214.21 81.44 5.00 438.66 2869.15
   10:11:02.637.19-Jan-2020 5081.51 4214.30 81.44 5.00 438.86 2869.15
   10:11:02.837.19-Jan-2020 5081.51 4214.27 81.44 5.00 439.06 2869.15
   10:11:03.037.19-Jan-2020 5081.51 4214.27 81.44 5.00 439.26 2869.15
   10:11:03.237.19-Jan-2020 5081.51 4214.26 81.44 5.00 439.46 2869.15
   10:11:03.438.19-Jan-2020 5081.51 4214.01 81.44 5.00 439.66 2869.15
   10:11:03.638.19-Jan-2020 5081.51 4216.96 81.44 5.00 439.86 2869.15
   10:11:03.838.19-Jan-2020 5081.51 4227.64 81.44 5.00 440.06 2869.15
   10:11:04.038.19-Jan-2020 5081.51 4227.64 81.44 5.00 440.26 2869.15
   10:11:04.238.19-Jan-2020 5081.51 4743.70 81.44 5.00 440.46 2869.15
   10:11:04.438.19-Jan-2020 5081.51 6137.23 81.43 5.00 440.66 2869.15
   10:11:04.638.19-Jan-2020 5081.51 6150.68 81.43 5.00 440.86 2869.15
   10:11:04.838.19-Jan-2020 5081.51 6150.71 81.43 5.00 441.06 2869.15
   10:11:05.038.19-Jan-2020 5081.51 6150.71 81.43 5.00 441.26 2869.15
   10:11:05.238.19-Jan-2020 5081.51 6152.67 81.43 5.00 441.46 2869.15
   10:11:05.438.19-Jan-2020 5081.51 6151.99 81.43 5.00 441.66 2869.15
   10:11:05.638.19-Jan-2020 5081.51 6152.75 81.43 5.00 441.86 2869.15
   10:11:05.838.19-Jan-2020 5081.51 6152.47 81.43 5.00 442.06 2869.15
   10:11:06.038.19-Jan-2020 5081.51 6152.47 81.43 5.00 442.26 2869.15
   10:11:06.238.19-Jan-2020 5081.51 6153.14 81.43 5.00 442.46 2869.15
   10:11:06.438.19-Jan-2020 5081.51 6153.69 81.43 5.00 442.66 2869.15
   10:11:06.638.19-Jan-2020 5081.51 6152.92 81.43 5.00 442.86 2869.15
   10:11:06.838.19-Jan-2020 5081.51 6153.90 81.43 5.00 443.06 2869.15
   10:11:07.038.19-Jan-2020 5081.51 6153.90 81.43 5.00 443.26 2869.15
   10:11:07.238.19-Jan-2020 5081.51 6154.62 81.43 5.00 443.46 2869.15
   10:11:07.438.19-Jan-2020 5081.51 6155.12 81.43 5.00 443.66 2869.15
   10:11:07.638.19-Jan-2020 5081.51 6147.01 81.43 5.00 443.86 2869.15
   10:11:07.838.19-Jan-2020 5081.51 6155.87 81.43 5.00 444.06 2869.15
   10:11:08.038.19-Jan-2020 5081.51 6155.87 81.43 5.00 444.26 2869.15
   10:11:08.238.19-Jan-2020 5081.51 6154.35 81.43 5.00 444.46 2869.15
   10:11:08.438.19-Jan-2020 5081.51 6156.41 81.43 5.00 444.66 2869.15
   10:11:08.638.19-Jan-2020 5081.51 6156.80 81.43 5.00 444.86 2869.15
   10:11:08.838.19-Jan-2020 5081.51 6155.52 81.43 5.00 445.06 2869.15
   10:11:09.038.19-Jan-2020 5081.51 6155.52 81.43 5.00 445.26 2869.15
   10:11:09.238.19-Jan-2020 5081.51 6155.38 81.43 5.00 445.46 2869.15
   10:11:09.438.19-Jan-2020 5081.51 6155.98 81.43 5.00 445.66 2869.15
   10:11:09.638.19-Jan-2020 5081.51 6155.65 81.43 5.00 445.86 2869.15
   10:11:09.838.19-Jan-2020 5081.51 6155.65 81.43 5.00 446.06 2869.15
   10:11:10.038.19-Jan-2020 5081.51 6155.65 81.43 5.00 446.26 2869.15
   10:11:10.238.19-Jan-2020 5081.51 6155.28 81.44 5.00 446.46 2869.15
   10:11:10.438.19-Jan-2020 5081.51 6155.84 81.44 5.00 446.66 2869.15
   10:11:10.638.19-Jan-2020 5081.51 6155.33 81.44 5.00 446.86 2869.15
   10:11:10.838.19-Jan-2020 5081.51 6155.76 81.44 5.00 447.06 2869.15
   10:11:11.038.19-Jan-2020 5081.51 6155.76 81.44 5.00 447.26 2869.15
   10:11:11.239.19-Jan-2020 5081.51 6156.44 81.44 5.00 447.46 2869.15
   10:11:11.439.19-Jan-2020 5081.51 6154.01 81.44 5.00 447.66 2869.15
   10:11:11.639.19-Jan-2020 5081.51 6154.64 81.44 5.00 447.86 2869.15
   10:11:11.839.19-Jan-2020 5081.51 6156.25 81.44 5.00 448.06 2869.15
   10:11:12.039.19-Jan-2020 5081.51 6156.25 81.44 5.00 448.26 2869.15
   10:11:12.239.19-Jan-2020 5081.51 6157.81 81.44 5.00 448.46 2869.15
   10:11:12.439.19-Jan-2020 5081.51 6156.95 81.44 5.00 448.66 2869.15
   10:11:12.639.19-Jan-2020 5081.51 6151.77 81.44 5.00 448.86 2869.15
   10:11:12.839.19-Jan-2020 5081.51 6156.06 81.44 5.00 449.06 2869.15
   10:11:13.039.19-Jan-2020 5081.51 6156.06 81.44 5.00 449.26 2869.15
   10:11:13.239.19-Jan-2020 5081.51 6154.79 81.44 5.00 449.46 2869.15
   10:11:13.439.19-Jan-2020 5081.51 6155.51 81.44 5.00 449.66 2869.15
   10:11:13.639.19-Jan-2020 5081.51 6149.27 81.44 5.00 449.86 2869.15
   10:11:13.839.19-Jan-2020 5081.51 6155.83 81.44 5.00 450.06 2869.15
   10:11:14.039.19-Jan-2020 5081.51 6155.83 81.44 5.00 450.26 2869.15
   10:11:14.239.19-Jan-2020 5081.51 6156.06 81.44 5.00 450.46 2869.15
   10:11:14.439.19-Jan-2020 5081.51 6149.82 81.44 5.00 450.66 2869.15
   10:11:14.639.19-Jan-2020 5081.51 6153.92 81.44 5.00 450.86 2869.15
   10:11:14.839.19-Jan-2020 5081.51 6156.27 81.44 5.00 451.06 2869.15
   10:11:15.039.19-Jan-2020 5081.51 6156.27 81.44 5.00 451.26 2869.15
   10:11:15.239.19-Jan-2020 5081.51 6157.34 81.44 5.00 451.46 2869.15
   10:11:15.439.19-Jan-2020 5081.51 6156.52 81.44 5.00 451.66 2869.15
   10:11:15.639.19-Jan-2020 5081.51 6156.19 81.44 5.00 451.86 2869.15
   10:11:15.839.19-Jan-2020 5081.51 6155.80 81.44 5.00 452.06 2869.15
   10:11:16.039.19-Jan-2020 5081.51 6155.80 81.44 5.00 452.26 2869.15
   10:11:16.239.19-Jan-2020 5081.51 6156.19 81.44 5.00 452.46 2869.15
   10:11:16.439.19-Jan-2020 5081.51 6156.68 81.44 5.00 452.66 2869.15
   10:11:16.639.19-Jan-2020 5081.51 6155.94 81.44 5.00 452.86 2869.15
   10:11:16.839.19-Jan-2020 5081.51 6156.31 81.44 5.00 453.06 2869.15
   10:11:17.039.19-Jan-2020 5081.51 6156.31 81.44 5.00 453.26 2869.15
   10:11:17.239.19-Jan-2020 5081.51 6155.61 81.44 5.00 453.46 2869.15
   10:11:17.439.19-Jan-2020 5081.51 6155.50 81.44 5.00 453.66 2869.15
   10:11:17.639.19-Jan-2020 5081.51 6156.00 81.43 5.00 453.86 2869.15
   10:11:17.839.19-Jan-2020 5081.51 6147.85 81.43 5.00 454.06 2869.15
   10:11:18.039.19-Jan-2020 5081.51 6147.85 81.43 5.00 454.26 2869.15
   10:11:18.239.19-Jan-2020 5081.51 6155.28 81.43 5.00 454.46 2869.15
   10:11:18.439.19-Jan-2020 5081.51 6153.17 81.43 5.00 454.66 2869.15
   10:11:18.639.19-Jan-2020 5081.51 6157.46 81.43 5.00 454.86 2869.15
   10:11:18.839.19-Jan-2020 5081.51 6155.48 81.43 5.00 455.06 2869.15
   10:11:19.039.19-Jan-2020 5081.51 6155.48 81.43 5.00 455.26 2869.15
   10:11:19.240.19-Jan-2020 5081.51 6155.74 81.43 5.00 455.46 2869.15
   10:11:19.440.19-Jan-2020 5081.51 6155.80 81.43 5.00 455.66 2869.15
   10:11:19.640.19-Jan-2020 5081.51 6155.26 81.43 5.00 455.86 2869.15
   10:11:19.840.19-Jan-2020 5081.51 6155.58 81.43 5.00 456.06 2869.15
   10:11:20.040.19-Jan-2020 5081.51 6155.58 81.43 5.00 456.26 2869.15
   10:11:20.240.19-Jan-2020 5081.51 6154.83 81.43 5.00 456.46 2869.15
   10:11:20.440.19-Jan-2020 5081.51 6155.37 81.43 5.00 456.66 2869.15
   10:11:20.640.19-Jan-2020 5081.51 6154.74 81.43 5.00 456.86 2869.15
   10:11:20.840.19-Jan-2020 5081.51 6155.53 81.43 5.00 457.06 2869.15
   10:11:21.040.19-Jan-2020 5081.51 6155.53 81.43 5.00 457.26 2869.15
   10:11:21.240.19-Jan-2020 5081.51 6147.40 81.43 5.00 457.46 2869.15
   10:11:21.440.19-Jan-2020 5081.51 6155.07 81.43 5.00 457.66 2869.15
   10:11:21.640.19-Jan-2020 5081.51 6154.67 81.43 5.00 457.86 2869.15
   10:11:21.840.19-Jan-2020 5081.51 6153.44 81.43 5.00 458.06 2869.15
   10:11:22.040.19-Jan-2020 5081.51 6153.44 81.43 5.00 458.26 2869.15
   10:11:22.240.19-Jan-2020 5081.51 6154.08 81.43 5.00 458.46 2869.15
   10:11:22.440.19-Jan-2020 5081.51 6156.12 81.43 5.00 458.66 2869.15
   10:11:22.640.19-Jan-2020 5081.51 6152.01 81.43 5.00 458.86 2869.15
   10:11:22.840.19-Jan-2020 5081.51 6155.58 81.43 5.00 459.06 2869.15
   10:11:23.040.19-Jan-2020 5081.51 6155.58 81.43 5.00 459.26 2869.15
   10:11:23.240.19-Jan-2020 5081.51 6154.88 81.43 5.00 459.46 2869.15
   10:11:23.440.19-Jan-2020 5081.51 6155.07 81.43 5.00 459.66 2869.15
   10:11:23.640.19-Jan-2020 5081.51 6152.75 81.43 5.00 459.86 2869.15
