~Version Information
 VERS.                  2.0:   CWLS log ASCII Standard -VERSION 2.0
 WRAP.                   NO:   One line per depth step
~Well Information Block
#MNEM.UNIT     VALUE/NAME     DESCRIPTION
#---------     -----------    ---------------------------
 STRT.S             16:13:28 18-Jan-20: START TIME 16:13:28 18-Jan-20
 STOP.S             16:21:32 18-Jan-20: STOP TIME  16:21:32 18-Jan-20
 STEP.S                   0.00: STEP TIME
 NULL.                 -999.25: NULL VALUE
 DFWT.                        :  DIST FWL TEXT
 DFST.                        :  DIST FSL TEXT
 DMF .             Drill Floor:  DRILL MEAS FROM
 STIM.      17.57.20 21-Dec-19:  START TIME
 DATE.      17.57.20 21-Dec-19:  END TIME
 SPUD.               21-Dec-19:  SPUD DATE
 NREF.                    Grid:  NORTH REFERENCE
 HPTY.       Minimum Curvature:  HOLE POS TYPE
 DMOD.             Drill Model:  DRILL MOD DESC
 SVYD.                  Survey:  SURVEY DESC
 ILTD.               Lithology:  INTERP LTH DESC
 FTOP.          Formation Tops:  FORM TOPS DESC
 PDAT.          Mean Sea Level:  PERMANENT DATUM
 FLD .                     ACG:  FIELD NAME
 SON .        AZ-XX-0905715376:  JOB NUMBER
 CTRY.              Azerbaijan:  COUNTRY NAME
 WELL.                    E04Y:  WELL NAME
 SRVC.          TURAN DRILLING:  CONTRACTOR
 COMP.     BP Exploration (Caspian Sea) Ltd.:  COMPANY
 WTYP.                Deviated:  WELL TYPE
 UWI .                     N/a:  UNIQUE WELL IDENTIFIER
 API .                     N/a:  API NUMBER
 BASE.              Azerbaijan:  LOGGING EQUIPMENT BASE LOCATION
 REGN.                   EESSA:  REGION
 MWDS.                    Baku:  MWD SHOP
 RIG .                     DWG:  RIG NAME
 DOE .                     N/a:  DOE NUMBER
 CNTY.                    Baku:  COUNTY NAME
 DCON.         Sperry Drilling:  DIRECTNL CONTR
 UNIT.                     N/a:  LOGGING EQUIPMENT ID
 MDS .        Operator Entered:  MAG DATA SOURCE
 PROV.                        :  PROVINCE
 STAT.                        :  STATE
 LOC .                        :  LOCATION
 LMF .             Drill Floor:  LOG MEASURED FROM
 TVDS.m                  43.16:  TVDSS CORRECTN
 LATI.deg                40.17:  LATITUDE
 LONG.deg                51.17:  LONGITUDE
 WHNS.m                  -0.12:  WELL HEAD N/S
 WHEW.m                  -5.41:  WELL HEAD E/W
 UTMX.m              514337.95:  UTM X
 UTMY.m             4448627.46:  UTM Y
 DFWL.m                   0.00:  DISTANCE FWL
 DFSL.m                   0.00:  DISTANCE FSL
 SDEP.m                   0.00:  START DEPTH
 TDD .m                   0.00:  TOTAL DEPTH (DRILLER)
 VSDR.deg               235.12:  VERT SEC DIRECT
 GVFD.g                   1.00:  GRAVITY FIELD
 MFLD.nT              50294.00:  MAGNETIC FIELD
 MDIP.deg                59.61:  MAGNETIC DIP
 MDEC.deg                 6.58:  MAGNETIC DECL
 GRDC.deg                 0.09:  GRID CORRECTION
 AZTC.deg                 6.49:  AZM TOTAL CORR
 EPD .m                   0.00:  ELEVATION
 EGL .m                   0.00:  GROUND ELEVATION
 WDMS.m                 176.20:  WD ELEV
 APD .m                  43.16:  DEPTH ABOVE PD
 DEP .m                3172.61:  DEPTH
 AGAP.m                  43.16:  AIR GAP
 VSEW.m                  -5.41:  VERT SEC E/W
 VSNS.m                  -0.12:  VERT SEC N/S
 EKB .m                  43.16:  KB ELEVATION
 EDF .m                  43.16:  DF ELEVATION
 TDL .m                 295.00:  TOTAL DEPTH (LOGGER)
 VSC .                       0:  VS TO CLOSURE
 MAGU.                 1852276:  MAGUTM CHECKSUM
~Parameter Information Block
#MNEM.UNIT       Value        Description
#---------     -----------    ---------------------------
 AV  .mps                 1.60:  Ann Velocity 
 AVMX.mps                 2.10:  Max Ann Veloc 
 AZIF.deg               290.59:  Azm, Final 
 BHAT.        Rotary Steerable:  BHA Type 
 BROT.°/30m               1.00:  Build Rotating 
 BS  .in                  6.50:  Bit Size 
 BSZ .in                  6.50:  Bit Size 
 BTPL.psig              120.00:  Bit Press Loss 
 CABU.                     Yes:  Customer Abuse 
 CGEO.          Eldar Huseynov:  Customer Geo 
 COMM.                     Ôs:  Run Comments 1 
 TCS .hr                 87.00:  Time Ciculation Ended 
 CV  .mps                 4.01:  Crit Velocity 
 CVMX.mps                 5.06:  Max Crit Veloc 
 DD1 .             Aziz Aliyev:  Direct Drillr 1 
 DD2 .            Sanan Aliyev:  Direct Drillr 2 
 DDSV.               Geo-Pilot:  DD Service 
 DEFF.%                  95.00:  % Det Eff 
 DLRX.°/30m               0.75:  Dogleg Rot Max 
 DLSO.°/30m               0.65:  Dogleg Oriented 
 DLSX.°/30m               1.39:  Dogleg Str Max 
 DRET.      18.25.00 19-Jan-20:  Drill End Time 
 DRST.      11.56.48 17-Jan-20:  Drill Start Tim 
 DTIM.hr                 27.16:  Time Drilling 
 EDEP.m                5161.01:  End Depth 
 ENG1.          Rasim Hashimov:  Engineer 1 
 ENG2.      Bakhtiyar Jabbarli:  Engineer 2 
 ETIM.      11.56.48 21-Jan-20:  End Time 
 FLOI.gpm               350.00:  Flow In 
 FLON.gpm               300.00:  Flow In Min 
 FLOS.cptm                0.00:  Fluid Loss 
 FLOX.gpm               400.00:  Flow In Max 
 HFLO.                      No:  High Flow 
 HPRE.                      No:  High Pressure 
 HTEM.                      No:  High Temp 
 HYDO.m                   1.85:  Hydro Offset 
 IFIN.deg                71.58:  Inc, Final 
 IMAX.deg                71.83:  Inc Max 
 IMIN.deg                71.12:  Inc Min 
 IMND.m                5099.48:  Inc Min Depth 
 IMXD.m                5071.08:  Inc Max Depth 
 JARR.                      No:  Jarring 
 LETM.      18.25.00 19-Jan-20:  Log End Time 
 LOST.hr                     0:  Lost Rig Time 
 LSTM.      11.56.48 17-Jan-20:  Log Start Time 
 MDCL.ppm             37000.00:  Mud Chlorides 
 MDES.     Inversion Oil/Synthetic:  Mud Desc 
 DFD .sg                  1.34:  Mud Density 
 MDMN.sg                  1.34:  Dens Mud Min 
 MDMX.sg                  1.34:  Dens Mud Max 
 MOIL.                      69:  Run Mud Oil % 
 MOWR.                   69:31:  Run Mud OWR 
 MSND.                     0.1:  Run Mud Sand % 
 MSOL.                    17.6:  Run Mud Solids% 
 DFV .spqt               79.00:  Mud Viscosity 
 MWOD.in                  4.75:  MWD Tool OD 
 MWSI.                      No:  Serv Intrp, MWD 
 OTIM.hr                126.10:  Time Operating 
 PMAX.psia             6000.00:  Press Op, Max 
 PV  .cP                 29.00:  Mud PV 
 RUN .                     400:  Run Number 
 ROPA.m/hr               11.00:  ROP Avg 
 ROPN.m/hr                5.00:  ROP Min 
 ROPX.m/hr               18.00:  ROP Max 
 RPMA.rpm               139.00:  RPM Surface Avg 
 RPMN.rpm               100.00:  RPM Surface Min 
 RPMX.rpm               140.00:  RPM Surface Max 
 RRUN.                     400:  Rig Run Number 
 SAZI.deg               290.22:  Azm, Start 
 SDEP.m                4868.01:  Start Depth 
 SIDD.                      No:  Serv Intrp, DD 
 SINC.deg                71.77:  Inc, Start 
 SPPA.psig             5550.00:  SPP Avg 
 SPPN.psig             4300.00:  SPP Min 
 SPPX.psig             5600.00:  SPP Max 
 STIM.      23.45.48 15-Jan-20:  Start Time 
 SVCS.                 DD, MWD:  Services 
 SVER.                    9.20:  Sperry Version 
 TDAT.m                5161.01:  Tot Depth Attmp 
 TDDF.                      No:  Trip for DD 
 TDLG.m                 295.00:  Tot Depth Loggd 
 TFF .                      No:  Trip for Fail 
 TQAA.f-kp               13.00:  Torque Abs Avg 
 TQAN.f-kp               13.00:  Torque Abs Min 
 TQAX.f-kp               16.00:  Torque Abs Max 
 TRRT.°/30m               0.25:  Turn Rotating 
 MRT .                     ADR:  Maximum Recorded Temperature 
 TTMX.degC               88.00:  Max Tool Temp 
 VS01.                90577859:  Virtual Str1 SN 
 VS02.                90521879:  Virtual Str2 SN 
 VS03.                90580299:  Virtual Str3 SN 
 VS04.                90515982:  Virtual Str4 SN 
 VS05.                90547765:  Virtual Str5 SN 
 WBMN.klb                 2.00:  WOB Min 
 WITN.           Adil Mammadov:  Customer Rep 
 WITN.        Elmaddin Rahimov:  Customer Rep 2 
 WOBA.klb                 3.00:  WOB Avg 
 WOBX.klb                 5.00:  WOB Max 
 YP  .lhf2               30.00:  Yield Point 
~Curve Information Block
#MNEM.UNIT                 API CODE     Curve Description
#---------               -----------    ---------------------------
 TIME.HHMMSS            00 000 000 000:  GT Time & Date
 GTDEPTH.m              00 000 000 000:  GT Depth
 GTPQH.psia             00 000 000 000:  GT HR Quartz Pressure
 GTTQ.degC              00 000 000 000:  GT Quartz Temperature
 GTTN.NONE              00 000 000 000:  GT Test Number
 GTET.sec               00 000 000 000:  GT Elapsed Test Time
 GTTVD.m                00 000 000 000:  GT True Vertical Depth
#Other Information
#
#WARRANTY: Halliburton will use its best efforts to furnish customers with 
#accurate information and interpretations that are part of, and incident to, the services 
#provided.  However, Halliburton cannot and does not warrant the accuracy 
#or correctness of such information and interpretations.  Under no circumstances should any 
#such information or interpretation be relied upon as the sole basis for any drilling, 
#completion, production, or financial decision or any procedure involving any risk to the 
#safety of any drilling venture, drilling rig or its crew or any other third party.  The 
#Customer has full responsibility for all drilling, completion and production operation.  
#Halliburton makes no representations or warranties, either expressed or 
#implied, including, but not limited to, the implied warranties of merchantability or fitness 
#for a particular purpose, with respect to the services rendered.  In no event will 
#Halliburton be liable for failure to obtain any particular results or for 
#any damages, including, but not limited to, indirect, special or consequential damages, 
#resulting from the use of any information or interpretation provided by Halliburton.
#
~A           TIME           GTDEPTH  GTPQH  GTTQ  GTTN  GTET   GTTVD  
# ...
   16:18:04.571.18-Jan-2020 4958.01 4406.97 80.20 2.00 276.02 2829.97
   16:18:04.771.18-Jan-2020 4958.01 4406.97 80.20 2.00 276.22 2829.97
   16:18:04.971.18-Jan-2020 4958.01 4406.85 80.20 2.00 276.42 2829.97
   16:18:05.171.18-Jan-2020 4958.01 4406.83 80.20 2.00 276.62 2829.97
   16:18:05.371.18-Jan-2020 4958.01 4406.74 80.20 2.00 276.82 2829.97
   16:18:05.571.18-Jan-2020 4958.01 4406.90 80.20 2.00 277.02 2829.97
   16:18:05.771.18-Jan-2020 4958.01 4406.90 80.20 2.00 277.22 2829.97
   16:18:05.971.18-Jan-2020 4958.01 4406.85 80.20 2.00 277.42 2829.97
   16:18:06.171.18-Jan-2020 4958.01 4406.86 80.20 2.00 277.62 2829.97
   16:18:06.371.18-Jan-2020 4958.01 4406.83 80.20 2.00 277.82 2829.97
   16:18:06.571.18-Jan-2020 4958.01 4406.75 80.20 2.00 278.02 2829.97
   16:18:06.771.18-Jan-2020 4958.01 4406.75 80.20 2.00 278.22 2829.97
   16:18:06.971.18-Jan-2020 4958.01 4406.87 80.19 2.00 278.42 2829.97
   16:18:07.171.18-Jan-2020 4958.01 4406.86 80.19 2.00 278.62 2829.97
   16:18:07.371.18-Jan-2020 4958.01 4406.85 80.19 2.00 278.82 2829.97
   16:18:07.571.18-Jan-2020 4958.01 4406.86 80.19 2.00 279.02 2829.97
   16:18:07.771.18-Jan-2020 4958.01 4406.86 80.19 2.00 279.22 2829.97
   16:18:07.971.18-Jan-2020 4958.01 4406.94 80.19 2.00 279.42 2829.97
   16:18:08.171.18-Jan-2020 4958.01 4406.81 80.19 2.00 279.62 2829.97
   16:18:08.371.18-Jan-2020 4958.01 4406.87 80.19 2.00 279.82 2829.97
   16:18:08.571.18-Jan-2020 4958.01 4406.84 80.19 2.00 280.02 2829.97
   16:18:08.771.18-Jan-2020 4958.01 4406.84 80.19 2.00 280.22 2829.97
   16:18:08.971.18-Jan-2020 4958.01 4406.83 80.19 2.00 280.42 2829.97
   16:18:09.171.18-Jan-2020 4958.01 4406.85 80.19 2.00 280.62 2829.97
   16:18:09.371.18-Jan-2020 4958.01 4406.83 80.19 2.00 280.82 2829.97
   16:18:09.571.18-Jan-2020 4958.01 4406.83 80.19 2.00 281.02 2829.97
   16:18:09.771.18-Jan-2020 4958.01 4406.83 80.19 2.00 281.22 2829.97
   16:18:09.971.18-Jan-2020 4958.01 4406.81 80.19 2.00 281.42 2829.97
   16:18:10.171.18-Jan-2020 4958.01 4406.84 80.19 2.00 281.62 2829.97
   16:18:10.371.18-Jan-2020 4958.01 4406.81 80.19 2.00 281.82 2829.97
   16:18:10.571.18-Jan-2020 4958.01 4406.82 80.18 2.00 282.02 2829.97
   16:18:10.771.18-Jan-2020 4958.01 4406.82 80.18 2.00 282.22 2829.97
   16:18:10.971.18-Jan-2020 4958.01 4406.70 80.18 2.00 282.42 2829.97
   16:18:11.171.18-Jan-2020 4958.01 4406.91 80.18 2.00 282.62 2829.97
   16:18:11.371.18-Jan-2020 4958.01 4406.80 80.18 2.00 282.82 2829.97
   16:18:11.571.18-Jan-2020 4958.01 4406.86 80.18 2.00 283.02 2829.97
   16:18:11.771.18-Jan-2020 4958.01 4406.86 80.18 2.00 283.22 2829.97
   16:18:11.971.18-Jan-2020 4958.01 4406.84 80.18 2.00 283.42 2829.97
   16:18:12.171.18-Jan-2020 4958.01 4406.81 80.18 2.00 283.62 2829.97
   16:18:12.371.18-Jan-2020 4958.01 4406.84 80.18 2.00 283.82 2829.97
   16:18:12.571.18-Jan-2020 4958.01 4406.80 80.18 2.00 284.02 2829.97
   16:18:12.772.18-Jan-2020 4958.01 4406.80 80.18 2.00 284.22 2829.97
   16:18:12.972.18-Jan-2020 4958.01 4406.80 80.18 2.00 284.42 2829.97
   16:18:13.172.18-Jan-2020 4958.01 4406.83 80.18 2.00 284.62 2829.97
   16:18:13.372.18-Jan-2020 4958.01 4406.81 80.18 2.00 284.82 2829.97
   16:18:13.572.18-Jan-2020 4958.01 4406.82 80.18 2.00 285.02 2829.97
   16:18:13.772.18-Jan-2020 4958.01 4406.82 80.18 2.00 285.22 2829.97
   16:18:13.972.18-Jan-2020 4958.01 4406.80 80.18 2.00 285.42 2829.97
   16:18:14.172.18-Jan-2020 4958.01 4406.81 80.18 2.00 285.62 2829.97
   16:18:14.372.18-Jan-2020 4958.01 4406.77 80.17 2.00 285.82 2829.97
   16:18:14.572.18-Jan-2020 4958.01 4406.81 80.17 2.00 286.02 2829.97
   16:18:14.772.18-Jan-2020 4958.01 4406.81 80.17 2.00 286.22 2829.97
   16:18:14.972.18-Jan-2020 4958.01 4406.89 80.17 2.00 286.42 2829.97
   16:18:15.172.18-Jan-2020 4958.01 4406.83 80.17 2.00 286.62 2829.97
   16:18:15.372.18-Jan-2020 4958.01 4406.84 80.17 2.00 286.82 2829.97
   16:18:15.572.18-Jan-2020 4958.01 4406.72 80.17 2.00 287.02 2829.97
   16:18:15.772.18-Jan-2020 4958.01 4406.72 80.17 2.00 287.22 2829.97
   16:18:15.972.18-Jan-2020 4958.01 4406.87 80.17 2.00 287.42 2829.97
   16:18:16.172.18-Jan-2020 4958.01 4406.85 80.17 2.00 287.62 2829.97
   16:18:16.372.18-Jan-2020 4958.01 4406.83 80.17 2.00 287.82 2829.97
   16:18:16.572.18-Jan-2020 4958.01 4406.72 80.17 2.00 288.02 2829.97
   16:18:16.772.18-Jan-2020 4958.01 4406.72 80.17 2.00 288.22 2829.97
   16:18:16.972.18-Jan-2020 4958.01 4406.81 80.17 2.00 288.42 2829.97
   16:18:17.172.18-Jan-2020 4958.01 4406.86 80.17 2.00 288.62 2829.97
   16:18:17.372.18-Jan-2020 4958.01 4406.84 80.17 2.00 288.82 2829.97
   16:18:17.572.18-Jan-2020 4958.01 4406.85 80.17 2.00 289.02 2829.97
   16:18:17.772.18-Jan-2020 4958.01 4406.85 80.17 2.00 289.22 2829.97
   16:18:17.972.18-Jan-2020 4958.01 4406.76 80.17 2.00 289.42 2829.97
   16:18:18.172.18-Jan-2020 4958.01 4406.83 80.16 2.00 289.62 2829.97
   16:18:18.372.18-Jan-2020 4958.01 4406.90 80.16 2.00 289.82 2829.97
   16:18:18.572.18-Jan-2020 4958.01 4406.83 80.16 2.00 290.02 2829.97
   16:18:18.772.18-Jan-2020 4958.01 4406.83 80.16 2.00 290.22 2829.97
   16:18:18.972.18-Jan-2020 4958.01 4406.83 80.16 2.00 290.42 2829.97
   16:18:19.172.18-Jan-2020 4958.01 4406.83 80.16 2.00 290.62 2829.97
   16:18:19.372.18-Jan-2020 4958.01 4406.83 80.16 2.00 290.82 2829.97
   16:18:19.572.18-Jan-2020 4958.01 4406.83 80.16 2.00 291.02 2829.97
   16:18:19.772.18-Jan-2020 4958.01 4406.83 80.16 2.00 291.22 2829.97
   16:18:19.972.18-Jan-2020 4958.01 4406.79 80.16 2.00 291.42 2829.97
   16:18:20.172.18-Jan-2020 4958.01 4406.84 80.16 2.00 291.62 2829.97
   16:18:20.372.18-Jan-2020 4958.01 4406.81 80.16 2.00 291.82 2829.97
   16:18:20.572.18-Jan-2020 4958.01 4406.83 80.16 2.00 292.02 2829.97
   16:18:20.772.18-Jan-2020 4958.01 4406.83 80.16 2.00 292.22 2829.97
   16:18:20.972.18-Jan-2020 4958.01 4406.81 80.16 2.00 292.42 2829.97
   16:18:21.172.18-Jan-2020 4958.01 4406.71 80.16 2.00 292.62 2829.97
   16:18:21.372.18-Jan-2020 4958.01 4406.84 80.16 2.00 292.82 2829.97
   16:18:21.572.18-Jan-2020 4958.01 4406.89 80.16 2.00 293.02 2829.97
   16:18:21.772.18-Jan-2020 4958.01 4406.89 80.16 2.00 293.22 2829.97
   16:18:21.972.18-Jan-2020 4958.01 4406.83 80.15 2.00 293.42 2829.97
   16:18:22.172.18-Jan-2020 4958.01 4406.83 80.15 2.00 293.62 2829.97
   16:18:22.372.18-Jan-2020 4958.01 4406.84 80.15 2.00 293.82 2829.97
   16:18:22.572.18-Jan-2020 4958.01 4406.79 80.15 2.00 294.02 2829.97
   16:18:22.772.18-Jan-2020 4958.01 4406.79 80.15 2.00 294.22 2829.97
   16:18:22.972.18-Jan-2020 4958.01 4406.81 80.15 2.00 294.42 2829.97
   16:18:23.172.18-Jan-2020 4958.01 4406.83 80.15 2.00 294.62 2829.97
   16:18:23.372.18-Jan-2020 4958.01 4406.80 80.15 2.00 294.82 2829.97
   16:18:23.572.18-Jan-2020 4958.01 4406.81 80.15 2.00 295.02 2829.97
   16:18:23.772.18-Jan-2020 4958.01 4406.81 80.15 2.00 295.22 2829.97
   16:18:23.972.18-Jan-2020 4958.01 4406.80 80.15 2.00 295.42 2829.97
   16:18:24.172.18-Jan-2020 4958.01 4406.81 80.15 2.00 295.62 2829.97
   16:18:24.372.18-Jan-2020 4958.01 4406.80 80.15 2.00 295.82 2829.97
   16:18:24.572.18-Jan-2020 4958.01 4406.58 80.15 2.00 296.02 2829.97
   16:18:24.772.18-Jan-2020 4958.01 4406.58 80.15 2.00 296.22 2829.97
   16:18:24.973.18-Jan-2020 4958.01 4406.90 80.15 2.00 296.42 2829.97
   16:18:25.173.18-Jan-2020 4958.01 4406.81 80.15 2.00 296.62 2829.97
   16:18:25.373.18-Jan-2020 4958.01 4406.85 80.15 2.00 296.82 2829.97
   16:18:25.573.18-Jan-2020 4958.01 4406.68 80.15 2.00 297.02 2829.97
   16:18:25.773.18-Jan-2020 4958.01 4406.68 80.15 2.00 297.22 2829.97
   16:18:25.973.18-Jan-2020 4958.01 4406.80 80.14 2.00 297.42 2829.97
   16:18:26.173.18-Jan-2020 4958.01 4406.85 80.14 2.00 297.62 2829.97
   16:18:26.373.18-Jan-2020 4958.01 4406.84 80.14 2.00 297.82 2829.97
   16:18:26.573.18-Jan-2020 4958.01 4406.81 80.14 2.00 298.02 2829.97
   16:18:26.773.18-Jan-2020 4958.01 4406.81 80.14 2.00 298.22 2829.97
   16:18:26.973.18-Jan-2020 4958.01 4406.83 80.14 2.00 298.42 2829.97
   16:18:27.173.18-Jan-2020 4958.01 4406.88 80.14 2.00 298.62 2829.97
   16:18:27.373.18-Jan-2020 4958.01 4406.82 80.14 2.00 298.82 2829.97
