~Version Information
 VERS.                  2.0:   CWLS log ASCII Standard -VERSION 2.0
 WRAP.                   NO:   One line per depth step
~Well Information Block
#MNEM.UNIT     VALUE/NAME     DESCRIPTION
#---------     -----------    ---------------------------
 STRT.S             10:27:46 18-Jan-20: START TIME 10:27:46 18-Jan-20
 STOP.S             10:35:37 18-Jan-20: STOP TIME  10:35:37 18-Jan-20
 STEP.S                   0.00: STEP TIME
 NULL.                 -999.25: NULL VALUE
 DFWT.                        :  DIST FWL TEXT
 DFST.                        :  DIST FSL TEXT
 DMF .             Drill Floor:  DRILL MEAS FROM
 STIM.      17.57.20 21-Dec-19:  START TIME
 DATE.      17.57.20 21-Dec-19:  END TIME
 SPUD.               21-Dec-19:  SPUD DATE
 NREF.                    Grid:  NORTH REFERENCE
 HPTY.       Minimum Curvature:  HOLE POS TYPE
 DMOD.             Drill Model:  DRILL MOD DESC
 SVYD.                  Survey:  SURVEY DESC
 ILTD.               Lithology:  INTERP LTH DESC
 FTOP.          Formation Tops:  FORM TOPS DESC
 PDAT.          Mean Sea Level:  PERMANENT DATUM
 FLD .                     ACG:  FIELD NAME
 SON .        AZ-XX-0905715376:  JOB NUMBER
 CTRY.              Azerbaijan:  COUNTRY NAME
 WELL.                    E04Y:  WELL NAME
 SRVC.          TURAN DRILLING:  CONTRACTOR
 COMP.     BP Exploration (Caspian Sea) Ltd.:  COMPANY
 WTYP.                Deviated:  WELL TYPE
 UWI .                     N/a:  UNIQUE WELL IDENTIFIER
 API .                     N/a:  API NUMBER
 BASE.              Azerbaijan:  LOGGING EQUIPMENT BASE LOCATION
 REGN.                   EESSA:  REGION
 MWDS.                    Baku:  MWD SHOP
 RIG .                     DWG:  RIG NAME
 DOE .                     N/a:  DOE NUMBER
 CNTY.                    Baku:  COUNTY NAME
 DCON.         Sperry Drilling:  DIRECTNL CONTR
 UNIT.                     N/a:  LOGGING EQUIPMENT ID
 MDS .        Operator Entered:  MAG DATA SOURCE
 PROV.                        :  PROVINCE
 STAT.                        :  STATE
 LOC .                        :  LOCATION
 LMF .             Drill Floor:  LOG MEASURED FROM
 TVDS.m                  43.16:  TVDSS CORRECTN
 LATI.deg                40.17:  LATITUDE
 LONG.deg                51.17:  LONGITUDE
 WHNS.m                  -0.12:  WELL HEAD N/S
 WHEW.m                  -5.41:  WELL HEAD E/W
 UTMX.m              514337.95:  UTM X
 UTMY.m             4448627.46:  UTM Y
 DFWL.m                   0.00:  DISTANCE FWL
 DFSL.m                   0.00:  DISTANCE FSL
 SDEP.m                   0.00:  START DEPTH
 TDD .m                   0.00:  TOTAL DEPTH (DRILLER)
 VSDR.deg               235.12:  VERT SEC DIRECT
 GVFD.g                   1.00:  GRAVITY FIELD
 MFLD.nT              50294.00:  MAGNETIC FIELD
 MDIP.deg                59.61:  MAGNETIC DIP
 MDEC.deg                 6.58:  MAGNETIC DECL
 GRDC.deg                 0.09:  GRID CORRECTION
 AZTC.deg                 6.49:  AZM TOTAL CORR
 EPD .m                   0.00:  ELEVATION
 EGL .m                   0.00:  GROUND ELEVATION
 WDMS.m                 176.20:  WD ELEV
 APD .m                  43.16:  DEPTH ABOVE PD
 DEP .m                3172.61:  DEPTH
 AGAP.m                  43.16:  AIR GAP
 VSEW.m                  -5.41:  VERT SEC E/W
 VSNS.m                  -0.12:  VERT SEC N/S
 EKB .m                  43.16:  KB ELEVATION
 EDF .m                  43.16:  DF ELEVATION
 TDL .m                 295.00:  TOTAL DEPTH (LOGGER)
 VSC .                       0:  VS TO CLOSURE
 MAGU.                 1852276:  MAGUTM CHECKSUM
~Parameter Information Block
#MNEM.UNIT       Value        Description
#---------     -----------    ---------------------------
 AV  .mps                 1.60:  Ann Velocity 
 AVMX.mps                 2.10:  Max Ann Veloc 
 AZIF.deg               290.59:  Azm, Final 
 BHAT.        Rotary Steerable:  BHA Type 
 BROT.°/30m               1.00:  Build Rotating 
 BS  .in                  6.50:  Bit Size 
 BSZ .in                  6.50:  Bit Size 
 BTPL.psig              120.00:  Bit Press Loss 
 CABU.                     Yes:  Customer Abuse 
 CGEO.          Eldar Huseynov:  Customer Geo 
 COMM.                     ¬Øj:  Run Comments 1 
 TCS .hr                 87.00:  Time Ciculation Ended 
 CV  .mps                 4.01:  Crit Velocity 
 CVMX.mps                 5.06:  Max Crit Veloc 
 DD1 .             Aziz Aliyev:  Direct Drillr 1 
 DD2 .            Sanan Aliyev:  Direct Drillr 2 
 DDSV.               Geo-Pilot:  DD Service 
 DEFF.%                  95.00:  % Det Eff 
 DLRX.°/30m               0.75:  Dogleg Rot Max 
 DLSO.°/30m               0.65:  Dogleg Oriented 
 DLSX.°/30m               1.39:  Dogleg Str Max 
 DRET.      18.25.00 19-Jan-20:  Drill End Time 
 DRST.      11.56.48 17-Jan-20:  Drill Start Tim 
 DTIM.hr                 27.16:  Time Drilling 
 EDEP.m                5161.01:  End Depth 
 ENG1.          Rasim Hashimov:  Engineer 1 
 ENG2.      Bakhtiyar Jabbarli:  Engineer 2 
 ETIM.      11.56.48 21-Jan-20:  End Time 
 FLOI.gpm               350.00:  Flow In 
 FLON.gpm               300.00:  Flow In Min 
 FLOS.cptm                0.00:  Fluid Loss 
 FLOX.gpm               400.00:  Flow In Max 
 HFLO.                      No:  High Flow 
 HPRE.                      No:  High Pressure 
 HTEM.                      No:  High Temp 
 HYDO.m                   1.85:  Hydro Offset 
 IFIN.deg                71.58:  Inc, Final 
 IMAX.deg                71.83:  Inc Max 
 IMIN.deg                71.12:  Inc Min 
 IMND.m                5099.48:  Inc Min Depth 
 IMXD.m                5071.08:  Inc Max Depth 
 JARR.                      No:  Jarring 
 LETM.      18.25.00 19-Jan-20:  Log End Time 
 LOST.hr                     0:  Lost Rig Time 
 LSTM.      11.56.48 17-Jan-20:  Log Start Time 
 MDCL.ppm             37000.00:  Mud Chlorides 
 MDES.     Inversion Oil/Synthetic:  Mud Desc 
 DFD .sg                  1.34:  Mud Density 
 MDMN.sg                  1.34:  Dens Mud Min 
 MDMX.sg                  1.34:  Dens Mud Max 
 MOIL.                      69:  Run Mud Oil % 
 MOWR.                   69:31:  Run Mud OWR 
 MSND.                     0.1:  Run Mud Sand % 
 MSOL.                    17.6:  Run Mud Solids% 
 DFV .spqt               79.00:  Mud Viscosity 
 MWOD.in                  4.75:  MWD Tool OD 
 MWSI.                      No:  Serv Intrp, MWD 
 OTIM.hr                126.10:  Time Operating 
 PMAX.psia             6000.00:  Press Op, Max 
 PV  .cP                 29.00:  Mud PV 
 RUN .                     400:  Run Number 
 ROPA.m/hr               11.00:  ROP Avg 
 ROPN.m/hr                5.00:  ROP Min 
 ROPX.m/hr               18.00:  ROP Max 
 RPMA.rpm               139.00:  RPM Surface Avg 
 RPMN.rpm               100.00:  RPM Surface Min 
 RPMX.rpm               140.00:  RPM Surface Max 
 RRUN.                     400:  Rig Run Number 
 SAZI.deg               290.22:  Azm, Start 
 SDEP.m                4868.01:  Start Depth 
 SIDD.                      No:  Serv Intrp, DD 
 SINC.deg                71.77:  Inc, Start 
 SPPA.psig             5550.00:  SPP Avg 
 SPPN.psig             4300.00:  SPP Min 
 SPPX.psig             5600.00:  SPP Max 
 STIM.      23.45.48 15-Jan-20:  Start Time 
 SVCS.                 DD, MWD:  Services 
 SVER.                    9.20:  Sperry Version 
 TDAT.m                5161.01:  Tot Depth Attmp 
 TDDF.                      No:  Trip for DD 
 TDLG.m                 295.00:  Tot Depth Loggd 
 TFF .                      No:  Trip for Fail 
 TQAA.f-kp               13.00:  Torque Abs Avg 
 TQAN.f-kp               13.00:  Torque Abs Min 
 TQAX.f-kp               16.00:  Torque Abs Max 
 TRRT.°/30m               0.25:  Turn Rotating 
 MRT .                     ADR:  Maximum Recorded Temperature 
 TTMX.degC               88.00:  Max Tool Temp 
 VS01.                90577859:  Virtual Str1 SN 
 VS02.                90521879:  Virtual Str2 SN 
 VS03.                90580299:  Virtual Str3 SN 
 VS04.                90515982:  Virtual Str4 SN 
 VS05.                90547765:  Virtual Str5 SN 
 WBMN.klb                 2.00:  WOB Min 
 WITN.           Adil Mammadov:  Customer Rep 
 WITN.        Elmaddin Rahimov:  Customer Rep 2 
 WOBA.klb                 3.00:  WOB Avg 
 WOBX.klb                 5.00:  WOB Max 
 YP  .lhf2               30.00:  Yield Point 
~Curve Information Block
#MNEM.UNIT                 API CODE     Curve Description
#---------               -----------    ---------------------------
 TIME.HHMMSS            00 000 000 000:  GT Time & Date
 GTDEPTH.m              00 000 000 000:  GT Depth
 GTPQH.psia             00 000 000 000:  GT HR Quartz Pressure
 GTTQ.degC              00 000 000 000:  GT Quartz Temperature
 GTTN.NONE              00 000 000 000:  GT Test Number
 GTET.sec               00 000 000 000:  GT Elapsed Test Time
 GTTVD.m                00 000 000 000:  GT True Vertical Depth
#Other Information
#
#WARRANTY: Halliburton will use its best efforts to furnish customers with 
#accurate information and interpretations that are part of, and incident to, the services 
#provided.  However, Halliburton cannot and does not warrant the accuracy 
#or correctness of such information and interpretations.  Under no circumstances should any 
#such information or interpretation be relied upon as the sole basis for any drilling, 
#completion, production, or financial decision or any procedure involving any risk to the 
#safety of any drilling venture, drilling rig or its crew or any other third party.  The 
#Customer has full responsibility for all drilling, completion and production operation.  
#Halliburton makes no representations or warranties, either expressed or 
#implied, including, but not limited to, the implied warranties of merchantability or fitness 
#for a particular purpose, with respect to the services rendered.  In no event will 
#Halliburton be liable for failure to obtain any particular results or for 
#any damages, including, but not limited to, indirect, special or consequential damages, 
#resulting from the use of any information or interpretation provided by Halliburton.
#
~A           TIME           GTDEPTH  GTPQH  GTTQ  GTTN  GTET   GTTVD  
# ...
   10:33:31.333.18-Jan-2020 4898.01 4078.76 73.18 1.00 345.04 2811.04
   10:33:31.533.18-Jan-2020 4898.01 4078.76 73.18 1.00 345.24 2811.04
   10:33:31.733.18-Jan-2020 4898.01 4078.75 73.18 1.00 345.44 2811.04
   10:33:31.933.18-Jan-2020 4898.01 4078.72 73.18 1.00 345.64 2811.04
   10:33:32.133.18-Jan-2020 4898.01 4078.74 73.18 1.00 345.84 2811.04
   10:33:32.333.18-Jan-2020 4898.01 4078.75 73.18 1.00 346.04 2811.04
   10:33:32.533.18-Jan-2020 4898.01 4078.75 73.18 1.00 346.24 2811.04
   10:33:32.733.18-Jan-2020 4898.01 4078.76 73.18 1.00 346.44 2811.04
   10:33:32.934.18-Jan-2020 4898.01 4078.69 73.18 1.00 346.64 2811.04
   10:33:33.134.18-Jan-2020 4898.01 4078.53 73.18 1.00 346.84 2811.04
   10:33:33.334.18-Jan-2020 4898.01 4078.81 73.18 1.00 347.04 2811.04
   10:33:33.534.18-Jan-2020 4898.01 4078.81 73.18 1.00 347.24 2811.04
   10:33:33.734.18-Jan-2020 4898.01 4078.77 73.18 1.00 347.44 2811.04
   10:33:33.934.18-Jan-2020 4898.01 4078.74 73.18 1.00 347.64 2811.04
   10:33:34.134.18-Jan-2020 4898.01 4078.76 73.18 1.00 347.84 2811.04
   10:33:34.334.18-Jan-2020 4898.01 4078.73 73.18 1.00 348.04 2811.04
   10:33:34.534.18-Jan-2020 4898.01 4078.73 73.18 1.00 348.24 2811.04
   10:33:34.734.18-Jan-2020 4898.01 4078.73 73.18 1.00 348.44 2811.04
   10:33:34.934.18-Jan-2020 4898.01 4078.71 73.18 1.00 348.64 2811.04
   10:33:35.134.18-Jan-2020 4898.01 4078.75 73.17 1.00 348.84 2811.04
   10:33:35.334.18-Jan-2020 4898.01 4078.71 73.17 1.00 349.04 2811.04
   10:33:35.534.18-Jan-2020 4898.01 4078.71 73.17 1.00 349.24 2811.04
   10:33:35.734.18-Jan-2020 4898.01 4078.73 73.17 1.00 349.44 2811.04
   10:33:35.934.18-Jan-2020 4898.01 4078.73 73.17 1.00 349.64 2811.04
   10:33:36.134.18-Jan-2020 4898.01 4078.74 73.17 1.00 349.84 2811.04
   10:33:36.334.18-Jan-2020 4898.01 4078.64 73.17 1.00 350.04 2811.04
   10:33:36.534.18-Jan-2020 4898.01 4078.64 73.17 1.00 350.24 2811.04
   10:33:36.734.18-Jan-2020 4898.01 4078.80 73.17 1.00 350.44 2811.04
   10:33:36.934.18-Jan-2020 4898.01 4078.78 73.17 1.00 350.64 2811.04
   10:33:37.134.18-Jan-2020 4898.01 4078.77 73.17 1.00 350.84 2811.04
   10:33:37.334.18-Jan-2020 4898.01 4078.76 73.17 1.00 351.04 2811.04
   10:33:37.534.18-Jan-2020 4898.01 4078.76 73.17 1.00 351.24 2811.04
   10:33:37.734.18-Jan-2020 4898.01 4078.72 73.17 1.00 351.44 2811.04
   10:33:37.934.18-Jan-2020 4898.01 4078.58 73.17 1.00 351.64 2811.04
   10:33:38.134.18-Jan-2020 4898.01 4078.76 73.17 1.00 351.84 2811.04
   10:33:38.334.18-Jan-2020 4898.01 4078.79 73.17 1.00 352.04 2811.04
   10:33:38.534.18-Jan-2020 4898.01 4078.79 73.17 1.00 352.24 2811.04
   10:33:38.734.18-Jan-2020 4898.01 4078.76 73.17 1.00 352.44 2811.04
   10:33:38.934.18-Jan-2020 4898.01 4078.79 73.17 1.00 352.64 2811.04
   10:33:39.134.18-Jan-2020 4898.01 4078.73 73.17 1.00 352.84 2811.04
   10:33:39.334.18-Jan-2020 4898.01 4078.54 73.17 1.00 353.04 2811.04
   10:33:39.534.18-Jan-2020 4898.01 4078.54 73.17 1.00 353.24 2811.04
   10:33:39.734.18-Jan-2020 4898.01 4078.79 73.17 1.00 353.44 2811.04
   10:33:39.934.18-Jan-2020 4898.01 4078.81 73.17 1.00 353.64 2811.04
   10:33:40.134.18-Jan-2020 4898.01 4078.77 73.17 1.00 353.84 2811.04
   10:33:40.334.18-Jan-2020 4898.01 4078.79 73.17 1.00 354.04 2811.04
   10:33:40.534.18-Jan-2020 4898.01 4078.79 73.17 1.00 354.24 2811.04
   10:33:40.734.18-Jan-2020 4898.01 4078.87 73.17 1.00 354.44 2811.04
   10:33:40.934.18-Jan-2020 4898.01 4078.81 73.17 1.00 354.64 2811.04
   10:33:41.135.18-Jan-2020 4898.01 4078.76 73.17 1.00 354.84 2811.04
   10:33:41.335.18-Jan-2020 4898.01 4078.79 73.17 1.00 355.04 2811.04
   10:33:41.535.18-Jan-2020 4898.01 4078.79 73.17 1.00 355.24 2811.04
   10:33:41.735.18-Jan-2020 4898.01 4078.78 73.17 1.00 355.44 2811.04
   10:33:41.935.18-Jan-2020 4898.01 4078.76 73.17 1.00 355.64 2811.04
   10:33:42.135.18-Jan-2020 4898.01 4078.76 73.17 1.00 355.84 2811.04
   10:33:42.335.18-Jan-2020 4898.01 4078.76 73.17 1.00 356.04 2811.04
   10:33:42.535.18-Jan-2020 4898.01 4078.76 73.17 1.00 356.24 2811.04
   10:33:42.735.18-Jan-2020 4898.01 4078.76 73.17 1.00 356.44 2811.04
   10:33:42.935.18-Jan-2020 4898.01 4078.73 73.17 1.00 356.64 2811.04
   10:33:43.135.18-Jan-2020 4898.01 4078.75 73.17 1.00 356.84 2811.04
   10:33:43.335.18-Jan-2020 4898.01 4078.75 73.17 1.00 357.04 2811.04
   10:33:43.535.18-Jan-2020 4898.01 4078.75 73.17 1.00 357.24 2811.04
   10:33:43.735.18-Jan-2020 4898.01 4078.74 73.16 1.00 357.44 2811.04
   10:33:43.935.18-Jan-2020 4898.01 4078.52 73.16 1.00 357.64 2811.04
   10:33:44.135.18-Jan-2020 4898.01 4078.84 73.16 1.00 357.84 2811.04
   10:33:44.335.18-Jan-2020 4898.01 4078.78 73.16 1.00 358.04 2811.04
   10:33:44.535.18-Jan-2020 4898.01 4078.78 73.16 1.00 358.24 2811.04
   10:33:44.735.18-Jan-2020 4898.01 4078.77 73.16 1.00 358.44 2811.04
   10:33:44.935.18-Jan-2020 4898.01 4078.75 73.16 1.00 358.64 2811.04
   10:33:45.135.18-Jan-2020 4898.01 4078.77 73.16 1.00 358.84 2811.04
   10:33:45.335.18-Jan-2020 4898.01 4078.72 73.16 1.00 359.04 2811.04
   10:33:45.535.18-Jan-2020 4898.01 4078.72 73.16 1.00 359.24 2811.04
   10:33:45.735.18-Jan-2020 4898.01 4078.73 73.16 1.00 359.44 2811.04
   10:33:45.935.18-Jan-2020 4898.01 4078.74 73.16 1.00 359.64 2811.04
   10:33:46.135.18-Jan-2020 4898.01 4078.76 73.16 1.00 359.84 2811.04
   10:33:46.335.18-Jan-2020 4898.01 4078.72 73.16 1.00 360.04 2811.04
   10:33:46.535.18-Jan-2020 4898.01 4078.72 73.16 1.00 360.24 2811.04
   10:33:46.735.18-Jan-2020 4898.01 4078.72 73.16 1.00 360.44 2811.04
   10:33:46.935.18-Jan-2020 4898.01 4078.75 73.16 1.00 360.64 2811.04
   10:33:47.135.18-Jan-2020 4898.01 4078.67 73.16 1.00 360.84 2811.04
   10:33:47.335.18-Jan-2020 4898.01 4078.60 73.16 1.00 361.04 2811.04
   10:33:47.535.18-Jan-2020 4898.01 4078.60 73.16 1.00 361.24 2811.04
   10:33:47.735.18-Jan-2020 4898.01 4078.77 73.16 1.00 361.44 2811.04
   10:33:47.935.18-Jan-2020 4898.01 4078.80 73.16 1.00 361.64 2811.04
   10:33:48.135.18-Jan-2020 4898.01 4078.77 73.16 1.00 361.84 2811.04
   10:33:48.335.18-Jan-2020 4898.01 4078.76 73.16 1.00 362.04 2811.04
   10:33:48.535.18-Jan-2020 4898.01 4078.76 73.16 1.00 362.24 2811.04
   10:33:48.735.18-Jan-2020 4898.01 4078.57 73.16 1.00 362.44 2811.04
   10:33:48.935.18-Jan-2020 4898.01 4078.78 73.16 1.00 362.64 2811.04
   10:33:49.135.18-Jan-2020 4898.01 4078.78 73.16 1.00 362.84 2811.04
   10:33:49.336.18-Jan-2020 4898.01 4078.80 73.16 1.00 363.04 2811.04
   10:33:49.536.18-Jan-2020 4898.01 4078.80 73.16 1.00 363.24 2811.04
   10:33:49.736.18-Jan-2020 4898.01 4078.76 73.16 1.00 363.44 2811.04
   10:33:49.936.18-Jan-2020 4898.01 4078.77 73.16 1.00 363.64 2811.04
   10:33:50.136.18-Jan-2020 4898.01 4078.53 73.16 1.00 363.84 2811.04
   10:33:50.336.18-Jan-2020 4898.01 4078.84 73.16 1.00 364.04 2811.04
   10:33:50.536.18-Jan-2020 4898.01 4078.84 73.16 1.00 364.24 2811.04
   10:33:50.736.18-Jan-2020 4898.01 4078.80 73.16 1.00 364.44 2811.04
   10:33:50.936.18-Jan-2020 4898.01 4078.81 73.16 1.00 364.64 2811.04
   10:33:51.136.18-Jan-2020 4898.01 4078.76 73.16 1.00 364.84 2811.04
   10:33:51.336.18-Jan-2020 4898.01 4078.51 73.16 1.00 365.04 2811.04
   10:33:51.536.18-Jan-2020 4898.01 4078.51 73.16 1.00 365.24 2811.04
   10:33:51.736.18-Jan-2020 4898.01 4078.83 73.16 1.00 365.44 2811.04
   10:33:51.936.18-Jan-2020 4898.01 4078.78 73.16 1.00 365.64 2811.04
   10:33:52.136.18-Jan-2020 4898.01 4078.78 73.15 1.00 365.84 2811.04
   10:33:52.336.18-Jan-2020 4898.01 4078.80 73.15 1.00 366.04 2811.04
   10:33:52.536.18-Jan-2020 4898.01 4078.80 73.15 1.00 366.24 2811.04
   10:33:52.736.18-Jan-2020 4898.01 4078.79 73.15 1.00 366.44 2811.04
   10:33:52.936.18-Jan-2020 4898.01 4078.75 73.15 1.00 366.64 2811.04
   10:33:53.136.18-Jan-2020 4898.01 4078.76 73.15 1.00 366.84 2811.04
   10:33:53.336.18-Jan-2020 4898.01 4078.75 73.15 1.00 367.04 2811.04
   10:33:53.536.18-Jan-2020 4898.01 4078.75 73.15 1.00 367.24 2811.04
   10:33:53.736.18-Jan-2020 4898.01 4078.78 73.15 1.00 367.44 2811.04
   10:33:53.936.18-Jan-2020 4898.01 4078.74 73.15 1.00 367.64 2811.04
   10:33:54.136.18-Jan-2020 4898.01 4078.77 73.15 1.00 367.84 2811.04
