~Version Information
 VERS.                  2.0:   CWLS log ASCII Standard -VERSION 2.0
 WRAP.                   NO:   One line per depth step
~Well Information Block
#MNEM.UNIT     VALUE/NAME     DESCRIPTION
#---------     -----------    ---------------------------
 STRT.S             10:27:46 18-Jan-20: START TIME 10:27:46 18-Jan-20
 STOP.S             10:35:37 18-Jan-20: STOP TIME  10:35:37 18-Jan-20
 STEP.S                   0.00: STEP TIME
 NULL.                 -999.25: NULL VALUE
 DFWT.                        :  DIST FWL TEXT
 DFST.                        :  DIST FSL TEXT
 DMF .             Drill Floor:  DRILL MEAS FROM
 STIM.      17.57.20 21-Dec-19:  START TIME
 DATE.      17.57.20 21-Dec-19:  END TIME
 SPUD.               21-Dec-19:  SPUD DATE
 NREF.                    Grid:  NORTH REFERENCE
 HPTY.       Minimum Curvature:  HOLE POS TYPE
 DMOD.             Drill Model:  DRILL MOD DESC
 SVYD.                  Survey:  SURVEY DESC
 ILTD.               Lithology:  INTERP LTH DESC
 FTOP.          Formation Tops:  FORM TOPS DESC
 PDAT.          Mean Sea Level:  PERMANENT DATUM
 FLD .                     ACG:  FIELD NAME
 SON .        AZ-XX-0905715376:  JOB NUMBER
 CTRY.              Azerbaijan:  COUNTRY NAME
 WELL.                    E04Y:  WELL NAME
 SRVC.          TURAN DRILLING:  CONTRACTOR
 COMP.     BP Exploration (Caspian Sea) Ltd.:  COMPANY
 WTYP.                Deviated:  WELL TYPE
 UWI .                     N/a:  UNIQUE WELL IDENTIFIER
 API .                     N/a:  API NUMBER
 BASE.              Azerbaijan:  LOGGING EQUIPMENT BASE LOCATION
 REGN.                   EESSA:  REGION
 MWDS.                    Baku:  MWD SHOP
 RIG .                     DWG:  RIG NAME
 DOE .                     N/a:  DOE NUMBER
 CNTY.                    Baku:  COUNTY NAME
 DCON.         Sperry Drilling:  DIRECTNL CONTR
 UNIT.                     N/a:  LOGGING EQUIPMENT ID
 MDS .        Operator Entered:  MAG DATA SOURCE
 PROV.                        :  PROVINCE
 STAT.                        :  STATE
 LOC .                        :  LOCATION
 LMF .             Drill Floor:  LOG MEASURED FROM
 TVDS.m                  43.16:  TVDSS CORRECTN
 LATI.deg                40.17:  LATITUDE
 LONG.deg                51.17:  LONGITUDE
 WHNS.m                  -0.12:  WELL HEAD N/S
 WHEW.m                  -5.41:  WELL HEAD E/W
 UTMX.m              514337.95:  UTM X
 UTMY.m             4448627.46:  UTM Y
 DFWL.m                   0.00:  DISTANCE FWL
 DFSL.m                   0.00:  DISTANCE FSL
 SDEP.m                   0.00:  START DEPTH
 TDD .m                   0.00:  TOTAL DEPTH (DRILLER)
 VSDR.deg               235.12:  VERT SEC DIRECT
 GVFD.g                   1.00:  GRAVITY FIELD
 MFLD.nT              50294.00:  MAGNETIC FIELD
 MDIP.deg                59.61:  MAGNETIC DIP
 MDEC.deg                 6.58:  MAGNETIC DECL
 GRDC.deg                 0.09:  GRID CORRECTION
 AZTC.deg                 6.49:  AZM TOTAL CORR
 EPD .m                   0.00:  ELEVATION
 EGL .m                   0.00:  GROUND ELEVATION
 WDMS.m                 176.20:  WD ELEV
 APD .m                  43.16:  DEPTH ABOVE PD
 DEP .m                3172.61:  DEPTH
 AGAP.m                  43.16:  AIR GAP
 VSEW.m                  -5.41:  VERT SEC E/W
 VSNS.m                  -0.12:  VERT SEC N/S
 EKB .m                  43.16:  KB ELEVATION
 EDF .m                  43.16:  DF ELEVATION
 TDL .m                 295.00:  TOTAL DEPTH (LOGGER)
 VSC .                       0:  VS TO CLOSURE
 MAGU.                 1852276:  MAGUTM CHECKSUM
~Parameter Information Block
#MNEM.UNIT       Value        Description
#---------     -----------    ---------------------------
 AV  .mps                 1.60:  Ann Velocity 
 AVMX.mps                 2.10:  Max Ann Veloc 
 AZIF.deg               290.59:  Azm, Final 
 BHAT.        Rotary Steerable:  BHA Type 
 BROT.°/30m               1.00:  Build Rotating 
 BS  .in                  6.50:  Bit Size 
 BSZ .in                  6.50:  Bit Size 
 BTPL.psig              120.00:  Bit Press Loss 
 CABU.                     Yes:  Customer Abuse 
 CGEO.          Eldar Huseynov:  Customer Geo 
 COMM.                     ¬Øj:  Run Comments 1 
 TCS .hr                 87.00:  Time Ciculation Ended 
 CV  .mps                 4.01:  Crit Velocity 
 CVMX.mps                 5.06:  Max Crit Veloc 
 DD1 .             Aziz Aliyev:  Direct Drillr 1 
 DD2 .            Sanan Aliyev:  Direct Drillr 2 
 DDSV.               Geo-Pilot:  DD Service 
 DEFF.%                  95.00:  % Det Eff 
 DLRX.°/30m               0.75:  Dogleg Rot Max 
 DLSO.°/30m               0.65:  Dogleg Oriented 
 DLSX.°/30m               1.39:  Dogleg Str Max 
 DRET.      18.25.00 19-Jan-20:  Drill End Time 
 DRST.      11.56.48 17-Jan-20:  Drill Start Tim 
 DTIM.hr                 27.16:  Time Drilling 
 EDEP.m                5161.01:  End Depth 
 ENG1.          Rasim Hashimov:  Engineer 1 
 ENG2.      Bakhtiyar Jabbarli:  Engineer 2 
 ETIM.      11.56.48 21-Jan-20:  End Time 
 FLOI.gpm               350.00:  Flow In 
 FLON.gpm               300.00:  Flow In Min 
 FLOS.cptm                0.00:  Fluid Loss 
 FLOX.gpm               400.00:  Flow In Max 
 HFLO.                      No:  High Flow 
 HPRE.                      No:  High Pressure 
 HTEM.                      No:  High Temp 
 HYDO.m                   1.85:  Hydro Offset 
 IFIN.deg                71.58:  Inc, Final 
 IMAX.deg                71.83:  Inc Max 
 IMIN.deg                71.12:  Inc Min 
 IMND.m                5099.48:  Inc Min Depth 
 IMXD.m                5071.08:  Inc Max Depth 
 JARR.                      No:  Jarring 
 LETM.      18.25.00 19-Jan-20:  Log End Time 
 LOST.hr                     0:  Lost Rig Time 
 LSTM.      11.56.48 17-Jan-20:  Log Start Time 
 MDCL.ppm             37000.00:  Mud Chlorides 
 MDES.     Inversion Oil/Synthetic:  Mud Desc 
 DFD .sg                  1.34:  Mud Density 
 MDMN.sg                  1.34:  Dens Mud Min 
 MDMX.sg                  1.34:  Dens Mud Max 
 MOIL.                      69:  Run Mud Oil % 
 MOWR.                   69:31:  Run Mud OWR 
 MSND.                     0.1:  Run Mud Sand % 
 MSOL.                    17.6:  Run Mud Solids% 
 DFV .spqt               79.00:  Mud Viscosity 
 MWOD.in                  4.75:  MWD Tool OD 
 MWSI.                      No:  Serv Intrp, MWD 
 OTIM.hr                126.10:  Time Operating 
 PMAX.psia             6000.00:  Press Op, Max 
 PV  .cP                 29.00:  Mud PV 
 RUN .                     400:  Run Number 
 ROPA.m/hr               11.00:  ROP Avg 
 ROPN.m/hr                5.00:  ROP Min 
 ROPX.m/hr               18.00:  ROP Max 
 RPMA.rpm               139.00:  RPM Surface Avg 
 RPMN.rpm               100.00:  RPM Surface Min 
 RPMX.rpm               140.00:  RPM Surface Max 
 RRUN.                     400:  Rig Run Number 
 SAZI.deg               290.22:  Azm, Start 
 SDEP.m                4868.01:  Start Depth 
 SIDD.                      No:  Serv Intrp, DD 
 SINC.deg                71.77:  Inc, Start 
 SPPA.psig             5550.00:  SPP Avg 
 SPPN.psig             4300.00:  SPP Min 
 SPPX.psig             5600.00:  SPP Max 
 STIM.      23.45.48 15-Jan-20:  Start Time 
 SVCS.                 DD, MWD:  Services 
 SVER.                    9.20:  Sperry Version 
 TDAT.m                5161.01:  Tot Depth Attmp 
 TDDF.                      No:  Trip for DD 
 TDLG.m                 295.00:  Tot Depth Loggd 
 TFF .                      No:  Trip for Fail 
 TQAA.f-kp               13.00:  Torque Abs Avg 
 TQAN.f-kp               13.00:  Torque Abs Min 
 TQAX.f-kp               16.00:  Torque Abs Max 
 TRRT.°/30m               0.25:  Turn Rotating 
 MRT .                     ADR:  Maximum Recorded Temperature 
 TTMX.degC               88.00:  Max Tool Temp 
 VS01.                90577859:  Virtual Str1 SN 
 VS02.                90521879:  Virtual Str2 SN 
 VS03.                90580299:  Virtual Str3 SN 
 VS04.                90515982:  Virtual Str4 SN 
 VS05.                90547765:  Virtual Str5 SN 
 WBMN.klb                 2.00:  WOB Min 
 WITN.           Adil Mammadov:  Customer Rep 
 WITN.        Elmaddin Rahimov:  Customer Rep 2 
 WOBA.klb                 3.00:  WOB Avg 
 WOBX.klb                 5.00:  WOB Max 
 YP  .lhf2               30.00:  Yield Point 
~Curve Information Block
#MNEM.UNIT                 API CODE     Curve Description
#---------               -----------    ---------------------------
 TIME.HHMMSS            00 000 000 000:  GT Time & Date
 GTDEPTH.m              00 000 000 000:  GT Depth
 GTPQH.psia             00 000 000 000:  GT HR Quartz Pressure
 GTTQ.degC              00 000 000 000:  GT Quartz Temperature
 GTTN.NONE              00 000 000 000:  GT Test Number
 GTET.sec               00 000 000 000:  GT Elapsed Test Time
 GTTVD.m                00 000 000 000:  GT True Vertical Depth
#Other Information
#
#WARRANTY: Halliburton will use its best efforts to furnish customers with 
#accurate information and interpretations that are part of, and incident to, the services 
#provided.  However, Halliburton cannot and does not warrant the accuracy 
#or correctness of such information and interpretations.  Under no circumstances should any 
#such information or interpretation be relied upon as the sole basis for any drilling, 
#completion, production, or financial decision or any procedure involving any risk to the 
#safety of any drilling venture, drilling rig or its crew or any other third party.  The 
#Customer has full responsibility for all drilling, completion and production operation.  
#Halliburton makes no representations or warranties, either expressed or 
#implied, including, but not limited to, the implied warranties of merchantability or fitness 
#for a particular purpose, with respect to the services rendered.  In no event will 
#Halliburton be liable for failure to obtain any particular results or for 
#any damages, including, but not limited to, indirect, special or consequential damages, 
#resulting from the use of any information or interpretation provided by Halliburton.
#
~A           TIME           GTDEPTH  GTPQH  GTTQ  GTTN  GTET   GTTVD  
# ...
   10:31:36.319.18-Jan-2020 4898.01 4078.73 73.32 1.00 230.03 2811.04
   10:31:36.519.18-Jan-2020 4898.01 4078.73 73.32 1.00 230.23 2811.04
   10:31:36.719.18-Jan-2020 4898.01 4078.70 73.32 1.00 230.43 2811.04
   10:31:36.919.18-Jan-2020 4898.01 4078.73 73.32 1.00 230.63 2811.04
   10:31:37.119.18-Jan-2020 4898.01 4078.70 73.32 1.00 230.83 2811.04
   10:31:37.319.18-Jan-2020 4898.01 4078.74 73.32 1.00 231.03 2811.04
   10:31:37.519.18-Jan-2020 4898.01 4078.74 73.32 1.00 231.23 2811.04
   10:31:37.719.18-Jan-2020 4898.01 4078.71 73.32 1.00 231.43 2811.04
   10:31:37.920.18-Jan-2020 4898.01 4078.43 73.32 1.00 231.63 2811.04
   10:31:38.120.18-Jan-2020 4898.01 4078.82 73.32 1.00 231.83 2811.04
   10:31:38.320.18-Jan-2020 4898.01 4078.80 73.32 1.00 232.03 2811.04
   10:31:38.520.18-Jan-2020 4898.01 4078.80 73.32 1.00 232.23 2811.04
   10:31:38.720.18-Jan-2020 4898.01 4078.76 73.32 1.00 232.43 2811.04
   10:31:38.920.18-Jan-2020 4898.01 4078.74 73.32 1.00 232.63 2811.04
   10:31:39.120.18-Jan-2020 4898.01 4078.73 73.32 1.00 232.83 2811.04
   10:31:39.320.18-Jan-2020 4898.01 4078.72 73.32 1.00 233.03 2811.04
   10:31:39.520.18-Jan-2020 4898.01 4078.72 73.32 1.00 233.23 2811.04
   10:31:39.720.18-Jan-2020 4898.01 4078.82 73.32 1.00 233.43 2811.04
   10:31:39.920.18-Jan-2020 4898.01 4078.75 73.32 1.00 233.63 2811.04
   10:31:40.120.18-Jan-2020 4898.01 4078.78 73.32 1.00 233.83 2811.04
   10:31:40.320.18-Jan-2020 4898.01 4078.75 73.32 1.00 234.03 2811.04
   10:31:40.520.18-Jan-2020 4898.01 4078.75 73.32 1.00 234.23 2811.04
   10:31:40.720.18-Jan-2020 4898.01 4078.61 73.32 1.00 234.43 2811.04
   10:31:40.920.18-Jan-2020 4898.01 4078.69 73.32 1.00 234.63 2811.04
   10:31:41.120.18-Jan-2020 4898.01 4078.78 73.32 1.00 234.83 2811.04
   10:31:41.320.18-Jan-2020 4898.01 4078.75 73.31 1.00 235.03 2811.04
   10:31:41.520.18-Jan-2020 4898.01 4078.75 73.31 1.00 235.23 2811.04
   10:31:41.720.18-Jan-2020 4898.01 4078.76 73.31 1.00 235.43 2811.04
   10:31:41.920.18-Jan-2020 4898.01 4078.68 73.31 1.00 235.63 2811.04
   10:31:42.120.18-Jan-2020 4898.01 4078.60 73.31 1.00 235.83 2811.04
   10:31:42.320.18-Jan-2020 4898.01 4078.78 73.31 1.00 236.03 2811.04
   10:31:42.520.18-Jan-2020 4898.01 4078.78 73.31 1.00 236.23 2811.04
   10:31:42.720.18-Jan-2020 4898.01 4078.73 73.31 1.00 236.43 2811.04
   10:31:42.920.18-Jan-2020 4898.01 4078.74 73.31 1.00 236.63 2811.04
   10:31:43.120.18-Jan-2020 4898.01 4078.77 73.31 1.00 236.83 2811.04
   10:31:43.320.18-Jan-2020 4898.01 4078.72 73.31 1.00 237.03 2811.04
   10:31:43.520.18-Jan-2020 4898.01 4078.72 73.31 1.00 237.23 2811.04
   10:31:43.720.18-Jan-2020 4898.01 4078.72 73.31 1.00 237.43 2811.04
   10:31:43.920.18-Jan-2020 4898.01 4078.72 73.31 1.00 237.63 2811.04
   10:31:44.120.18-Jan-2020 4898.01 4078.72 73.31 1.00 237.83 2811.04
   10:31:44.320.18-Jan-2020 4898.01 4078.71 73.31 1.00 238.03 2811.04
   10:31:44.520.18-Jan-2020 4898.01 4078.71 73.31 1.00 238.23 2811.04
   10:31:44.720.18-Jan-2020 4898.01 4078.71 73.31 1.00 238.43 2811.04
   10:31:44.920.18-Jan-2020 4898.01 4078.74 73.31 1.00 238.63 2811.04
   10:31:45.120.18-Jan-2020 4898.01 4078.71 73.31 1.00 238.83 2811.04
   10:31:45.320.18-Jan-2020 4898.01 4078.55 73.31 1.00 239.03 2811.04
   10:31:45.520.18-Jan-2020 4898.01 4078.55 73.31 1.00 239.23 2811.04
   10:31:45.720.18-Jan-2020 4898.01 4078.76 73.31 1.00 239.43 2811.04
   10:31:45.920.18-Jan-2020 4898.01 4078.78 73.31 1.00 239.63 2811.04
   10:31:46.121.18-Jan-2020 4898.01 4078.73 73.31 1.00 239.83 2811.04
   10:31:46.321.18-Jan-2020 4898.01 4078.76 73.31 1.00 240.03 2811.04
   10:31:46.521.18-Jan-2020 4898.01 4078.76 73.31 1.00 240.23 2811.04
   10:31:46.721.18-Jan-2020 4898.01 4078.72 73.31 1.00 240.43 2811.04
   10:31:46.921.18-Jan-2020 4898.01 4078.74 73.31 1.00 240.63 2811.04
   10:31:47.121.18-Jan-2020 4898.01 4078.71 73.31 1.00 240.83 2811.04
   10:31:47.321.18-Jan-2020 4898.01 4078.75 73.31 1.00 241.03 2811.04
   10:31:47.521.18-Jan-2020 4898.01 4078.75 73.31 1.00 241.23 2811.04
   10:31:47.721.18-Jan-2020 4898.01 4078.73 73.31 1.00 241.43 2811.04
   10:31:47.921.18-Jan-2020 4898.01 4078.74 73.31 1.00 241.63 2811.04
   10:31:48.121.18-Jan-2020 4898.01 4078.71 73.31 1.00 241.83 2811.04
   10:31:48.321.18-Jan-2020 4898.01 4078.75 73.31 1.00 242.03 2811.04
   10:31:48.521.18-Jan-2020 4898.01 4078.75 73.31 1.00 242.23 2811.04
   10:31:48.721.18-Jan-2020 4898.01 4078.45 73.31 1.00 242.43 2811.04
   10:31:48.921.18-Jan-2020 4898.01 4078.85 73.31 1.00 242.63 2811.04
   10:31:49.121.18-Jan-2020 4898.01 4078.79 73.30 1.00 242.83 2811.04
   10:31:49.321.18-Jan-2020 4898.01 4078.78 73.30 1.00 243.03 2811.04
   10:31:49.521.18-Jan-2020 4898.01 4078.78 73.30 1.00 243.23 2811.04
   10:31:49.721.18-Jan-2020 4898.01 4078.77 73.30 1.00 243.43 2811.04
   10:31:49.921.18-Jan-2020 4898.01 4078.72 73.30 1.00 243.63 2811.04
   10:31:50.121.18-Jan-2020 4898.01 4078.72 73.30 1.00 243.83 2811.04
   10:31:50.321.18-Jan-2020 4898.01 4078.50 73.30 1.00 244.03 2811.04
   10:31:50.521.18-Jan-2020 4898.01 4078.50 73.30 1.00 244.23 2811.04
   10:31:50.721.18-Jan-2020 4898.01 4078.79 73.30 1.00 244.43 2811.04
   10:31:50.921.18-Jan-2020 4898.01 4078.75 73.30 1.00 244.63 2811.04
   10:31:51.121.18-Jan-2020 4898.01 4078.78 73.30 1.00 244.83 2811.04
   10:31:51.321.18-Jan-2020 4898.01 4078.73 73.30 1.00 245.03 2811.04
   10:31:51.521.18-Jan-2020 4898.01 4078.73 73.30 1.00 245.23 2811.04
   10:31:51.721.18-Jan-2020 4898.01 4078.73 73.30 1.00 245.43 2811.04
   10:31:51.921.18-Jan-2020 4898.01 4078.76 73.30 1.00 245.63 2811.04
   10:31:52.121.18-Jan-2020 4898.01 4078.79 73.30 1.00 245.83 2811.04
   10:31:52.321.18-Jan-2020 4898.01 4078.76 73.30 1.00 246.03 2811.04
   10:31:52.521.18-Jan-2020 4898.01 4078.76 73.30 1.00 246.23 2811.04
   10:31:52.721.18-Jan-2020 4898.01 4078.69 73.30 1.00 246.43 2811.04
   10:31:52.921.18-Jan-2020 4898.01 4078.57 73.30 1.00 246.63 2811.04
   10:31:53.121.18-Jan-2020 4898.01 4078.82 73.30 1.00 246.83 2811.04
   10:31:53.321.18-Jan-2020 4898.01 4078.74 73.30 1.00 247.03 2811.04
   10:31:53.521.18-Jan-2020 4898.01 4078.74 73.30 1.00 247.23 2811.04
   10:31:53.721.18-Jan-2020 4898.01 4078.74 73.30 1.00 247.43 2811.04
   10:31:53.921.18-Jan-2020 4898.01 4078.77 73.30 1.00 247.63 2811.04
   10:31:54.121.18-Jan-2020 4898.01 4078.75 73.30 1.00 247.83 2811.04
   10:31:54.322.18-Jan-2020 4898.01 4078.73 73.30 1.00 248.03 2811.04
   10:31:54.522.18-Jan-2020 4898.01 4078.73 73.30 1.00 248.23 2811.04
   10:31:54.722.18-Jan-2020 4898.01 4078.70 73.30 1.00 248.43 2811.04
   10:31:54.922.18-Jan-2020 4898.01 4078.74 73.30 1.00 248.63 2811.04
   10:31:55.122.18-Jan-2020 4898.01 4078.72 73.30 1.00 248.83 2811.04
   10:31:55.322.18-Jan-2020 4898.01 4078.74 73.30 1.00 249.03 2811.04
   10:31:55.522.18-Jan-2020 4898.01 4078.74 73.30 1.00 249.23 2811.04
   10:31:55.722.18-Jan-2020 4898.01 4078.72 73.30 1.00 249.43 2811.04
   10:31:55.922.18-Jan-2020 4898.01 4078.75 73.30 1.00 249.63 2811.04
   10:31:56.122.18-Jan-2020 4898.01 4078.54 73.30 1.00 249.83 2811.04
   10:31:56.322.18-Jan-2020 4898.01 4078.74 73.30 1.00 250.03 2811.04
   10:31:56.522.18-Jan-2020 4898.01 4078.74 73.30 1.00 250.23 2811.04
   10:31:56.722.18-Jan-2020 4898.01 4078.75 73.30 1.00 250.43 2811.04
   10:31:56.922.18-Jan-2020 4898.01 4078.78 73.30 1.00 250.63 2811.04
   10:31:57.122.18-Jan-2020 4898.01 4078.73 73.29 1.00 250.83 2811.04
   10:31:57.322.18-Jan-2020 4898.01 4078.76 73.29 1.00 251.03 2811.04
   10:31:57.522.18-Jan-2020 4898.01 4078.76 73.29 1.00 251.23 2811.04
   10:31:57.722.18-Jan-2020 4898.01 4078.73 73.29 1.00 251.43 2811.04
   10:31:57.922.18-Jan-2020 4898.01 4078.74 73.29 1.00 251.63 2811.04
   10:31:58.122.18-Jan-2020 4898.01 4078.72 73.29 1.00 251.83 2811.04
   10:31:58.322.18-Jan-2020 4898.01 4078.74 73.29 1.00 252.03 2811.04
   10:31:58.522.18-Jan-2020 4898.01 4078.74 73.29 1.00 252.23 2811.04
   10:31:58.722.18-Jan-2020 4898.01 4078.74 73.29 1.00 252.43 2811.04
   10:31:58.922.18-Jan-2020 4898.01 4078.73 73.29 1.00 252.63 2811.04
   10:31:59.122.18-Jan-2020 4898.01 4078.72 73.29 1.00 252.83 2811.04
