~Version Information
 VERS.                  2.0:   CWLS log ASCII Standard -VERSION 2.0
 WRAP.                   NO:   One line per depth step
~Well Information Block
#MNEM.UNIT     VALUE/NAME     DESCRIPTION
#---------     -----------    ---------------------------
 STRT.S             10:27:46 18-Jan-20: START TIME 10:27:46 18-Jan-20
 STOP.S             10:35:37 18-Jan-20: STOP TIME  10:35:37 18-Jan-20
 STEP.S                   0.00: STEP TIME
 NULL.                 -999.25: NULL VALUE
 DFWT.                        :  DIST FWL TEXT
 DFST.                        :  DIST FSL TEXT
 DMF .             Drill Floor:  DRILL MEAS FROM
 STIM.      17.57.20 21-Dec-19:  START TIME
 DATE.      17.57.20 21-Dec-19:  END TIME
 SPUD.               21-Dec-19:  SPUD DATE
 NREF.                    Grid:  NORTH REFERENCE
 HPTY.       Minimum Curvature:  HOLE POS TYPE
 DMOD.             Drill Model:  DRILL MOD DESC
 SVYD.                  Survey:  SURVEY DESC
 ILTD.               Lithology:  INTERP LTH DESC
 FTOP.          Formation Tops:  FORM TOPS DESC
 PDAT.          Mean Sea Level:  PERMANENT DATUM
 FLD .                     ACG:  FIELD NAME
 SON .        AZ-XX-0905715376:  JOB NUMBER
 CTRY.              Azerbaijan:  COUNTRY NAME
 WELL.                    E04Y:  WELL NAME
 SRVC.          TURAN DRILLING:  CONTRACTOR
 COMP.     BP Exploration (Caspian Sea) Ltd.:  COMPANY
 WTYP.                Deviated:  WELL TYPE
 UWI .                     N/a:  UNIQUE WELL IDENTIFIER
 API .                     N/a:  API NUMBER
 BASE.              Azerbaijan:  LOGGING EQUIPMENT BASE LOCATION
 REGN.                   EESSA:  REGION
 MWDS.                    Baku:  MWD SHOP
 RIG .                     DWG:  RIG NAME
 DOE .                     N/a:  DOE NUMBER
 CNTY.                    Baku:  COUNTY NAME
 DCON.         Sperry Drilling:  DIRECTNL CONTR
 UNIT.                     N/a:  LOGGING EQUIPMENT ID
 MDS .        Operator Entered:  MAG DATA SOURCE
 PROV.                        :  PROVINCE
 STAT.                        :  STATE
 LOC .                        :  LOCATION
 LMF .             Drill Floor:  LOG MEASURED FROM
 TVDS.m                  43.16:  TVDSS CORRECTN
 LATI.deg                40.17:  LATITUDE
 LONG.deg                51.17:  LONGITUDE
 WHNS.m                  -0.12:  WELL HEAD N/S
 WHEW.m                  -5.41:  WELL HEAD E/W
 UTMX.m              514337.95:  UTM X
 UTMY.m             4448627.46:  UTM Y
 DFWL.m                   0.00:  DISTANCE FWL
 DFSL.m                   0.00:  DISTANCE FSL
 SDEP.m                   0.00:  START DEPTH
 TDD .m                   0.00:  TOTAL DEPTH (DRILLER)
 VSDR.deg               235.12:  VERT SEC DIRECT
 GVFD.g                   1.00:  GRAVITY FIELD
 MFLD.nT              50294.00:  MAGNETIC FIELD
 MDIP.deg                59.61:  MAGNETIC DIP
 MDEC.deg                 6.58:  MAGNETIC DECL
 GRDC.deg                 0.09:  GRID CORRECTION
 AZTC.deg                 6.49:  AZM TOTAL CORR
 EPD .m                   0.00:  ELEVATION
 EGL .m                   0.00:  GROUND ELEVATION
 WDMS.m                 176.20:  WD ELEV
 APD .m                  43.16:  DEPTH ABOVE PD
 DEP .m                3172.61:  DEPTH
 AGAP.m                  43.16:  AIR GAP
 VSEW.m                  -5.41:  VERT SEC E/W
 VSNS.m                  -0.12:  VERT SEC N/S
 EKB .m                  43.16:  KB ELEVATION
 EDF .m                  43.16:  DF ELEVATION
 TDL .m                 295.00:  TOTAL DEPTH (LOGGER)
 VSC .                       0:  VS TO CLOSURE
 MAGU.                 1852276:  MAGUTM CHECKSUM
~Parameter Information Block
#MNEM.UNIT       Value        Description
#---------     -----------    ---------------------------
 AV  .mps                 1.60:  Ann Velocity 
 AVMX.mps                 2.10:  Max Ann Veloc 
 AZIF.deg               290.59:  Azm, Final 
 BHAT.        Rotary Steerable:  BHA Type 
 BROT.°/30m               1.00:  Build Rotating 
 BS  .in                  6.50:  Bit Size 
 BSZ .in                  6.50:  Bit Size 
 BTPL.psig              120.00:  Bit Press Loss 
 CABU.                     Yes:  Customer Abuse 
 CGEO.          Eldar Huseynov:  Customer Geo 
 COMM.                     ¬Øj:  Run Comments 1 
 TCS .hr                 87.00:  Time Ciculation Ended 
 CV  .mps                 4.01:  Crit Velocity 
 CVMX.mps                 5.06:  Max Crit Veloc 
 DD1 .             Aziz Aliyev:  Direct Drillr 1 
 DD2 .            Sanan Aliyev:  Direct Drillr 2 
 DDSV.               Geo-Pilot:  DD Service 
 DEFF.%                  95.00:  % Det Eff 
 DLRX.°/30m               0.75:  Dogleg Rot Max 
 DLSO.°/30m               0.65:  Dogleg Oriented 
 DLSX.°/30m               1.39:  Dogleg Str Max 
 DRET.      18.25.00 19-Jan-20:  Drill End Time 
 DRST.      11.56.48 17-Jan-20:  Drill Start Tim 
 DTIM.hr                 27.16:  Time Drilling 
 EDEP.m                5161.01:  End Depth 
 ENG1.          Rasim Hashimov:  Engineer 1 
 ENG2.      Bakhtiyar Jabbarli:  Engineer 2 
 ETIM.      11.56.48 21-Jan-20:  End Time 
 FLOI.gpm               350.00:  Flow In 
 FLON.gpm               300.00:  Flow In Min 
 FLOS.cptm                0.00:  Fluid Loss 
 FLOX.gpm               400.00:  Flow In Max 
 HFLO.                      No:  High Flow 
 HPRE.                      No:  High Pressure 
 HTEM.                      No:  High Temp 
 HYDO.m                   1.85:  Hydro Offset 
 IFIN.deg                71.58:  Inc, Final 
 IMAX.deg                71.83:  Inc Max 
 IMIN.deg                71.12:  Inc Min 
 IMND.m                5099.48:  Inc Min Depth 
 IMXD.m                5071.08:  Inc Max Depth 
 JARR.                      No:  Jarring 
 LETM.      18.25.00 19-Jan-20:  Log End Time 
 LOST.hr                     0:  Lost Rig Time 
 LSTM.      11.56.48 17-Jan-20:  Log Start Time 
 MDCL.ppm             37000.00:  Mud Chlorides 
 MDES.     Inversion Oil/Synthetic:  Mud Desc 
 DFD .sg                  1.34:  Mud Density 
 MDMN.sg                  1.34:  Dens Mud Min 
 MDMX.sg                  1.34:  Dens Mud Max 
 MOIL.                      69:  Run Mud Oil % 
 MOWR.                   69:31:  Run Mud OWR 
 MSND.                     0.1:  Run Mud Sand % 
 MSOL.                    17.6:  Run Mud Solids% 
 DFV .spqt               79.00:  Mud Viscosity 
 MWOD.in                  4.75:  MWD Tool OD 
 MWSI.                      No:  Serv Intrp, MWD 
 OTIM.hr                126.10:  Time Operating 
 PMAX.psia             6000.00:  Press Op, Max 
 PV  .cP                 29.00:  Mud PV 
 RUN .                     400:  Run Number 
 ROPA.m/hr               11.00:  ROP Avg 
 ROPN.m/hr                5.00:  ROP Min 
 ROPX.m/hr               18.00:  ROP Max 
 RPMA.rpm               139.00:  RPM Surface Avg 
 RPMN.rpm               100.00:  RPM Surface Min 
 RPMX.rpm               140.00:  RPM Surface Max 
 RRUN.                     400:  Rig Run Number 
 SAZI.deg               290.22:  Azm, Start 
 SDEP.m                4868.01:  Start Depth 
 SIDD.                      No:  Serv Intrp, DD 
 SINC.deg                71.77:  Inc, Start 
 SPPA.psig             5550.00:  SPP Avg 
 SPPN.psig             4300.00:  SPP Min 
 SPPX.psig             5600.00:  SPP Max 
 STIM.      23.45.48 15-Jan-20:  Start Time 
 SVCS.                 DD, MWD:  Services 
 SVER.                    9.20:  Sperry Version 
 TDAT.m                5161.01:  Tot Depth Attmp 
 TDDF.                      No:  Trip for DD 
 TDLG.m                 295.00:  Tot Depth Loggd 
 TFF .                      No:  Trip for Fail 
 TQAA.f-kp               13.00:  Torque Abs Avg 
 TQAN.f-kp               13.00:  Torque Abs Min 
 TQAX.f-kp               16.00:  Torque Abs Max 
 TRRT.°/30m               0.25:  Turn Rotating 
 MRT .                     ADR:  Maximum Recorded Temperature 
 TTMX.degC               88.00:  Max Tool Temp 
 VS01.                90577859:  Virtual Str1 SN 
 VS02.                90521879:  Virtual Str2 SN 
 VS03.                90580299:  Virtual Str3 SN 
 VS04.                90515982:  Virtual Str4 SN 
 VS05.                90547765:  Virtual Str5 SN 
 WBMN.klb                 2.00:  WOB Min 
 WITN.           Adil Mammadov:  Customer Rep 
 WITN.        Elmaddin Rahimov:  Customer Rep 2 
 WOBA.klb                 3.00:  WOB Avg 
 WOBX.klb                 5.00:  WOB Max 
 YP  .lhf2               30.00:  Yield Point 
~Curve Information Block
#MNEM.UNIT                 API CODE     Curve Description
#---------               -----------    ---------------------------
 TIME.HHMMSS            00 000 000 000:  GT Time & Date
 GTDEPTH.m              00 000 000 000:  GT Depth
 GTPQH.psia             00 000 000 000:  GT HR Quartz Pressure
 GTTQ.degC              00 000 000 000:  GT Quartz Temperature
 GTTN.NONE              00 000 000 000:  GT Test Number
 GTET.sec               00 000 000 000:  GT Elapsed Test Time
 GTTVD.m                00 000 000 000:  GT True Vertical Depth
#Other Information
#
#WARRANTY: Halliburton will use its best efforts to furnish customers with 
#accurate information and interpretations that are part of, and incident to, the services 
#provided.  However, Halliburton cannot and does not warrant the accuracy 
#or correctness of such information and interpretations.  Under no circumstances should any 
#such information or interpretation be relied upon as the sole basis for any drilling, 
#completion, production, or financial decision or any procedure involving any risk to the 
#safety of any drilling venture, drilling rig or its crew or any other third party.  The 
#Customer has full responsibility for all drilling, completion and production operation.  
#Halliburton makes no representations or warranties, either expressed or 
#implied, including, but not limited to, the implied warranties of merchantability or fitness 
#for a particular purpose, with respect to the services rendered.  In no event will 
#Halliburton be liable for failure to obtain any particular results or for 
#any damages, including, but not limited to, indirect, special or consequential damages, 
#resulting from the use of any information or interpretation provided by Halliburton.
#
~A           TIME           GTDEPTH  GTPQH  GTTQ  GTTN  GTET   GTTVD  
# ...
   10:33:08.331.18-Jan-2020 4898.01 4078.80 73.21 1.00 322.04 2811.04
   10:33:08.531.18-Jan-2020 4898.01 4078.80 73.21 1.00 322.24 2811.04
   10:33:08.731.18-Jan-2020 4898.01 4078.68 73.21 1.00 322.44 2811.04
   10:33:08.931.18-Jan-2020 4898.01 4078.71 73.21 1.00 322.64 2811.04
   10:33:09.131.18-Jan-2020 4898.01 4078.67 73.21 1.00 322.84 2811.04
   10:33:09.331.18-Jan-2020 4898.01 4078.69 73.21 1.00 323.04 2811.04
   10:33:09.531.18-Jan-2020 4898.01 4078.69 73.21 1.00 323.24 2811.04
   10:33:09.731.18-Jan-2020 4898.01 4078.67 73.21 1.00 323.44 2811.04
   10:33:09.931.18-Jan-2020 4898.01 4078.69 73.21 1.00 323.64 2811.04
   10:33:10.131.18-Jan-2020 4898.01 4078.65 73.20 1.00 323.84 2811.04
   10:33:10.331.18-Jan-2020 4898.01 4078.68 73.20 1.00 324.04 2811.04
   10:33:10.531.18-Jan-2020 4898.01 4078.68 73.20 1.00 324.24 2811.04
   10:33:10.731.18-Jan-2020 4898.01 4078.68 73.20 1.00 324.44 2811.04
   10:33:10.931.18-Jan-2020 4898.01 4078.66 73.20 1.00 324.64 2811.04
   10:33:11.131.18-Jan-2020 4898.01 4078.66 73.20 1.00 324.84 2811.04
   10:33:11.331.18-Jan-2020 4898.01 4078.67 73.20 1.00 325.04 2811.04
   10:33:11.531.18-Jan-2020 4898.01 4078.67 73.20 1.00 325.24 2811.04
   10:33:11.731.18-Jan-2020 4898.01 4078.78 73.20 1.00 325.44 2811.04
   10:33:11.931.18-Jan-2020 4898.01 4078.71 73.20 1.00 325.64 2811.04
   10:33:12.131.18-Jan-2020 4898.01 4078.72 73.20 1.00 325.84 2811.04
   10:33:12.331.18-Jan-2020 4898.01 4078.71 73.20 1.00 326.04 2811.04
   10:33:12.531.18-Jan-2020 4898.01 4078.71 73.20 1.00 326.24 2811.04
   10:33:12.731.18-Jan-2020 4898.01 4078.72 73.20 1.00 326.44 2811.04
   10:33:12.931.18-Jan-2020 4898.01 4078.65 73.20 1.00 326.64 2811.04
   10:33:13.131.18-Jan-2020 4898.01 4078.70 73.20 1.00 326.84 2811.04
   10:33:13.331.18-Jan-2020 4898.01 4078.66 73.20 1.00 327.04 2811.04
   10:33:13.531.18-Jan-2020 4898.01 4078.66 73.20 1.00 327.24 2811.04
   10:33:13.731.18-Jan-2020 4898.01 4078.69 73.20 1.00 327.44 2811.04
   10:33:13.931.18-Jan-2020 4898.01 4078.67 73.20 1.00 327.64 2811.04
   10:33:14.131.18-Jan-2020 4898.01 4078.69 73.20 1.00 327.84 2811.04
   10:33:14.331.18-Jan-2020 4898.01 4078.67 73.20 1.00 328.04 2811.04
   10:33:14.531.18-Jan-2020 4898.01 4078.67 73.20 1.00 328.24 2811.04
   10:33:14.731.18-Jan-2020 4898.01 4078.62 73.20 1.00 328.44 2811.04
   10:33:14.931.18-Jan-2020 4898.01 4078.55 73.20 1.00 328.64 2811.04
   10:33:15.131.18-Jan-2020 4898.01 4078.79 73.20 1.00 328.84 2811.04
   10:33:15.331.18-Jan-2020 4898.01 4078.71 73.20 1.00 329.04 2811.04
   10:33:15.531.18-Jan-2020 4898.01 4078.71 73.20 1.00 329.24 2811.04
   10:33:15.731.18-Jan-2020 4898.01 4078.69 73.20 1.00 329.44 2811.04
   10:33:15.931.18-Jan-2020 4898.01 4078.72 73.20 1.00 329.64 2811.04
   10:33:16.131.18-Jan-2020 4898.01 4078.70 73.20 1.00 329.84 2811.04
   10:33:16.331.18-Jan-2020 4898.01 4078.51 73.20 1.00 330.04 2811.04
   10:33:16.532.18-Jan-2020 4898.01 4078.51 73.20 1.00 330.24 2811.04
   10:33:16.732.18-Jan-2020 4898.01 4078.72 73.20 1.00 330.44 2811.04
   10:33:16.932.18-Jan-2020 4898.01 4078.77 73.20 1.00 330.64 2811.04
   10:33:17.132.18-Jan-2020 4898.01 4078.72 73.20 1.00 330.84 2811.04
   10:33:17.332.18-Jan-2020 4898.01 4078.72 73.20 1.00 331.04 2811.04
   10:33:17.532.18-Jan-2020 4898.01 4078.72 73.20 1.00 331.24 2811.04
   10:33:17.732.18-Jan-2020 4898.01 4078.72 73.20 1.00 331.44 2811.04
   10:33:17.932.18-Jan-2020 4898.01 4078.80 73.20 1.00 331.64 2811.04
   10:33:18.132.18-Jan-2020 4898.01 4078.74 73.20 1.00 331.84 2811.04
   10:33:18.332.18-Jan-2020 4898.01 4078.77 73.20 1.00 332.04 2811.04
   10:33:18.532.18-Jan-2020 4898.01 4078.77 73.20 1.00 332.24 2811.04
   10:33:18.732.18-Jan-2020 4898.01 4078.71 73.19 1.00 332.44 2811.04
   10:33:18.932.18-Jan-2020 4898.01 4078.46 73.19 1.00 332.64 2811.04
   10:33:19.132.18-Jan-2020 4898.01 4078.82 73.19 1.00 332.84 2811.04
   10:33:19.332.18-Jan-2020 4898.01 4078.78 73.19 1.00 333.04 2811.04
   10:33:19.532.18-Jan-2020 4898.01 4078.78 73.19 1.00 333.24 2811.04
   10:33:19.732.18-Jan-2020 4898.01 4078.74 73.19 1.00 333.44 2811.04
   10:33:19.932.18-Jan-2020 4898.01 4078.76 73.19 1.00 333.64 2811.04
   10:33:20.132.18-Jan-2020 4898.01 4078.71 73.19 1.00 333.84 2811.04
   10:33:20.332.18-Jan-2020 4898.01 4078.75 73.19 1.00 334.04 2811.04
   10:33:20.532.18-Jan-2020 4898.01 4078.75 73.19 1.00 334.24 2811.04
   10:33:20.732.18-Jan-2020 4898.01 4078.73 73.19 1.00 334.44 2811.04
   10:33:20.932.18-Jan-2020 4898.01 4078.71 73.19 1.00 334.64 2811.04
   10:33:21.132.18-Jan-2020 4898.01 4078.70 73.19 1.00 334.84 2811.04
   10:33:21.332.18-Jan-2020 4898.01 4078.73 73.19 1.00 335.04 2811.04
   10:33:21.532.18-Jan-2020 4898.01 4078.73 73.19 1.00 335.24 2811.04
   10:33:21.732.18-Jan-2020 4898.01 4078.73 73.19 1.00 335.44 2811.04
   10:33:21.932.18-Jan-2020 4898.01 4078.70 73.19 1.00 335.64 2811.04
   10:33:22.132.18-Jan-2020 4898.01 4078.69 73.19 1.00 335.84 2811.04
   10:33:22.332.18-Jan-2020 4898.01 4078.52 73.19 1.00 336.04 2811.04
   10:33:22.532.18-Jan-2020 4898.01 4078.52 73.19 1.00 336.24 2811.04
   10:33:22.732.18-Jan-2020 4898.01 4078.79 73.19 1.00 336.44 2811.04
   10:33:22.932.18-Jan-2020 4898.01 4078.74 73.19 1.00 336.64 2811.04
   10:33:23.132.18-Jan-2020 4898.01 4078.75 73.19 1.00 336.84 2811.04
   10:33:23.332.18-Jan-2020 4898.01 4078.73 73.19 1.00 337.04 2811.04
   10:33:23.532.18-Jan-2020 4898.01 4078.73 73.19 1.00 337.24 2811.04
   10:33:23.732.18-Jan-2020 4898.01 4078.73 73.19 1.00 337.44 2811.04
   10:33:23.932.18-Jan-2020 4898.01 4078.70 73.19 1.00 337.64 2811.04
   10:33:24.132.18-Jan-2020 4898.01 4078.74 73.19 1.00 337.84 2811.04
   10:33:24.332.18-Jan-2020 4898.01 4078.70 73.19 1.00 338.04 2811.04
   10:33:24.532.18-Jan-2020 4898.01 4078.70 73.19 1.00 338.24 2811.04
   10:33:24.733.18-Jan-2020 4898.01 4078.72 73.19 1.00 338.44 2811.04
   10:33:24.933.18-Jan-2020 4898.01 4078.70 73.19 1.00 338.64 2811.04
   10:33:25.133.18-Jan-2020 4898.01 4078.74 73.19 1.00 338.84 2811.04
   10:33:25.333.18-Jan-2020 4898.01 4078.69 73.19 1.00 339.04 2811.04
   10:33:25.533.18-Jan-2020 4898.01 4078.69 73.19 1.00 339.24 2811.04
   10:33:25.733.18-Jan-2020 4898.01 4078.57 73.19 1.00 339.44 2811.04
   10:33:25.933.18-Jan-2020 4898.01 4078.80 73.19 1.00 339.64 2811.04
   10:33:26.133.18-Jan-2020 4898.01 4078.77 73.19 1.00 339.84 2811.04
   10:33:26.333.18-Jan-2020 4898.01 4078.74 73.19 1.00 340.04 2811.04
   10:33:26.533.18-Jan-2020 4898.01 4078.74 73.19 1.00 340.24 2811.04
   10:33:26.733.18-Jan-2020 4898.01 4078.73 73.19 1.00 340.44 2811.04
   10:33:26.933.18-Jan-2020 4898.01 4078.74 73.18 1.00 340.64 2811.04
   10:33:27.133.18-Jan-2020 4898.01 4078.55 73.18 1.00 340.84 2811.04
   10:33:27.333.18-Jan-2020 4898.01 4078.74 73.18 1.00 341.04 2811.04
   10:33:27.533.18-Jan-2020 4898.01 4078.74 73.18 1.00 341.24 2811.04
   10:33:27.733.18-Jan-2020 4898.01 4078.75 73.18 1.00 341.44 2811.04
   10:33:27.933.18-Jan-2020 4898.01 4078.78 73.18 1.00 341.64 2811.04
   10:33:28.133.18-Jan-2020 4898.01 4078.75 73.18 1.00 341.84 2811.04
   10:33:28.333.18-Jan-2020 4898.01 4078.73 73.18 1.00 342.04 2811.04
   10:33:28.533.18-Jan-2020 4898.01 4078.73 73.18 1.00 342.24 2811.04
   10:33:28.733.18-Jan-2020 4898.01 4078.79 73.18 1.00 342.44 2811.04
   10:33:28.933.18-Jan-2020 4898.01 4078.80 73.18 1.00 342.64 2811.04
   10:33:29.133.18-Jan-2020 4898.01 4078.78 73.18 1.00 342.84 2811.04
   10:33:29.333.18-Jan-2020 4898.01 4078.79 73.18 1.00 343.04 2811.04
   10:33:29.533.18-Jan-2020 4898.01 4078.79 73.18 1.00 343.24 2811.04
   10:33:29.733.18-Jan-2020 4898.01 4078.47 73.18 1.00 343.44 2811.04
   10:33:29.933.18-Jan-2020 4898.01 4078.87 73.18 1.00 343.64 2811.04
   10:33:30.133.18-Jan-2020 4898.01 4078.77 73.18 1.00 343.84 2811.04
   10:33:30.333.18-Jan-2020 4898.01 4078.78 73.18 1.00 344.04 2811.04
   10:33:30.533.18-Jan-2020 4898.01 4078.78 73.18 1.00 344.24 2811.04
   10:33:30.733.18-Jan-2020 4898.01 4078.77 73.18 1.00 344.44 2811.04
   10:33:30.933.18-Jan-2020 4898.01 4078.76 73.18 1.00 344.64 2811.04
   10:33:31.133.18-Jan-2020 4898.01 4078.74 73.18 1.00 344.84 2811.04
