~Version Information
 VERS.                  2.0:   CWLS log ASCII Standard -VERSION 2.0
 WRAP.                   NO:   One line per depth step
~Well Information Block
#MNEM.UNIT     VALUE/NAME     DESCRIPTION
#---------     -----------    ---------------------------
 STRT.S             14:05:37 19-Jan-20: START TIME 14:05:37 19-Jan-20
 STOP.S             14:13:29 19-Jan-20: STOP TIME  14:13:29 19-Jan-20
 STEP.S                   0.00: STEP TIME
 NULL.                 -999.25: NULL VALUE
 DFWT.                        :  DIST FWL TEXT
 DFST.                        :  DIST FSL TEXT
 DMF .             Drill Floor:  DRILL MEAS FROM
 STIM.      17.57.20 21-Dec-19:  START TIME
 DATE.      17.57.20 21-Dec-19:  END TIME
 SPUD.               21-Dec-19:  SPUD DATE
 NREF.                    Grid:  NORTH REFERENCE
 HPTY.       Minimum Curvature:  HOLE POS TYPE
 DMOD.             Drill Model:  DRILL MOD DESC
 SVYD.                  Survey:  SURVEY DESC
 ILTD.               Lithology:  INTERP LTH DESC
 FTOP.          Formation Tops:  FORM TOPS DESC
 PDAT.          Mean Sea Level:  PERMANENT DATUM
 FLD .                     ACG:  FIELD NAME
 SON .        AZ-XX-0905715376:  JOB NUMBER
 CTRY.              Azerbaijan:  COUNTRY NAME
 WELL.                    E04Y:  WELL NAME
 SRVC.          TURAN DRILLING:  CONTRACTOR
 COMP.     BP Exploration (Caspian Sea) Ltd.:  COMPANY
 WTYP.                Deviated:  WELL TYPE
 UWI .                     N/a:  UNIQUE WELL IDENTIFIER
 API .                     N/a:  API NUMBER
 BASE.              Azerbaijan:  LOGGING EQUIPMENT BASE LOCATION
 REGN.                   EESSA:  REGION
 MWDS.                    Baku:  MWD SHOP
 RIG .                     DWG:  RIG NAME
 DOE .                     N/a:  DOE NUMBER
 CNTY.                    Baku:  COUNTY NAME
 DCON.         Sperry Drilling:  DIRECTNL CONTR
 UNIT.                     N/a:  LOGGING EQUIPMENT ID
 MDS .        Operator Entered:  MAG DATA SOURCE
 PROV.                        :  PROVINCE
 STAT.                        :  STATE
 LOC .                        :  LOCATION
 LMF .             Drill Floor:  LOG MEASURED FROM
 TVDS.m                  43.16:  TVDSS CORRECTN
 LATI.deg                40.17:  LATITUDE
 LONG.deg                51.17:  LONGITUDE
 WHNS.m                  -0.12:  WELL HEAD N/S
 WHEW.m                  -5.41:  WELL HEAD E/W
 UTMX.m              514337.95:  UTM X
 UTMY.m             4448627.46:  UTM Y
 DFWL.m                   0.00:  DISTANCE FWL
 DFSL.m                   0.00:  DISTANCE FSL
 SDEP.m                   0.00:  START DEPTH
 TDD .m                   0.00:  TOTAL DEPTH (DRILLER)
 VSDR.deg               235.12:  VERT SEC DIRECT
 GVFD.g                   1.00:  GRAVITY FIELD
 MFLD.nT              50294.00:  MAGNETIC FIELD
 MDIP.deg                59.61:  MAGNETIC DIP
 MDEC.deg                 6.58:  MAGNETIC DECL
 GRDC.deg                 0.09:  GRID CORRECTION
 AZTC.deg                 6.49:  AZM TOTAL CORR
 EPD .m                   0.00:  ELEVATION
 EGL .m                   0.00:  GROUND ELEVATION
 WDMS.m                 176.20:  WD ELEV
 APD .m                  43.16:  DEPTH ABOVE PD
 DEP .m                3172.61:  DEPTH
 AGAP.m                  43.16:  AIR GAP
 VSEW.m                  -5.41:  VERT SEC E/W
 VSNS.m                  -0.12:  VERT SEC N/S
 EKB .m                  43.16:  KB ELEVATION
 EDF .m                  43.16:  DF ELEVATION
 TDL .m                 295.00:  TOTAL DEPTH (LOGGER)
 VSC .                       0:  VS TO CLOSURE
 MAGU.                 1852276:  MAGUTM CHECKSUM
~Parameter Information Block
#MNEM.UNIT       Value        Description
#---------     -----------    ---------------------------
 AV  .mps                 1.60:  Ann Velocity 
 AVMX.mps                 2.10:  Max Ann Veloc 
 AZIF.deg               290.59:  Azm, Final 
 BHAT.        Rotary Steerable:  BHA Type 
 BROT.°/30m               1.00:  Build Rotating 
 BS  .in                  6.50:  Bit Size 
 BSZ .in                  6.50:  Bit Size 
 BTPL.psig              120.00:  Bit Press Loss 
 CABU.                     Yes:  Customer Abuse 
 CGEO.          Eldar Huseynov:  Customer Geo 
 COMM.                     Tì‚:  Run Comments 1 
 TCS .hr                 87.00:  Time Ciculation Ended 
 CV  .mps                 4.01:  Crit Velocity 
 CVMX.mps                 5.06:  Max Crit Veloc 
 DD1 .             Aziz Aliyev:  Direct Drillr 1 
 DD2 .            Sanan Aliyev:  Direct Drillr 2 
 DDSV.               Geo-Pilot:  DD Service 
 DEFF.%                  95.00:  % Det Eff 
 DLRX.°/30m               0.75:  Dogleg Rot Max 
 DLSO.°/30m               0.65:  Dogleg Oriented 
 DLSX.°/30m               1.39:  Dogleg Str Max 
 DRET.      18.25.00 19-Jan-20:  Drill End Time 
 DRST.      11.56.48 17-Jan-20:  Drill Start Tim 
 DTIM.hr                 27.16:  Time Drilling 
 EDEP.m                5161.01:  End Depth 
 ENG1.          Rasim Hashimov:  Engineer 1 
 ENG2.      Bakhtiyar Jabbarli:  Engineer 2 
 ETIM.      11.56.48 21-Jan-20:  End Time 
 FLOI.gpm               350.00:  Flow In 
 FLON.gpm               300.00:  Flow In Min 
 FLOS.cptm                0.00:  Fluid Loss 
 FLOX.gpm               400.00:  Flow In Max 
 HFLO.                      No:  High Flow 
 HPRE.                      No:  High Pressure 
 HTEM.                      No:  High Temp 
 HYDO.m                   1.85:  Hydro Offset 
 IFIN.deg                71.58:  Inc, Final 
 IMAX.deg                71.83:  Inc Max 
 IMIN.deg                71.12:  Inc Min 
 IMND.m                5099.48:  Inc Min Depth 
 IMXD.m                5071.08:  Inc Max Depth 
 JARR.                      No:  Jarring 
 LETM.      18.25.00 19-Jan-20:  Log End Time 
 LOST.hr                     0:  Lost Rig Time 
 LSTM.      11.56.48 17-Jan-20:  Log Start Time 
 MDCL.ppm             37000.00:  Mud Chlorides 
 MDES.     Inversion Oil/Synthetic:  Mud Desc 
 DFD .sg                  1.34:  Mud Density 
 MDMN.sg                  1.34:  Dens Mud Min 
 MDMX.sg                  1.34:  Dens Mud Max 
 MOIL.                      69:  Run Mud Oil % 
 MOWR.                   69:31:  Run Mud OWR 
 MSND.                     0.1:  Run Mud Sand % 
 MSOL.                    17.6:  Run Mud Solids% 
 DFV .spqt               79.00:  Mud Viscosity 
 MWOD.in                  4.75:  MWD Tool OD 
 MWSI.                      No:  Serv Intrp, MWD 
 OTIM.hr                126.10:  Time Operating 
 PMAX.psia             6000.00:  Press Op, Max 
 PV  .cP                 29.00:  Mud PV 
 RUN .                     400:  Run Number 
 ROPA.m/hr               11.00:  ROP Avg 
 ROPN.m/hr                5.00:  ROP Min 
 ROPX.m/hr               18.00:  ROP Max 
 RPMA.rpm               139.00:  RPM Surface Avg 
 RPMN.rpm               100.00:  RPM Surface Min 
 RPMX.rpm               140.00:  RPM Surface Max 
 RRUN.                     400:  Rig Run Number 
 SAZI.deg               290.22:  Azm, Start 
 SDEP.m                4868.01:  Start Depth 
 SIDD.                      No:  Serv Intrp, DD 
 SINC.deg                71.77:  Inc, Start 
 SPPA.psig             5550.00:  SPP Avg 
 SPPN.psig             4300.00:  SPP Min 
 SPPX.psig             5600.00:  SPP Max 
 STIM.      23.45.48 15-Jan-20:  Start Time 
 SVCS.                 DD, MWD:  Services 
 SVER.                    9.20:  Sperry Version 
 TDAT.m                5161.01:  Tot Depth Attmp 
 TDDF.                      No:  Trip for DD 
 TDLG.m                 295.00:  Tot Depth Loggd 
 TFF .                      No:  Trip for Fail 
 TQAA.f-kp               13.00:  Torque Abs Avg 
 TQAN.f-kp               13.00:  Torque Abs Min 
 TQAX.f-kp               16.00:  Torque Abs Max 
 TRRT.°/30m               0.25:  Turn Rotating 
 MRT .                     ADR:  Maximum Recorded Temperature 
 TTMX.degC               88.00:  Max Tool Temp 
 VS01.                90577859:  Virtual Str1 SN 
 VS02.                90521879:  Virtual Str2 SN 
 VS03.                90580299:  Virtual Str3 SN 
 VS04.                90515982:  Virtual Str4 SN 
 VS05.                90547765:  Virtual Str5 SN 
 WBMN.klb                 2.00:  WOB Min 
 WITN.           Adil Mammadov:  Customer Rep 
 WITN.        Elmaddin Rahimov:  Customer Rep 2 
 WOBA.klb                 3.00:  WOB Avg 
 WOBX.klb                 5.00:  WOB Max 
 YP  .lhf2               30.00:  Yield Point 
~Curve Information Block
#MNEM.UNIT                 API CODE     Curve Description
#---------               -----------    ---------------------------
 TIME.HHMMSS            00 000 000 000:  GT Time & Date
 GTDEPTH.m              00 000 000 000:  GT Depth
 GTPQH.psia             00 000 000 000:  GT HR Quartz Pressure
 GTTQ.degC              00 000 000 000:  GT Quartz Temperature
 GTTN.NONE              00 000 000 000:  GT Test Number
 GTET.sec               00 000 000 000:  GT Elapsed Test Time
 GTTVD.m                00 000 000 000:  GT True Vertical Depth
#Other Information
#
#WARRANTY: Halliburton will use its best efforts to furnish customers with 
#accurate information and interpretations that are part of, and incident to, the services 
#provided.  However, Halliburton cannot and does not warrant the accuracy 
#or correctness of such information and interpretations.  Under no circumstances should any 
#such information or interpretation be relied upon as the sole basis for any drilling, 
#completion, production, or financial decision or any procedure involving any risk to the 
#safety of any drilling venture, drilling rig or its crew or any other third party.  The 
#Customer has full responsibility for all drilling, completion and production operation.  
#Halliburton makes no representations or warranties, either expressed or 
#implied, including, but not limited to, the implied warranties of merchantability or fitness 
#for a particular purpose, with respect to the services rendered.  In no event will 
#Halliburton be liable for failure to obtain any particular results or for 
#any damages, including, but not limited to, indirect, special or consequential damages, 
#resulting from the use of any information or interpretation provided by Halliburton.
#
~A           TIME           GTDEPTH  GTPQH  GTTQ  GTTN  GTET   GTTVD  
# ...
   14:10:13.684.19-Jan-2020 5113.51 4117.04 81.55 6.00 276.06 2879.41
   14:10:13.884.19-Jan-2020 5113.51 4117.04 81.55 6.00 276.26 2879.41
   14:10:14.084.19-Jan-2020 5113.51 4117.06 81.55 6.00 276.46 2879.41
   14:10:14.284.19-Jan-2020 5113.51 4117.03 81.55 6.00 276.66 2879.41
   14:10:14.484.19-Jan-2020 5113.51 4117.03 81.55 6.00 276.86 2879.41
   14:10:14.684.19-Jan-2020 5113.51 4117.03 81.55 6.00 277.06 2879.41
   14:10:14.884.19-Jan-2020 5113.51 4117.03 81.55 6.00 277.26 2879.41
   14:10:15.084.19-Jan-2020 5113.51 4117.03 81.55 6.00 277.46 2879.41
   14:10:15.284.19-Jan-2020 5113.51 4117.01 81.55 6.00 277.66 2879.41
   14:10:15.484.19-Jan-2020 5113.51 4117.03 81.55 6.00 277.86 2879.41
   14:10:15.684.19-Jan-2020 5113.51 4117.01 81.55 6.00 278.06 2879.41
   14:10:15.884.19-Jan-2020 5113.51 4117.01 81.55 6.00 278.26 2879.41
   14:10:16.085.19-Jan-2020 5113.51 4117.00 81.55 6.00 278.46 2879.41
   14:10:16.285.19-Jan-2020 5113.51 4117.03 81.55 6.00 278.66 2879.41
   14:10:16.485.19-Jan-2020 5113.51 4117.00 81.55 6.00 278.86 2879.41
   14:10:16.685.19-Jan-2020 5113.51 4116.84 81.55 6.00 279.06 2879.41
   14:10:16.885.19-Jan-2020 5113.51 4116.84 81.55 6.00 279.26 2879.41
   14:10:17.085.19-Jan-2020 5113.51 4117.02 81.54 6.00 279.46 2879.41
   14:10:17.285.19-Jan-2020 5113.51 4117.02 81.54 6.00 279.66 2879.41
   14:10:17.485.19-Jan-2020 5113.51 4116.85 81.54 6.00 279.86 2879.41
   14:10:17.685.19-Jan-2020 5113.51 4117.14 81.54 6.00 280.06 2879.41
   14:10:17.885.19-Jan-2020 5113.51 4117.14 81.54 6.00 280.26 2879.41
   14:10:18.085.19-Jan-2020 5113.51 4117.03 81.54 6.00 280.46 2879.41
   14:10:18.285.19-Jan-2020 5113.51 4117.04 81.54 6.00 280.66 2879.41
   14:10:18.485.19-Jan-2020 5113.51 4117.04 81.54 6.00 280.86 2879.41
   14:10:18.685.19-Jan-2020 5113.51 4116.89 81.54 6.00 281.06 2879.41
   14:10:18.885.19-Jan-2020 5113.51 4116.89 81.54 6.00 281.26 2879.41
   14:10:19.085.19-Jan-2020 5113.51 4117.04 81.54 6.00 281.46 2879.41
   14:10:19.285.19-Jan-2020 5113.51 4117.02 81.54 6.00 281.66 2879.41
   14:10:19.485.19-Jan-2020 5113.51 4117.06 81.54 6.00 281.86 2879.41
   14:10:19.685.19-Jan-2020 5113.51 4116.86 81.54 6.00 282.06 2879.41
   14:10:19.885.19-Jan-2020 5113.51 4116.86 81.54 6.00 282.26 2879.41
   14:10:20.085.19-Jan-2020 5113.51 4117.04 81.54 6.00 282.46 2879.41
   14:10:20.285.19-Jan-2020 5113.51 4117.02 81.54 6.00 282.66 2879.41
   14:10:20.485.19-Jan-2020 5113.51 4117.05 81.54 6.00 282.86 2879.41
   14:10:20.685.19-Jan-2020 5113.51 4117.05 81.54 6.00 283.06 2879.41
   14:10:20.886.19-Jan-2020 5113.51 4117.05 81.54 6.00 283.26 2879.41
   14:10:21.086.19-Jan-2020 5113.51 4117.04 81.54 6.00 283.46 2879.41
   14:10:21.286.19-Jan-2020 5113.51 4117.03 81.54 6.00 283.66 2879.41
   14:10:21.486.19-Jan-2020 5113.51 4117.05 81.54 6.00 283.86 2879.41
   14:10:21.686.19-Jan-2020 5113.51 4117.02 81.54 6.00 284.06 2879.41
   14:10:21.886.19-Jan-2020 5113.51 4117.02 81.54 6.00 284.26 2879.41
   14:10:22.086.19-Jan-2020 5113.51 4117.03 81.54 6.00 284.46 2879.41
   14:10:22.286.19-Jan-2020 5113.51 4117.01 81.54 6.00 284.66 2879.41
   14:10:22.486.19-Jan-2020 5113.51 4117.02 81.54 6.00 284.86 2879.41
   14:10:22.686.19-Jan-2020 5113.51 4117.02 81.54 6.00 285.06 2879.41
   14:10:22.886.19-Jan-2020 5113.51 4117.02 81.54 6.00 285.26 2879.41
   14:10:23.086.19-Jan-2020 5113.51 4117.13 81.54 6.00 285.46 2879.41
   14:10:23.286.19-Jan-2020 5113.51 4117.05 81.54 6.00 285.66 2879.41
   14:10:23.486.19-Jan-2020 5113.51 4117.00 81.54 6.00 285.86 2879.41
   14:10:23.686.19-Jan-2020 5113.51 4117.07 81.54 6.00 286.06 2879.41
   14:10:23.886.19-Jan-2020 5113.51 4117.07 81.54 6.00 286.26 2879.41
   14:10:24.086.19-Jan-2020 5113.51 4117.04 81.54 6.00 286.46 2879.41
   14:10:24.286.19-Jan-2020 5113.51 4117.04 81.54 6.00 286.66 2879.41
   14:10:24.486.19-Jan-2020 5113.51 4117.03 81.54 6.00 286.86 2879.41
   14:10:24.686.19-Jan-2020 5113.51 4117.04 81.54 6.00 287.06 2879.41
   14:10:24.886.19-Jan-2020 5113.51 4117.04 81.54 6.00 287.26 2879.41
   14:10:25.086.19-Jan-2020 5113.51 4117.03 81.53 6.00 287.46 2879.41
   14:10:25.286.19-Jan-2020 5113.51 4117.02 81.53 6.00 287.66 2879.41
   14:10:25.486.19-Jan-2020 5113.51 4117.03 81.53 6.00 287.86 2879.41
   14:10:25.686.19-Jan-2020 5113.51 4117.02 81.53 6.00 288.06 2879.41
   14:10:25.887.19-Jan-2020 5113.51 4117.02 81.53 6.00 288.26 2879.41
   14:10:26.087.19-Jan-2020 5113.51 4117.03 81.53 6.00 288.46 2879.41
   14:10:26.287.19-Jan-2020 5113.51 4116.84 81.53 6.00 288.66 2879.41
   14:10:26.487.19-Jan-2020 5113.51 4117.14 81.53 6.00 288.86 2879.41
   14:10:26.687.19-Jan-2020 5113.51 4117.04 81.53 6.00 289.06 2879.41
   14:10:26.887.19-Jan-2020 5113.51 4117.04 81.53 6.00 289.26 2879.41
   14:10:27.087.19-Jan-2020 5113.51 4116.87 81.53 6.00 289.46 2879.41
   14:10:27.287.19-Jan-2020 5113.51 4117.16 81.53 6.00 289.66 2879.41
   14:10:27.487.19-Jan-2020 5113.51 4117.05 81.53 6.00 289.86 2879.41
   14:10:27.687.19-Jan-2020 5113.51 4117.03 81.53 6.00 290.06 2879.41
   14:10:27.887.19-Jan-2020 5113.51 4117.03 81.53 6.00 290.26 2879.41
   14:10:28.087.19-Jan-2020 5113.51 4117.04 81.53 6.00 290.46 2879.41
   14:10:28.287.19-Jan-2020 5113.51 4116.91 81.53 6.00 290.66 2879.41
   14:10:28.487.19-Jan-2020 5113.51 4117.10 81.53 6.00 290.86 2879.41
   14:10:28.687.19-Jan-2020 5113.51 4117.06 81.53 6.00 291.06 2879.41
   14:10:28.887.19-Jan-2020 5113.51 4117.06 81.53 6.00 291.26 2879.41
   14:10:29.087.19-Jan-2020 5113.51 4117.06 81.53 6.00 291.46 2879.41
   14:10:29.287.19-Jan-2020 5113.51 4116.87 81.53 6.00 291.66 2879.41
   14:10:29.487.19-Jan-2020 5113.51 4117.16 81.53 6.00 291.86 2879.41
   14:10:29.687.19-Jan-2020 5113.51 4117.05 81.53 6.00 292.06 2879.41
   14:10:29.887.19-Jan-2020 5113.51 4117.05 81.53 6.00 292.26 2879.41
   14:10:30.087.19-Jan-2020 5113.51 4117.06 81.53 6.00 292.46 2879.41
   14:10:30.287.19-Jan-2020 5113.51 4117.06 81.53 6.00 292.66 2879.41
   14:10:30.487.19-Jan-2020 5113.51 4117.06 81.53 6.00 292.86 2879.41
   14:10:30.688.19-Jan-2020 5113.51 4117.05 81.53 6.00 293.06 2879.41
   14:10:30.888.19-Jan-2020 5113.51 4117.05 81.53 6.00 293.26 2879.41
   14:10:31.088.19-Jan-2020 5113.51 4117.06 81.53 6.00 293.46 2879.41
   14:10:31.288.19-Jan-2020 5113.51 4117.04 81.53 6.00 293.66 2879.41
   14:10:31.488.19-Jan-2020 5113.51 4117.04 81.53 6.00 293.86 2879.41
   14:10:31.688.19-Jan-2020 5113.51 4117.04 81.53 6.00 294.06 2879.41
   14:10:31.888.19-Jan-2020 5113.51 4117.04 81.53 6.00 294.26 2879.41
   14:10:32.088.19-Jan-2020 5113.51 4117.04 81.53 6.00 294.46 2879.41
   14:10:32.288.19-Jan-2020 5113.51 4117.04 81.53 6.00 294.66 2879.41
   14:10:32.488.19-Jan-2020 5113.51 4116.85 81.53 6.00 294.86 2879.41
   14:10:32.688.19-Jan-2020 5113.51 4117.15 81.53 6.00 295.06 2879.41
   14:10:32.888.19-Jan-2020 5113.51 4117.15 81.53 6.00 295.26 2879.41
   14:10:33.088.19-Jan-2020 5113.51 4117.02 81.53 6.00 295.46 2879.41
   14:10:33.288.19-Jan-2020 5113.51 4117.08 81.52 6.00 295.66 2879.41
   14:10:33.488.19-Jan-2020 5113.51 4117.04 81.52 6.00 295.86 2879.41
   14:10:33.688.19-Jan-2020 5113.51 4117.06 81.52 6.00 296.06 2879.41
   14:10:33.888.19-Jan-2020 5113.51 4117.06 81.52 6.00 296.26 2879.41
   14:10:34.088.19-Jan-2020 5113.51 4117.05 81.52 6.00 296.46 2879.41
   14:10:34.288.19-Jan-2020 5113.51 4117.04 81.52 6.00 296.66 2879.41
   14:10:34.488.19-Jan-2020 5113.51 4117.04 81.52 6.00 296.86 2879.41
   14:10:34.688.19-Jan-2020 5113.51 4117.04 81.52 6.00 297.06 2879.41
   14:10:34.888.19-Jan-2020 5113.51 4117.04 81.52 6.00 297.26 2879.41
   14:10:35.088.19-Jan-2020 5113.51 4117.04 81.52 6.00 297.46 2879.41
   14:10:35.288.19-Jan-2020 5113.51 4117.03 81.52 6.00 297.66 2879.41
   14:10:35.489.19-Jan-2020 5113.51 4117.05 81.52 6.00 297.86 2879.41
   14:10:35.689.19-Jan-2020 5113.51 4117.03 81.52 6.00 298.06 2879.41
   14:10:35.889.19-Jan-2020 5113.51 4117.03 81.52 6.00 298.26 2879.41
   14:10:36.089.19-Jan-2020 5113.51 4117.15 81.52 6.00 298.46 2879.41
   14:10:36.289.19-Jan-2020 5113.51 4117.05 81.52 6.00 298.66 2879.41
   14:10:36.489.19-Jan-2020 5113.51 4117.03 81.52 6.00 298.86 2879.41
