~Version Information
 VERS.                  2.0:   CWLS log ASCII Standard -VERSION 2.0
 WRAP.                   NO:   One line per depth step
~Well Information Block
#MNEM.UNIT     VALUE/NAME     DESCRIPTION
#---------     -----------    ---------------------------
 STRT.S             10:27:46 18-Jan-20: START TIME 10:27:46 18-Jan-20
 STOP.S             10:35:37 18-Jan-20: STOP TIME  10:35:37 18-Jan-20
 STEP.S                   0.00: STEP TIME
 NULL.                 -999.25: NULL VALUE
 DFWT.                        :  DIST FWL TEXT
 DFST.                        :  DIST FSL TEXT
 DMF .             Drill Floor:  DRILL MEAS FROM
 STIM.      17.57.20 21-Dec-19:  START TIME
 DATE.      17.57.20 21-Dec-19:  END TIME
 SPUD.               21-Dec-19:  SPUD DATE
 NREF.                    Grid:  NORTH REFERENCE
 HPTY.       Minimum Curvature:  HOLE POS TYPE
 DMOD.             Drill Model:  DRILL MOD DESC
 SVYD.                  Survey:  SURVEY DESC
 ILTD.               Lithology:  INTERP LTH DESC
 FTOP.          Formation Tops:  FORM TOPS DESC
 PDAT.          Mean Sea Level:  PERMANENT DATUM
 FLD .                     ACG:  FIELD NAME
 SON .        AZ-XX-0905715376:  JOB NUMBER
 CTRY.              Azerbaijan:  COUNTRY NAME
 WELL.                    E04Y:  WELL NAME
 SRVC.          TURAN DRILLING:  CONTRACTOR
 COMP.     BP Exploration (Caspian Sea) Ltd.:  COMPANY
 WTYP.                Deviated:  WELL TYPE
 UWI .                     N/a:  UNIQUE WELL IDENTIFIER
 API .                     N/a:  API NUMBER
 BASE.              Azerbaijan:  LOGGING EQUIPMENT BASE LOCATION
 REGN.                   EESSA:  REGION
 MWDS.                    Baku:  MWD SHOP
 RIG .                     DWG:  RIG NAME
 DOE .                     N/a:  DOE NUMBER
 CNTY.                    Baku:  COUNTY NAME
 DCON.         Sperry Drilling:  DIRECTNL CONTR
 UNIT.                     N/a:  LOGGING EQUIPMENT ID
 MDS .        Operator Entered:  MAG DATA SOURCE
 PROV.                        :  PROVINCE
 STAT.                        :  STATE
 LOC .                        :  LOCATION
 LMF .             Drill Floor:  LOG MEASURED FROM
 TVDS.m                  43.16:  TVDSS CORRECTN
 LATI.deg                40.17:  LATITUDE
 LONG.deg                51.17:  LONGITUDE
 WHNS.m                  -0.12:  WELL HEAD N/S
 WHEW.m                  -5.41:  WELL HEAD E/W
 UTMX.m              514337.95:  UTM X
 UTMY.m             4448627.46:  UTM Y
 DFWL.m                   0.00:  DISTANCE FWL
 DFSL.m                   0.00:  DISTANCE FSL
 SDEP.m                   0.00:  START DEPTH
 TDD .m                   0.00:  TOTAL DEPTH (DRILLER)
 VSDR.deg               235.12:  VERT SEC DIRECT
 GVFD.g                   1.00:  GRAVITY FIELD
 MFLD.nT              50294.00:  MAGNETIC FIELD
 MDIP.deg                59.61:  MAGNETIC DIP
 MDEC.deg                 6.58:  MAGNETIC DECL
 GRDC.deg                 0.09:  GRID CORRECTION
 AZTC.deg                 6.49:  AZM TOTAL CORR
 EPD .m                   0.00:  ELEVATION
 EGL .m                   0.00:  GROUND ELEVATION
 WDMS.m                 176.20:  WD ELEV
 APD .m                  43.16:  DEPTH ABOVE PD
 DEP .m                3172.61:  DEPTH
 AGAP.m                  43.16:  AIR GAP
 VSEW.m                  -5.41:  VERT SEC E/W
 VSNS.m                  -0.12:  VERT SEC N/S
 EKB .m                  43.16:  KB ELEVATION
 EDF .m                  43.16:  DF ELEVATION
 TDL .m                 295.00:  TOTAL DEPTH (LOGGER)
 VSC .                       0:  VS TO CLOSURE
 MAGU.                 1852276:  MAGUTM CHECKSUM
~Parameter Information Block
#MNEM.UNIT       Value        Description
#---------     -----------    ---------------------------
 AV  .mps                 1.60:  Ann Velocity 
 AVMX.mps                 2.10:  Max Ann Veloc 
 AZIF.deg               290.59:  Azm, Final 
 BHAT.        Rotary Steerable:  BHA Type 
 BROT.°/30m               1.00:  Build Rotating 
 BS  .in                  6.50:  Bit Size 
 BSZ .in                  6.50:  Bit Size 
 BTPL.psig              120.00:  Bit Press Loss 
 CABU.                     Yes:  Customer Abuse 
 CGEO.          Eldar Huseynov:  Customer Geo 
 COMM.                     ¬Øj:  Run Comments 1 
 TCS .hr                 87.00:  Time Ciculation Ended 
 CV  .mps                 4.01:  Crit Velocity 
 CVMX.mps                 5.06:  Max Crit Veloc 
 DD1 .             Aziz Aliyev:  Direct Drillr 1 
 DD2 .            Sanan Aliyev:  Direct Drillr 2 
 DDSV.               Geo-Pilot:  DD Service 
 DEFF.%                  95.00:  % Det Eff 
 DLRX.°/30m               0.75:  Dogleg Rot Max 
 DLSO.°/30m               0.65:  Dogleg Oriented 
 DLSX.°/30m               1.39:  Dogleg Str Max 
 DRET.      18.25.00 19-Jan-20:  Drill End Time 
 DRST.      11.56.48 17-Jan-20:  Drill Start Tim 
 DTIM.hr                 27.16:  Time Drilling 
 EDEP.m                5161.01:  End Depth 
 ENG1.          Rasim Hashimov:  Engineer 1 
 ENG2.      Bakhtiyar Jabbarli:  Engineer 2 
 ETIM.      11.56.48 21-Jan-20:  End Time 
 FLOI.gpm               350.00:  Flow In 
 FLON.gpm               300.00:  Flow In Min 
 FLOS.cptm                0.00:  Fluid Loss 
 FLOX.gpm               400.00:  Flow In Max 
 HFLO.                      No:  High Flow 
 HPRE.                      No:  High Pressure 
 HTEM.                      No:  High Temp 
 HYDO.m                   1.85:  Hydro Offset 
 IFIN.deg                71.58:  Inc, Final 
 IMAX.deg                71.83:  Inc Max 
 IMIN.deg                71.12:  Inc Min 
 IMND.m                5099.48:  Inc Min Depth 
 IMXD.m                5071.08:  Inc Max Depth 
 JARR.                      No:  Jarring 
 LETM.      18.25.00 19-Jan-20:  Log End Time 
 LOST.hr                     0:  Lost Rig Time 
 LSTM.      11.56.48 17-Jan-20:  Log Start Time 
 MDCL.ppm             37000.00:  Mud Chlorides 
 MDES.     Inversion Oil/Synthetic:  Mud Desc 
 DFD .sg                  1.34:  Mud Density 
 MDMN.sg                  1.34:  Dens Mud Min 
 MDMX.sg                  1.34:  Dens Mud Max 
 MOIL.                      69:  Run Mud Oil % 
 MOWR.                   69:31:  Run Mud OWR 
 MSND.                     0.1:  Run Mud Sand % 
 MSOL.                    17.6:  Run Mud Solids% 
 DFV .spqt               79.00:  Mud Viscosity 
 MWOD.in                  4.75:  MWD Tool OD 
 MWSI.                      No:  Serv Intrp, MWD 
 OTIM.hr                126.10:  Time Operating 
 PMAX.psia             6000.00:  Press Op, Max 
 PV  .cP                 29.00:  Mud PV 
 RUN .                     400:  Run Number 
 ROPA.m/hr               11.00:  ROP Avg 
 ROPN.m/hr                5.00:  ROP Min 
 ROPX.m/hr               18.00:  ROP Max 
 RPMA.rpm               139.00:  RPM Surface Avg 
 RPMN.rpm               100.00:  RPM Surface Min 
 RPMX.rpm               140.00:  RPM Surface Max 
 RRUN.                     400:  Rig Run Number 
 SAZI.deg               290.22:  Azm, Start 
 SDEP.m                4868.01:  Start Depth 
 SIDD.                      No:  Serv Intrp, DD 
 SINC.deg                71.77:  Inc, Start 
 SPPA.psig             5550.00:  SPP Avg 
 SPPN.psig             4300.00:  SPP Min 
 SPPX.psig             5600.00:  SPP Max 
 STIM.      23.45.48 15-Jan-20:  Start Time 
 SVCS.                 DD, MWD:  Services 
 SVER.                    9.20:  Sperry Version 
 TDAT.m                5161.01:  Tot Depth Attmp 
 TDDF.                      No:  Trip for DD 
 TDLG.m                 295.00:  Tot Depth Loggd 
 TFF .                      No:  Trip for Fail 
 TQAA.f-kp               13.00:  Torque Abs Avg 
 TQAN.f-kp               13.00:  Torque Abs Min 
 TQAX.f-kp               16.00:  Torque Abs Max 
 TRRT.°/30m               0.25:  Turn Rotating 
 MRT .                     ADR:  Maximum Recorded Temperature 
 TTMX.degC               88.00:  Max Tool Temp 
 VS01.                90577859:  Virtual Str1 SN 
 VS02.                90521879:  Virtual Str2 SN 
 VS03.                90580299:  Virtual Str3 SN 
 VS04.                90515982:  Virtual Str4 SN 
 VS05.                90547765:  Virtual Str5 SN 
 WBMN.klb                 2.00:  WOB Min 
 WITN.           Adil Mammadov:  Customer Rep 
 WITN.        Elmaddin Rahimov:  Customer Rep 2 
 WOBA.klb                 3.00:  WOB Avg 
 WOBX.klb                 5.00:  WOB Max 
 YP  .lhf2               30.00:  Yield Point 
~Curve Information Block
#MNEM.UNIT                 API CODE     Curve Description
#---------               -----------    ---------------------------
 TIME.HHMMSS            00 000 000 000:  GT Time & Date
 GTDEPTH.m              00 000 000 000:  GT Depth
 GTPQH.psia             00 000 000 000:  GT HR Quartz Pressure
 GTTQ.degC              00 000 000 000:  GT Quartz Temperature
 GTTN.NONE              00 000 000 000:  GT Test Number
 GTET.sec               00 000 000 000:  GT Elapsed Test Time
 GTTVD.m                00 000 000 000:  GT True Vertical Depth
#Other Information
#
#WARRANTY: Halliburton will use its best efforts to furnish customers with 
#accurate information and interpretations that are part of, and incident to, the services 
#provided.  However, Halliburton cannot and does not warrant the accuracy 
#or correctness of such information and interpretations.  Under no circumstances should any 
#such information or interpretation be relied upon as the sole basis for any drilling, 
#completion, production, or financial decision or any procedure involving any risk to the 
#safety of any drilling venture, drilling rig or its crew or any other third party.  The 
#Customer has full responsibility for all drilling, completion and production operation.  
#Halliburton makes no representations or warranties, either expressed or 
#implied, including, but not limited to, the implied warranties of merchantability or fitness 
#for a particular purpose, with respect to the services rendered.  In no event will 
#Halliburton be liable for failure to obtain any particular results or for 
#any damages, including, but not limited to, indirect, special or consequential damages, 
#resulting from the use of any information or interpretation provided by Halliburton.
#
~A           TIME           GTDEPTH  GTPQH  GTTQ  GTTN  GTET   GTTVD  
# ...
   10:33:54.336.18-Jan-2020 4898.01 4078.74 73.15 1.00 368.04 2811.04
   10:33:54.536.18-Jan-2020 4898.01 4078.74 73.15 1.00 368.24 2811.04
   10:33:54.736.18-Jan-2020 4898.01 4078.56 73.15 1.00 368.44 2811.04
   10:33:54.936.18-Jan-2020 4898.01 4078.81 73.15 1.00 368.64 2811.04
   10:33:55.136.18-Jan-2020 4898.01 4078.82 73.15 1.00 368.84 2811.04
   10:33:55.336.18-Jan-2020 4898.01 4078.78 73.15 1.00 369.04 2811.04
   10:33:55.536.18-Jan-2020 4898.01 4078.78 73.15 1.00 369.24 2811.04
   10:33:55.736.18-Jan-2020 4898.01 4078.77 73.15 1.00 369.44 2811.04
   10:33:55.936.18-Jan-2020 4898.01 4078.74 73.15 1.00 369.64 2811.04
   10:33:56.136.18-Jan-2020 4898.01 4078.77 73.15 1.00 369.85 2811.04
   10:33:56.336.18-Jan-2020 4898.01 4078.74 73.15 1.00 370.05 2811.04
   10:33:56.536.18-Jan-2020 4898.01 4078.74 73.15 1.00 370.25 2811.04
   10:33:56.736.18-Jan-2020 4898.01 4078.74 73.15 1.00 370.45 2811.04
   10:33:56.936.18-Jan-2020 4898.01 4078.74 73.15 1.00 370.65 2811.04
   10:33:57.136.18-Jan-2020 4898.01 4078.76 73.15 1.00 370.85 2811.04
   10:33:57.336.18-Jan-2020 4898.01 4078.73 73.15 1.00 371.05 2811.04
   10:33:57.537.18-Jan-2020 4898.01 4078.73 73.15 1.00 371.25 2811.04
   10:33:57.737.18-Jan-2020 4898.01 4078.73 73.15 1.00 371.45 2811.04
   10:33:57.937.18-Jan-2020 4898.01 4078.69 73.15 1.00 371.65 2811.04
   10:33:58.137.18-Jan-2020 4898.01 4078.62 73.15 1.00 371.85 2811.04
   10:33:58.337.18-Jan-2020 4898.01 4078.83 73.15 1.00 372.05 2811.04
   10:33:58.537.18-Jan-2020 4898.01 4078.83 73.15 1.00 372.25 2811.04
   10:33:58.737.18-Jan-2020 4898.01 4078.77 73.15 1.00 372.45 2811.04
   10:33:58.937.18-Jan-2020 4898.01 4078.80 73.15 1.00 372.65 2811.04
   10:33:59.137.18-Jan-2020 4898.01 4078.76 73.15 1.00 372.85 2811.04
   10:33:59.337.18-Jan-2020 4898.01 4078.76 73.15 1.00 373.05 2811.04
   10:33:59.537.18-Jan-2020 4898.01 4078.76 73.15 1.00 373.25 2811.04
   10:33:59.737.18-Jan-2020 4898.01 4078.76 73.15 1.00 373.45 2811.04
   10:33:59.937.18-Jan-2020 4898.01 4078.82 73.15 1.00 373.65 2811.04
   10:34:00.137.18-Jan-2020 4898.01 4078.79 73.15 1.00 373.85 2811.04
   10:34:00.337.18-Jan-2020 4898.01 4078.80 73.15 1.00 374.05 2811.04
   10:34:00.537.18-Jan-2020 4898.01 4078.80 73.15 1.00 374.25 2811.04
   10:34:00.737.18-Jan-2020 4898.01 4078.75 73.14 1.00 374.45 2811.04
   10:34:00.937.18-Jan-2020 4898.01 4078.56 73.14 1.00 374.65 2811.04
   10:34:01.137.18-Jan-2020 4898.01 4078.82 73.14 1.00 374.85 2811.04
   10:34:01.337.18-Jan-2020 4898.01 4078.82 73.14 1.00 375.05 2811.04
   10:34:01.537.18-Jan-2020 4898.01 4078.82 73.14 1.00 375.25 2811.04
   10:34:01.737.18-Jan-2020 4898.01 4078.81 73.14 1.00 375.45 2811.04
   10:34:01.937.18-Jan-2020 4898.01 4078.78 73.14 1.00 375.65 2811.04
   10:34:02.137.18-Jan-2020 4898.01 4078.49 73.14 1.00 375.85 2811.04
   10:34:02.337.18-Jan-2020 4898.01 4078.91 73.14 1.00 376.05 2811.04
   10:34:02.537.18-Jan-2020 4898.01 4078.91 73.14 1.00 376.25 2811.04
   10:34:02.737.18-Jan-2020 4898.01 4078.81 73.14 1.00 376.45 2811.04
   10:34:02.937.18-Jan-2020 4898.01 4078.78 73.14 1.00 376.65 2811.04
   10:34:03.137.18-Jan-2020 4898.01 4078.79 73.14 1.00 376.85 2811.04
   10:34:03.337.18-Jan-2020 4898.01 4078.79 73.14 1.00 377.05 2811.04
   10:34:03.537.18-Jan-2020 4898.01 4078.79 73.14 1.00 377.25 2811.04
   10:34:03.737.18-Jan-2020 4898.01 4078.79 73.14 1.00 377.45 2811.04
   10:34:03.937.18-Jan-2020 4898.01 4078.75 73.14 1.00 377.65 2811.04
   10:34:04.137.18-Jan-2020 4898.01 4078.76 73.14 1.00 377.85 2811.04
   10:34:04.337.18-Jan-2020 4898.01 4078.75 73.14 1.00 378.05 2811.04
   10:34:04.537.18-Jan-2020 4898.01 4078.75 73.14 1.00 378.25 2811.04
   10:34:04.737.18-Jan-2020 4898.01 4078.78 73.14 1.00 378.45 2811.04
   10:34:04.937.18-Jan-2020 4898.01 4078.74 73.14 1.00 378.65 2811.04
   10:34:05.137.18-Jan-2020 4898.01 4078.78 73.14 1.00 378.85 2811.04
   10:34:05.337.18-Jan-2020 4898.01 4078.72 73.14 1.00 379.05 2811.04
   10:34:05.537.18-Jan-2020 4898.01 4078.72 73.14 1.00 379.25 2811.04
   10:34:05.738.18-Jan-2020 4898.01 4078.84 73.14 1.00 379.45 2811.04
   10:34:05.938.18-Jan-2020 4898.01 4078.80 73.14 1.00 379.65 2811.04
   10:34:06.138.18-Jan-2020 4898.01 4078.82 73.14 1.00 379.85 2811.04
   10:34:06.338.18-Jan-2020 4898.01 4078.76 73.14 1.00 380.05 2811.04
   10:34:06.538.18-Jan-2020 4898.01 4078.76 73.14 1.00 380.25 2811.04
   10:34:06.738.18-Jan-2020 4898.01 4078.76 73.14 1.00 380.45 2811.04
   10:34:06.938.18-Jan-2020 4898.01 4078.77 73.14 1.00 380.65 2811.04
   10:34:07.138.18-Jan-2020 4898.01 4078.78 73.14 1.00 380.85 2811.04
   10:34:07.338.18-Jan-2020 4898.01 4078.74 73.14 1.00 381.05 2811.04
   10:34:07.538.18-Jan-2020 4898.01 4078.74 73.14 1.00 381.25 2811.04
   10:34:07.738.18-Jan-2020 4898.01 4078.74 73.14 1.00 381.45 2811.04
   10:34:07.938.18-Jan-2020 4898.01 4078.77 73.14 1.00 381.65 2811.04
   10:34:08.138.18-Jan-2020 4898.01 4078.77 73.14 1.00 381.85 2811.04
   10:34:08.338.18-Jan-2020 4898.01 4078.75 73.14 1.00 382.05 2811.04
   10:34:08.538.18-Jan-2020 4898.01 4078.75 73.14 1.00 382.25 2811.04
   10:34:08.738.18-Jan-2020 4898.01 4078.67 73.14 1.00 382.45 2811.04
   10:34:08.938.18-Jan-2020 4898.01 4078.65 73.13 1.00 382.65 2811.04
   10:34:09.138.18-Jan-2020 4898.01 4078.83 73.13 1.00 382.85 2811.04
   10:34:09.338.18-Jan-2020 4898.01 4078.80 73.13 1.00 383.05 2811.04
   10:34:09.538.18-Jan-2020 4898.01 4078.80 73.13 1.00 383.25 2811.04
   10:34:09.738.18-Jan-2020 4898.01 4078.81 73.13 1.00 383.45 2811.04
   10:34:09.938.18-Jan-2020 4898.01 4078.80 73.13 1.00 383.65 2811.04
   10:34:10.138.18-Jan-2020 4898.01 4078.75 73.13 1.00 383.85 2811.04
   10:34:10.338.18-Jan-2020 4898.01 4078.60 73.13 1.00 384.05 2811.04
   10:34:10.538.18-Jan-2020 4898.01 4078.60 73.13 1.00 384.25 2811.04
   10:34:10.738.18-Jan-2020 4898.01 4078.81 73.13 1.00 384.45 2811.04
   10:34:10.938.18-Jan-2020 4898.01 4078.83 73.13 1.00 384.65 2811.04
   10:34:11.138.18-Jan-2020 4898.01 4078.78 73.13 1.00 384.85 2811.04
   10:34:11.338.18-Jan-2020 4898.01 4078.81 73.13 1.00 385.05 2811.04
   10:34:11.538.18-Jan-2020 4898.01 4078.81 73.13 1.00 385.25 2811.04
   10:34:11.738.18-Jan-2020 4898.01 4078.57 73.13 1.00 385.45 2811.04
   10:34:11.938.18-Jan-2020 4898.01 4078.85 73.13 1.00 385.65 2811.04
   10:34:12.138.18-Jan-2020 4898.01 4078.81 73.13 1.00 385.85 2811.04
   10:34:12.338.18-Jan-2020 4898.01 4078.85 73.13 1.00 386.05 2811.04
   10:34:12.538.18-Jan-2020 4898.01 4078.85 73.13 1.00 386.25 2811.04
   10:34:12.738.18-Jan-2020 4898.01 4078.81 73.13 1.00 386.45 2811.04
   10:34:12.938.18-Jan-2020 4898.01 4078.49 73.13 1.00 386.65 2811.04
   10:34:13.138.18-Jan-2020 4898.01 4078.90 73.13 1.00 386.85 2811.04
   10:34:13.338.18-Jan-2020 4898.01 4078.84 73.13 1.00 387.05 2811.04
   10:34:13.538.18-Jan-2020 4898.01 4078.84 73.13 1.00 387.25 2811.04
   10:34:13.738.18-Jan-2020 4898.01 4078.81 73.13 1.00 387.45 2811.04
   10:34:13.939.18-Jan-2020 4898.01 4078.79 73.13 1.00 387.65 2811.04
   10:34:14.139.18-Jan-2020 4898.01 4078.80 73.13 1.00 387.85 2811.04
   10:34:14.339.18-Jan-2020 4898.01 4078.78 73.13 1.00 388.05 2811.04
   10:34:14.539.18-Jan-2020 4898.01 4078.78 73.13 1.00 388.25 2811.04
   10:34:14.739.18-Jan-2020 4898.01 4078.80 73.13 1.00 388.45 2811.04
   10:34:14.939.18-Jan-2020 4898.01 4078.74 73.13 1.00 388.65 2811.04
   10:34:15.139.18-Jan-2020 4898.01 4078.79 73.13 1.00 388.85 2811.04
   10:34:15.339.18-Jan-2020 4898.01 4078.76 73.13 1.00 389.05 2811.04
   10:34:15.539.18-Jan-2020 4898.01 4078.76 73.13 1.00 389.25 2811.04
   10:34:15.739.18-Jan-2020 4898.01 4078.79 73.13 1.00 389.45 2811.04
   10:34:15.939.18-Jan-2020 4898.01 4078.75 73.13 1.00 389.65 2811.04
   10:34:16.139.18-Jan-2020 4898.01 4078.77 73.13 1.00 389.85 2811.04
   10:34:16.339.18-Jan-2020 4898.01 4078.54 73.13 1.00 390.05 2811.04
   10:34:16.539.18-Jan-2020 4898.01 4078.54 73.13 1.00 390.25 2811.04
   10:34:16.739.18-Jan-2020 4898.01 4078.81 73.13 1.00 390.45 2811.04
   10:34:16.939.18-Jan-2020 4898.01 4078.80 73.13 1.00 390.65 2811.04
   10:34:17.139.18-Jan-2020 4898.01 4078.82 73.13 1.00 390.85 2811.04
