~Version Information
 VERS.                  2.0:   CWLS log ASCII Standard -VERSION 2.0
 WRAP.                   NO:   One line per depth step
~Well Information Block
#MNEM.UNIT     VALUE/NAME     DESCRIPTION
#---------     -----------    ---------------------------
 STRT.S             10:27:46 18-Jan-20: START TIME 10:27:46 18-Jan-20
 STOP.S             10:35:37 18-Jan-20: STOP TIME  10:35:37 18-Jan-20
 STEP.S                   0.00: STEP TIME
 NULL.                 -999.25: NULL VALUE
 DFWT.                        :  DIST FWL TEXT
 DFST.                        :  DIST FSL TEXT
 DMF .             Drill Floor:  DRILL MEAS FROM
 STIM.      17.57.20 21-Dec-19:  START TIME
 DATE.      17.57.20 21-Dec-19:  END TIME
 SPUD.               21-Dec-19:  SPUD DATE
 NREF.                    Grid:  NORTH REFERENCE
 HPTY.       Minimum Curvature:  HOLE POS TYPE
 DMOD.             Drill Model:  DRILL MOD DESC
 SVYD.                  Survey:  SURVEY DESC
 ILTD.               Lithology:  INTERP LTH DESC
 FTOP.          Formation Tops:  FORM TOPS DESC
 PDAT.          Mean Sea Level:  PERMANENT DATUM
 FLD .                     ACG:  FIELD NAME
 SON .        AZ-XX-0905715376:  JOB NUMBER
 CTRY.              Azerbaijan:  COUNTRY NAME
 WELL.                    E04Y:  WELL NAME
 SRVC.          TURAN DRILLING:  CONTRACTOR
 COMP.     BP Exploration (Caspian Sea) Ltd.:  COMPANY
 WTYP.                Deviated:  WELL TYPE
 UWI .                     N/a:  UNIQUE WELL IDENTIFIER
 API .                     N/a:  API NUMBER
 BASE.              Azerbaijan:  LOGGING EQUIPMENT BASE LOCATION
 REGN.                   EESSA:  REGION
 MWDS.                    Baku:  MWD SHOP
 RIG .                     DWG:  RIG NAME
 DOE .                     N/a:  DOE NUMBER
 CNTY.                    Baku:  COUNTY NAME
 DCON.         Sperry Drilling:  DIRECTNL CONTR
 UNIT.                     N/a:  LOGGING EQUIPMENT ID
 MDS .        Operator Entered:  MAG DATA SOURCE
 PROV.                        :  PROVINCE
 STAT.                        :  STATE
 LOC .                        :  LOCATION
 LMF .             Drill Floor:  LOG MEASURED FROM
 TVDS.m                  43.16:  TVDSS CORRECTN
 LATI.deg                40.17:  LATITUDE
 LONG.deg                51.17:  LONGITUDE
 WHNS.m                  -0.12:  WELL HEAD N/S
 WHEW.m                  -5.41:  WELL HEAD E/W
 UTMX.m              514337.95:  UTM X
 UTMY.m             4448627.46:  UTM Y
 DFWL.m                   0.00:  DISTANCE FWL
 DFSL.m                   0.00:  DISTANCE FSL
 SDEP.m                   0.00:  START DEPTH
 TDD .m                   0.00:  TOTAL DEPTH (DRILLER)
 VSDR.deg               235.12:  VERT SEC DIRECT
 GVFD.g                   1.00:  GRAVITY FIELD
 MFLD.nT              50294.00:  MAGNETIC FIELD
 MDIP.deg                59.61:  MAGNETIC DIP
 MDEC.deg                 6.58:  MAGNETIC DECL
 GRDC.deg                 0.09:  GRID CORRECTION
 AZTC.deg                 6.49:  AZM TOTAL CORR
 EPD .m                   0.00:  ELEVATION
 EGL .m                   0.00:  GROUND ELEVATION
 WDMS.m                 176.20:  WD ELEV
 APD .m                  43.16:  DEPTH ABOVE PD
 DEP .m                3172.61:  DEPTH
 AGAP.m                  43.16:  AIR GAP
 VSEW.m                  -5.41:  VERT SEC E/W
 VSNS.m                  -0.12:  VERT SEC N/S
 EKB .m                  43.16:  KB ELEVATION
 EDF .m                  43.16:  DF ELEVATION
 TDL .m                 295.00:  TOTAL DEPTH (LOGGER)
 VSC .                       0:  VS TO CLOSURE
 MAGU.                 1852276:  MAGUTM CHECKSUM
~Parameter Information Block
#MNEM.UNIT       Value        Description
#---------     -----------    ---------------------------
 AV  .mps                 1.60:  Ann Velocity 
 AVMX.mps                 2.10:  Max Ann Veloc 
 AZIF.deg               290.59:  Azm, Final 
 BHAT.        Rotary Steerable:  BHA Type 
 BROT.°/30m               1.00:  Build Rotating 
 BS  .in                  6.50:  Bit Size 
 BSZ .in                  6.50:  Bit Size 
 BTPL.psig              120.00:  Bit Press Loss 
 CABU.                     Yes:  Customer Abuse 
 CGEO.          Eldar Huseynov:  Customer Geo 
 COMM.                     ¬Øj:  Run Comments 1 
 TCS .hr                 87.00:  Time Ciculation Ended 
 CV  .mps                 4.01:  Crit Velocity 
 CVMX.mps                 5.06:  Max Crit Veloc 
 DD1 .             Aziz Aliyev:  Direct Drillr 1 
 DD2 .            Sanan Aliyev:  Direct Drillr 2 
 DDSV.               Geo-Pilot:  DD Service 
 DEFF.%                  95.00:  % Det Eff 
 DLRX.°/30m               0.75:  Dogleg Rot Max 
 DLSO.°/30m               0.65:  Dogleg Oriented 
 DLSX.°/30m               1.39:  Dogleg Str Max 
 DRET.      18.25.00 19-Jan-20:  Drill End Time 
 DRST.      11.56.48 17-Jan-20:  Drill Start Tim 
 DTIM.hr                 27.16:  Time Drilling 
 EDEP.m                5161.01:  End Depth 
 ENG1.          Rasim Hashimov:  Engineer 1 
 ENG2.      Bakhtiyar Jabbarli:  Engineer 2 
 ETIM.      11.56.48 21-Jan-20:  End Time 
 FLOI.gpm               350.00:  Flow In 
 FLON.gpm               300.00:  Flow In Min 
 FLOS.cptm                0.00:  Fluid Loss 
 FLOX.gpm               400.00:  Flow In Max 
 HFLO.                      No:  High Flow 
 HPRE.                      No:  High Pressure 
 HTEM.                      No:  High Temp 
 HYDO.m                   1.85:  Hydro Offset 
 IFIN.deg                71.58:  Inc, Final 
 IMAX.deg                71.83:  Inc Max 
 IMIN.deg                71.12:  Inc Min 
 IMND.m                5099.48:  Inc Min Depth 
 IMXD.m                5071.08:  Inc Max Depth 
 JARR.                      No:  Jarring 
 LETM.      18.25.00 19-Jan-20:  Log End Time 
 LOST.hr                     0:  Lost Rig Time 
 LSTM.      11.56.48 17-Jan-20:  Log Start Time 
 MDCL.ppm             37000.00:  Mud Chlorides 
 MDES.     Inversion Oil/Synthetic:  Mud Desc 
 DFD .sg                  1.34:  Mud Density 
 MDMN.sg                  1.34:  Dens Mud Min 
 MDMX.sg                  1.34:  Dens Mud Max 
 MOIL.                      69:  Run Mud Oil % 
 MOWR.                   69:31:  Run Mud OWR 
 MSND.                     0.1:  Run Mud Sand % 
 MSOL.                    17.6:  Run Mud Solids% 
 DFV .spqt               79.00:  Mud Viscosity 
 MWOD.in                  4.75:  MWD Tool OD 
 MWSI.                      No:  Serv Intrp, MWD 
 OTIM.hr                126.10:  Time Operating 
 PMAX.psia             6000.00:  Press Op, Max 
 PV  .cP                 29.00:  Mud PV 
 RUN .                     400:  Run Number 
 ROPA.m/hr               11.00:  ROP Avg 
 ROPN.m/hr                5.00:  ROP Min 
 ROPX.m/hr               18.00:  ROP Max 
 RPMA.rpm               139.00:  RPM Surface Avg 
 RPMN.rpm               100.00:  RPM Surface Min 
 RPMX.rpm               140.00:  RPM Surface Max 
 RRUN.                     400:  Rig Run Number 
 SAZI.deg               290.22:  Azm, Start 
 SDEP.m                4868.01:  Start Depth 
 SIDD.                      No:  Serv Intrp, DD 
 SINC.deg                71.77:  Inc, Start 
 SPPA.psig             5550.00:  SPP Avg 
 SPPN.psig             4300.00:  SPP Min 
 SPPX.psig             5600.00:  SPP Max 
 STIM.      23.45.48 15-Jan-20:  Start Time 
 SVCS.                 DD, MWD:  Services 
 SVER.                    9.20:  Sperry Version 
 TDAT.m                5161.01:  Tot Depth Attmp 
 TDDF.                      No:  Trip for DD 
 TDLG.m                 295.00:  Tot Depth Loggd 
 TFF .                      No:  Trip for Fail 
 TQAA.f-kp               13.00:  Torque Abs Avg 
 TQAN.f-kp               13.00:  Torque Abs Min 
 TQAX.f-kp               16.00:  Torque Abs Max 
 TRRT.°/30m               0.25:  Turn Rotating 
 MRT .                     ADR:  Maximum Recorded Temperature 
 TTMX.degC               88.00:  Max Tool Temp 
 VS01.                90577859:  Virtual Str1 SN 
 VS02.                90521879:  Virtual Str2 SN 
 VS03.                90580299:  Virtual Str3 SN 
 VS04.                90515982:  Virtual Str4 SN 
 VS05.                90547765:  Virtual Str5 SN 
 WBMN.klb                 2.00:  WOB Min 
 WITN.           Adil Mammadov:  Customer Rep 
 WITN.        Elmaddin Rahimov:  Customer Rep 2 
 WOBA.klb                 3.00:  WOB Avg 
 WOBX.klb                 5.00:  WOB Max 
 YP  .lhf2               30.00:  Yield Point 
~Curve Information Block
#MNEM.UNIT                 API CODE     Curve Description
#---------               -----------    ---------------------------
 TIME.HHMMSS            00 000 000 000:  GT Time & Date
 GTDEPTH.m              00 000 000 000:  GT Depth
 GTPQH.psia             00 000 000 000:  GT HR Quartz Pressure
 GTTQ.degC              00 000 000 000:  GT Quartz Temperature
 GTTN.NONE              00 000 000 000:  GT Test Number
 GTET.sec               00 000 000 000:  GT Elapsed Test Time
 GTTVD.m                00 000 000 000:  GT True Vertical Depth
#Other Information
#
#WARRANTY: Halliburton will use its best efforts to furnish customers with 
#accurate information and interpretations that are part of, and incident to, the services 
#provided.  However, Halliburton cannot and does not warrant the accuracy 
#or correctness of such information and interpretations.  Under no circumstances should any 
#such information or interpretation be relied upon as the sole basis for any drilling, 
#completion, production, or financial decision or any procedure involving any risk to the 
#safety of any drilling venture, drilling rig or its crew or any other third party.  The 
#Customer has full responsibility for all drilling, completion and production operation.  
#Halliburton makes no representations or warranties, either expressed or 
#implied, including, but not limited to, the implied warranties of merchantability or fitness 
#for a particular purpose, with respect to the services rendered.  In no event will 
#Halliburton be liable for failure to obtain any particular results or for 
#any damages, including, but not limited to, indirect, special or consequential damages, 
#resulting from the use of any information or interpretation provided by Halliburton.
#
~A           TIME           GTDEPTH  GTPQH  GTTQ  GTTN  GTET   GTTVD  
# ...
   10:35:03.345.18-Jan-2020 4898.01 4078.85 73.07 1.00 437.05 2811.04
   10:35:03.545.18-Jan-2020 4898.01 4078.85 73.07 1.00 437.25 2811.04
   10:35:03.745.18-Jan-2020 4898.01 4078.83 73.07 1.00 437.45 2811.04
   10:35:03.945.18-Jan-2020 4898.01 4078.81 73.07 1.00 437.65 2811.04
   10:35:04.145.18-Jan-2020 4898.01 4078.79 73.07 1.00 437.85 2811.04
   10:35:04.345.18-Jan-2020 4898.01 4078.62 73.07 1.00 438.05 2811.04
   10:35:04.545.18-Jan-2020 4898.01 4078.62 73.07 1.00 438.25 2811.04
   10:35:04.745.18-Jan-2020 4898.01 4080.85 73.07 1.00 438.45 2811.04
   10:35:04.945.18-Jan-2020 4898.01 4100.40 73.07 1.00 438.65 2811.04
   10:35:05.145.18-Jan-2020 4898.01 5231.34 73.07 1.00 438.85 2811.04
   10:35:05.345.18-Jan-2020 4898.01 5895.35 73.07 1.00 439.05 2811.04
   10:35:05.545.18-Jan-2020 4898.01 5895.35 73.07 1.00 439.25 2811.04
   10:35:05.745.18-Jan-2020 4898.01 5884.60 73.07 1.00 439.45 2811.04
   10:35:05.945.18-Jan-2020 4898.01 5889.90 73.07 1.00 439.65 2811.04
   10:35:06.145.18-Jan-2020 4898.01 5893.30 73.07 1.00 439.85 2811.04
   10:35:06.345.18-Jan-2020 4898.01 5896.52 73.07 1.00 440.05 2811.04
   10:35:06.545.18-Jan-2020 4898.01 5896.52 73.07 1.00 440.25 2811.04
   10:35:06.745.18-Jan-2020 4898.01 5899.25 73.07 1.00 440.45 2811.04
   10:35:06.945.18-Jan-2020 4898.01 5889.18 73.07 1.00 440.65 2811.04
   10:35:07.145.18-Jan-2020 4898.01 5893.78 73.07 1.00 440.85 2811.04
   10:35:07.345.18-Jan-2020 4898.01 5896.46 73.07 1.00 441.05 2811.04
   10:35:07.545.18-Jan-2020 4898.01 5896.46 73.07 1.00 441.25 2811.04
   10:35:07.745.18-Jan-2020 4898.01 5898.28 73.07 1.00 441.45 2811.04
   10:35:07.945.18-Jan-2020 4898.01 5897.84 73.07 1.00 441.65 2811.04
   10:35:08.145.18-Jan-2020 4898.01 5900.24 73.07 1.00 441.85 2811.04
   10:35:08.345.18-Jan-2020 4898.01 5898.89 73.07 1.00 442.05 2811.04
   10:35:08.545.18-Jan-2020 4898.01 5898.89 73.07 1.00 442.25 2811.04
   10:35:08.745.18-Jan-2020 4898.01 5899.56 73.07 1.00 442.45 2811.04
   10:35:08.945.18-Jan-2020 4898.01 5898.01 73.07 1.00 442.65 2811.04
   10:35:09.145.18-Jan-2020 4898.01 5898.99 73.07 1.00 442.85 2811.04
   10:35:09.345.18-Jan-2020 4898.01 5898.43 73.07 1.00 443.05 2811.04
   10:35:09.545.18-Jan-2020 4898.01 5898.43 73.07 1.00 443.25 2811.04
   10:35:09.745.18-Jan-2020 4898.01 5900.33 73.07 1.00 443.45 2811.04
   10:35:09.945.18-Jan-2020 4898.01 5900.48 73.07 1.00 443.65 2811.04
   10:35:10.145.18-Jan-2020 4898.01 5900.71 73.07 1.00 443.85 2811.04
   10:35:10.345.18-Jan-2020 4898.01 5888.41 73.07 1.00 444.05 2811.04
   10:35:10.545.18-Jan-2020 4898.01 5888.41 73.07 1.00 444.25 2811.04
   10:35:10.745.18-Jan-2020 4898.01 5898.76 73.07 1.00 444.45 2811.04
   10:35:10.945.18-Jan-2020 4898.01 5900.65 73.07 1.00 444.65 2811.04
   10:35:11.145.18-Jan-2020 4898.01 5900.63 73.07 1.00 444.85 2811.04
   10:35:11.345.18-Jan-2020 4898.01 5900.04 73.07 1.00 445.05 2811.04
   10:35:11.546.18-Jan-2020 4898.01 5900.04 73.07 1.00 445.25 2811.04
   10:35:11.746.18-Jan-2020 4898.01 5898.46 73.07 1.00 445.45 2811.04
   10:35:11.946.18-Jan-2020 4898.01 5899.64 73.07 1.00 445.65 2811.04
   10:35:12.146.18-Jan-2020 4898.01 5898.87 73.07 1.00 445.85 2811.04
   10:35:12.346.18-Jan-2020 4898.01 5899.01 73.07 1.00 446.05 2811.04
   10:35:12.546.18-Jan-2020 4898.01 5899.01 73.07 1.00 446.25 2811.04
   10:35:12.746.18-Jan-2020 4898.01 5898.45 73.07 1.00 446.45 2811.04
   10:35:12.946.18-Jan-2020 4898.01 5899.99 73.07 1.00 446.65 2811.04
   10:35:13.146.18-Jan-2020 4898.01 5899.05 73.07 1.00 446.85 2811.04
   10:35:13.346.18-Jan-2020 4898.01 5900.04 73.07 1.00 447.05 2811.04
   10:35:13.546.18-Jan-2020 4898.01 5900.04 73.07 1.00 447.25 2811.04
   10:35:13.746.18-Jan-2020 4898.01 5887.92 73.07 1.00 447.45 2811.04
   10:35:13.946.18-Jan-2020 4898.01 5897.72 73.07 1.00 447.65 2811.04
   10:35:14.146.18-Jan-2020 4898.01 5898.98 73.07 1.00 447.85 2811.04
   10:35:14.346.18-Jan-2020 4898.01 5901.32 73.07 1.00 448.05 2811.04
   10:35:14.546.18-Jan-2020 4898.01 5901.32 73.07 1.00 448.25 2811.04
   10:35:14.746.18-Jan-2020 4898.01 5900.80 73.07 1.00 448.45 2811.04
   10:35:14.946.18-Jan-2020 4898.01 5900.36 73.07 1.00 448.65 2811.04
   10:35:15.146.18-Jan-2020 4898.01 5895.41 73.07 1.00 448.85 2811.04
   10:35:15.346.18-Jan-2020 4898.01 5891.23 73.07 1.00 449.05 2811.04
   10:35:15.546.18-Jan-2020 4898.01 5891.23 73.07 1.00 449.25 2811.04
   10:35:15.746.18-Jan-2020 4898.01 5899.69 73.07 1.00 449.45 2811.04
   10:35:15.946.18-Jan-2020 4898.01 5900.52 73.07 1.00 449.65 2811.04
   10:35:16.146.18-Jan-2020 4898.01 5900.64 73.07 1.00 449.85 2811.04
   10:35:16.346.18-Jan-2020 4898.01 5901.13 73.07 1.00 450.05 2811.04
   10:35:16.546.18-Jan-2020 4898.01 5901.13 73.07 1.00 450.25 2811.04
   10:35:16.746.18-Jan-2020 4898.01 5896.18 73.07 1.00 450.45 2811.04
   10:35:16.946.18-Jan-2020 4898.01 5897.55 73.07 1.00 450.65 2811.04
   10:35:17.146.18-Jan-2020 4898.01 5900.28 73.07 1.00 450.85 2811.04
   10:35:17.346.18-Jan-2020 4898.01 5901.64 73.07 1.00 451.05 2811.04
   10:35:17.546.18-Jan-2020 4898.01 5901.64 73.07 1.00 451.25 2811.04
   10:35:17.746.18-Jan-2020 4898.01 5892.60 73.07 1.00 451.45 2811.04
   10:35:17.946.18-Jan-2020 4898.01 5894.85 73.07 1.00 451.65 2811.04
   10:35:18.146.18-Jan-2020 4898.01 5898.91 73.07 1.00 451.85 2811.04
   10:35:18.346.18-Jan-2020 4898.01 5898.51 73.07 1.00 452.06 2811.04
   10:35:18.546.18-Jan-2020 4898.01 5898.51 73.07 1.00 452.26 2811.04
   10:35:18.746.18-Jan-2020 4898.01 5900.09 73.07 1.00 452.46 2811.04
   10:35:18.946.18-Jan-2020 4898.01 5899.81 73.07 1.00 452.66 2811.04
   10:35:19.146.18-Jan-2020 4898.01 5900.54 73.07 1.00 452.86 2811.04
   10:35:19.346.18-Jan-2020 4898.01 5899.36 73.07 1.00 453.06 2811.04
   10:35:19.546.18-Jan-2020 4898.01 5899.36 73.07 1.00 453.26 2811.04
   10:35:19.747.18-Jan-2020 4898.01 5898.67 73.07 1.00 453.46 2811.04
   10:35:19.947.18-Jan-2020 4898.01 5898.27 73.07 1.00 453.66 2811.04
   10:35:20.147.18-Jan-2020 4898.01 5899.83 73.07 1.00 453.86 2811.04
   10:35:20.347.18-Jan-2020 4898.01 5899.15 73.07 1.00 454.06 2811.04
   10:35:20.547.18-Jan-2020 4898.01 5899.15 73.07 1.00 454.26 2811.04
   10:35:20.747.18-Jan-2020 4898.01 5900.25 73.07 1.00 454.46 2811.04
   10:35:20.947.18-Jan-2020 4898.01 5896.69 73.07 1.00 454.66 2811.04
   10:35:21.147.18-Jan-2020 4898.01 5890.70 73.07 1.00 454.86 2811.04
   10:35:21.347.18-Jan-2020 4898.01 5897.04 73.07 1.00 455.06 2811.04
   10:35:21.547.18-Jan-2020 4898.01 5897.04 73.07 1.00 455.26 2811.04
   10:35:21.747.18-Jan-2020 4898.01 5899.32 73.07 1.00 455.46 2811.04
   10:35:21.947.18-Jan-2020 4898.01 5900.34 73.07 1.00 455.66 2811.04
   10:35:22.147.18-Jan-2020 4898.01 5899.66 73.07 1.00 455.86 2811.04
   10:35:22.347.18-Jan-2020 4898.01 5898.90 73.07 1.00 456.06 2811.04
   10:35:22.547.18-Jan-2020 4898.01 5898.90 73.07 1.00 456.26 2811.04
   10:35:22.747.18-Jan-2020 4898.01 5897.99 73.07 1.00 456.46 2811.04
   10:35:22.947.18-Jan-2020 4898.01 5899.25 73.07 1.00 456.66 2811.04
   10:35:23.147.18-Jan-2020 4898.01 5897.95 73.07 1.00 456.86 2811.04
   10:35:23.347.18-Jan-2020 4898.01 5898.56 73.07 1.00 457.06 2811.04
   10:35:23.547.18-Jan-2020 4898.01 5898.56 73.07 1.00 457.26 2811.04
   10:35:23.747.18-Jan-2020 4898.01 5898.75 73.07 1.00 457.46 2811.04
   10:35:23.947.18-Jan-2020 4898.01 5900.02 73.07 1.00 457.66 2811.04
   10:35:24.147.18-Jan-2020 4898.01 5898.84 73.07 1.00 457.86 2811.04
   10:35:24.347.18-Jan-2020 4898.01 5899.79 73.07 1.00 458.06 2811.04
   10:35:24.547.18-Jan-2020 4898.01 5899.79 73.07 1.00 458.26 2811.04
   10:35:24.747.18-Jan-2020 4898.01 5895.20 73.07 1.00 458.46 2811.04
   10:35:24.947.18-Jan-2020 4898.01 5898.82 73.07 1.00 458.66 2811.04
   10:35:25.147.18-Jan-2020 4898.01 5899.15 73.07 1.00 458.86 2811.04
   10:35:25.347.18-Jan-2020 4898.01 5900.96 73.07 1.00 459.06 2811.04
   10:35:25.547.18-Jan-2020 4898.01 5900.96 73.07 1.00 459.26 2811.04
   10:35:25.747.18-Jan-2020 4898.01 5896.54 73.07 1.00 459.46 2811.04
   10:35:25.947.18-Jan-2020 4898.01 5898.19 73.07 1.00 459.66 2811.04
   10:35:26.147.18-Jan-2020 4898.01 5901.13 73.07 1.00 459.86 2811.04
