~Version Information
 VERS.                  2.0:   CWLS log ASCII Standard -VERSION 2.0
 WRAP.                   NO:   One line per depth step
~Well Information Block
#MNEM.UNIT     VALUE/NAME     DESCRIPTION
#---------     -----------    ---------------------------
 STRT.S             19:23:23 18-Jan-20: START TIME 19:23:23 18-Jan-20
 STOP.S             19:31:15 18-Jan-20: STOP TIME  19:31:15 18-Jan-20
 STEP.S                   0.00: STEP TIME
 NULL.                 -999.25: NULL VALUE
 DFWT.                        :  DIST FWL TEXT
 DFST.                        :  DIST FSL TEXT
 DMF .             Drill Floor:  DRILL MEAS FROM
 STIM.      17.57.20 21-Dec-19:  START TIME
 DATE.      17.57.20 21-Dec-19:  END TIME
 SPUD.               21-Dec-19:  SPUD DATE
 NREF.                    Grid:  NORTH REFERENCE
 HPTY.       Minimum Curvature:  HOLE POS TYPE
 DMOD.             Drill Model:  DRILL MOD DESC
 SVYD.                  Survey:  SURVEY DESC
 ILTD.               Lithology:  INTERP LTH DESC
 FTOP.          Formation Tops:  FORM TOPS DESC
 PDAT.          Mean Sea Level:  PERMANENT DATUM
 FLD .                     ACG:  FIELD NAME
 SON .        AZ-XX-0905715376:  JOB NUMBER
 CTRY.              Azerbaijan:  COUNTRY NAME
 WELL.                    E04Y:  WELL NAME
 SRVC.          TURAN DRILLING:  CONTRACTOR
 COMP.     BP Exploration (Caspian Sea) Ltd.:  COMPANY
 WTYP.                Deviated:  WELL TYPE
 UWI .                     N/a:  UNIQUE WELL IDENTIFIER
 API .                     N/a:  API NUMBER
 BASE.              Azerbaijan:  LOGGING EQUIPMENT BASE LOCATION
 REGN.                   EESSA:  REGION
 MWDS.                    Baku:  MWD SHOP
 RIG .                     DWG:  RIG NAME
 DOE .                     N/a:  DOE NUMBER
 CNTY.                    Baku:  COUNTY NAME
 DCON.         Sperry Drilling:  DIRECTNL CONTR
 UNIT.                     N/a:  LOGGING EQUIPMENT ID
 MDS .        Operator Entered:  MAG DATA SOURCE
 PROV.                        :  PROVINCE
 STAT.                        :  STATE
 LOC .                        :  LOCATION
 LMF .             Drill Floor:  LOG MEASURED FROM
 TVDS.m                  43.16:  TVDSS CORRECTN
 LATI.deg                40.17:  LATITUDE
 LONG.deg                51.17:  LONGITUDE
 WHNS.m                  -0.12:  WELL HEAD N/S
 WHEW.m                  -5.41:  WELL HEAD E/W
 UTMX.m              514337.95:  UTM X
 UTMY.m             4448627.46:  UTM Y
 DFWL.m                   0.00:  DISTANCE FWL
 DFSL.m                   0.00:  DISTANCE FSL
 SDEP.m                   0.00:  START DEPTH
 TDD .m                   0.00:  TOTAL DEPTH (DRILLER)
 VSDR.deg               235.12:  VERT SEC DIRECT
 GVFD.g                   1.00:  GRAVITY FIELD
 MFLD.nT              50294.00:  MAGNETIC FIELD
 MDIP.deg                59.61:  MAGNETIC DIP
 MDEC.deg                 6.58:  MAGNETIC DECL
 GRDC.deg                 0.09:  GRID CORRECTION
 AZTC.deg                 6.49:  AZM TOTAL CORR
 EPD .m                   0.00:  ELEVATION
 EGL .m                   0.00:  GROUND ELEVATION
 WDMS.m                 176.20:  WD ELEV
 APD .m                  43.16:  DEPTH ABOVE PD
 DEP .m                3172.61:  DEPTH
 AGAP.m                  43.16:  AIR GAP
 VSEW.m                  -5.41:  VERT SEC E/W
 VSNS.m                  -0.12:  VERT SEC N/S
 EKB .m                  43.16:  KB ELEVATION
 EDF .m                  43.16:  DF ELEVATION
 TDL .m                 295.00:  TOTAL DEPTH (LOGGER)
 VSC .                       0:  VS TO CLOSURE
 MAGU.                 1852276:  MAGUTM CHECKSUM
~Parameter Information Block
#MNEM.UNIT       Value        Description
#---------     -----------    ---------------------------
 AV  .mps                 1.60:  Ann Velocity 
 AVMX.mps                 2.10:  Max Ann Veloc 
 AZIF.deg               290.59:  Azm, Final 
 BHAT.        Rotary Steerable:  BHA Type 
 BROT.°/30m               1.00:  Build Rotating 
 BS  .in                  6.50:  Bit Size 
 BSZ .in                  6.50:  Bit Size 
 BTPL.psig              120.00:  Bit Press Loss 
 CABU.                     Yes:  Customer Abuse 
 CGEO.          Eldar Huseynov:  Customer Geo 
 COMM.                     ”%\:  Run Comments 1 
 TCS .hr                 87.00:  Time Ciculation Ended 
 CV  .mps                 4.01:  Crit Velocity 
 CVMX.mps                 5.06:  Max Crit Veloc 
 DD1 .             Aziz Aliyev:  Direct Drillr 1 
 DD2 .            Sanan Aliyev:  Direct Drillr 2 
 DDSV.               Geo-Pilot:  DD Service 
 DEFF.%                  95.00:  % Det Eff 
 DLRX.°/30m               0.75:  Dogleg Rot Max 
 DLSO.°/30m               0.65:  Dogleg Oriented 
 DLSX.°/30m               1.39:  Dogleg Str Max 
 DRET.      18.25.00 19-Jan-20:  Drill End Time 
 DRST.      11.56.48 17-Jan-20:  Drill Start Tim 
 DTIM.hr                 27.16:  Time Drilling 
 EDEP.m                5161.01:  End Depth 
 ENG1.          Rasim Hashimov:  Engineer 1 
 ENG2.      Bakhtiyar Jabbarli:  Engineer 2 
 ETIM.      11.56.48 21-Jan-20:  End Time 
 FLOI.gpm               350.00:  Flow In 
 FLON.gpm               300.00:  Flow In Min 
 FLOS.cptm                0.00:  Fluid Loss 
 FLOX.gpm               400.00:  Flow In Max 
 HFLO.                      No:  High Flow 
 HPRE.                      No:  High Pressure 
 HTEM.                      No:  High Temp 
 HYDO.m                   1.85:  Hydro Offset 
 IFIN.deg                71.58:  Inc, Final 
 IMAX.deg                71.83:  Inc Max 
 IMIN.deg                71.12:  Inc Min 
 IMND.m                5099.48:  Inc Min Depth 
 IMXD.m                5071.08:  Inc Max Depth 
 JARR.                      No:  Jarring 
 LETM.      18.25.00 19-Jan-20:  Log End Time 
 LOST.hr                     0:  Lost Rig Time 
 LSTM.      11.56.48 17-Jan-20:  Log Start Time 
 MDCL.ppm             37000.00:  Mud Chlorides 
 MDES.     Inversion Oil/Synthetic:  Mud Desc 
 DFD .sg                  1.34:  Mud Density 
 MDMN.sg                  1.34:  Dens Mud Min 
 MDMX.sg                  1.34:  Dens Mud Max 
 MOIL.                      69:  Run Mud Oil % 
 MOWR.                   69:31:  Run Mud OWR 
 MSND.                     0.1:  Run Mud Sand % 
 MSOL.                    17.6:  Run Mud Solids% 
 DFV .spqt               79.00:  Mud Viscosity 
 MWOD.in                  4.75:  MWD Tool OD 
 MWSI.                      No:  Serv Intrp, MWD 
 OTIM.hr                126.10:  Time Operating 
 PMAX.psia             6000.00:  Press Op, Max 
 PV  .cP                 29.00:  Mud PV 
 RUN .                     400:  Run Number 
 ROPA.m/hr               11.00:  ROP Avg 
 ROPN.m/hr                5.00:  ROP Min 
 ROPX.m/hr               18.00:  ROP Max 
 RPMA.rpm               139.00:  RPM Surface Avg 
 RPMN.rpm               100.00:  RPM Surface Min 
 RPMX.rpm               140.00:  RPM Surface Max 
 RRUN.                     400:  Rig Run Number 
 SAZI.deg               290.22:  Azm, Start 
 SDEP.m                4868.01:  Start Depth 
 SIDD.                      No:  Serv Intrp, DD 
 SINC.deg                71.77:  Inc, Start 
 SPPA.psig             5550.00:  SPP Avg 
 SPPN.psig             4300.00:  SPP Min 
 SPPX.psig             5600.00:  SPP Max 
 STIM.      23.45.48 15-Jan-20:  Start Time 
 SVCS.                 DD, MWD:  Services 
 SVER.                    9.20:  Sperry Version 
 TDAT.m                5161.01:  Tot Depth Attmp 
 TDDF.                      No:  Trip for DD 
 TDLG.m                 295.00:  Tot Depth Loggd 
 TFF .                      No:  Trip for Fail 
 TQAA.f-kp               13.00:  Torque Abs Avg 
 TQAN.f-kp               13.00:  Torque Abs Min 
 TQAX.f-kp               16.00:  Torque Abs Max 
 TRRT.°/30m               0.25:  Turn Rotating 
 MRT .                     ADR:  Maximum Recorded Temperature 
 TTMX.degC               88.00:  Max Tool Temp 
 VS01.                90577859:  Virtual Str1 SN 
 VS02.                90521879:  Virtual Str2 SN 
 VS03.                90580299:  Virtual Str3 SN 
 VS04.                90515982:  Virtual Str4 SN 
 VS05.                90547765:  Virtual Str5 SN 
 WBMN.klb                 2.00:  WOB Min 
 WITN.           Adil Mammadov:  Customer Rep 
 WITN.        Elmaddin Rahimov:  Customer Rep 2 
 WOBA.klb                 3.00:  WOB Avg 
 WOBX.klb                 5.00:  WOB Max 
 YP  .lhf2               30.00:  Yield Point 
~Curve Information Block
#MNEM.UNIT                 API CODE     Curve Description
#---------               -----------    ---------------------------
 TIME.HHMMSS            00 000 000 000:  GT Time & Date
 GTDEPTH.m              00 000 000 000:  GT Depth
 GTPQH.psia             00 000 000 000:  GT HR Quartz Pressure
 GTTQ.degC              00 000 000 000:  GT Quartz Temperature
 GTTN.NONE              00 000 000 000:  GT Test Number
 GTET.sec               00 000 000 000:  GT Elapsed Test Time
 GTTVD.m                00 000 000 000:  GT True Vertical Depth
#Other Information
#
#WARRANTY: Halliburton will use its best efforts to furnish customers with 
#accurate information and interpretations that are part of, and incident to, the services 
#provided.  However, Halliburton cannot and does not warrant the accuracy 
#or correctness of such information and interpretations.  Under no circumstances should any 
#such information or interpretation be relied upon as the sole basis for any drilling, 
#completion, production, or financial decision or any procedure involving any risk to the 
#safety of any drilling venture, drilling rig or its crew or any other third party.  The 
#Customer has full responsibility for all drilling, completion and production operation.  
#Halliburton makes no representations or warranties, either expressed or 
#implied, including, but not limited to, the implied warranties of merchantability or fitness 
#for a particular purpose, with respect to the services rendered.  In no event will 
#Halliburton be liable for failure to obtain any particular results or for 
#any damages, including, but not limited to, indirect, special or consequential damages, 
#resulting from the use of any information or interpretation provided by Halliburton.
#
~A           TIME           GTDEPTH  GTPQH  GTTQ  GTTN  GTET   GTTVD  
# ...
   19:26:27.175.18-Jan-2020 4980.01 4428.31 81.25 3.00 184.04 2836.95
   19:26:27.375.18-Jan-2020 4980.01 4428.31 81.25 3.00 184.24 2836.95
   19:26:27.575.18-Jan-2020 4980.01 4428.30 81.25 3.00 184.44 2836.95
   19:26:27.775.18-Jan-2020 4980.01 4428.28 81.25 3.00 184.64 2836.95
   19:26:27.975.18-Jan-2020 4980.01 4428.30 81.25 3.00 184.84 2836.95
   19:26:28.175.18-Jan-2020 4980.01 4428.29 81.25 3.00 185.04 2836.95
   19:26:28.375.18-Jan-2020 4980.01 4428.29 81.25 3.00 185.24 2836.95
   19:26:28.575.18-Jan-2020 4980.01 4428.29 81.25 3.00 185.44 2836.95
   19:26:28.775.18-Jan-2020 4980.01 4428.27 81.25 3.00 185.64 2836.95
   19:26:28.975.18-Jan-2020 4980.01 4428.30 81.25 3.00 185.84 2836.95
   19:26:29.175.18-Jan-2020 4980.01 4428.25 81.24 3.00 186.04 2836.95
   19:26:29.375.18-Jan-2020 4980.01 4428.25 81.24 3.00 186.24 2836.95
   19:26:29.575.18-Jan-2020 4980.01 4428.31 81.24 3.00 186.44 2836.95
   19:26:29.775.18-Jan-2020 4980.01 4428.34 81.24 3.00 186.64 2836.95
   19:26:29.975.18-Jan-2020 4980.01 4428.29 81.24 3.00 186.84 2836.95
   19:26:30.175.18-Jan-2020 4980.01 4428.20 81.24 3.00 187.04 2836.95
   19:26:30.375.18-Jan-2020 4980.01 4428.20 81.24 3.00 187.24 2836.95
   19:26:30.576.18-Jan-2020 4980.01 4428.26 81.24 3.00 187.44 2836.95
   19:26:30.776.18-Jan-2020 4980.01 4428.33 81.24 3.00 187.64 2836.95
   19:26:30.976.18-Jan-2020 4980.01 4428.30 81.24 3.00 187.84 2836.95
   19:26:31.176.18-Jan-2020 4980.01 4428.32 81.24 3.00 188.04 2836.95
   19:26:31.376.18-Jan-2020 4980.01 4428.32 81.24 3.00 188.24 2836.95
   19:26:31.576.18-Jan-2020 4980.01 4428.23 81.24 3.00 188.44 2836.95
   19:26:31.776.18-Jan-2020 4980.01 4428.30 81.24 3.00 188.64 2836.95
   19:26:31.976.18-Jan-2020 4980.01 4428.34 81.24 3.00 188.84 2836.95
   19:26:32.176.18-Jan-2020 4980.01 4428.29 81.24 3.00 189.04 2836.95
   19:26:32.376.18-Jan-2020 4980.01 4428.29 81.24 3.00 189.24 2836.95
   19:26:32.576.18-Jan-2020 4980.01 4428.28 81.23 3.00 189.44 2836.95
   19:26:32.776.18-Jan-2020 4980.01 4428.31 81.23 3.00 189.64 2836.95
   19:26:32.976.18-Jan-2020 4980.01 4428.17 81.23 3.00 189.84 2836.95
   19:26:33.176.18-Jan-2020 4980.01 4428.39 81.23 3.00 190.04 2836.95
   19:26:33.376.18-Jan-2020 4980.01 4428.39 81.23 3.00 190.24 2836.95
   19:26:33.576.18-Jan-2020 4980.01 4428.32 81.23 3.00 190.44 2836.95
   19:26:33.776.18-Jan-2020 4980.01 4428.30 81.23 3.00 190.64 2836.95
   19:26:33.976.18-Jan-2020 4980.01 4428.29 81.23 3.00 190.84 2836.95
   19:26:34.176.18-Jan-2020 4980.01 4428.30 81.23 3.00 191.04 2836.95
   19:26:34.376.18-Jan-2020 4980.01 4428.30 81.23 3.00 191.24 2836.95
   19:26:34.576.18-Jan-2020 4980.01 4428.30 81.23 3.00 191.44 2836.95
   19:26:34.776.18-Jan-2020 4980.01 4428.26 81.23 3.00 191.64 2836.95
   19:26:34.976.18-Jan-2020 4980.01 4428.30 81.23 3.00 191.84 2836.95
   19:26:35.176.18-Jan-2020 4980.01 4428.27 81.23 3.00 192.04 2836.95
   19:26:35.376.18-Jan-2020 4980.01 4428.27 81.23 3.00 192.24 2836.95
   19:26:35.577.18-Jan-2020 4980.01 4428.27 81.23 3.00 192.44 2836.95
   19:26:35.777.18-Jan-2020 4980.01 4428.27 81.23 3.00 192.64 2836.95
   19:26:35.977.18-Jan-2020 4980.01 4428.29 81.23 3.00 192.84 2836.95
   19:26:36.177.18-Jan-2020 4980.01 4428.15 81.22 3.00 193.04 2836.95
   19:26:36.377.18-Jan-2020 4980.01 4428.15 81.22 3.00 193.24 2836.95
   19:26:36.577.18-Jan-2020 4980.01 4428.24 81.22 3.00 193.44 2836.95
   19:26:36.777.18-Jan-2020 4980.01 4428.34 81.22 3.00 193.64 2836.95
   19:26:36.977.18-Jan-2020 4980.01 4428.26 81.22 3.00 193.84 2836.95
   19:26:37.177.18-Jan-2020 4980.01 4428.31 81.22 3.00 194.04 2836.95
   19:26:37.377.18-Jan-2020 4980.01 4428.31 81.22 3.00 194.24 2836.95
   19:26:37.577.18-Jan-2020 4980.01 4428.29 81.22 3.00 194.44 2836.95
   19:26:37.777.18-Jan-2020 4980.01 4428.27 81.22 3.00 194.64 2836.95
   19:26:37.977.18-Jan-2020 4980.01 4428.27 81.22 3.00 194.84 2836.95
   19:26:38.177.18-Jan-2020 4980.01 4428.27 81.22 3.00 195.04 2836.95
   19:26:38.377.18-Jan-2020 4980.01 4428.27 81.22 3.00 195.24 2836.95
   19:26:38.577.18-Jan-2020 4980.01 4428.27 81.22 3.00 195.44 2836.95
   19:26:38.777.18-Jan-2020 4980.01 4428.25 81.22 3.00 195.64 2836.95
   19:26:38.977.18-Jan-2020 4980.01 4428.28 81.22 3.00 195.84 2836.95
   19:26:39.177.18-Jan-2020 4980.01 4428.25 81.22 3.00 196.04 2836.95
   19:26:39.377.18-Jan-2020 4980.01 4428.25 81.22 3.00 196.24 2836.95
   19:26:39.577.18-Jan-2020 4980.01 4428.19 81.21 3.00 196.44 2836.95
   19:26:39.777.18-Jan-2020 4980.01 4428.28 81.21 3.00 196.64 2836.95
   19:26:39.977.18-Jan-2020 4980.01 4428.26 81.21 3.00 196.84 2836.95
   19:26:40.177.18-Jan-2020 4980.01 4428.32 81.21 3.00 197.04 2836.95
   19:26:40.377.18-Jan-2020 4980.01 4428.32 81.21 3.00 197.24 2836.95
   19:26:40.577.18-Jan-2020 4980.01 4428.12 81.21 3.00 197.44 2836.95
   19:26:40.778.18-Jan-2020 4980.01 4428.40 81.21 3.00 197.64 2836.95
   19:26:40.978.18-Jan-2020 4980.01 4428.26 81.21 3.00 197.84 2836.95
   19:26:41.178.18-Jan-2020 4980.01 4428.31 81.21 3.00 198.04 2836.95
   19:26:41.378.18-Jan-2020 4980.01 4428.31 81.21 3.00 198.24 2836.95
   19:26:41.578.18-Jan-2020 4980.01 4428.30 81.21 3.00 198.44 2836.95
   19:26:41.778.18-Jan-2020 4980.01 4428.21 81.21 3.00 198.64 2836.95
   19:26:41.978.18-Jan-2020 4980.01 4428.29 81.21 3.00 198.84 2836.95
   19:26:42.178.18-Jan-2020 4980.01 4428.26 81.21 3.00 199.04 2836.95
   19:26:42.378.18-Jan-2020 4980.01 4428.26 81.21 3.00 199.24 2836.95
   19:26:42.578.18-Jan-2020 4980.01 4428.26 81.21 3.00 199.44 2836.95
   19:26:42.778.18-Jan-2020 4980.01 4428.30 81.21 3.00 199.64 2836.95
   19:26:42.978.18-Jan-2020 4980.01 4428.27 81.21 3.00 199.84 2836.95
   19:26:43.178.18-Jan-2020 4980.01 4428.29 81.20 3.00 200.04 2836.95
   19:26:43.378.18-Jan-2020 4980.01 4428.29 81.20 3.00 200.24 2836.95
   19:26:43.578.18-Jan-2020 4980.01 4428.40 81.20 3.00 200.44 2836.95
   19:26:43.778.18-Jan-2020 4980.01 4428.27 81.20 3.00 200.64 2836.95
   19:26:43.978.18-Jan-2020 4980.01 4428.29 81.20 3.00 200.84 2836.95
   19:26:44.178.18-Jan-2020 4980.01 4428.30 81.20 3.00 201.04 2836.95
   19:26:44.378.18-Jan-2020 4980.01 4428.30 81.20 3.00 201.24 2836.95
   19:26:44.578.18-Jan-2020 4980.01 4428.29 81.20 3.00 201.44 2836.95
   19:26:44.778.18-Jan-2020 4980.01 4428.26 81.20 3.00 201.64 2836.95
   19:26:44.978.18-Jan-2020 4980.01 4428.28 81.20 3.00 201.84 2836.95
   19:26:45.178.18-Jan-2020 4980.01 4428.26 81.20 3.00 202.04 2836.95
   19:26:45.378.18-Jan-2020 4980.01 4428.26 81.20 3.00 202.24 2836.95
   19:26:45.578.18-Jan-2020 4980.01 4428.27 81.20 3.00 202.44 2836.95
   19:26:45.778.18-Jan-2020 4980.01 4428.26 81.20 3.00 202.64 2836.95
   19:26:45.979.18-Jan-2020 4980.01 4428.26 81.20 3.00 202.84 2836.95
   19:26:46.179.18-Jan-2020 4980.01 4428.25 81.20 3.00 203.04 2836.95
   19:26:46.379.18-Jan-2020 4980.01 4428.25 81.20 3.00 203.24 2836.95
   19:26:46.579.18-Jan-2020 4980.01 4428.08 81.19 3.00 203.44 2836.95
   19:26:46.779.18-Jan-2020 4980.01 4428.40 81.19 3.00 203.64 2836.95
   19:26:46.979.18-Jan-2020 4980.01 4428.24 81.19 3.00 203.84 2836.95
   19:26:47.179.18-Jan-2020 4980.01 4428.31 81.19 3.00 204.04 2836.95
   19:26:47.379.18-Jan-2020 4980.01 4428.31 81.19 3.00 204.24 2836.95
   19:26:47.579.18-Jan-2020 4980.01 4428.29 81.19 3.00 204.44 2836.95
   19:26:47.779.18-Jan-2020 4980.01 4428.26 81.19 3.00 204.64 2836.95
   19:26:47.979.18-Jan-2020 4980.01 4428.26 81.19 3.00 204.84 2836.95
   19:26:48.179.18-Jan-2020 4980.01 4428.27 81.19 3.00 205.04 2836.95
   19:26:48.379.18-Jan-2020 4980.01 4428.27 81.19 3.00 205.24 2836.95
   19:26:48.579.18-Jan-2020 4980.01 4428.26 81.19 3.00 205.44 2836.95
   19:26:48.779.18-Jan-2020 4980.01 4428.24 81.19 3.00 205.64 2836.95
   19:26:48.979.18-Jan-2020 4980.01 4428.27 81.19 3.00 205.84 2836.95
   19:26:49.179.18-Jan-2020 4980.01 4428.23 81.19 3.00 206.04 2836.95
   19:26:49.379.18-Jan-2020 4980.01 4428.23 81.19 3.00 206.24 2836.95
   19:26:49.579.18-Jan-2020 4980.01 4428.23 81.19 3.00 206.44 2836.95
   19:26:49.779.18-Jan-2020 4980.01 4428.26 81.19 3.00 206.64 2836.95
   19:26:49.979.18-Jan-2020 4980.01 4428.12 81.19 3.00 206.84 2836.95
