~Version Information
 VERS.                  2.0:   CWLS log ASCII Standard -VERSION 2.0
 WRAP.                   NO:   One line per depth step
~Well Information Block
#MNEM.UNIT     VALUE/NAME     DESCRIPTION
#---------     -----------    ---------------------------
 STRT.S             16:13:28 18-Jan-20: START TIME 16:13:28 18-Jan-20
 STOP.S             16:21:32 18-Jan-20: STOP TIME  16:21:32 18-Jan-20
 STEP.S                   0.00: STEP TIME
 NULL.                 -999.25: NULL VALUE
 DFWT.                        :  DIST FWL TEXT
 DFST.                        :  DIST FSL TEXT
 DMF .             Drill Floor:  DRILL MEAS FROM
 STIM.      17.57.20 21-Dec-19:  START TIME
 DATE.      17.57.20 21-Dec-19:  END TIME
 SPUD.               21-Dec-19:  SPUD DATE
 NREF.                    Grid:  NORTH REFERENCE
 HPTY.       Minimum Curvature:  HOLE POS TYPE
 DMOD.             Drill Model:  DRILL MOD DESC
 SVYD.                  Survey:  SURVEY DESC
 ILTD.               Lithology:  INTERP LTH DESC
 FTOP.          Formation Tops:  FORM TOPS DESC
 PDAT.          Mean Sea Level:  PERMANENT DATUM
 FLD .                     ACG:  FIELD NAME
 SON .        AZ-XX-0905715376:  JOB NUMBER
 CTRY.              Azerbaijan:  COUNTRY NAME
 WELL.                    E04Y:  WELL NAME
 SRVC.          TURAN DRILLING:  CONTRACTOR
 COMP.     BP Exploration (Caspian Sea) Ltd.:  COMPANY
 WTYP.                Deviated:  WELL TYPE
 UWI .                     N/a:  UNIQUE WELL IDENTIFIER
 API .                     N/a:  API NUMBER
 BASE.              Azerbaijan:  LOGGING EQUIPMENT BASE LOCATION
 REGN.                   EESSA:  REGION
 MWDS.                    Baku:  MWD SHOP
 RIG .                     DWG:  RIG NAME
 DOE .                     N/a:  DOE NUMBER
 CNTY.                    Baku:  COUNTY NAME
 DCON.         Sperry Drilling:  DIRECTNL CONTR
 UNIT.                     N/a:  LOGGING EQUIPMENT ID
 MDS .        Operator Entered:  MAG DATA SOURCE
 PROV.                        :  PROVINCE
 STAT.                        :  STATE
 LOC .                        :  LOCATION
 LMF .             Drill Floor:  LOG MEASURED FROM
 TVDS.m                  43.16:  TVDSS CORRECTN
 LATI.deg                40.17:  LATITUDE
 LONG.deg                51.17:  LONGITUDE
 WHNS.m                  -0.12:  WELL HEAD N/S
 WHEW.m                  -5.41:  WELL HEAD E/W
 UTMX.m              514337.95:  UTM X
 UTMY.m             4448627.46:  UTM Y
 DFWL.m                   0.00:  DISTANCE FWL
 DFSL.m                   0.00:  DISTANCE FSL
 SDEP.m                   0.00:  START DEPTH
 TDD .m                   0.00:  TOTAL DEPTH (DRILLER)
 VSDR.deg               235.12:  VERT SEC DIRECT
 GVFD.g                   1.00:  GRAVITY FIELD
 MFLD.nT              50294.00:  MAGNETIC FIELD
 MDIP.deg                59.61:  MAGNETIC DIP
 MDEC.deg                 6.58:  MAGNETIC DECL
 GRDC.deg                 0.09:  GRID CORRECTION
 AZTC.deg                 6.49:  AZM TOTAL CORR
 EPD .m                   0.00:  ELEVATION
 EGL .m                   0.00:  GROUND ELEVATION
 WDMS.m                 176.20:  WD ELEV
 APD .m                  43.16:  DEPTH ABOVE PD
 DEP .m                3172.61:  DEPTH
 AGAP.m                  43.16:  AIR GAP
 VSEW.m                  -5.41:  VERT SEC E/W
 VSNS.m                  -0.12:  VERT SEC N/S
 EKB .m                  43.16:  KB ELEVATION
 EDF .m                  43.16:  DF ELEVATION
 TDL .m                 295.00:  TOTAL DEPTH (LOGGER)
 VSC .                       0:  VS TO CLOSURE
 MAGU.                 1852276:  MAGUTM CHECKSUM
~Parameter Information Block
#MNEM.UNIT       Value        Description
#---------     -----------    ---------------------------
 AV  .mps                 1.60:  Ann Velocity 
 AVMX.mps                 2.10:  Max Ann Veloc 
 AZIF.deg               290.59:  Azm, Final 
 BHAT.        Rotary Steerable:  BHA Type 
 BROT.°/30m               1.00:  Build Rotating 
 BS  .in                  6.50:  Bit Size 
 BSZ .in                  6.50:  Bit Size 
 BTPL.psig              120.00:  Bit Press Loss 
 CABU.                     Yes:  Customer Abuse 
 CGEO.          Eldar Huseynov:  Customer Geo 
 COMM.                     Ôs:  Run Comments 1 
 TCS .hr                 87.00:  Time Ciculation Ended 
 CV  .mps                 4.01:  Crit Velocity 
 CVMX.mps                 5.06:  Max Crit Veloc 
 DD1 .             Aziz Aliyev:  Direct Drillr 1 
 DD2 .            Sanan Aliyev:  Direct Drillr 2 
 DDSV.               Geo-Pilot:  DD Service 
 DEFF.%                  95.00:  % Det Eff 
 DLRX.°/30m               0.75:  Dogleg Rot Max 
 DLSO.°/30m               0.65:  Dogleg Oriented 
 DLSX.°/30m               1.39:  Dogleg Str Max 
 DRET.      18.25.00 19-Jan-20:  Drill End Time 
 DRST.      11.56.48 17-Jan-20:  Drill Start Tim 
 DTIM.hr                 27.16:  Time Drilling 
 EDEP.m                5161.01:  End Depth 
 ENG1.          Rasim Hashimov:  Engineer 1 
 ENG2.      Bakhtiyar Jabbarli:  Engineer 2 
 ETIM.      11.56.48 21-Jan-20:  End Time 
 FLOI.gpm               350.00:  Flow In 
 FLON.gpm               300.00:  Flow In Min 
 FLOS.cptm                0.00:  Fluid Loss 
 FLOX.gpm               400.00:  Flow In Max 
 HFLO.                      No:  High Flow 
 HPRE.                      No:  High Pressure 
 HTEM.                      No:  High Temp 
 HYDO.m                   1.85:  Hydro Offset 
 IFIN.deg                71.58:  Inc, Final 
 IMAX.deg                71.83:  Inc Max 
 IMIN.deg                71.12:  Inc Min 
 IMND.m                5099.48:  Inc Min Depth 
 IMXD.m                5071.08:  Inc Max Depth 
 JARR.                      No:  Jarring 
 LETM.      18.25.00 19-Jan-20:  Log End Time 
 LOST.hr                     0:  Lost Rig Time 
 LSTM.      11.56.48 17-Jan-20:  Log Start Time 
 MDCL.ppm             37000.00:  Mud Chlorides 
 MDES.     Inversion Oil/Synthetic:  Mud Desc 
 DFD .sg                  1.34:  Mud Density 
 MDMN.sg                  1.34:  Dens Mud Min 
 MDMX.sg                  1.34:  Dens Mud Max 
 MOIL.                      69:  Run Mud Oil % 
 MOWR.                   69:31:  Run Mud OWR 
 MSND.                     0.1:  Run Mud Sand % 
 MSOL.                    17.6:  Run Mud Solids% 
 DFV .spqt               79.00:  Mud Viscosity 
 MWOD.in                  4.75:  MWD Tool OD 
 MWSI.                      No:  Serv Intrp, MWD 
 OTIM.hr                126.10:  Time Operating 
 PMAX.psia             6000.00:  Press Op, Max 
 PV  .cP                 29.00:  Mud PV 
 RUN .                     400:  Run Number 
 ROPA.m/hr               11.00:  ROP Avg 
 ROPN.m/hr                5.00:  ROP Min 
 ROPX.m/hr               18.00:  ROP Max 
 RPMA.rpm               139.00:  RPM Surface Avg 
 RPMN.rpm               100.00:  RPM Surface Min 
 RPMX.rpm               140.00:  RPM Surface Max 
 RRUN.                     400:  Rig Run Number 
 SAZI.deg               290.22:  Azm, Start 
 SDEP.m                4868.01:  Start Depth 
 SIDD.                      No:  Serv Intrp, DD 
 SINC.deg                71.77:  Inc, Start 
 SPPA.psig             5550.00:  SPP Avg 
 SPPN.psig             4300.00:  SPP Min 
 SPPX.psig             5600.00:  SPP Max 
 STIM.      23.45.48 15-Jan-20:  Start Time 
 SVCS.                 DD, MWD:  Services 
 SVER.                    9.20:  Sperry Version 
 TDAT.m                5161.01:  Tot Depth Attmp 
 TDDF.                      No:  Trip for DD 
 TDLG.m                 295.00:  Tot Depth Loggd 
 TFF .                      No:  Trip for Fail 
 TQAA.f-kp               13.00:  Torque Abs Avg 
 TQAN.f-kp               13.00:  Torque Abs Min 
 TQAX.f-kp               16.00:  Torque Abs Max 
 TRRT.°/30m               0.25:  Turn Rotating 
 MRT .                     ADR:  Maximum Recorded Temperature 
 TTMX.degC               88.00:  Max Tool Temp 
 VS01.                90577859:  Virtual Str1 SN 
 VS02.                90521879:  Virtual Str2 SN 
 VS03.                90580299:  Virtual Str3 SN 
 VS04.                90515982:  Virtual Str4 SN 
 VS05.                90547765:  Virtual Str5 SN 
 WBMN.klb                 2.00:  WOB Min 
 WITN.           Adil Mammadov:  Customer Rep 
 WITN.        Elmaddin Rahimov:  Customer Rep 2 
 WOBA.klb                 3.00:  WOB Avg 
 WOBX.klb                 5.00:  WOB Max 
 YP  .lhf2               30.00:  Yield Point 
~Curve Information Block
#MNEM.UNIT                 API CODE     Curve Description
#---------               -----------    ---------------------------
 TIME.HHMMSS            00 000 000 000:  GT Time & Date
 GTDEPTH.m              00 000 000 000:  GT Depth
 GTPQH.psia             00 000 000 000:  GT HR Quartz Pressure
 GTTQ.degC              00 000 000 000:  GT Quartz Temperature
 GTTN.NONE              00 000 000 000:  GT Test Number
 GTET.sec               00 000 000 000:  GT Elapsed Test Time
 GTTVD.m                00 000 000 000:  GT True Vertical Depth
#Other Information
#
#WARRANTY: Halliburton will use its best efforts to furnish customers with 
#accurate information and interpretations that are part of, and incident to, the services 
#provided.  However, Halliburton cannot and does not warrant the accuracy 
#or correctness of such information and interpretations.  Under no circumstances should any 
#such information or interpretation be relied upon as the sole basis for any drilling, 
#completion, production, or financial decision or any procedure involving any risk to the 
#safety of any drilling venture, drilling rig or its crew or any other third party.  The 
#Customer has full responsibility for all drilling, completion and production operation.  
#Halliburton makes no representations or warranties, either expressed or 
#implied, including, but not limited to, the implied warranties of merchantability or fitness 
#for a particular purpose, with respect to the services rendered.  In no event will 
#Halliburton be liable for failure to obtain any particular results or for 
#any damages, including, but not limited to, indirect, special or consequential damages, 
#resulting from the use of any information or interpretation provided by Halliburton.
#
~A           TIME           GTDEPTH  GTPQH  GTTQ  GTTN  GTET   GTTVD  
   16:13:28.548.18-Jan-2020 4958.01 6032.10 81.11 2.00   0.00 2829.97
   16:13:28.748.18-Jan-2020 4958.01 6032.10 81.11 2.00   0.20 2829.97
   16:13:28.948.18-Jan-2020 4958.01 6034.84 81.11 2.00   0.40 2829.97
   16:13:29.148.18-Jan-2020 4958.01 6033.79 81.11 2.00   0.60 2829.97
   16:13:29.348.18-Jan-2020 4958.01 6033.30 81.11 2.00   0.80 2829.97
   16:13:29.548.18-Jan-2020 4958.01 6034.21 81.11 2.00   1.00 2829.97
   16:13:29.748.18-Jan-2020 4958.01 6034.21 81.11 2.00   1.20 2829.97
   16:13:29.948.18-Jan-2020 4958.01 6034.90 81.11 2.00   1.40 2829.97
   16:13:30.148.18-Jan-2020 4958.01 6026.17 81.10 2.00   1.60 2829.97
   16:13:30.348.18-Jan-2020 4958.01 6035.45 81.10 2.00   1.80 2829.97
   16:13:30.548.18-Jan-2020 4958.01 6032.76 81.10 2.00   2.00 2829.97
   16:13:30.748.18-Jan-2020 4958.01 6032.76 81.10 2.00   2.20 2829.97
   16:13:30.948.18-Jan-2020 4958.01 6032.76 81.10 2.00   2.40 2829.97
   16:13:31.148.18-Jan-2020 4958.01 6032.76 81.10 2.00   2.60 2829.97
   16:13:31.348.18-Jan-2020 4958.01 6026.20 81.10 2.00   2.80 2829.97
   16:13:31.548.18-Jan-2020 4958.01 6032.67 81.10 2.00   3.00 2829.97
   16:13:31.749.18-Jan-2020 4958.01 6032.67 81.10 2.00   3.20 2829.97
   16:13:31.949.18-Jan-2020 4958.01 6037.42 81.10 2.00   3.40 2829.97
   16:13:32.149.18-Jan-2020 4958.01 6037.90 81.10 2.00   3.60 2829.97
   16:13:32.349.18-Jan-2020 4958.01 6037.68 81.10 2.00   3.80 2829.97
   16:13:32.549.18-Jan-2020 4958.01 6037.55 81.10 2.00   4.00 2829.97
   16:13:32.749.18-Jan-2020 4958.01 6037.55 81.10 2.00   4.20 2829.97
   16:13:32.949.18-Jan-2020 4958.01 6037.55 81.10 2.00   4.40 2829.97
   16:13:33.149.18-Jan-2020 4958.01 6037.86 81.09 2.00   4.60 2829.97
   16:13:33.349.18-Jan-2020 4958.01 6036.67 81.09 2.00   4.80 2829.97
   16:13:33.549.18-Jan-2020 4958.01 6036.96 81.09 2.00   5.00 2829.97
   16:13:33.749.18-Jan-2020 4958.01 6036.96 81.09 2.00   5.20 2829.97
   16:13:33.949.18-Jan-2020 4958.01 6037.66 81.09 2.00   5.40 2829.97
   16:13:34.149.18-Jan-2020 4958.01 6036.84 81.09 2.00   5.60 2829.97
   16:13:34.349.18-Jan-2020 4958.01 6037.21 81.09 2.00   5.80 2829.97
   16:13:34.549.18-Jan-2020 4958.01 6036.16 81.09 2.00   6.00 2829.97
   16:13:34.749.18-Jan-2020 4958.01 6036.16 81.09 2.00   6.20 2829.97
   16:13:34.949.18-Jan-2020 4958.01 6031.63 81.09 2.00   6.40 2829.97
   16:13:35.149.18-Jan-2020 4958.01 6030.29 81.08 2.00   6.60 2829.97
   16:13:35.349.18-Jan-2020 4958.01 6036.09 81.08 2.00   6.80 2829.97
   16:13:35.549.18-Jan-2020 4958.01 6035.67 81.08 2.00   7.00 2829.97
   16:13:35.749.18-Jan-2020 4958.01 6035.67 81.08 2.00   7.20 2829.97
   16:13:35.949.18-Jan-2020 4958.01 6035.10 81.08 2.00   7.40 2829.97
   16:13:36.149.18-Jan-2020 4958.01 6035.59 81.08 2.00   7.60 2829.97
   16:13:36.349.18-Jan-2020 4958.01 6034.44 81.08 2.00   7.80 2829.97
   16:13:36.549.18-Jan-2020 4958.01 6035.31 81.08 2.00   8.00 2829.97
   16:13:36.749.18-Jan-2020 4958.01 6035.31 81.08 2.00   8.20 2829.97
   16:13:36.949.18-Jan-2020 4958.01 6035.67 81.08 2.00   8.40 2829.97
   16:13:37.149.18-Jan-2020 4958.01 6035.55 81.08 2.00   8.60 2829.97
   16:13:37.349.18-Jan-2020 4958.01 6035.87 81.08 2.00   8.80 2829.97
   16:13:37.549.18-Jan-2020 4958.01 6035.67 81.08 2.00   9.00 2829.97
   16:13:37.749.18-Jan-2020 4958.01 6036.32 81.08 2.00   9.20 2829.97
   16:13:37.949.18-Jan-2020 4958.01 6036.32 81.08 2.00   9.40 2829.97
   16:13:38.149.18-Jan-2020 4958.01 6036.32 81.08 2.00   9.60 2829.97
   16:13:38.349.18-Jan-2020 4958.01 6037.15 81.07 2.00   9.80 2829.97
   16:13:38.549.18-Jan-2020 4958.01 6037.22 81.07 2.00  10.00 2829.97
   16:13:38.749.18-Jan-2020 4958.01 6030.20 81.07 2.00  10.20 2829.97
   16:13:38.949.18-Jan-2020 4958.01 6033.91 81.07 2.00  10.40 2829.97
   16:13:39.149.18-Jan-2020 4958.01 6038.30 81.07 2.00  10.60 2829.97
   16:13:39.349.18-Jan-2020 4958.01 6037.25 81.07 2.00  10.80 2829.97
   16:13:39.549.18-Jan-2020 4958.01 6038.32 81.07 2.00  11.00 2829.97
   16:13:39.749.18-Jan-2020 4958.01 6038.32 81.07 2.00  11.20 2829.97
   16:13:39.949.18-Jan-2020 4958.01 6029.40 81.07 2.00  11.40 2829.97
   16:13:40.149.18-Jan-2020 4958.01 6034.10 81.06 2.00  11.60 2829.97
   16:13:40.349.18-Jan-2020 4958.01 6037.54 81.06 2.00  11.80 2829.97
   16:13:40.549.18-Jan-2020 4958.01 6038.24 81.06 2.00  12.00 2829.97
   16:13:40.749.18-Jan-2020 4958.01 6038.24 81.06 2.00  12.20 2829.97
   16:13:40.949.18-Jan-2020 4958.01 6035.43 81.06 2.00  12.40 2829.97
   16:13:41.149.18-Jan-2020 4958.01 6032.20 81.06 2.00  12.60 2829.97
   16:13:41.349.18-Jan-2020 4958.01 6038.69 81.06 2.00  12.80 2829.97
   16:13:41.549.18-Jan-2020 4958.01 6035.30 81.06 2.00  13.00 2829.97
   16:13:41.749.18-Jan-2020 4958.01 6035.30 81.06 2.00  13.20 2829.97
   16:13:41.949.18-Jan-2020 4958.01 6032.63 81.06 2.00  13.40 2829.97
   16:13:42.149.18-Jan-2020 4958.01 6038.37 81.06 2.00  13.60 2829.97
   16:13:42.349.18-Jan-2020 4958.01 6038.77 81.06 2.00  13.80 2829.97
   16:13:42.549.18-Jan-2020 4958.01 6030.55 81.06 2.00  14.00 2829.97
   16:13:42.749.18-Jan-2020 4958.01 6030.55 81.06 2.00  14.20 2829.97
   16:13:42.949.18-Jan-2020 4958.01 6038.48 81.05 2.00  14.40 2829.97
   16:13:43.149.18-Jan-2020 4958.01 6038.25 81.05 2.00  14.60 2829.97
   16:13:43.349.18-Jan-2020 4958.01 6038.10 81.05 2.00  14.80 2829.97
   16:13:43.549.18-Jan-2020 4958.01 6039.50 81.05 2.00  15.00 2829.97
   16:13:43.749.18-Jan-2020 4958.01 6039.50 81.05 2.00  15.20 2829.97
   16:13:43.950.18-Jan-2020 4958.01 6035.85 81.05 2.00  15.40 2829.97
   16:13:44.150.18-Jan-2020 4958.01 6038.44 81.05 2.00  15.60 2829.97
   16:13:44.350.18-Jan-2020 4958.01 6038.68 81.05 2.00  15.80 2829.97
   16:13:44.550.18-Jan-2020 4958.01 6039.30 81.05 2.00  16.00 2829.97
   16:13:44.750.18-Jan-2020 4958.01 6039.30 81.05 2.00  16.20 2829.97
   16:13:44.950.18-Jan-2020 4958.01 6039.55 81.05 2.00  16.40 2829.97
   16:13:45.150.18-Jan-2020 4958.01 6039.99 81.05 2.00  16.60 2829.97
   16:13:45.350.18-Jan-2020 4958.01 6041.13 81.04 2.00  16.80 2829.97
   16:13:45.550.18-Jan-2020 4958.01 6040.52 81.04 2.00  17.00 2829.97
   16:13:45.750.18-Jan-2020 4958.01 6040.52 81.04 2.00  17.20 2829.97
   16:13:45.950.18-Jan-2020 4958.01 6040.04 81.04 2.00  17.40 2829.97
   16:13:46.150.18-Jan-2020 4958.01 6041.20 81.04 2.00  17.60 2829.97
   16:13:46.350.18-Jan-2020 4958.01 6040.55 81.04 2.00  17.80 2829.97
   16:13:46.550.18-Jan-2020 4958.01 6041.17 81.04 2.00  18.00 2829.97
   16:13:46.750.18-Jan-2020 4958.01 6041.17 81.04 2.00  18.20 2829.97
   16:13:46.950.18-Jan-2020 4958.01 6030.47 81.04 2.00  18.40 2829.97
   16:13:47.150.18-Jan-2020 4958.01 6038.10 81.04 2.00  18.60 2829.97
   16:13:47.350.18-Jan-2020 4958.01 6038.73 81.04 2.00  18.80 2829.97
   16:13:47.550.18-Jan-2020 4958.01 6039.65 81.04 2.00  19.00 2829.97
   16:13:47.750.18-Jan-2020 4958.01 6039.65 81.04 2.00  19.20 2829.97
   16:13:47.950.18-Jan-2020 4958.01 6041.02 81.03 2.00  19.40 2829.97
   16:13:48.150.18-Jan-2020 4958.01 6040.05 81.03 2.00  19.60 2829.97
   16:13:48.350.18-Jan-2020 4958.01 6040.72 81.03 2.00  19.80 2829.97
   16:13:48.550.18-Jan-2020 4958.01 6039.39 81.03 2.00  20.00 2829.97
   16:13:48.750.18-Jan-2020 4958.01 6039.39 81.03 2.00  20.20 2829.97
   16:13:48.950.18-Jan-2020 4958.01 6039.84 81.03 2.00  20.40 2829.97
   16:13:49.150.18-Jan-2020 4958.01 6040.91 81.03 2.00  20.60 2829.97
   16:13:49.350.18-Jan-2020 4958.01 6040.60 81.03 2.00  20.80 2829.97
   16:13:49.550.18-Jan-2020 4958.01 6040.81 81.03 2.00  21.00 2829.97
   16:13:49.750.18-Jan-2020 4958.01 6040.81 81.03 2.00  21.20 2829.97
   16:13:49.950.18-Jan-2020 4958.01 6040.44 81.03 2.00  21.40 2829.97
   16:13:50.150.18-Jan-2020 4958.01 6041.17 81.03 2.00  21.60 2829.97
   16:13:50.350.18-Jan-2020 4958.01 6040.46 81.02 2.00  21.80 2829.97
   16:13:50.550.18-Jan-2020 4958.01 6033.01 81.02 2.00  22.00 2829.97
   16:13:50.750.18-Jan-2020 4958.01 6033.01 81.02 2.00  22.20 2829.97
   16:13:50.950.18-Jan-2020 4958.01 6042.26 81.02 2.00  22.40 2829.97
   16:13:51.150.18-Jan-2020 4958.01 6041.37 81.02 2.00  22.60 2829.97
   16:13:51.350.18-Jan-2020 4958.01 6042.69 81.02 2.00  22.80 2829.97
