~Version Information
 VERS.                  2.0:   CWLS log ASCII Standard -VERSION 2.0
 WRAP.                   NO:   One line per depth step
~Well Information Block
#MNEM.UNIT     VALUE/NAME     DESCRIPTION
#---------     -----------    ---------------------------
 STRT.S             19:23:23 18-Jan-20: START TIME 19:23:23 18-Jan-20
 STOP.S             19:31:15 18-Jan-20: STOP TIME  19:31:15 18-Jan-20
 STEP.S                   0.00: STEP TIME
 NULL.                 -999.25: NULL VALUE
 DFWT.                        :  DIST FWL TEXT
 DFST.                        :  DIST FSL TEXT
 DMF .             Drill Floor:  DRILL MEAS FROM
 STIM.      17.57.20 21-Dec-19:  START TIME
 DATE.      17.57.20 21-Dec-19:  END TIME
 SPUD.               21-Dec-19:  SPUD DATE
 NREF.                    Grid:  NORTH REFERENCE
 HPTY.       Minimum Curvature:  HOLE POS TYPE
 DMOD.             Drill Model:  DRILL MOD DESC
 SVYD.                  Survey:  SURVEY DESC
 ILTD.               Lithology:  INTERP LTH DESC
 FTOP.          Formation Tops:  FORM TOPS DESC
 PDAT.          Mean Sea Level:  PERMANENT DATUM
 FLD .                     ACG:  FIELD NAME
 SON .        AZ-XX-0905715376:  JOB NUMBER
 CTRY.              Azerbaijan:  COUNTRY NAME
 WELL.                    E04Y:  WELL NAME
 SRVC.          TURAN DRILLING:  CONTRACTOR
 COMP.     BP Exploration (Caspian Sea) Ltd.:  COMPANY
 WTYP.                Deviated:  WELL TYPE
 UWI .                     N/a:  UNIQUE WELL IDENTIFIER
 API .                     N/a:  API NUMBER
 BASE.              Azerbaijan:  LOGGING EQUIPMENT BASE LOCATION
 REGN.                   EESSA:  REGION
 MWDS.                    Baku:  MWD SHOP
 RIG .                     DWG:  RIG NAME
 DOE .                     N/a:  DOE NUMBER
 CNTY.                    Baku:  COUNTY NAME
 DCON.         Sperry Drilling:  DIRECTNL CONTR
 UNIT.                     N/a:  LOGGING EQUIPMENT ID
 MDS .        Operator Entered:  MAG DATA SOURCE
 PROV.                        :  PROVINCE
 STAT.                        :  STATE
 LOC .                        :  LOCATION
 LMF .             Drill Floor:  LOG MEASURED FROM
 TVDS.m                  43.16:  TVDSS CORRECTN
 LATI.deg                40.17:  LATITUDE
 LONG.deg                51.17:  LONGITUDE
 WHNS.m                  -0.12:  WELL HEAD N/S
 WHEW.m                  -5.41:  WELL HEAD E/W
 UTMX.m              514337.95:  UTM X
 UTMY.m             4448627.46:  UTM Y
 DFWL.m                   0.00:  DISTANCE FWL
 DFSL.m                   0.00:  DISTANCE FSL
 SDEP.m                   0.00:  START DEPTH
 TDD .m                   0.00:  TOTAL DEPTH (DRILLER)
 VSDR.deg               235.12:  VERT SEC DIRECT
 GVFD.g                   1.00:  GRAVITY FIELD
 MFLD.nT              50294.00:  MAGNETIC FIELD
 MDIP.deg                59.61:  MAGNETIC DIP
 MDEC.deg                 6.58:  MAGNETIC DECL
 GRDC.deg                 0.09:  GRID CORRECTION
 AZTC.deg                 6.49:  AZM TOTAL CORR
 EPD .m                   0.00:  ELEVATION
 EGL .m                   0.00:  GROUND ELEVATION
 WDMS.m                 176.20:  WD ELEV
 APD .m                  43.16:  DEPTH ABOVE PD
 DEP .m                3172.61:  DEPTH
 AGAP.m                  43.16:  AIR GAP
 VSEW.m                  -5.41:  VERT SEC E/W
 VSNS.m                  -0.12:  VERT SEC N/S
 EKB .m                  43.16:  KB ELEVATION
 EDF .m                  43.16:  DF ELEVATION
 TDL .m                 295.00:  TOTAL DEPTH (LOGGER)
 VSC .                       0:  VS TO CLOSURE
 MAGU.                 1852276:  MAGUTM CHECKSUM
~Parameter Information Block
#MNEM.UNIT       Value        Description
#---------     -----------    ---------------------------
 AV  .mps                 1.60:  Ann Velocity 
 AVMX.mps                 2.10:  Max Ann Veloc 
 AZIF.deg               290.59:  Azm, Final 
 BHAT.        Rotary Steerable:  BHA Type 
 BROT.°/30m               1.00:  Build Rotating 
 BS  .in                  6.50:  Bit Size 
 BSZ .in                  6.50:  Bit Size 
 BTPL.psig              120.00:  Bit Press Loss 
 CABU.                     Yes:  Customer Abuse 
 CGEO.          Eldar Huseynov:  Customer Geo 
 COMM.                     ”%\:  Run Comments 1 
 TCS .hr                 87.00:  Time Ciculation Ended 
 CV  .mps                 4.01:  Crit Velocity 
 CVMX.mps                 5.06:  Max Crit Veloc 
 DD1 .             Aziz Aliyev:  Direct Drillr 1 
 DD2 .            Sanan Aliyev:  Direct Drillr 2 
 DDSV.               Geo-Pilot:  DD Service 
 DEFF.%                  95.00:  % Det Eff 
 DLRX.°/30m               0.75:  Dogleg Rot Max 
 DLSO.°/30m               0.65:  Dogleg Oriented 
 DLSX.°/30m               1.39:  Dogleg Str Max 
 DRET.      18.25.00 19-Jan-20:  Drill End Time 
 DRST.      11.56.48 17-Jan-20:  Drill Start Tim 
 DTIM.hr                 27.16:  Time Drilling 
 EDEP.m                5161.01:  End Depth 
 ENG1.          Rasim Hashimov:  Engineer 1 
 ENG2.      Bakhtiyar Jabbarli:  Engineer 2 
 ETIM.      11.56.48 21-Jan-20:  End Time 
 FLOI.gpm               350.00:  Flow In 
 FLON.gpm               300.00:  Flow In Min 
 FLOS.cptm                0.00:  Fluid Loss 
 FLOX.gpm               400.00:  Flow In Max 
 HFLO.                      No:  High Flow 
 HPRE.                      No:  High Pressure 
 HTEM.                      No:  High Temp 
 HYDO.m                   1.85:  Hydro Offset 
 IFIN.deg                71.58:  Inc, Final 
 IMAX.deg                71.83:  Inc Max 
 IMIN.deg                71.12:  Inc Min 
 IMND.m                5099.48:  Inc Min Depth 
 IMXD.m                5071.08:  Inc Max Depth 
 JARR.                      No:  Jarring 
 LETM.      18.25.00 19-Jan-20:  Log End Time 
 LOST.hr                     0:  Lost Rig Time 
 LSTM.      11.56.48 17-Jan-20:  Log Start Time 
 MDCL.ppm             37000.00:  Mud Chlorides 
 MDES.     Inversion Oil/Synthetic:  Mud Desc 
 DFD .sg                  1.34:  Mud Density 
 MDMN.sg                  1.34:  Dens Mud Min 
 MDMX.sg                  1.34:  Dens Mud Max 
 MOIL.                      69:  Run Mud Oil % 
 MOWR.                   69:31:  Run Mud OWR 
 MSND.                     0.1:  Run Mud Sand % 
 MSOL.                    17.6:  Run Mud Solids% 
 DFV .spqt               79.00:  Mud Viscosity 
 MWOD.in                  4.75:  MWD Tool OD 
 MWSI.                      No:  Serv Intrp, MWD 
 OTIM.hr                126.10:  Time Operating 
 PMAX.psia             6000.00:  Press Op, Max 
 PV  .cP                 29.00:  Mud PV 
 RUN .                     400:  Run Number 
 ROPA.m/hr               11.00:  ROP Avg 
 ROPN.m/hr                5.00:  ROP Min 
 ROPX.m/hr               18.00:  ROP Max 
 RPMA.rpm               139.00:  RPM Surface Avg 
 RPMN.rpm               100.00:  RPM Surface Min 
 RPMX.rpm               140.00:  RPM Surface Max 
 RRUN.                     400:  Rig Run Number 
 SAZI.deg               290.22:  Azm, Start 
 SDEP.m                4868.01:  Start Depth 
 SIDD.                      No:  Serv Intrp, DD 
 SINC.deg                71.77:  Inc, Start 
 SPPA.psig             5550.00:  SPP Avg 
 SPPN.psig             4300.00:  SPP Min 
 SPPX.psig             5600.00:  SPP Max 
 STIM.      23.45.48 15-Jan-20:  Start Time 
 SVCS.                 DD, MWD:  Services 
 SVER.                    9.20:  Sperry Version 
 TDAT.m                5161.01:  Tot Depth Attmp 
 TDDF.                      No:  Trip for DD 
 TDLG.m                 295.00:  Tot Depth Loggd 
 TFF .                      No:  Trip for Fail 
 TQAA.f-kp               13.00:  Torque Abs Avg 
 TQAN.f-kp               13.00:  Torque Abs Min 
 TQAX.f-kp               16.00:  Torque Abs Max 
 TRRT.°/30m               0.25:  Turn Rotating 
 MRT .                     ADR:  Maximum Recorded Temperature 
 TTMX.degC               88.00:  Max Tool Temp 
 VS01.                90577859:  Virtual Str1 SN 
 VS02.                90521879:  Virtual Str2 SN 
 VS03.                90580299:  Virtual Str3 SN 
 VS04.                90515982:  Virtual Str4 SN 
 VS05.                90547765:  Virtual Str5 SN 
 WBMN.klb                 2.00:  WOB Min 
 WITN.           Adil Mammadov:  Customer Rep 
 WITN.        Elmaddin Rahimov:  Customer Rep 2 
 WOBA.klb                 3.00:  WOB Avg 
 WOBX.klb                 5.00:  WOB Max 
 YP  .lhf2               30.00:  Yield Point 
~Curve Information Block
#MNEM.UNIT                 API CODE     Curve Description
#---------               -----------    ---------------------------
 TIME.HHMMSS            00 000 000 000:  GT Time & Date
 GTDEPTH.m              00 000 000 000:  GT Depth
 GTPQH.psia             00 000 000 000:  GT HR Quartz Pressure
 GTTQ.degC              00 000 000 000:  GT Quartz Temperature
 GTTN.NONE              00 000 000 000:  GT Test Number
 GTET.sec               00 000 000 000:  GT Elapsed Test Time
 GTTVD.m                00 000 000 000:  GT True Vertical Depth
#Other Information
#
#WARRANTY: Halliburton will use its best efforts to furnish customers with 
#accurate information and interpretations that are part of, and incident to, the services 
#provided.  However, Halliburton cannot and does not warrant the accuracy 
#or correctness of such information and interpretations.  Under no circumstances should any 
#such information or interpretation be relied upon as the sole basis for any drilling, 
#completion, production, or financial decision or any procedure involving any risk to the 
#safety of any drilling venture, drilling rig or its crew or any other third party.  The 
#Customer has full responsibility for all drilling, completion and production operation.  
#Halliburton makes no representations or warranties, either expressed or 
#implied, including, but not limited to, the implied warranties of merchantability or fitness 
#for a particular purpose, with respect to the services rendered.  In no event will 
#Halliburton be liable for failure to obtain any particular results or for 
#any damages, including, but not limited to, indirect, special or consequential damages, 
#resulting from the use of any information or interpretation provided by Halliburton.
#
~A           TIME           GTDEPTH  GTPQH  GTTQ  GTTN  GTET   GTTVD  
   19:23:23.139.18-Jan-2020 4980.01 6053.44 81.90 3.00   0.00 2836.95
   19:23:23.339.18-Jan-2020 4980.01 6053.44 81.90 3.00   0.20 2836.95
   19:23:23.539.18-Jan-2020 4980.01 6053.49 81.89 3.00   0.40 2836.95
   19:23:23.739.18-Jan-2020 4980.01 6053.90 81.89 3.00   0.60 2836.95
   19:23:23.939.18-Jan-2020 4980.01 6045.17 81.89 3.00   0.80 2836.95
   19:23:24.139.18-Jan-2020 4980.01 6056.01 81.89 3.00   1.00 2836.95
   19:23:24.339.18-Jan-2020 4980.01 6056.01 81.89 3.00   1.20 2836.95
   19:23:24.539.18-Jan-2020 4980.01 6055.27 81.89 3.00   1.40 2836.95
   19:23:24.740.18-Jan-2020 4980.01 6051.91 81.89 3.00   1.60 2836.95
   19:23:24.940.18-Jan-2020 4980.01 6053.93 81.89 3.00   1.80 2836.95
   19:23:25.140.18-Jan-2020 4980.01 6052.81 81.89 3.00   2.00 2836.95
   19:23:25.340.18-Jan-2020 4980.01 6052.81 81.89 3.00   2.20 2836.95
   19:23:25.540.18-Jan-2020 4980.01 6053.62 81.89 3.00   2.40 2836.95
   19:23:25.740.18-Jan-2020 4980.01 6054.41 81.89 3.00   2.60 2836.95
   19:23:25.940.18-Jan-2020 4980.01 6053.67 81.88 3.00   2.80 2836.95
   19:23:26.140.18-Jan-2020 4980.01 6053.50 81.88 3.00   3.00 2836.95
   19:23:26.340.18-Jan-2020 4980.01 6053.50 81.88 3.00   3.20 2836.95
   19:23:26.540.18-Jan-2020 4980.01 6053.45 81.88 3.00   3.40 2836.95
   19:23:26.740.18-Jan-2020 4980.01 6055.21 81.88 3.00   3.60 2836.95
   19:23:26.940.18-Jan-2020 4980.01 6053.85 81.88 3.00   3.80 2836.95
   19:23:27.140.18-Jan-2020 4980.01 6055.59 81.88 3.00   4.00 2836.95
   19:23:27.340.18-Jan-2020 4980.01 6055.59 81.88 3.00   4.20 2836.95
   19:23:27.540.18-Jan-2020 4980.01 6045.27 81.88 3.00   4.40 2836.95
   19:23:27.740.18-Jan-2020 4980.01 6055.27 81.88 3.00   4.60 2836.95
   19:23:27.940.18-Jan-2020 4980.01 6051.95 81.88 3.00   4.80 2836.95
   19:23:28.140.18-Jan-2020 4980.01 6054.53 81.88 3.00   5.00 2836.95
   19:23:28.340.18-Jan-2020 4980.01 6054.53 81.88 3.00   5.20 2836.95
   19:23:28.540.18-Jan-2020 4980.01 6054.63 81.87 3.00   5.40 2836.95
   19:23:28.740.18-Jan-2020 4980.01 6054.03 81.87 3.00   5.60 2836.95
   19:23:28.940.18-Jan-2020 4980.01 6052.73 81.87 3.00   5.80 2836.95
   19:23:29.140.18-Jan-2020 4980.01 6047.48 81.87 3.00   6.00 2836.95
   19:23:29.340.18-Jan-2020 4980.01 6047.48 81.87 3.00   6.20 2836.95
   19:23:29.540.18-Jan-2020 4980.01 6052.42 81.87 3.00   6.40 2836.95
   19:23:29.740.18-Jan-2020 4980.01 6053.28 81.87 3.00   6.60 2836.95
   19:23:29.941.18-Jan-2020 4980.01 6052.94 81.87 3.00   6.80 2836.95
   19:23:30.141.18-Jan-2020 4980.01 6054.27 81.87 3.00   7.00 2836.95
   19:23:30.341.18-Jan-2020 4980.01 6054.27 81.87 3.00   7.20 2836.95
   19:23:30.541.18-Jan-2020 4980.01 6055.02 81.87 3.00   7.40 2836.95
   19:23:30.741.18-Jan-2020 4980.01 6049.57 81.87 3.00   7.60 2836.95
   19:23:30.941.18-Jan-2020 4980.01 6053.07 81.86 3.00   7.80 2836.95
   19:23:31.141.18-Jan-2020 4980.01 6053.40 81.86 3.00   8.00 2836.95
   19:23:31.341.18-Jan-2020 4980.01 6053.40 81.86 3.00   8.20 2836.95
   19:23:31.541.18-Jan-2020 4980.01 6055.94 81.86 3.00   8.40 2836.95
   19:23:31.741.18-Jan-2020 4980.01 6050.21 81.86 3.00   8.60 2836.95
   19:23:31.941.18-Jan-2020 4980.01 6055.53 81.86 3.00   8.80 2836.95
   19:23:32.141.18-Jan-2020 4980.01 6053.30 81.86 3.00   9.00 2836.95
   19:23:32.341.18-Jan-2020 4980.01 6053.30 81.86 3.00   9.20 2836.95
   19:23:32.541.18-Jan-2020 4980.01 6053.30 81.86 3.00   9.40 2836.95
   19:23:32.741.18-Jan-2020 4980.01 6050.23 81.86 3.00   9.60 2836.95
   19:23:32.941.18-Jan-2020 4980.01 6050.08 81.86 3.00   9.80 2836.95
   19:23:33.141.18-Jan-2020 4980.01 6055.54 81.86 3.00  10.00 2836.95
   19:23:33.341.18-Jan-2020 4980.01 6055.54 81.86 3.00  10.20 2836.95
   19:23:33.541.18-Jan-2020 4980.01 6036.38 81.85 3.00  10.40 2836.95
   19:23:33.741.18-Jan-2020 4980.01 6043.91 81.85 3.00  10.60 2836.95
   19:23:33.941.18-Jan-2020 4980.01 6032.29 81.85 3.00  10.80 2836.95
   19:23:34.141.18-Jan-2020 4980.01 6011.65 81.85 3.00  11.00 2836.95
   19:23:34.341.18-Jan-2020 4980.01 6011.65 81.85 3.00  11.20 2836.95
   19:23:34.541.18-Jan-2020 4980.01 5979.59 81.85 3.00  11.40 2836.95
   19:23:34.741.18-Jan-2020 4980.01 5957.85 81.85 3.00  11.60 2836.95
   19:23:34.941.18-Jan-2020 4980.01 5887.74 81.85 3.00  11.80 2836.95
   19:23:35.142.18-Jan-2020 4980.01 5818.81 81.85 3.00  12.00 2836.95
   19:23:35.342.18-Jan-2020 4980.01 5818.81 81.85 3.00  12.20 2836.95
   19:23:35.542.18-Jan-2020 4980.01 5867.37 81.85 3.00  12.40 2836.95
   19:23:35.742.18-Jan-2020 4980.01 5760.53 81.85 3.00  12.60 2836.95
   19:23:35.942.18-Jan-2020 4980.01 5688.79 81.84 3.00  12.80 2836.95
   19:23:36.142.18-Jan-2020 4980.01 5670.32 81.84 3.00  13.00 2836.95
   19:23:36.342.18-Jan-2020 4980.01 5670.32 81.84 3.00  13.20 2836.95
   19:23:36.542.18-Jan-2020 4980.01 5572.74 81.84 3.00  13.40 2836.95
   19:23:36.742.18-Jan-2020 4980.01 5507.45 81.84 3.00  13.60 2836.95
   19:23:36.942.18-Jan-2020 4980.01 5403.05 81.84 3.00  13.80 2836.95
   19:23:37.142.18-Jan-2020 4980.01 5336.96 81.84 3.00  14.00 2836.95
   19:23:37.342.18-Jan-2020 4980.01 5336.96 81.84 3.00  14.20 2836.95
   19:23:37.542.18-Jan-2020 4980.01 5265.82 81.84 3.00  14.40 2836.95
   19:23:37.742.18-Jan-2020 4980.01 5167.82 81.84 3.00  14.60 2836.95
   19:23:37.942.18-Jan-2020 4980.01 5104.29 81.84 3.00  14.80 2836.95
   19:23:38.142.18-Jan-2020 4980.01 5038.94 81.84 3.00  15.00 2836.95
   19:23:38.342.18-Jan-2020 4980.01 5038.94 81.84 3.00  15.20 2836.95
   19:23:38.542.18-Jan-2020 4980.01 4871.01 81.83 3.00  15.40 2836.95
   19:23:38.742.18-Jan-2020 4980.01 4822.44 81.83 3.00  15.60 2836.95
   19:23:38.942.18-Jan-2020 4980.01 4791.86 81.83 3.00  15.80 2836.95
   19:23:39.142.18-Jan-2020 4980.01 4850.83 81.83 3.00  16.00 2836.95
   19:23:39.342.18-Jan-2020 4980.01 4850.83 81.83 3.00  16.20 2836.95
   19:23:39.542.18-Jan-2020 4980.01 4774.72 81.83 3.00  16.40 2836.95
   19:23:39.742.18-Jan-2020 4980.01 4741.35 81.83 3.00  16.60 2836.95
   19:23:39.942.18-Jan-2020 4980.01 4699.36 81.83 3.00  16.80 2836.95
   19:23:40.143.18-Jan-2020 4980.01 4701.74 81.83 3.00  17.00 2836.95
   19:23:40.343.18-Jan-2020 4980.01 4701.74 81.83 3.00  17.20 2836.95
   19:23:40.543.18-Jan-2020 4980.01 4689.84 81.82 3.00  17.40 2836.95
   19:23:40.743.18-Jan-2020 4980.01 4722.90 81.82 3.00  17.60 2836.95
   19:23:40.943.18-Jan-2020 4980.01 5488.96 81.82 3.00  17.80 2836.95
   19:23:41.143.18-Jan-2020 4980.01 6449.33 81.82 3.00  18.00 2836.95
   19:23:41.343.18-Jan-2020 4980.01 6449.33 81.82 3.00  18.20 2836.95
   19:23:41.543.18-Jan-2020 4980.01 6929.71 81.82 3.00  18.40 2836.95
   19:23:41.743.18-Jan-2020 4980.01 7115.77 81.82 3.00  18.60 2836.95
   19:23:41.943.18-Jan-2020 4980.01 7293.35 81.82 3.00  18.80 2836.95
   19:23:42.143.18-Jan-2020 4980.01 7386.51 81.82 3.00  19.00 2836.95
   19:23:42.343.18-Jan-2020 4980.01 7386.51 81.82 3.00  19.20 2836.95
   19:23:42.543.18-Jan-2020 4980.01 7454.89 81.81 3.00  19.40 2836.95
   19:23:42.743.18-Jan-2020 4980.01 7533.49 81.81 3.00  19.60 2836.95
   19:23:42.943.18-Jan-2020 4980.01 7607.59 81.81 3.00  19.80 2836.95
   19:23:43.143.18-Jan-2020 4980.01 7179.44 81.81 3.00  20.00 2836.95
   19:23:43.343.18-Jan-2020 4980.01 7179.44 81.81 3.00  20.20 2836.95
   19:23:43.543.18-Jan-2020 4980.01 7216.91 81.81 3.00  20.40 2836.95
   19:23:43.743.18-Jan-2020 4980.01 7265.85 81.81 3.00  20.60 2836.95
   19:23:43.943.18-Jan-2020 4980.01 7324.97 81.81 3.00  20.80 2836.95
   19:23:44.143.18-Jan-2020 4980.01 7359.81 81.81 3.00  21.00 2836.95
   19:23:44.343.18-Jan-2020 4980.01 7359.81 81.81 3.00  21.20 2836.95
   19:23:44.543.18-Jan-2020 4980.01 7306.67 81.81 3.00  21.40 2836.95
   19:23:44.743.18-Jan-2020 4980.01 7308.73 81.81 3.00  21.60 2836.95
   19:23:44.943.18-Jan-2020 4980.01 7301.29 81.81 3.00  21.80 2836.95
   19:23:45.143.18-Jan-2020 4980.01 7303.33 81.81 3.00  22.00 2836.95
   19:23:45.344.18-Jan-2020 4980.01 7303.33 81.81 3.00  22.20 2836.95
   19:23:45.544.18-Jan-2020 4980.01 7294.95 81.81 3.00  22.40 2836.95
   19:23:45.744.18-Jan-2020 4980.01 7292.66 81.81 3.00  22.60 2836.95
   19:23:45.944.18-Jan-2020 4980.01 7293.38 81.80 3.00  22.80 2836.95
