~Version Information
 VERS.                  2.0:   CWLS log ASCII Standard -VERSION 2.0
 WRAP.                   NO:   One line per depth step
~Well Information Block
#MNEM.UNIT     VALUE/NAME     DESCRIPTION
#---------     -----------    ---------------------------
 STRT.S             05:36:55 19-Jan-20: START TIME 05:36:55 19-Jan-20
 STOP.S             05:44:47 19-Jan-20: STOP TIME  05:44:47 19-Jan-20
 STEP.S                   0.00: STEP TIME
 NULL.                 -999.25: NULL VALUE
 DFWT.                        :  DIST FWL TEXT
 DFST.                        :  DIST FSL TEXT
 DMF .             Drill Floor:  DRILL MEAS FROM
 STIM.      17.57.20 21-Dec-19:  START TIME
 DATE.      17.57.20 21-Dec-19:  END TIME
 SPUD.               21-Dec-19:  SPUD DATE
 NREF.                    Grid:  NORTH REFERENCE
 HPTY.       Minimum Curvature:  HOLE POS TYPE
 DMOD.             Drill Model:  DRILL MOD DESC
 SVYD.                  Survey:  SURVEY DESC
 ILTD.               Lithology:  INTERP LTH DESC
 FTOP.          Formation Tops:  FORM TOPS DESC
 PDAT.          Mean Sea Level:  PERMANENT DATUM
 FLD .                     ACG:  FIELD NAME
 SON .        AZ-XX-0905715376:  JOB NUMBER
 CTRY.              Azerbaijan:  COUNTRY NAME
 WELL.                    E04Y:  WELL NAME
 SRVC.          TURAN DRILLING:  CONTRACTOR
 COMP.     BP Exploration (Caspian Sea) Ltd.:  COMPANY
 WTYP.                Deviated:  WELL TYPE
 UWI .                     N/a:  UNIQUE WELL IDENTIFIER
 API .                     N/a:  API NUMBER
 BASE.              Azerbaijan:  LOGGING EQUIPMENT BASE LOCATION
 REGN.                   EESSA:  REGION
 MWDS.                    Baku:  MWD SHOP
 RIG .                     DWG:  RIG NAME
 DOE .                     N/a:  DOE NUMBER
 CNTY.                    Baku:  COUNTY NAME
 DCON.         Sperry Drilling:  DIRECTNL CONTR
 UNIT.                     N/a:  LOGGING EQUIPMENT ID
 MDS .        Operator Entered:  MAG DATA SOURCE
 PROV.                        :  PROVINCE
 STAT.                        :  STATE
 LOC .                        :  LOCATION
 LMF .             Drill Floor:  LOG MEASURED FROM
 TVDS.m                  43.16:  TVDSS CORRECTN
 LATI.deg                40.17:  LATITUDE
 LONG.deg                51.17:  LONGITUDE
 WHNS.m                  -0.12:  WELL HEAD N/S
 WHEW.m                  -5.41:  WELL HEAD E/W
 UTMX.m              514337.95:  UTM X
 UTMY.m             4448627.46:  UTM Y
 DFWL.m                   0.00:  DISTANCE FWL
 DFSL.m                   0.00:  DISTANCE FSL
 SDEP.m                   0.00:  START DEPTH
 TDD .m                   0.00:  TOTAL DEPTH (DRILLER)
 VSDR.deg               235.12:  VERT SEC DIRECT
 GVFD.g                   1.00:  GRAVITY FIELD
 MFLD.nT              50294.00:  MAGNETIC FIELD
 MDIP.deg                59.61:  MAGNETIC DIP
 MDEC.deg                 6.58:  MAGNETIC DECL
 GRDC.deg                 0.09:  GRID CORRECTION
 AZTC.deg                 6.49:  AZM TOTAL CORR
 EPD .m                   0.00:  ELEVATION
 EGL .m                   0.00:  GROUND ELEVATION
 WDMS.m                 176.20:  WD ELEV
 APD .m                  43.16:  DEPTH ABOVE PD
 DEP .m                3172.61:  DEPTH
 AGAP.m                  43.16:  AIR GAP
 VSEW.m                  -5.41:  VERT SEC E/W
 VSNS.m                  -0.12:  VERT SEC N/S
 EKB .m                  43.16:  KB ELEVATION
 EDF .m                  43.16:  DF ELEVATION
 TDL .m                 295.00:  TOTAL DEPTH (LOGGER)
 VSC .                       0:  VS TO CLOSURE
 MAGU.                 1852276:  MAGUTM CHECKSUM
~Parameter Information Block
#MNEM.UNIT       Value        Description
#---------     -----------    ---------------------------
 AV  .mps                 1.60:  Ann Velocity 
 AVMX.mps                 2.10:  Max Ann Veloc 
 AZIF.deg               290.59:  Azm, Final 
 BHAT.        Rotary Steerable:  BHA Type 
 BROT.°/30m               1.00:  Build Rotating 
 BS  .in                  6.50:  Bit Size 
 BSZ .in                  6.50:  Bit Size 
 BTPL.psig              120.00:  Bit Press Loss 
 CABU.                     Yes:  Customer Abuse 
 CGEO.          Eldar Huseynov:  Customer Geo 
 COMM.                     Lì_:  Run Comments 1 
 TCS .hr                 87.00:  Time Ciculation Ended 
 CV  .mps                 4.01:  Crit Velocity 
 CVMX.mps                 5.06:  Max Crit Veloc 
 DD1 .             Aziz Aliyev:  Direct Drillr 1 
 DD2 .            Sanan Aliyev:  Direct Drillr 2 
 DDSV.               Geo-Pilot:  DD Service 
 DEFF.%                  95.00:  % Det Eff 
 DLRX.°/30m               0.75:  Dogleg Rot Max 
 DLSO.°/30m               0.65:  Dogleg Oriented 
 DLSX.°/30m               1.39:  Dogleg Str Max 
 DRET.      18.25.00 19-Jan-20:  Drill End Time 
 DRST.      11.56.48 17-Jan-20:  Drill Start Tim 
 DTIM.hr                 27.16:  Time Drilling 
 EDEP.m                5161.01:  End Depth 
 ENG1.          Rasim Hashimov:  Engineer 1 
 ENG2.      Bakhtiyar Jabbarli:  Engineer 2 
 ETIM.      11.56.48 21-Jan-20:  End Time 
 FLOI.gpm               350.00:  Flow In 
 FLON.gpm               300.00:  Flow In Min 
 FLOS.cptm                0.00:  Fluid Loss 
 FLOX.gpm               400.00:  Flow In Max 
 HFLO.                      No:  High Flow 
 HPRE.                      No:  High Pressure 
 HTEM.                      No:  High Temp 
 HYDO.m                   1.85:  Hydro Offset 
 IFIN.deg                71.58:  Inc, Final 
 IMAX.deg                71.83:  Inc Max 
 IMIN.deg                71.12:  Inc Min 
 IMND.m                5099.48:  Inc Min Depth 
 IMXD.m                5071.08:  Inc Max Depth 
 JARR.                      No:  Jarring 
 LETM.      18.25.00 19-Jan-20:  Log End Time 
 LOST.hr                     0:  Lost Rig Time 
 LSTM.      11.56.48 17-Jan-20:  Log Start Time 
 MDCL.ppm             37000.00:  Mud Chlorides 
 MDES.     Inversion Oil/Synthetic:  Mud Desc 
 DFD .sg                  1.34:  Mud Density 
 MDMN.sg                  1.34:  Dens Mud Min 
 MDMX.sg                  1.34:  Dens Mud Max 
 MOIL.                      69:  Run Mud Oil % 
 MOWR.                   69:31:  Run Mud OWR 
 MSND.                     0.1:  Run Mud Sand % 
 MSOL.                    17.6:  Run Mud Solids% 
 DFV .spqt               79.00:  Mud Viscosity 
 MWOD.in                  4.75:  MWD Tool OD 
 MWSI.                      No:  Serv Intrp, MWD 
 OTIM.hr                126.10:  Time Operating 
 PMAX.psia             6000.00:  Press Op, Max 
 PV  .cP                 29.00:  Mud PV 
 RUN .                     400:  Run Number 
 ROPA.m/hr               11.00:  ROP Avg 
 ROPN.m/hr                5.00:  ROP Min 
 ROPX.m/hr               18.00:  ROP Max 
 RPMA.rpm               139.00:  RPM Surface Avg 
 RPMN.rpm               100.00:  RPM Surface Min 
 RPMX.rpm               140.00:  RPM Surface Max 
 RRUN.                     400:  Rig Run Number 
 SAZI.deg               290.22:  Azm, Start 
 SDEP.m                4868.01:  Start Depth 
 SIDD.                      No:  Serv Intrp, DD 
 SINC.deg                71.77:  Inc, Start 
 SPPA.psig             5550.00:  SPP Avg 
 SPPN.psig             4300.00:  SPP Min 
 SPPX.psig             5600.00:  SPP Max 
 STIM.      23.45.48 15-Jan-20:  Start Time 
 SVCS.                 DD, MWD:  Services 
 SVER.                    9.20:  Sperry Version 
 TDAT.m                5161.01:  Tot Depth Attmp 
 TDDF.                      No:  Trip for DD 
 TDLG.m                 295.00:  Tot Depth Loggd 
 TFF .                      No:  Trip for Fail 
 TQAA.f-kp               13.00:  Torque Abs Avg 
 TQAN.f-kp               13.00:  Torque Abs Min 
 TQAX.f-kp               16.00:  Torque Abs Max 
 TRRT.°/30m               0.25:  Turn Rotating 
 MRT .                     ADR:  Maximum Recorded Temperature 
 TTMX.degC               88.00:  Max Tool Temp 
 VS01.                90577859:  Virtual Str1 SN 
 VS02.                90521879:  Virtual Str2 SN 
 VS03.                90580299:  Virtual Str3 SN 
 VS04.                90515982:  Virtual Str4 SN 
 VS05.                90547765:  Virtual Str5 SN 
 WBMN.klb                 2.00:  WOB Min 
 WITN.           Adil Mammadov:  Customer Rep 
 WITN.        Elmaddin Rahimov:  Customer Rep 2 
 WOBA.klb                 3.00:  WOB Avg 
 WOBX.klb                 5.00:  WOB Max 
 YP  .lhf2               30.00:  Yield Point 
~Curve Information Block
#MNEM.UNIT                 API CODE     Curve Description
#---------               -----------    ---------------------------
 TIME.HHMMSS            00 000 000 000:  GT Time & Date
 GTDEPTH.m              00 000 000 000:  GT Depth
 GTPQH.psia             00 000 000 000:  GT HR Quartz Pressure
 GTTQ.degC              00 000 000 000:  GT Quartz Temperature
 GTTN.NONE              00 000 000 000:  GT Test Number
 GTET.sec               00 000 000 000:  GT Elapsed Test Time
 GTTVD.m                00 000 000 000:  GT True Vertical Depth
#Other Information
#
#WARRANTY: Halliburton will use its best efforts to furnish customers with 
#accurate information and interpretations that are part of, and incident to, the services 
#provided.  However, Halliburton cannot and does not warrant the accuracy 
#or correctness of such information and interpretations.  Under no circumstances should any 
#such information or interpretation be relied upon as the sole basis for any drilling, 
#completion, production, or financial decision or any procedure involving any risk to the 
#safety of any drilling venture, drilling rig or its crew or any other third party.  The 
#Customer has full responsibility for all drilling, completion and production operation.  
#Halliburton makes no representations or warranties, either expressed or 
#implied, including, but not limited to, the implied warranties of merchantability or fitness 
#for a particular purpose, with respect to the services rendered.  In no event will 
#Halliburton be liable for failure to obtain any particular results or for 
#any damages, including, but not limited to, indirect, special or consequential damages, 
#resulting from the use of any information or interpretation provided by Halliburton.
#
~A           TIME           GTDEPTH  GTPQH  GTTQ  GTTN  GTET   GTTVD  
# ...
   05:41:08.652.19-Jan-2020 5052.01 4085.63 81.36 4.00 253.05 2859.87
   05:41:08.852.19-Jan-2020 5052.01 4085.63 81.36 4.00 253.25 2859.87
   05:41:09.052.19-Jan-2020 5052.01 4085.65 81.36 4.00 253.45 2859.87
   05:41:09.252.19-Jan-2020 5052.01 4085.63 81.36 4.00 253.65 2859.87
   05:41:09.452.19-Jan-2020 5052.01 4085.63 81.36 4.00 253.85 2859.87
   05:41:09.652.19-Jan-2020 5052.01 4085.63 81.36 4.00 254.05 2859.87
   05:41:09.852.19-Jan-2020 5052.01 4085.63 81.36 4.00 254.25 2859.87
   05:41:10.052.19-Jan-2020 5052.01 4085.61 81.36 4.00 254.45 2859.87
   05:41:10.253.19-Jan-2020 5052.01 4085.64 81.36 4.00 254.65 2859.87
   05:41:10.453.19-Jan-2020 5052.01 4085.61 81.36 4.00 254.85 2859.87
   05:41:10.653.19-Jan-2020 5052.01 4085.63 81.36 4.00 255.05 2859.87
   05:41:10.853.19-Jan-2020 5052.01 4085.63 81.36 4.00 255.25 2859.87
   05:41:11.053.19-Jan-2020 5052.01 4085.73 81.36 4.00 255.45 2859.87
   05:41:11.253.19-Jan-2020 5052.01 4085.67 81.36 4.00 255.65 2859.87
   05:41:11.453.19-Jan-2020 5052.01 4085.65 81.36 4.00 255.85 2859.87
   05:41:11.653.19-Jan-2020 5052.01 4085.68 81.36 4.00 256.05 2859.87
   05:41:11.853.19-Jan-2020 5052.01 4085.68 81.36 4.00 256.25 2859.87
   05:41:12.053.19-Jan-2020 5052.01 4085.67 81.35 4.00 256.45 2859.87
   05:41:12.253.19-Jan-2020 5052.01 4085.52 81.35 4.00 256.65 2859.87
   05:41:12.453.19-Jan-2020 5052.01 4085.71 81.35 4.00 256.85 2859.87
   05:41:12.653.19-Jan-2020 5052.01 4085.67 81.35 4.00 257.05 2859.87
   05:41:12.853.19-Jan-2020 5052.01 4085.67 81.35 4.00 257.25 2859.87
   05:41:13.053.19-Jan-2020 5052.01 4085.65 81.35 4.00 257.45 2859.87
   05:41:13.253.19-Jan-2020 5052.01 4085.66 81.35 4.00 257.65 2859.87
   05:41:13.453.19-Jan-2020 5052.01 4085.65 81.35 4.00 257.85 2859.87
   05:41:13.653.19-Jan-2020 5052.01 4085.65 81.35 4.00 258.05 2859.87
   05:41:13.853.19-Jan-2020 5052.01 4085.65 81.35 4.00 258.26 2859.87
   05:41:14.053.19-Jan-2020 5052.01 4085.72 81.35 4.00 258.46 2859.87
   05:41:14.253.19-Jan-2020 5052.01 4085.65 81.35 4.00 258.66 2859.87
   05:41:14.453.19-Jan-2020 5052.01 4085.66 81.35 4.00 258.86 2859.87
   05:41:14.653.19-Jan-2020 5052.01 4085.67 81.35 4.00 259.06 2859.87
   05:41:14.853.19-Jan-2020 5052.01 4085.67 81.35 4.00 259.26 2859.87
   05:41:15.054.19-Jan-2020 5052.01 4085.67 81.35 4.00 259.46 2859.87
   05:41:15.254.19-Jan-2020 5052.01 4085.61 81.35 4.00 259.66 2859.87
   05:41:15.454.19-Jan-2020 5052.01 4085.59 81.35 4.00 259.86 2859.87
   05:41:15.654.19-Jan-2020 5052.01 4085.68 81.35 4.00 260.06 2859.87
   05:41:15.854.19-Jan-2020 5052.01 4085.68 81.35 4.00 260.26 2859.87
   05:41:16.054.19-Jan-2020 5052.01 4085.67 81.35 4.00 260.46 2859.87
   05:41:16.254.19-Jan-2020 5052.01 4085.66 81.35 4.00 260.66 2859.87
   05:41:16.454.19-Jan-2020 5052.01 4085.66 81.35 4.00 260.86 2859.87
   05:41:16.654.19-Jan-2020 5052.01 4085.64 81.35 4.00 261.06 2859.87
   05:41:16.854.19-Jan-2020 5052.01 4085.64 81.35 4.00 261.26 2859.87
   05:41:17.054.19-Jan-2020 5052.01 4085.66 81.35 4.00 261.46 2859.87
   05:41:17.254.19-Jan-2020 5052.01 4085.64 81.34 4.00 261.66 2859.87
   05:41:17.454.19-Jan-2020 5052.01 4085.63 81.34 4.00 261.86 2859.87
   05:41:17.654.19-Jan-2020 5052.01 4085.64 81.34 4.00 262.06 2859.87
   05:41:17.854.19-Jan-2020 5052.01 4085.64 81.34 4.00 262.26 2859.87
   05:41:18.054.19-Jan-2020 5052.01 4085.63 81.34 4.00 262.46 2859.87
   05:41:18.254.19-Jan-2020 5052.01 4085.62 81.34 4.00 262.66 2859.87
   05:41:18.454.19-Jan-2020 5052.01 4085.63 81.34 4.00 262.86 2859.87
   05:41:18.654.19-Jan-2020 5052.01 4085.52 81.34 4.00 263.06 2859.87
   05:41:18.854.19-Jan-2020 5052.01 4085.52 81.34 4.00 263.26 2859.87
   05:41:19.054.19-Jan-2020 5052.01 4085.66 81.34 4.00 263.46 2859.87
   05:41:19.254.19-Jan-2020 5052.01 4085.62 81.34 4.00 263.66 2859.87
   05:41:19.454.19-Jan-2020 5052.01 4085.66 81.34 4.00 263.86 2859.87
   05:41:19.655.19-Jan-2020 5052.01 4085.64 81.34 4.00 264.06 2859.87
   05:41:19.855.19-Jan-2020 5052.01 4085.64 81.34 4.00 264.26 2859.87
   05:41:20.055.19-Jan-2020 5052.01 4085.62 81.34 4.00 264.46 2859.87
   05:41:20.255.19-Jan-2020 5052.01 4085.64 81.34 4.00 264.66 2859.87
   05:41:20.455.19-Jan-2020 5052.01 4085.63 81.34 4.00 264.86 2859.87
   05:41:20.655.19-Jan-2020 5052.01 4085.63 81.34 4.00 265.06 2859.87
   05:41:20.855.19-Jan-2020 5052.01 4085.63 81.34 4.00 265.26 2859.87
   05:41:21.055.19-Jan-2020 5052.01 4085.63 81.34 4.00 265.46 2859.87
   05:41:21.255.19-Jan-2020 5052.01 4085.62 81.34 4.00 265.66 2859.87
   05:41:21.455.19-Jan-2020 5052.01 4085.62 81.34 4.00 265.86 2859.87
   05:41:21.655.19-Jan-2020 5052.01 4085.61 81.34 4.00 266.06 2859.87
   05:41:21.855.19-Jan-2020 5052.01 4085.61 81.34 4.00 266.26 2859.87
   05:41:22.055.19-Jan-2020 5052.01 4085.49 81.34 4.00 266.46 2859.87
   05:41:22.255.19-Jan-2020 5052.01 4085.69 81.34 4.00 266.66 2859.87
   05:41:22.455.19-Jan-2020 5052.01 4085.67 81.33 4.00 266.86 2859.87
   05:41:22.655.19-Jan-2020 5052.01 4085.63 81.33 4.00 267.06 2859.87
   05:41:22.855.19-Jan-2020 5052.01 4085.63 81.33 4.00 267.26 2859.87
   05:41:23.055.19-Jan-2020 5052.01 4085.63 81.33 4.00 267.46 2859.87
   05:41:23.255.19-Jan-2020 5052.01 4085.66 81.33 4.00 267.66 2859.87
   05:41:23.455.19-Jan-2020 5052.01 4085.50 81.33 4.00 267.86 2859.87
   05:41:23.655.19-Jan-2020 5052.01 4085.70 81.33 4.00 268.06 2859.87
   05:41:23.855.19-Jan-2020 5052.01 4085.70 81.33 4.00 268.26 2859.87
   05:41:24.055.19-Jan-2020 5052.01 4085.63 81.33 4.00 268.46 2859.87
   05:41:24.255.19-Jan-2020 5052.01 4085.67 81.33 4.00 268.66 2859.87
   05:41:24.456.19-Jan-2020 5052.01 4085.63 81.33 4.00 268.86 2859.87
   05:41:24.656.19-Jan-2020 5052.01 4085.65 81.33 4.00 269.06 2859.87
   05:41:24.856.19-Jan-2020 5052.01 4085.65 81.33 4.00 269.26 2859.87
   05:41:25.056.19-Jan-2020 5052.01 4085.63 81.33 4.00 269.46 2859.87
   05:41:25.256.19-Jan-2020 5052.01 4085.71 81.33 4.00 269.66 2859.87
   05:41:25.456.19-Jan-2020 5052.01 4085.65 81.33 4.00 269.86 2859.87
   05:41:25.656.19-Jan-2020 5052.01 4085.65 81.33 4.00 270.06 2859.87
   05:41:25.856.19-Jan-2020 5052.01 4085.65 81.33 4.00 270.26 2859.87
   05:41:26.056.19-Jan-2020 5052.01 4085.63 81.33 4.00 270.46 2859.87
   05:41:26.256.19-Jan-2020 5052.01 4085.64 81.33 4.00 270.66 2859.87
   05:41:26.456.19-Jan-2020 5052.01 4085.61 81.33 4.00 270.86 2859.87
   05:41:26.656.19-Jan-2020 5052.01 4085.56 81.33 4.00 271.06 2859.87
   05:41:26.856.19-Jan-2020 5052.01 4085.56 81.33 4.00 271.26 2859.87
   05:41:27.056.19-Jan-2020 5052.01 4085.62 81.33 4.00 271.46 2859.87
   05:41:27.256.19-Jan-2020 5052.01 4085.67 81.33 4.00 271.66 2859.87
   05:41:27.456.19-Jan-2020 5052.01 4085.64 81.33 4.00 271.86 2859.87
   05:41:27.656.19-Jan-2020 5052.01 4085.65 81.32 4.00 272.06 2859.87
   05:41:27.856.19-Jan-2020 5052.01 4085.65 81.32 4.00 272.26 2859.87
   05:41:28.056.19-Jan-2020 5052.01 4085.64 81.32 4.00 272.46 2859.87
   05:41:28.256.19-Jan-2020 5052.01 4085.62 81.32 4.00 272.66 2859.87
   05:41:28.456.19-Jan-2020 5052.01 4085.64 81.32 4.00 272.86 2859.87
   05:41:28.656.19-Jan-2020 5052.01 4085.61 81.32 4.00 273.06 2859.87
   05:41:28.856.19-Jan-2020 5052.01 4085.61 81.32 4.00 273.26 2859.87
   05:41:29.057.19-Jan-2020 5052.01 4085.62 81.32 4.00 273.46 2859.87
   05:41:29.257.19-Jan-2020 5052.01 4085.61 81.32 4.00 273.66 2859.87
   05:41:29.457.19-Jan-2020 5052.01 4085.61 81.32 4.00 273.86 2859.87
   05:41:29.657.19-Jan-2020 5052.01 4085.61 81.32 4.00 274.06 2859.87
   05:41:29.857.19-Jan-2020 5052.01 4085.61 81.32 4.00 274.26 2859.87
   05:41:30.057.19-Jan-2020 5052.01 4085.64 81.32 4.00 274.46 2859.87
   05:41:30.257.19-Jan-2020 5052.01 4085.66 81.32 4.00 274.66 2859.87
   05:41:30.457.19-Jan-2020 5052.01 4085.62 81.32 4.00 274.86 2859.87
   05:41:30.657.19-Jan-2020 5052.01 4085.66 81.32 4.00 275.06 2859.87
   05:41:30.857.19-Jan-2020 5052.01 4085.66 81.32 4.00 275.26 2859.87
   05:41:31.057.19-Jan-2020 5052.01 4085.63 81.32 4.00 275.46 2859.87
   05:41:31.257.19-Jan-2020 5052.01 4085.64 81.32 4.00 275.66 2859.87
   05:41:31.457.19-Jan-2020 5052.01 4085.62 81.32 4.00 275.86 2859.87
