~Version Information
 VERS.                  2.0:   CWLS log ASCII Standard -VERSION 2.0
 WRAP.                   NO:   One line per depth step
~Well Information Block
#MNEM.UNIT     VALUE/NAME     DESCRIPTION
#---------     -----------    ---------------------------
 STRT.S             05:36:55 19-Jan-20: START TIME 05:36:55 19-Jan-20
 STOP.S             05:44:47 19-Jan-20: STOP TIME  05:44:47 19-Jan-20
 STEP.S                   0.00: STEP TIME
 NULL.                 -999.25: NULL VALUE
 DFWT.                        :  DIST FWL TEXT
 DFST.                        :  DIST FSL TEXT
 DMF .             Drill Floor:  DRILL MEAS FROM
 STIM.      17.57.20 21-Dec-19:  START TIME
 DATE.      17.57.20 21-Dec-19:  END TIME
 SPUD.               21-Dec-19:  SPUD DATE
 NREF.                    Grid:  NORTH REFERENCE
 HPTY.       Minimum Curvature:  HOLE POS TYPE
 DMOD.             Drill Model:  DRILL MOD DESC
 SVYD.                  Survey:  SURVEY DESC
 ILTD.               Lithology:  INTERP LTH DESC
 FTOP.          Formation Tops:  FORM TOPS DESC
 PDAT.          Mean Sea Level:  PERMANENT DATUM
 FLD .                     ACG:  FIELD NAME
 SON .        AZ-XX-0905715376:  JOB NUMBER
 CTRY.              Azerbaijan:  COUNTRY NAME
 WELL.                    E04Y:  WELL NAME
 SRVC.          TURAN DRILLING:  CONTRACTOR
 COMP.     BP Exploration (Caspian Sea) Ltd.:  COMPANY
 WTYP.                Deviated:  WELL TYPE
 UWI .                     N/a:  UNIQUE WELL IDENTIFIER
 API .                     N/a:  API NUMBER
 BASE.              Azerbaijan:  LOGGING EQUIPMENT BASE LOCATION
 REGN.                   EESSA:  REGION
 MWDS.                    Baku:  MWD SHOP
 RIG .                     DWG:  RIG NAME
 DOE .                     N/a:  DOE NUMBER
 CNTY.                    Baku:  COUNTY NAME
 DCON.         Sperry Drilling:  DIRECTNL CONTR
 UNIT.                     N/a:  LOGGING EQUIPMENT ID
 MDS .        Operator Entered:  MAG DATA SOURCE
 PROV.                        :  PROVINCE
 STAT.                        :  STATE
 LOC .                        :  LOCATION
 LMF .             Drill Floor:  LOG MEASURED FROM
 TVDS.m                  43.16:  TVDSS CORRECTN
 LATI.deg                40.17:  LATITUDE
 LONG.deg                51.17:  LONGITUDE
 WHNS.m                  -0.12:  WELL HEAD N/S
 WHEW.m                  -5.41:  WELL HEAD E/W
 UTMX.m              514337.95:  UTM X
 UTMY.m             4448627.46:  UTM Y
 DFWL.m                   0.00:  DISTANCE FWL
 DFSL.m                   0.00:  DISTANCE FSL
 SDEP.m                   0.00:  START DEPTH
 TDD .m                   0.00:  TOTAL DEPTH (DRILLER)
 VSDR.deg               235.12:  VERT SEC DIRECT
 GVFD.g                   1.00:  GRAVITY FIELD
 MFLD.nT              50294.00:  MAGNETIC FIELD
 MDIP.deg                59.61:  MAGNETIC DIP
 MDEC.deg                 6.58:  MAGNETIC DECL
 GRDC.deg                 0.09:  GRID CORRECTION
 AZTC.deg                 6.49:  AZM TOTAL CORR
 EPD .m                   0.00:  ELEVATION
 EGL .m                   0.00:  GROUND ELEVATION
 WDMS.m                 176.20:  WD ELEV
 APD .m                  43.16:  DEPTH ABOVE PD
 DEP .m                3172.61:  DEPTH
 AGAP.m                  43.16:  AIR GAP
 VSEW.m                  -5.41:  VERT SEC E/W
 VSNS.m                  -0.12:  VERT SEC N/S
 EKB .m                  43.16:  KB ELEVATION
 EDF .m                  43.16:  DF ELEVATION
 TDL .m                 295.00:  TOTAL DEPTH (LOGGER)
 VSC .                       0:  VS TO CLOSURE
 MAGU.                 1852276:  MAGUTM CHECKSUM
~Parameter Information Block
#MNEM.UNIT       Value        Description
#---------     -----------    ---------------------------
 AV  .mps                 1.60:  Ann Velocity 
 AVMX.mps                 2.10:  Max Ann Veloc 
 AZIF.deg               290.59:  Azm, Final 
 BHAT.        Rotary Steerable:  BHA Type 
 BROT.°/30m               1.00:  Build Rotating 
 BS  .in                  6.50:  Bit Size 
 BSZ .in                  6.50:  Bit Size 
 BTPL.psig              120.00:  Bit Press Loss 
 CABU.                     Yes:  Customer Abuse 
 CGEO.          Eldar Huseynov:  Customer Geo 
 COMM.                     Lì_:  Run Comments 1 
 TCS .hr                 87.00:  Time Ciculation Ended 
 CV  .mps                 4.01:  Crit Velocity 
 CVMX.mps                 5.06:  Max Crit Veloc 
 DD1 .             Aziz Aliyev:  Direct Drillr 1 
 DD2 .            Sanan Aliyev:  Direct Drillr 2 
 DDSV.               Geo-Pilot:  DD Service 
 DEFF.%                  95.00:  % Det Eff 
 DLRX.°/30m               0.75:  Dogleg Rot Max 
 DLSO.°/30m               0.65:  Dogleg Oriented 
 DLSX.°/30m               1.39:  Dogleg Str Max 
 DRET.      18.25.00 19-Jan-20:  Drill End Time 
 DRST.      11.56.48 17-Jan-20:  Drill Start Tim 
 DTIM.hr                 27.16:  Time Drilling 
 EDEP.m                5161.01:  End Depth 
 ENG1.          Rasim Hashimov:  Engineer 1 
 ENG2.      Bakhtiyar Jabbarli:  Engineer 2 
 ETIM.      11.56.48 21-Jan-20:  End Time 
 FLOI.gpm               350.00:  Flow In 
 FLON.gpm               300.00:  Flow In Min 
 FLOS.cptm                0.00:  Fluid Loss 
 FLOX.gpm               400.00:  Flow In Max 
 HFLO.                      No:  High Flow 
 HPRE.                      No:  High Pressure 
 HTEM.                      No:  High Temp 
 HYDO.m                   1.85:  Hydro Offset 
 IFIN.deg                71.58:  Inc, Final 
 IMAX.deg                71.83:  Inc Max 
 IMIN.deg                71.12:  Inc Min 
 IMND.m                5099.48:  Inc Min Depth 
 IMXD.m                5071.08:  Inc Max Depth 
 JARR.                      No:  Jarring 
 LETM.      18.25.00 19-Jan-20:  Log End Time 
 LOST.hr                     0:  Lost Rig Time 
 LSTM.      11.56.48 17-Jan-20:  Log Start Time 
 MDCL.ppm             37000.00:  Mud Chlorides 
 MDES.     Inversion Oil/Synthetic:  Mud Desc 
 DFD .sg                  1.34:  Mud Density 
 MDMN.sg                  1.34:  Dens Mud Min 
 MDMX.sg                  1.34:  Dens Mud Max 
 MOIL.                      69:  Run Mud Oil % 
 MOWR.                   69:31:  Run Mud OWR 
 MSND.                     0.1:  Run Mud Sand % 
 MSOL.                    17.6:  Run Mud Solids% 
 DFV .spqt               79.00:  Mud Viscosity 
 MWOD.in                  4.75:  MWD Tool OD 
 MWSI.                      No:  Serv Intrp, MWD 
 OTIM.hr                126.10:  Time Operating 
 PMAX.psia             6000.00:  Press Op, Max 
 PV  .cP                 29.00:  Mud PV 
 RUN .                     400:  Run Number 
 ROPA.m/hr               11.00:  ROP Avg 
 ROPN.m/hr                5.00:  ROP Min 
 ROPX.m/hr               18.00:  ROP Max 
 RPMA.rpm               139.00:  RPM Surface Avg 
 RPMN.rpm               100.00:  RPM Surface Min 
 RPMX.rpm               140.00:  RPM Surface Max 
 RRUN.                     400:  Rig Run Number 
 SAZI.deg               290.22:  Azm, Start 
 SDEP.m                4868.01:  Start Depth 
 SIDD.                      No:  Serv Intrp, DD 
 SINC.deg                71.77:  Inc, Start 
 SPPA.psig             5550.00:  SPP Avg 
 SPPN.psig             4300.00:  SPP Min 
 SPPX.psig             5600.00:  SPP Max 
 STIM.      23.45.48 15-Jan-20:  Start Time 
 SVCS.                 DD, MWD:  Services 
 SVER.                    9.20:  Sperry Version 
 TDAT.m                5161.01:  Tot Depth Attmp 
 TDDF.                      No:  Trip for DD 
 TDLG.m                 295.00:  Tot Depth Loggd 
 TFF .                      No:  Trip for Fail 
 TQAA.f-kp               13.00:  Torque Abs Avg 
 TQAN.f-kp               13.00:  Torque Abs Min 
 TQAX.f-kp               16.00:  Torque Abs Max 
 TRRT.°/30m               0.25:  Turn Rotating 
 MRT .                     ADR:  Maximum Recorded Temperature 
 TTMX.degC               88.00:  Max Tool Temp 
 VS01.                90577859:  Virtual Str1 SN 
 VS02.                90521879:  Virtual Str2 SN 
 VS03.                90580299:  Virtual Str3 SN 
 VS04.                90515982:  Virtual Str4 SN 
 VS05.                90547765:  Virtual Str5 SN 
 WBMN.klb                 2.00:  WOB Min 
 WITN.           Adil Mammadov:  Customer Rep 
 WITN.        Elmaddin Rahimov:  Customer Rep 2 
 WOBA.klb                 3.00:  WOB Avg 
 WOBX.klb                 5.00:  WOB Max 
 YP  .lhf2               30.00:  Yield Point 
~Curve Information Block
#MNEM.UNIT                 API CODE     Curve Description
#---------               -----------    ---------------------------
 TIME.HHMMSS            00 000 000 000:  GT Time & Date
 GTDEPTH.m              00 000 000 000:  GT Depth
 GTPQH.psia             00 000 000 000:  GT HR Quartz Pressure
 GTTQ.degC              00 000 000 000:  GT Quartz Temperature
 GTTN.NONE              00 000 000 000:  GT Test Number
 GTET.sec               00 000 000 000:  GT Elapsed Test Time
 GTTVD.m                00 000 000 000:  GT True Vertical Depth
#Other Information
#
#WARRANTY: Halliburton will use its best efforts to furnish customers with 
#accurate information and interpretations that are part of, and incident to, the services 
#provided.  However, Halliburton cannot and does not warrant the accuracy 
#or correctness of such information and interpretations.  Under no circumstances should any 
#such information or interpretation be relied upon as the sole basis for any drilling, 
#completion, production, or financial decision or any procedure involving any risk to the 
#safety of any drilling venture, drilling rig or its crew or any other third party.  The 
#Customer has full responsibility for all drilling, completion and production operation.  
#Halliburton makes no representations or warranties, either expressed or 
#implied, including, but not limited to, the implied warranties of merchantability or fitness 
#for a particular purpose, with respect to the services rendered.  In no event will 
#Halliburton be liable for failure to obtain any particular results or for 
#any damages, including, but not limited to, indirect, special or consequential damages, 
#resulting from the use of any information or interpretation provided by Halliburton.
#
~A           TIME           GTDEPTH  GTPQH  GTTQ  GTTN  GTET   GTTVD  
# ...
   05:37:18.603.19-Jan-2020 5052.01 8046.79 81.94 4.00  23.00 2859.87
   05:37:18.803.19-Jan-2020 5052.01 8046.79 81.94 4.00  23.20 2859.87
   05:37:19.003.19-Jan-2020 5052.01 8052.37 81.94 4.00  23.40 2859.87
   05:37:19.203.19-Jan-2020 5052.01 8052.43 81.94 4.00  23.61 2859.87
   05:37:19.403.19-Jan-2020 5052.01 8052.91 81.94 4.00  23.81 2859.87
   05:37:19.603.19-Jan-2020 5052.01 8054.06 81.94 4.00  24.01 2859.87
   05:37:19.803.19-Jan-2020 5052.01 8054.06 81.94 4.00  24.21 2859.87
   05:37:20.003.19-Jan-2020 5052.01 8055.30 81.94 4.00  24.41 2859.87
   05:37:20.204.19-Jan-2020 5052.01 8056.25 81.94 4.00  24.61 2859.87
   05:37:20.404.19-Jan-2020 5052.01 8055.01 81.94 4.00  24.81 2859.87
   05:37:20.604.19-Jan-2020 5052.01 7427.38 81.94 4.00  25.01 2859.87
   05:37:20.804.19-Jan-2020 5052.01 7427.38 81.94 4.00  25.21 2859.87
   05:37:21.004.19-Jan-2020 5052.01 6863.18 81.94 4.00  25.41 2859.87
   05:37:21.204.19-Jan-2020 5052.01 6598.61 81.94 4.00  25.61 2859.87
   05:37:21.404.19-Jan-2020 5052.01 6261.06 81.94 4.00  25.81 2859.87
   05:37:21.604.19-Jan-2020 5052.01 6135.70 81.94 4.00  26.01 2859.87
   05:37:21.804.19-Jan-2020 5052.01 6135.70 81.94 4.00  26.21 2859.87
   05:37:22.004.19-Jan-2020 5052.01 5986.47 81.94 4.00  26.41 2859.87
   05:37:22.204.19-Jan-2020 5052.01 5876.44 81.93 4.00  26.61 2859.87
   05:37:22.404.19-Jan-2020 5052.01 5698.82 81.93 4.00  26.81 2859.87
   05:37:22.604.19-Jan-2020 5052.01 5357.62 81.93 4.00  27.01 2859.87
   05:37:22.804.19-Jan-2020 5052.01 5357.62 81.93 4.00  27.21 2859.87
   05:37:23.004.19-Jan-2020 5052.01 4540.69 81.93 4.00  27.41 2859.87
   05:37:23.204.19-Jan-2020 5052.01 5010.73 81.93 4.00  27.61 2859.87
   05:37:23.404.19-Jan-2020 5052.01 4716.20 81.93 4.00  27.81 2859.87
   05:37:23.604.19-Jan-2020 5052.01 4288.20 81.93 4.00  28.01 2859.87
   05:37:23.804.19-Jan-2020 5052.01 4288.20 81.93 4.00  28.21 2859.87
   05:37:24.004.19-Jan-2020 5052.01 4086.62 81.93 4.00  28.41 2859.87
   05:37:24.204.19-Jan-2020 5052.01 4086.64 81.93 4.00  28.61 2859.87
   05:37:24.404.19-Jan-2020 5052.01 4086.37 81.93 4.00  28.81 2859.87
   05:37:24.604.19-Jan-2020 5052.01 4086.03 81.93 4.00  29.01 2859.87
   05:37:24.804.19-Jan-2020 5052.01 4086.03 81.93 4.00  29.21 2859.87
   05:37:25.005.19-Jan-2020 5052.01 4087.57 81.92 4.00  29.41 2859.87
   05:37:25.205.19-Jan-2020 5052.01 4085.68 81.92 4.00  29.61 2859.87
   05:37:25.405.19-Jan-2020 5052.01 4085.52 81.92 4.00  29.81 2859.87
   05:37:25.605.19-Jan-2020 5052.01 4085.00 81.92 4.00  30.01 2859.87
   05:37:25.805.19-Jan-2020 5052.01 4085.00 81.92 4.00  30.21 2859.87
   05:37:26.005.19-Jan-2020 5052.01 4084.33 81.92 4.00  30.41 2859.87
   05:37:26.205.19-Jan-2020 5052.01 4084.24 81.92 4.00  30.61 2859.87
   05:37:26.405.19-Jan-2020 5052.01 4084.04 81.91 4.00  30.81 2859.87
   05:37:26.605.19-Jan-2020 5052.01 4083.91 81.91 4.00  31.01 2859.87
   05:37:26.805.19-Jan-2020 5052.01 4083.91 81.91 4.00  31.21 2859.87
   05:37:27.005.19-Jan-2020 5052.01 4083.71 81.91 4.00  31.41 2859.87
   05:37:27.205.19-Jan-2020 5052.01 4083.83 81.91 4.00  31.61 2859.87
   05:37:27.405.19-Jan-2020 5052.01 4083.81 81.91 4.00  31.81 2859.87
   05:37:27.605.19-Jan-2020 5052.01 4083.66 81.91 4.00  32.01 2859.87
   05:37:27.805.19-Jan-2020 5052.01 4083.66 81.91 4.00  32.21 2859.87
   05:37:28.005.19-Jan-2020 5052.01 4083.45 81.90 4.00  32.41 2859.87
   05:37:28.205.19-Jan-2020 5052.01 4083.42 81.90 4.00  32.61 2859.87
   05:37:28.405.19-Jan-2020 5052.01 4083.40 81.90 4.00  32.81 2859.87
   05:37:28.605.19-Jan-2020 5052.01 4083.24 81.90 4.00  33.01 2859.87
   05:37:28.805.19-Jan-2020 5052.01 4083.24 81.90 4.00  33.21 2859.87
   05:37:29.005.19-Jan-2020 5052.01 4083.14 81.89 4.00  33.41 2859.87
   05:37:29.205.19-Jan-2020 5052.01 4083.06 81.89 4.00  33.61 2859.87
   05:37:29.405.19-Jan-2020 5052.01 4083.17 81.89 4.00  33.81 2859.87
   05:37:29.606.19-Jan-2020 5052.01 4083.03 81.89 4.00  34.01 2859.87
   05:37:29.806.19-Jan-2020 5052.01 4083.03 81.89 4.00  34.21 2859.87
   05:37:30.006.19-Jan-2020 5052.01 4083.20 81.89 4.00  34.41 2859.87
   05:37:30.206.19-Jan-2020 5052.01 4084.56 81.89 4.00  34.61 2859.87
   05:37:30.406.19-Jan-2020 5052.01 4085.98 81.88 4.00  34.81 2859.87
   05:37:30.606.19-Jan-2020 5052.01 4086.05 81.88 4.00  35.01 2859.87
   05:37:30.806.19-Jan-2020 5052.01 4086.05 81.88 4.00  35.21 2859.87
   05:37:31.006.19-Jan-2020 5052.01 4086.24 81.88 4.00  35.41 2859.87
   05:37:31.206.19-Jan-2020 5052.01 4086.26 81.88 4.00  35.61 2859.87
   05:37:31.406.19-Jan-2020 5052.01 4086.20 81.88 4.00  35.81 2859.87
   05:37:31.606.19-Jan-2020 5052.01 4086.20 81.88 4.00  36.01 2859.87
   05:37:31.806.19-Jan-2020 5052.01 4086.20 81.88 4.00  36.21 2859.87
   05:37:32.006.19-Jan-2020 5052.01 4086.27 81.88 4.00  36.41 2859.87
   05:37:32.206.19-Jan-2020 5052.01 4086.29 81.87 4.00  36.61 2859.87
   05:37:32.406.19-Jan-2020 5052.01 4086.12 81.87 4.00  36.81 2859.87
   05:37:32.606.19-Jan-2020 5052.01 4086.22 81.87 4.00  37.01 2859.87
   05:37:32.806.19-Jan-2020 5052.01 4086.22 81.87 4.00  37.21 2859.87
   05:37:33.006.19-Jan-2020 5052.01 4086.30 81.87 4.00  37.41 2859.87
   05:37:33.206.19-Jan-2020 5052.01 4086.31 81.87 4.00  37.61 2859.87
   05:37:33.406.19-Jan-2020 5052.01 4086.29 81.87 4.00  37.81 2859.87
   05:37:33.606.19-Jan-2020 5052.01 4086.31 81.87 4.00  38.01 2859.87
   05:37:33.806.19-Jan-2020 5052.01 4086.31 81.87 4.00  38.21 2859.87
   05:37:34.006.19-Jan-2020 5052.01 4086.30 81.86 4.00  38.41 2859.87
   05:37:34.206.19-Jan-2020 5052.01 4086.30 81.86 4.00  38.61 2859.87
   05:37:34.407.19-Jan-2020 5052.01 4086.31 81.86 4.00  38.81 2859.87
   05:37:34.607.19-Jan-2020 5052.01 4086.28 81.86 4.00  39.01 2859.87
   05:37:34.807.19-Jan-2020 5052.01 4086.28 81.86 4.00  39.21 2859.87
   05:37:35.007.19-Jan-2020 5052.01 4086.28 81.86 4.00  39.41 2859.87
   05:37:35.207.19-Jan-2020 5052.01 4086.29 81.86 4.00  39.61 2859.87
   05:37:35.407.19-Jan-2020 5052.01 4086.29 81.86 4.00  39.81 2859.87
   05:37:35.607.19-Jan-2020 5052.01 4086.28 81.86 4.00  40.01 2859.87
   05:37:35.807.19-Jan-2020 5052.01 4086.28 81.86 4.00  40.21 2859.87
   05:37:36.007.19-Jan-2020 5052.01 4086.05 81.85 4.00  40.41 2859.87
   05:37:36.207.19-Jan-2020 5052.01 4086.20 81.85 4.00  40.61 2859.87
   05:37:36.407.19-Jan-2020 5052.01 4086.17 81.85 4.00  40.81 2859.87
   05:37:36.607.19-Jan-2020 5052.01 4086.24 81.85 4.00  41.01 2859.87
   05:37:36.807.19-Jan-2020 5052.01 4086.24 81.85 4.00  41.21 2859.87
   05:37:37.007.19-Jan-2020 5052.01 4086.29 81.85 4.00  41.41 2859.87
   05:37:37.207.19-Jan-2020 5052.01 4086.29 81.85 4.00  41.61 2859.87
   05:37:37.407.19-Jan-2020 5052.01 4086.30 81.85 4.00  41.81 2859.87
   05:37:37.607.19-Jan-2020 5052.01 4086.30 81.85 4.00  42.01 2859.87
   05:37:37.807.19-Jan-2020 5052.01 4086.30 81.85 4.00  42.21 2859.87
   05:37:38.007.19-Jan-2020 5052.01 4086.32 81.85 4.00  42.41 2859.87
   05:37:38.207.19-Jan-2020 5052.01 4086.30 81.85 4.00  42.61 2859.87
   05:37:38.407.19-Jan-2020 5052.01 4086.33 81.85 4.00  42.81 2859.87
   05:37:38.607.19-Jan-2020 5052.01 4086.31 81.84 4.00  43.01 2859.87
   05:37:38.807.19-Jan-2020 5052.01 4086.31 81.84 4.00  43.21 2859.87
   05:37:39.008.19-Jan-2020 5052.01 4086.31 81.84 4.00  43.41 2859.87
   05:37:39.208.19-Jan-2020 5052.01 4086.34 81.84 4.00  43.61 2859.87
   05:37:39.408.19-Jan-2020 5052.01 4086.32 81.84 4.00  43.81 2859.87
   05:37:39.608.19-Jan-2020 5052.01 4086.34 81.84 4.00  44.01 2859.87
   05:37:39.808.19-Jan-2020 5052.01 4086.34 81.84 4.00  44.21 2859.87
   05:37:40.008.19-Jan-2020 5052.01 4086.23 81.84 4.00  44.41 2859.87
   05:37:40.208.19-Jan-2020 5052.01 4086.22 81.84 4.00  44.61 2859.87
   05:37:40.408.19-Jan-2020 5052.01 4086.21 81.84 4.00  44.81 2859.87
   05:37:40.608.19-Jan-2020 5052.01 4086.29 81.84 4.00  45.01 2859.87
   05:37:40.808.19-Jan-2020 5052.01 4086.29 81.84 4.00  45.21 2859.87
   05:37:41.008.19-Jan-2020 5052.01 4086.14 81.84 4.00  45.41 2859.87
   05:37:41.208.19-Jan-2020 5052.01 4086.23 81.84 4.00  45.61 2859.87
   05:37:41.408.19-Jan-2020 5052.01 4086.24 81.83 4.00  45.81 2859.87
