~Version Information
 VERS.                  2.0:   CWLS log ASCII Standard -VERSION 2.0
 WRAP.                   NO:   One line per depth step
~Well Information Block
#MNEM.UNIT     VALUE/NAME     DESCRIPTION
#---------     -----------    ---------------------------
 STRT.S             16:13:28 18-Jan-20: START TIME 16:13:28 18-Jan-20
 STOP.S             16:21:32 18-Jan-20: STOP TIME  16:21:32 18-Jan-20
 STEP.S                   0.00: STEP TIME
 NULL.                 -999.25: NULL VALUE
 DFWT.                        :  DIST FWL TEXT
 DFST.                        :  DIST FSL TEXT
 DMF .             Drill Floor:  DRILL MEAS FROM
 STIM.      17.57.20 21-Dec-19:  START TIME
 DATE.      17.57.20 21-Dec-19:  END TIME
 SPUD.               21-Dec-19:  SPUD DATE
 NREF.                    Grid:  NORTH REFERENCE
 HPTY.       Minimum Curvature:  HOLE POS TYPE
 DMOD.             Drill Model:  DRILL MOD DESC
 SVYD.                  Survey:  SURVEY DESC
 ILTD.               Lithology:  INTERP LTH DESC
 FTOP.          Formation Tops:  FORM TOPS DESC
 PDAT.          Mean Sea Level:  PERMANENT DATUM
 FLD .                     ACG:  FIELD NAME
 SON .        AZ-XX-0905715376:  JOB NUMBER
 CTRY.              Azerbaijan:  COUNTRY NAME
 WELL.                    E04Y:  WELL NAME
 SRVC.          TURAN DRILLING:  CONTRACTOR
 COMP.     BP Exploration (Caspian Sea) Ltd.:  COMPANY
 WTYP.                Deviated:  WELL TYPE
 UWI .                     N/a:  UNIQUE WELL IDENTIFIER
 API .                     N/a:  API NUMBER
 BASE.              Azerbaijan:  LOGGING EQUIPMENT BASE LOCATION
 REGN.                   EESSA:  REGION
 MWDS.                    Baku:  MWD SHOP
 RIG .                     DWG:  RIG NAME
 DOE .                     N/a:  DOE NUMBER
 CNTY.                    Baku:  COUNTY NAME
 DCON.         Sperry Drilling:  DIRECTNL CONTR
 UNIT.                     N/a:  LOGGING EQUIPMENT ID
 MDS .        Operator Entered:  MAG DATA SOURCE
 PROV.                        :  PROVINCE
 STAT.                        :  STATE
 LOC .                        :  LOCATION
 LMF .             Drill Floor:  LOG MEASURED FROM
 TVDS.m                  43.16:  TVDSS CORRECTN
 LATI.deg                40.17:  LATITUDE
 LONG.deg                51.17:  LONGITUDE
 WHNS.m                  -0.12:  WELL HEAD N/S
 WHEW.m                  -5.41:  WELL HEAD E/W
 UTMX.m              514337.95:  UTM X
 UTMY.m             4448627.46:  UTM Y
 DFWL.m                   0.00:  DISTANCE FWL
 DFSL.m                   0.00:  DISTANCE FSL
 SDEP.m                   0.00:  START DEPTH
 TDD .m                   0.00:  TOTAL DEPTH (DRILLER)
 VSDR.deg               235.12:  VERT SEC DIRECT
 GVFD.g                   1.00:  GRAVITY FIELD
 MFLD.nT              50294.00:  MAGNETIC FIELD
 MDIP.deg                59.61:  MAGNETIC DIP
 MDEC.deg                 6.58:  MAGNETIC DECL
 GRDC.deg                 0.09:  GRID CORRECTION
 AZTC.deg                 6.49:  AZM TOTAL CORR
 EPD .m                   0.00:  ELEVATION
 EGL .m                   0.00:  GROUND ELEVATION
 WDMS.m                 176.20:  WD ELEV
 APD .m                  43.16:  DEPTH ABOVE PD
 DEP .m                3172.61:  DEPTH
 AGAP.m                  43.16:  AIR GAP
 VSEW.m                  -5.41:  VERT SEC E/W
 VSNS.m                  -0.12:  VERT SEC N/S
 EKB .m                  43.16:  KB ELEVATION
 EDF .m                  43.16:  DF ELEVATION
 TDL .m                 295.00:  TOTAL DEPTH (LOGGER)
 VSC .                       0:  VS TO CLOSURE
 MAGU.                 1852276:  MAGUTM CHECKSUM
~Parameter Information Block
#MNEM.UNIT       Value        Description
#---------     -----------    ---------------------------
 AV  .mps                 1.60:  Ann Velocity 
 AVMX.mps                 2.10:  Max Ann Veloc 
 AZIF.deg               290.59:  Azm, Final 
 BHAT.        Rotary Steerable:  BHA Type 
 BROT.°/30m               1.00:  Build Rotating 
 BS  .in                  6.50:  Bit Size 
 BSZ .in                  6.50:  Bit Size 
 BTPL.psig              120.00:  Bit Press Loss 
 CABU.                     Yes:  Customer Abuse 
 CGEO.          Eldar Huseynov:  Customer Geo 
 COMM.                     Ôs:  Run Comments 1 
 TCS .hr                 87.00:  Time Ciculation Ended 
 CV  .mps                 4.01:  Crit Velocity 
 CVMX.mps                 5.06:  Max Crit Veloc 
 DD1 .             Aziz Aliyev:  Direct Drillr 1 
 DD2 .            Sanan Aliyev:  Direct Drillr 2 
 DDSV.               Geo-Pilot:  DD Service 
 DEFF.%                  95.00:  % Det Eff 
 DLRX.°/30m               0.75:  Dogleg Rot Max 
 DLSO.°/30m               0.65:  Dogleg Oriented 
 DLSX.°/30m               1.39:  Dogleg Str Max 
 DRET.      18.25.00 19-Jan-20:  Drill End Time 
 DRST.      11.56.48 17-Jan-20:  Drill Start Tim 
 DTIM.hr                 27.16:  Time Drilling 
 EDEP.m                5161.01:  End Depth 
 ENG1.          Rasim Hashimov:  Engineer 1 
 ENG2.      Bakhtiyar Jabbarli:  Engineer 2 
 ETIM.      11.56.48 21-Jan-20:  End Time 
 FLOI.gpm               350.00:  Flow In 
 FLON.gpm               300.00:  Flow In Min 
 FLOS.cptm                0.00:  Fluid Loss 
 FLOX.gpm               400.00:  Flow In Max 
 HFLO.                      No:  High Flow 
 HPRE.                      No:  High Pressure 
 HTEM.                      No:  High Temp 
 HYDO.m                   1.85:  Hydro Offset 
 IFIN.deg                71.58:  Inc, Final 
 IMAX.deg                71.83:  Inc Max 
 IMIN.deg                71.12:  Inc Min 
 IMND.m                5099.48:  Inc Min Depth 
 IMXD.m                5071.08:  Inc Max Depth 
 JARR.                      No:  Jarring 
 LETM.      18.25.00 19-Jan-20:  Log End Time 
 LOST.hr                     0:  Lost Rig Time 
 LSTM.      11.56.48 17-Jan-20:  Log Start Time 
 MDCL.ppm             37000.00:  Mud Chlorides 
 MDES.     Inversion Oil/Synthetic:  Mud Desc 
 DFD .sg                  1.34:  Mud Density 
 MDMN.sg                  1.34:  Dens Mud Min 
 MDMX.sg                  1.34:  Dens Mud Max 
 MOIL.                      69:  Run Mud Oil % 
 MOWR.                   69:31:  Run Mud OWR 
 MSND.                     0.1:  Run Mud Sand % 
 MSOL.                    17.6:  Run Mud Solids% 
 DFV .spqt               79.00:  Mud Viscosity 
 MWOD.in                  4.75:  MWD Tool OD 
 MWSI.                      No:  Serv Intrp, MWD 
 OTIM.hr                126.10:  Time Operating 
 PMAX.psia             6000.00:  Press Op, Max 
 PV  .cP                 29.00:  Mud PV 
 RUN .                     400:  Run Number 
 ROPA.m/hr               11.00:  ROP Avg 
 ROPN.m/hr                5.00:  ROP Min 
 ROPX.m/hr               18.00:  ROP Max 
 RPMA.rpm               139.00:  RPM Surface Avg 
 RPMN.rpm               100.00:  RPM Surface Min 
 RPMX.rpm               140.00:  RPM Surface Max 
 RRUN.                     400:  Rig Run Number 
 SAZI.deg               290.22:  Azm, Start 
 SDEP.m                4868.01:  Start Depth 
 SIDD.                      No:  Serv Intrp, DD 
 SINC.deg                71.77:  Inc, Start 
 SPPA.psig             5550.00:  SPP Avg 
 SPPN.psig             4300.00:  SPP Min 
 SPPX.psig             5600.00:  SPP Max 
 STIM.      23.45.48 15-Jan-20:  Start Time 
 SVCS.                 DD, MWD:  Services 
 SVER.                    9.20:  Sperry Version 
 TDAT.m                5161.01:  Tot Depth Attmp 
 TDDF.                      No:  Trip for DD 
 TDLG.m                 295.00:  Tot Depth Loggd 
 TFF .                      No:  Trip for Fail 
 TQAA.f-kp               13.00:  Torque Abs Avg 
 TQAN.f-kp               13.00:  Torque Abs Min 
 TQAX.f-kp               16.00:  Torque Abs Max 
 TRRT.°/30m               0.25:  Turn Rotating 
 MRT .                     ADR:  Maximum Recorded Temperature 
 TTMX.degC               88.00:  Max Tool Temp 
 VS01.                90577859:  Virtual Str1 SN 
 VS02.                90521879:  Virtual Str2 SN 
 VS03.                90580299:  Virtual Str3 SN 
 VS04.                90515982:  Virtual Str4 SN 
 VS05.                90547765:  Virtual Str5 SN 
 WBMN.klb                 2.00:  WOB Min 
 WITN.           Adil Mammadov:  Customer Rep 
 WITN.        Elmaddin Rahimov:  Customer Rep 2 
 WOBA.klb                 3.00:  WOB Avg 
 WOBX.klb                 5.00:  WOB Max 
 YP  .lhf2               30.00:  Yield Point 
~Curve Information Block
#MNEM.UNIT                 API CODE     Curve Description
#---------               -----------    ---------------------------
 TIME.HHMMSS            00 000 000 000:  GT Time & Date
 GTDEPTH.m              00 000 000 000:  GT Depth
 GTPQH.psia             00 000 000 000:  GT HR Quartz Pressure
 GTTQ.degC              00 000 000 000:  GT Quartz Temperature
 GTTN.NONE              00 000 000 000:  GT Test Number
 GTET.sec               00 000 000 000:  GT Elapsed Test Time
 GTTVD.m                00 000 000 000:  GT True Vertical Depth
#Other Information
#
#WARRANTY: Halliburton will use its best efforts to furnish customers with 
#accurate information and interpretations that are part of, and incident to, the services 
#provided.  However, Halliburton cannot and does not warrant the accuracy 
#or correctness of such information and interpretations.  Under no circumstances should any 
#such information or interpretation be relied upon as the sole basis for any drilling, 
#completion, production, or financial decision or any procedure involving any risk to the 
#safety of any drilling venture, drilling rig or its crew or any other third party.  The 
#Customer has full responsibility for all drilling, completion and production operation.  
#Halliburton makes no representations or warranties, either expressed or 
#implied, including, but not limited to, the implied warranties of merchantability or fitness 
#for a particular purpose, with respect to the services rendered.  In no event will 
#Halliburton be liable for failure to obtain any particular results or for 
#any damages, including, but not limited to, indirect, special or consequential damages, 
#resulting from the use of any information or interpretation provided by Halliburton.
#
~A           TIME           GTDEPTH  GTPQH  GTTQ  GTTN  GTET   GTTVD  
# ...
   16:16:09.561.18-Jan-2020 4958.01 4406.99 80.52 2.00 161.01 2829.97
   16:16:09.761.18-Jan-2020 4958.01 4406.99 80.52 2.00 161.21 2829.97
   16:16:09.961.18-Jan-2020 4958.01 4406.98 80.52 2.00 161.41 2829.97
   16:16:10.161.18-Jan-2020 4958.01 4406.98 80.52 2.00 161.61 2829.97
   16:16:10.361.18-Jan-2020 4958.01 4406.97 80.52 2.00 161.81 2829.97
   16:16:10.562.18-Jan-2020 4958.01 4406.94 80.52 2.00 162.01 2829.97
   16:16:10.762.18-Jan-2020 4958.01 4406.94 80.52 2.00 162.21 2829.97
   16:16:10.962.18-Jan-2020 4958.01 4407.05 80.52 2.00 162.41 2829.97
   16:16:11.162.18-Jan-2020 4958.01 4406.99 80.52 2.00 162.61 2829.97
   16:16:11.362.18-Jan-2020 4958.01 4407.00 80.52 2.00 162.81 2829.97
   16:16:11.562.18-Jan-2020 4958.01 4406.98 80.52 2.00 163.01 2829.97
   16:16:11.762.18-Jan-2020 4958.01 4406.98 80.52 2.00 163.21 2829.97
   16:16:11.962.18-Jan-2020 4958.01 4406.96 80.52 2.00 163.41 2829.97
   16:16:12.162.18-Jan-2020 4958.01 4406.99 80.52 2.00 163.61 2829.97
   16:16:12.362.18-Jan-2020 4958.01 4406.97 80.52 2.00 163.81 2829.97
   16:16:12.562.18-Jan-2020 4958.01 4406.97 80.52 2.00 164.01 2829.97
   16:16:12.762.18-Jan-2020 4958.01 4406.97 80.52 2.00 164.21 2829.97
   16:16:12.962.18-Jan-2020 4958.01 4406.98 80.52 2.00 164.41 2829.97
   16:16:13.162.18-Jan-2020 4958.01 4406.98 80.51 2.00 164.61 2829.97
   16:16:13.362.18-Jan-2020 4958.01 4406.95 80.51 2.00 164.81 2829.97
   16:16:13.562.18-Jan-2020 4958.01 4406.99 80.51 2.00 165.01 2829.97
   16:16:13.762.18-Jan-2020 4958.01 4406.99 80.51 2.00 165.21 2829.97
   16:16:13.962.18-Jan-2020 4958.01 4406.85 80.51 2.00 165.41 2829.97
   16:16:14.162.18-Jan-2020 4958.01 4407.00 80.51 2.00 165.61 2829.97
   16:16:14.362.18-Jan-2020 4958.01 4407.03 80.51 2.00 165.81 2829.97
   16:16:14.562.18-Jan-2020 4958.01 4406.98 80.51 2.00 166.01 2829.97
   16:16:14.762.18-Jan-2020 4958.01 4406.98 80.51 2.00 166.21 2829.97
   16:16:14.962.18-Jan-2020 4958.01 4406.78 80.51 2.00 166.41 2829.97
   16:16:15.162.18-Jan-2020 4958.01 4407.08 80.51 2.00 166.61 2829.97
   16:16:15.362.18-Jan-2020 4958.01 4407.01 80.51 2.00 166.81 2829.97
   16:16:15.562.18-Jan-2020 4958.01 4406.97 80.51 2.00 167.01 2829.97
   16:16:15.762.18-Jan-2020 4958.01 4406.97 80.51 2.00 167.21 2829.97
   16:16:15.962.18-Jan-2020 4958.01 4406.97 80.51 2.00 167.41 2829.97
   16:16:16.162.18-Jan-2020 4958.01 4406.89 80.51 2.00 167.61 2829.97
   16:16:16.362.18-Jan-2020 4958.01 4406.99 80.50 2.00 167.81 2829.97
   16:16:16.562.18-Jan-2020 4958.01 4407.03 80.50 2.00 168.01 2829.97
   16:16:16.762.18-Jan-2020 4958.01 4407.03 80.50 2.00 168.21 2829.97
   16:16:16.962.18-Jan-2020 4958.01 4406.98 80.50 2.00 168.41 2829.97
   16:16:17.162.18-Jan-2020 4958.01 4406.97 80.50 2.00 168.61 2829.97
   16:16:17.362.18-Jan-2020 4958.01 4406.88 80.50 2.00 168.81 2829.97
   16:16:17.562.18-Jan-2020 4958.01 4407.01 80.50 2.00 169.01 2829.97
   16:16:17.762.18-Jan-2020 4958.01 4407.01 80.50 2.00 169.21 2829.97
   16:16:17.962.18-Jan-2020 4958.01 4406.98 80.50 2.00 169.41 2829.97
   16:16:18.162.18-Jan-2020 4958.01 4406.99 80.50 2.00 169.61 2829.97
   16:16:18.362.18-Jan-2020 4958.01 4406.98 80.50 2.00 169.81 2829.97
   16:16:18.562.18-Jan-2020 4958.01 4406.97 80.50 2.00 170.01 2829.97
   16:16:18.762.18-Jan-2020 4958.01 4406.97 80.50 2.00 170.21 2829.97
   16:16:18.962.18-Jan-2020 4958.01 4406.96 80.50 2.00 170.41 2829.97
   16:16:19.162.18-Jan-2020 4958.01 4406.98 80.50 2.00 170.61 2829.97
   16:16:19.362.18-Jan-2020 4958.01 4406.95 80.50 2.00 170.81 2829.97
   16:16:19.562.18-Jan-2020 4958.01 4406.96 80.50 2.00 171.01 2829.97
   16:16:19.762.18-Jan-2020 4958.01 4406.96 80.50 2.00 171.21 2829.97
   16:16:19.962.18-Jan-2020 4958.01 4406.96 80.49 2.00 171.41 2829.97
   16:16:20.162.18-Jan-2020 4958.01 4406.96 80.49 2.00 171.61 2829.97
   16:16:20.362.18-Jan-2020 4958.01 4406.95 80.49 2.00 171.81 2829.97
   16:16:20.562.18-Jan-2020 4958.01 4406.87 80.49 2.00 172.01 2829.97
   16:16:20.762.18-Jan-2020 4958.01 4406.87 80.49 2.00 172.21 2829.97
   16:16:20.962.18-Jan-2020 4958.01 4407.03 80.49 2.00 172.41 2829.97
   16:16:21.162.18-Jan-2020 4958.01 4406.96 80.49 2.00 172.61 2829.97
   16:16:21.362.18-Jan-2020 4958.01 4406.98 80.49 2.00 172.81 2829.97
   16:16:21.562.18-Jan-2020 4958.01 4406.96 80.49 2.00 173.01 2829.97
   16:16:21.762.18-Jan-2020 4958.01 4406.96 80.49 2.00 173.21 2829.97
   16:16:21.962.18-Jan-2020 4958.01 4406.95 80.49 2.00 173.41 2829.97
   16:16:22.162.18-Jan-2020 4958.01 4406.96 80.49 2.00 173.61 2829.97
   16:16:22.362.18-Jan-2020 4958.01 4406.96 80.49 2.00 173.81 2829.97
   16:16:22.562.18-Jan-2020 4958.01 4406.94 80.49 2.00 174.01 2829.97
   16:16:22.763.18-Jan-2020 4958.01 4406.94 80.49 2.00 174.21 2829.97
   16:16:22.963.18-Jan-2020 4958.01 4406.94 80.49 2.00 174.41 2829.97
   16:16:23.163.18-Jan-2020 4958.01 4406.97 80.48 2.00 174.61 2829.97
   16:16:23.363.18-Jan-2020 4958.01 4406.93 80.48 2.00 174.81 2829.97
   16:16:23.563.18-Jan-2020 4958.01 4406.96 80.48 2.00 175.01 2829.97
   16:16:23.763.18-Jan-2020 4958.01 4406.96 80.48 2.00 175.21 2829.97
   16:16:23.963.18-Jan-2020 4958.01 4393.95 80.48 2.00 175.41 2829.97
   16:16:24.163.18-Jan-2020 4958.01 4391.33 80.48 2.00 175.61 2829.97
   16:16:24.363.18-Jan-2020 4958.01 4391.55 80.48 2.00 175.81 2829.97
   16:16:24.563.18-Jan-2020 4958.01 4391.25 80.48 2.00 176.01 2829.97
   16:16:24.763.18-Jan-2020 4958.01 4391.25 80.48 2.00 176.21 2829.97
   16:16:24.963.18-Jan-2020 4958.01 4390.96 80.48 2.00 176.41 2829.97
   16:16:25.163.18-Jan-2020 4958.01 4390.93 80.48 2.00 176.61 2829.97
   16:16:25.363.18-Jan-2020 4958.01 4390.99 80.48 2.00 176.81 2829.97
   16:16:25.563.18-Jan-2020 4958.01 4390.99 80.48 2.00 177.01 2829.97
   16:16:25.763.18-Jan-2020 4958.01 4390.99 80.48 2.00 177.21 2829.97
   16:16:25.963.18-Jan-2020 4958.01 4391.03 80.48 2.00 177.41 2829.97
   16:16:26.163.18-Jan-2020 4958.01 4390.59 80.48 2.00 177.61 2829.97
   16:16:26.363.18-Jan-2020 4958.01 4391.11 80.47 2.00 177.81 2829.97
   16:16:26.563.18-Jan-2020 4958.01 4391.03 80.47 2.00 178.01 2829.97
   16:16:26.763.18-Jan-2020 4958.01 4391.03 80.47 2.00 178.21 2829.97
   16:16:26.963.18-Jan-2020 4958.01 4391.05 80.47 2.00 178.41 2829.97
   16:16:27.163.18-Jan-2020 4958.01 4390.97 80.47 2.00 178.61 2829.97
   16:16:27.363.18-Jan-2020 4958.01 4390.29 80.47 2.00 178.81 2829.97
   16:16:27.563.18-Jan-2020 4958.01 4390.50 80.47 2.00 179.01 2829.97
   16:16:27.763.18-Jan-2020 4958.01 4390.50 80.47 2.00 179.21 2829.97
   16:16:27.963.18-Jan-2020 4958.01 4390.87 80.47 2.00 179.41 2829.97
   16:16:28.163.18-Jan-2020 4958.01 4390.89 80.47 2.00 179.61 2829.97
   16:16:28.363.18-Jan-2020 4958.01 4390.88 80.47 2.00 179.81 2829.97
   16:16:28.563.18-Jan-2020 4958.01 4390.94 80.47 2.00 180.01 2829.97
   16:16:28.763.18-Jan-2020 4958.01 4390.94 80.47 2.00 180.21 2829.97
   16:16:28.963.18-Jan-2020 4958.01 4390.67 80.47 2.00 180.41 2829.97
   16:16:29.163.18-Jan-2020 4958.01 4390.68 80.47 2.00 180.61 2829.97
   16:16:29.363.18-Jan-2020 4958.01 4390.40 80.47 2.00 180.81 2829.97
   16:16:29.563.18-Jan-2020 4958.01 4390.56 80.47 2.00 181.01 2829.97
   16:16:29.763.18-Jan-2020 4958.01 4390.56 80.47 2.00 181.21 2829.97
   16:16:29.963.18-Jan-2020 4958.01 4390.69 80.46 2.00 181.41 2829.97
   16:16:30.163.18-Jan-2020 4958.01 4390.56 80.46 2.00 181.61 2829.97
   16:16:30.363.18-Jan-2020 4958.01 4390.38 80.46 2.00 181.81 2829.97
   16:16:30.563.18-Jan-2020 4958.01 4390.73 80.46 2.00 182.01 2829.97
   16:16:30.763.18-Jan-2020 4958.01 4390.73 80.46 2.00 182.21 2829.97
   16:16:30.963.18-Jan-2020 4958.01 4390.94 80.46 2.00 182.41 2829.97
   16:16:31.163.18-Jan-2020 4958.01 4390.50 80.46 2.00 182.61 2829.97
   16:16:31.363.18-Jan-2020 4958.01 4390.76 80.46 2.00 182.81 2829.97
   16:16:31.563.18-Jan-2020 4958.01 4390.92 80.46 2.00 183.01 2829.97
   16:16:31.763.18-Jan-2020 4958.01 4390.92 80.46 2.00 183.21 2829.97
   16:16:31.963.18-Jan-2020 4958.01 4390.72 80.46 2.00 183.42 2829.97
   16:16:32.163.18-Jan-2020 4958.01 4390.79 80.46 2.00 183.62 2829.97
   16:16:32.363.18-Jan-2020 4958.01 4390.86 80.46 2.00 183.82 2829.97
