~Version Information
 VERS.                  2.0:   CWLS log ASCII Standard -VERSION 2.0
 WRAP.                   NO:   One line per depth step
~Well Information Block
#MNEM.UNIT     VALUE/NAME     DESCRIPTION
#---------     -----------    ---------------------------
 STRT.S             19:23:23 18-Jan-20: START TIME 19:23:23 18-Jan-20
 STOP.S             19:31:15 18-Jan-20: STOP TIME  19:31:15 18-Jan-20
 STEP.S                   0.00: STEP TIME
 NULL.                 -999.25: NULL VALUE
 DFWT.                        :  DIST FWL TEXT
 DFST.                        :  DIST FSL TEXT
 DMF .             Drill Floor:  DRILL MEAS FROM
 STIM.      17.57.20 21-Dec-19:  START TIME
 DATE.      17.57.20 21-Dec-19:  END TIME
 SPUD.               21-Dec-19:  SPUD DATE
 NREF.                    Grid:  NORTH REFERENCE
 HPTY.       Minimum Curvature:  HOLE POS TYPE
 DMOD.             Drill Model:  DRILL MOD DESC
 SVYD.                  Survey:  SURVEY DESC
 ILTD.               Lithology:  INTERP LTH DESC
 FTOP.          Formation Tops:  FORM TOPS DESC
 PDAT.          Mean Sea Level:  PERMANENT DATUM
 FLD .                     ACG:  FIELD NAME
 SON .        AZ-XX-0905715376:  JOB NUMBER
 CTRY.              Azerbaijan:  COUNTRY NAME
 WELL.                    E04Y:  WELL NAME
 SRVC.          TURAN DRILLING:  CONTRACTOR
 COMP.     BP Exploration (Caspian Sea) Ltd.:  COMPANY
 WTYP.                Deviated:  WELL TYPE
 UWI .                     N/a:  UNIQUE WELL IDENTIFIER
 API .                     N/a:  API NUMBER
 BASE.              Azerbaijan:  LOGGING EQUIPMENT BASE LOCATION
 REGN.                   EESSA:  REGION
 MWDS.                    Baku:  MWD SHOP
 RIG .                     DWG:  RIG NAME
 DOE .                     N/a:  DOE NUMBER
 CNTY.                    Baku:  COUNTY NAME
 DCON.         Sperry Drilling:  DIRECTNL CONTR
 UNIT.                     N/a:  LOGGING EQUIPMENT ID
 MDS .        Operator Entered:  MAG DATA SOURCE
 PROV.                        :  PROVINCE
 STAT.                        :  STATE
 LOC .                        :  LOCATION
 LMF .             Drill Floor:  LOG MEASURED FROM
 TVDS.m                  43.16:  TVDSS CORRECTN
 LATI.deg                40.17:  LATITUDE
 LONG.deg                51.17:  LONGITUDE
 WHNS.m                  -0.12:  WELL HEAD N/S
 WHEW.m                  -5.41:  WELL HEAD E/W
 UTMX.m              514337.95:  UTM X
 UTMY.m             4448627.46:  UTM Y
 DFWL.m                   0.00:  DISTANCE FWL
 DFSL.m                   0.00:  DISTANCE FSL
 SDEP.m                   0.00:  START DEPTH
 TDD .m                   0.00:  TOTAL DEPTH (DRILLER)
 VSDR.deg               235.12:  VERT SEC DIRECT
 GVFD.g                   1.00:  GRAVITY FIELD
 MFLD.nT              50294.00:  MAGNETIC FIELD
 MDIP.deg                59.61:  MAGNETIC DIP
 MDEC.deg                 6.58:  MAGNETIC DECL
 GRDC.deg                 0.09:  GRID CORRECTION
 AZTC.deg                 6.49:  AZM TOTAL CORR
 EPD .m                   0.00:  ELEVATION
 EGL .m                   0.00:  GROUND ELEVATION
 WDMS.m                 176.20:  WD ELEV
 APD .m                  43.16:  DEPTH ABOVE PD
 DEP .m                3172.61:  DEPTH
 AGAP.m                  43.16:  AIR GAP
 VSEW.m                  -5.41:  VERT SEC E/W
 VSNS.m                  -0.12:  VERT SEC N/S
 EKB .m                  43.16:  KB ELEVATION
 EDF .m                  43.16:  DF ELEVATION
 TDL .m                 295.00:  TOTAL DEPTH (LOGGER)
 VSC .                       0:  VS TO CLOSURE
 MAGU.                 1852276:  MAGUTM CHECKSUM
~Parameter Information Block
#MNEM.UNIT       Value        Description
#---------     -----------    ---------------------------
 AV  .mps                 1.60:  Ann Velocity 
 AVMX.mps                 2.10:  Max Ann Veloc 
 AZIF.deg               290.59:  Azm, Final 
 BHAT.        Rotary Steerable:  BHA Type 
 BROT.°/30m               1.00:  Build Rotating 
 BS  .in                  6.50:  Bit Size 
 BSZ .in                  6.50:  Bit Size 
 BTPL.psig              120.00:  Bit Press Loss 
 CABU.                     Yes:  Customer Abuse 
 CGEO.          Eldar Huseynov:  Customer Geo 
 COMM.                     ”%\:  Run Comments 1 
 TCS .hr                 87.00:  Time Ciculation Ended 
 CV  .mps                 4.01:  Crit Velocity 
 CVMX.mps                 5.06:  Max Crit Veloc 
 DD1 .             Aziz Aliyev:  Direct Drillr 1 
 DD2 .            Sanan Aliyev:  Direct Drillr 2 
 DDSV.               Geo-Pilot:  DD Service 
 DEFF.%                  95.00:  % Det Eff 
 DLRX.°/30m               0.75:  Dogleg Rot Max 
 DLSO.°/30m               0.65:  Dogleg Oriented 
 DLSX.°/30m               1.39:  Dogleg Str Max 
 DRET.      18.25.00 19-Jan-20:  Drill End Time 
 DRST.      11.56.48 17-Jan-20:  Drill Start Tim 
 DTIM.hr                 27.16:  Time Drilling 
 EDEP.m                5161.01:  End Depth 
 ENG1.          Rasim Hashimov:  Engineer 1 
 ENG2.      Bakhtiyar Jabbarli:  Engineer 2 
 ETIM.      11.56.48 21-Jan-20:  End Time 
 FLOI.gpm               350.00:  Flow In 
 FLON.gpm               300.00:  Flow In Min 
 FLOS.cptm                0.00:  Fluid Loss 
 FLOX.gpm               400.00:  Flow In Max 
 HFLO.                      No:  High Flow 
 HPRE.                      No:  High Pressure 
 HTEM.                      No:  High Temp 
 HYDO.m                   1.85:  Hydro Offset 
 IFIN.deg                71.58:  Inc, Final 
 IMAX.deg                71.83:  Inc Max 
 IMIN.deg                71.12:  Inc Min 
 IMND.m                5099.48:  Inc Min Depth 
 IMXD.m                5071.08:  Inc Max Depth 
 JARR.                      No:  Jarring 
 LETM.      18.25.00 19-Jan-20:  Log End Time 
 LOST.hr                     0:  Lost Rig Time 
 LSTM.      11.56.48 17-Jan-20:  Log Start Time 
 MDCL.ppm             37000.00:  Mud Chlorides 
 MDES.     Inversion Oil/Synthetic:  Mud Desc 
 DFD .sg                  1.34:  Mud Density 
 MDMN.sg                  1.34:  Dens Mud Min 
 MDMX.sg                  1.34:  Dens Mud Max 
 MOIL.                      69:  Run Mud Oil % 
 MOWR.                   69:31:  Run Mud OWR 
 MSND.                     0.1:  Run Mud Sand % 
 MSOL.                    17.6:  Run Mud Solids% 
 DFV .spqt               79.00:  Mud Viscosity 
 MWOD.in                  4.75:  MWD Tool OD 
 MWSI.                      No:  Serv Intrp, MWD 
 OTIM.hr                126.10:  Time Operating 
 PMAX.psia             6000.00:  Press Op, Max 
 PV  .cP                 29.00:  Mud PV 
 RUN .                     400:  Run Number 
 ROPA.m/hr               11.00:  ROP Avg 
 ROPN.m/hr                5.00:  ROP Min 
 ROPX.m/hr               18.00:  ROP Max 
 RPMA.rpm               139.00:  RPM Surface Avg 
 RPMN.rpm               100.00:  RPM Surface Min 
 RPMX.rpm               140.00:  RPM Surface Max 
 RRUN.                     400:  Rig Run Number 
 SAZI.deg               290.22:  Azm, Start 
 SDEP.m                4868.01:  Start Depth 
 SIDD.                      No:  Serv Intrp, DD 
 SINC.deg                71.77:  Inc, Start 
 SPPA.psig             5550.00:  SPP Avg 
 SPPN.psig             4300.00:  SPP Min 
 SPPX.psig             5600.00:  SPP Max 
 STIM.      23.45.48 15-Jan-20:  Start Time 
 SVCS.                 DD, MWD:  Services 
 SVER.                    9.20:  Sperry Version 
 TDAT.m                5161.01:  Tot Depth Attmp 
 TDDF.                      No:  Trip for DD 
 TDLG.m                 295.00:  Tot Depth Loggd 
 TFF .                      No:  Trip for Fail 
 TQAA.f-kp               13.00:  Torque Abs Avg 
 TQAN.f-kp               13.00:  Torque Abs Min 
 TQAX.f-kp               16.00:  Torque Abs Max 
 TRRT.°/30m               0.25:  Turn Rotating 
 MRT .                     ADR:  Maximum Recorded Temperature 
 TTMX.degC               88.00:  Max Tool Temp 
 VS01.                90577859:  Virtual Str1 SN 
 VS02.                90521879:  Virtual Str2 SN 
 VS03.                90580299:  Virtual Str3 SN 
 VS04.                90515982:  Virtual Str4 SN 
 VS05.                90547765:  Virtual Str5 SN 
 WBMN.klb                 2.00:  WOB Min 
 WITN.           Adil Mammadov:  Customer Rep 
 WITN.        Elmaddin Rahimov:  Customer Rep 2 
 WOBA.klb                 3.00:  WOB Avg 
 WOBX.klb                 5.00:  WOB Max 
 YP  .lhf2               30.00:  Yield Point 
~Curve Information Block
#MNEM.UNIT                 API CODE     Curve Description
#---------               -----------    ---------------------------
 TIME.HHMMSS            00 000 000 000:  GT Time & Date
 GTDEPTH.m              00 000 000 000:  GT Depth
 GTPQH.psia             00 000 000 000:  GT HR Quartz Pressure
 GTTQ.degC              00 000 000 000:  GT Quartz Temperature
 GTTN.NONE              00 000 000 000:  GT Test Number
 GTET.sec               00 000 000 000:  GT Elapsed Test Time
 GTTVD.m                00 000 000 000:  GT True Vertical Depth
#Other Information
#
#WARRANTY: Halliburton will use its best efforts to furnish customers with 
#accurate information and interpretations that are part of, and incident to, the services 
#provided.  However, Halliburton cannot and does not warrant the accuracy 
#or correctness of such information and interpretations.  Under no circumstances should any 
#such information or interpretation be relied upon as the sole basis for any drilling, 
#completion, production, or financial decision or any procedure involving any risk to the 
#safety of any drilling venture, drilling rig or its crew or any other third party.  The 
#Customer has full responsibility for all drilling, completion and production operation.  
#Halliburton makes no representations or warranties, either expressed or 
#implied, including, but not limited to, the implied warranties of merchantability or fitness 
#for a particular purpose, with respect to the services rendered.  In no event will 
#Halliburton be liable for failure to obtain any particular results or for 
#any damages, including, but not limited to, indirect, special or consequential damages, 
#resulting from the use of any information or interpretation provided by Halliburton.
#
~A           TIME           GTDEPTH  GTPQH  GTTQ  GTTN  GTET   GTTVD  
# ...
   19:27:36.188.18-Jan-2020 4980.01 4428.21 81.06 3.00 253.05 2836.95
   19:27:36.388.18-Jan-2020 4980.01 4428.21 81.06 3.00 253.25 2836.95
   19:27:36.588.18-Jan-2020 4980.01 4428.20 81.06 3.00 253.45 2836.95
   19:27:36.788.18-Jan-2020 4980.01 4428.23 81.06 3.00 253.65 2836.95
   19:27:36.988.18-Jan-2020 4980.01 4428.20 81.06 3.00 253.85 2836.95
   19:27:37.188.18-Jan-2020 4980.01 4428.22 81.06 3.00 254.05 2836.95
   19:27:37.388.18-Jan-2020 4980.01 4428.22 81.06 3.00 254.25 2836.95
   19:27:37.589.18-Jan-2020 4980.01 4428.22 81.05 3.00 254.45 2836.95
   19:27:37.789.18-Jan-2020 4980.01 4428.20 81.05 3.00 254.65 2836.95
   19:27:37.989.18-Jan-2020 4980.01 4428.20 81.05 3.00 254.85 2836.95
   19:27:38.189.18-Jan-2020 4980.01 4428.19 81.05 3.00 255.05 2836.95
   19:27:38.389.18-Jan-2020 4980.01 4428.19 81.05 3.00 255.25 2836.95
   19:27:38.589.18-Jan-2020 4980.01 4428.25 81.05 3.00 255.45 2836.95
   19:27:38.789.18-Jan-2020 4980.01 4428.23 81.05 3.00 255.65 2836.95
   19:27:38.989.18-Jan-2020 4980.01 4428.25 81.05 3.00 255.85 2836.95
   19:27:39.189.18-Jan-2020 4980.01 4428.21 81.05 3.00 256.05 2836.95
   19:27:39.389.18-Jan-2020 4980.01 4428.21 81.05 3.00 256.25 2836.95
   19:27:39.589.18-Jan-2020 4980.01 4428.20 81.05 3.00 256.45 2836.95
   19:27:39.789.18-Jan-2020 4980.01 4428.22 81.05 3.00 256.65 2836.95
   19:27:39.989.18-Jan-2020 4980.01 4428.20 81.05 3.00 256.85 2836.95
   19:27:40.189.18-Jan-2020 4980.01 4428.21 81.05 3.00 257.05 2836.95
   19:27:40.389.18-Jan-2020 4980.01 4428.21 81.05 3.00 257.25 2836.95
   19:27:40.589.18-Jan-2020 4980.01 4428.20 81.05 3.00 257.45 2836.95
   19:27:40.789.18-Jan-2020 4980.01 4428.21 81.05 3.00 257.65 2836.95
   19:27:40.989.18-Jan-2020 4980.01 4428.19 81.05 3.00 257.85 2836.95
   19:27:41.189.18-Jan-2020 4980.01 4428.21 81.05 3.00 258.05 2836.95
   19:27:41.389.18-Jan-2020 4980.01 4428.21 81.05 3.00 258.25 2836.95
   19:27:41.589.18-Jan-2020 4980.01 4428.21 81.04 3.00 258.45 2836.95
   19:27:41.789.18-Jan-2020 4980.01 4428.02 81.04 3.00 258.65 2836.95
   19:27:41.989.18-Jan-2020 4980.01 4428.35 81.04 3.00 258.85 2836.95
   19:27:42.189.18-Jan-2020 4980.01 4428.20 81.04 3.00 259.05 2836.95
   19:27:42.389.18-Jan-2020 4980.01 4428.20 81.04 3.00 259.25 2836.95
   19:27:42.589.18-Jan-2020 4980.01 4428.15 81.04 3.00 259.45 2836.95
   19:27:42.790.18-Jan-2020 4980.01 4428.23 81.04 3.00 259.65 2836.95
   19:27:42.990.18-Jan-2020 4980.01 4428.22 81.04 3.00 259.85 2836.95
   19:27:43.190.18-Jan-2020 4980.01 4428.24 81.04 3.00 260.05 2836.95
   19:27:43.390.18-Jan-2020 4980.01 4428.24 81.04 3.00 260.25 2836.95
   19:27:43.590.18-Jan-2020 4980.01 4428.22 81.04 3.00 260.45 2836.95
   19:27:43.790.18-Jan-2020 4980.01 4428.23 81.04 3.00 260.65 2836.95
   19:27:43.990.18-Jan-2020 4980.01 4428.04 81.04 3.00 260.85 2836.95
   19:27:44.190.18-Jan-2020 4980.01 4428.35 81.04 3.00 261.05 2836.95
   19:27:44.390.18-Jan-2020 4980.01 4428.35 81.04 3.00 261.25 2836.95
   19:27:44.590.18-Jan-2020 4980.01 4428.25 81.04 3.00 261.45 2836.95
   19:27:44.790.18-Jan-2020 4980.01 4428.21 81.04 3.00 261.65 2836.95
   19:27:44.990.18-Jan-2020 4980.01 4428.23 81.04 3.00 261.85 2836.95
   19:27:45.190.18-Jan-2020 4980.01 4428.22 81.03 3.00 262.05 2836.95
   19:27:45.390.18-Jan-2020 4980.01 4428.22 81.03 3.00 262.25 2836.95
   19:27:45.590.18-Jan-2020 4980.01 4428.24 81.03 3.00 262.45 2836.95
   19:27:45.790.18-Jan-2020 4980.01 4428.20 81.03 3.00 262.65 2836.95
   19:27:45.990.18-Jan-2020 4980.01 4428.27 81.03 3.00 262.85 2836.95
   19:27:46.190.18-Jan-2020 4980.01 4428.20 81.03 3.00 263.05 2836.95
   19:27:46.390.18-Jan-2020 4980.01 4428.20 81.03 3.00 263.25 2836.95
   19:27:46.590.18-Jan-2020 4980.01 4428.21 81.03 3.00 263.45 2836.95
   19:27:46.790.18-Jan-2020 4980.01 4428.22 81.03 3.00 263.65 2836.95
   19:27:46.990.18-Jan-2020 4980.01 4428.20 81.03 3.00 263.85 2836.95
   19:27:47.190.18-Jan-2020 4980.01 4428.22 81.03 3.00 264.05 2836.95
   19:27:47.390.18-Jan-2020 4980.01 4428.22 81.03 3.00 264.25 2836.95
   19:27:47.590.18-Jan-2020 4980.01 4428.22 81.03 3.00 264.45 2836.95
   19:27:47.790.18-Jan-2020 4980.01 4428.20 81.03 3.00 264.65 2836.95
   19:27:47.991.18-Jan-2020 4980.01 4428.19 81.03 3.00 264.85 2836.95
   19:27:48.191.18-Jan-2020 4980.01 4428.20 81.03 3.00 265.05 2836.95
   19:27:48.391.18-Jan-2020 4980.01 4428.20 81.03 3.00 265.25 2836.95
   19:27:48.591.18-Jan-2020 4980.01 4428.15 81.03 3.00 265.45 2836.95
   19:27:48.791.18-Jan-2020 4980.01 4428.20 81.02 3.00 265.65 2836.95
   19:27:48.991.18-Jan-2020 4980.01 4428.21 81.02 3.00 265.85 2836.95
   19:27:49.191.18-Jan-2020 4980.01 4428.24 81.02 3.00 266.05 2836.95
   19:27:49.391.18-Jan-2020 4980.01 4428.24 81.02 3.00 266.25 2836.95
   19:27:49.591.18-Jan-2020 4980.01 4428.21 81.02 3.00 266.45 2836.95
   19:27:49.791.18-Jan-2020 4980.01 4428.22 81.02 3.00 266.65 2836.95
   19:27:49.991.18-Jan-2020 4980.01 4428.20 81.02 3.00 266.85 2836.95
   19:27:50.191.18-Jan-2020 4980.01 4428.20 81.02 3.00 267.05 2836.95
   19:27:50.391.18-Jan-2020 4980.01 4428.20 81.02 3.00 267.25 2836.95
   19:27:50.591.18-Jan-2020 4980.01 4428.20 81.02 3.00 267.45 2836.95
   19:27:50.791.18-Jan-2020 4980.01 4428.21 81.02 3.00 267.65 2836.95
   19:27:50.991.18-Jan-2020 4980.01 4428.17 81.02 3.00 267.85 2836.95
   19:27:51.191.18-Jan-2020 4980.01 4428.21 81.02 3.00 268.05 2836.95
   19:27:51.391.18-Jan-2020 4980.01 4428.21 81.02 3.00 268.25 2836.95
   19:27:51.591.18-Jan-2020 4980.01 4428.20 81.02 3.00 268.45 2836.95
   19:27:51.791.18-Jan-2020 4980.01 4428.16 81.02 3.00 268.65 2836.95
   19:27:51.991.18-Jan-2020 4980.01 4428.19 81.02 3.00 268.85 2836.95
   19:27:52.191.18-Jan-2020 4980.01 4428.10 81.02 3.00 269.05 2836.95
   19:27:52.391.18-Jan-2020 4980.01 4428.10 81.02 3.00 269.25 2836.95
   19:27:52.591.18-Jan-2020 4980.01 4428.23 81.01 3.00 269.45 2836.95
   19:27:52.791.18-Jan-2020 4980.01 4428.22 81.01 3.00 269.65 2836.95
   19:27:52.992.18-Jan-2020 4980.01 4428.10 81.01 3.00 269.85 2836.95
   19:27:53.192.18-Jan-2020 4980.01 4428.29 81.01 3.00 270.05 2836.95
   19:27:53.392.18-Jan-2020 4980.01 4428.29 81.01 3.00 270.25 2836.95
   19:27:53.592.18-Jan-2020 4980.01 4428.23 81.01 3.00 270.45 2836.95
   19:27:53.792.18-Jan-2020 4980.01 4428.24 81.01 3.00 270.65 2836.95
   19:27:53.992.18-Jan-2020 4980.01 4428.20 81.01 3.00 270.85 2836.95
   19:27:54.192.18-Jan-2020 4980.01 4428.22 81.01 3.00 271.05 2836.95
   19:27:54.392.18-Jan-2020 4980.01 4428.22 81.01 3.00 271.25 2836.95
   19:27:54.592.18-Jan-2020 4980.01 4428.24 81.01 3.00 271.45 2836.95
   19:27:54.792.18-Jan-2020 4980.01 4428.23 81.01 3.00 271.65 2836.95
   19:27:54.992.18-Jan-2020 4980.01 4428.22 81.01 3.00 271.85 2836.95
   19:27:55.192.18-Jan-2020 4980.01 4428.23 81.01 3.00 272.05 2836.95
   19:27:55.392.18-Jan-2020 4980.01 4428.23 81.01 3.00 272.25 2836.95
   19:27:55.592.18-Jan-2020 4980.01 4428.22 81.01 3.00 272.45 2836.95
   19:27:55.792.18-Jan-2020 4980.01 4428.08 81.01 3.00 272.65 2836.95
   19:27:55.992.18-Jan-2020 4980.01 4428.32 81.01 3.00 272.85 2836.95
   19:27:56.192.18-Jan-2020 4980.01 4428.17 81.01 3.00 273.05 2836.95
   19:27:56.392.18-Jan-2020 4980.01 4428.17 81.01 3.00 273.25 2836.95
   19:27:56.592.18-Jan-2020 4980.01 4428.20 81.00 3.00 273.45 2836.95
   19:27:56.792.18-Jan-2020 4980.01 4428.24 81.00 3.00 273.65 2836.95
   19:27:56.992.18-Jan-2020 4980.01 4428.20 81.00 3.00 273.85 2836.95
   19:27:57.192.18-Jan-2020 4980.01 4428.22 81.00 3.00 274.05 2836.95
   19:27:57.392.18-Jan-2020 4980.01 4428.22 81.00 3.00 274.25 2836.95
   19:27:57.592.18-Jan-2020 4980.01 4428.20 81.00 3.00 274.45 2836.95
   19:27:57.792.18-Jan-2020 4980.01 4428.20 81.00 3.00 274.65 2836.95
   19:27:57.992.18-Jan-2020 4980.01 4428.19 81.00 3.00 274.85 2836.95
   19:27:58.193.18-Jan-2020 4980.01 4428.20 81.00 3.00 275.05 2836.95
   19:27:58.393.18-Jan-2020 4980.01 4428.20 81.00 3.00 275.25 2836.95
   19:27:58.593.18-Jan-2020 4980.01 4428.21 81.00 3.00 275.45 2836.95
   19:27:58.793.18-Jan-2020 4980.01 4428.17 81.00 3.00 275.65 2836.95
   19:27:58.993.18-Jan-2020 4980.01 4428.07 81.00 3.00 275.85 2836.95
