~Version Information
 VERS.                  2.0:   CWLS log ASCII Standard -VERSION 2.0
 WRAP.                   NO:   One line per depth step
~Well Information Block
#MNEM.UNIT     VALUE/NAME     DESCRIPTION
#---------     -----------    ---------------------------
 STRT.S             05:36:55 19-Jan-20: START TIME 05:36:55 19-Jan-20
 STOP.S             05:44:47 19-Jan-20: STOP TIME  05:44:47 19-Jan-20
 STEP.S                   0.00: STEP TIME
 NULL.                 -999.25: NULL VALUE
 DFWT.                        :  DIST FWL TEXT
 DFST.                        :  DIST FSL TEXT
 DMF .             Drill Floor:  DRILL MEAS FROM
 STIM.      17.57.20 21-Dec-19:  START TIME
 DATE.      17.57.20 21-Dec-19:  END TIME
 SPUD.               21-Dec-19:  SPUD DATE
 NREF.                    Grid:  NORTH REFERENCE
 HPTY.       Minimum Curvature:  HOLE POS TYPE
 DMOD.             Drill Model:  DRILL MOD DESC
 SVYD.                  Survey:  SURVEY DESC
 ILTD.               Lithology:  INTERP LTH DESC
 FTOP.          Formation Tops:  FORM TOPS DESC
 PDAT.          Mean Sea Level:  PERMANENT DATUM
 FLD .                     ACG:  FIELD NAME
 SON .        AZ-XX-0905715376:  JOB NUMBER
 CTRY.              Azerbaijan:  COUNTRY NAME
 WELL.                    E04Y:  WELL NAME
 SRVC.          TURAN DRILLING:  CONTRACTOR
 COMP.     BP Exploration (Caspian Sea) Ltd.:  COMPANY
 WTYP.                Deviated:  WELL TYPE
 UWI .                     N/a:  UNIQUE WELL IDENTIFIER
 API .                     N/a:  API NUMBER
 BASE.              Azerbaijan:  LOGGING EQUIPMENT BASE LOCATION
 REGN.                   EESSA:  REGION
 MWDS.                    Baku:  MWD SHOP
 RIG .                     DWG:  RIG NAME
 DOE .                     N/a:  DOE NUMBER
 CNTY.                    Baku:  COUNTY NAME
 DCON.         Sperry Drilling:  DIRECTNL CONTR
 UNIT.                     N/a:  LOGGING EQUIPMENT ID
 MDS .        Operator Entered:  MAG DATA SOURCE
 PROV.                        :  PROVINCE
 STAT.                        :  STATE
 LOC .                        :  LOCATION
 LMF .             Drill Floor:  LOG MEASURED FROM
 TVDS.m                  43.16:  TVDSS CORRECTN
 LATI.deg                40.17:  LATITUDE
 LONG.deg                51.17:  LONGITUDE
 WHNS.m                  -0.12:  WELL HEAD N/S
 WHEW.m                  -5.41:  WELL HEAD E/W
 UTMX.m              514337.95:  UTM X
 UTMY.m             4448627.46:  UTM Y
 DFWL.m                   0.00:  DISTANCE FWL
 DFSL.m                   0.00:  DISTANCE FSL
 SDEP.m                   0.00:  START DEPTH
 TDD .m                   0.00:  TOTAL DEPTH (DRILLER)
 VSDR.deg               235.12:  VERT SEC DIRECT
 GVFD.g                   1.00:  GRAVITY FIELD
 MFLD.nT              50294.00:  MAGNETIC FIELD
 MDIP.deg                59.61:  MAGNETIC DIP
 MDEC.deg                 6.58:  MAGNETIC DECL
 GRDC.deg                 0.09:  GRID CORRECTION
 AZTC.deg                 6.49:  AZM TOTAL CORR
 EPD .m                   0.00:  ELEVATION
 EGL .m                   0.00:  GROUND ELEVATION
 WDMS.m                 176.20:  WD ELEV
 APD .m                  43.16:  DEPTH ABOVE PD
 DEP .m                3172.61:  DEPTH
 AGAP.m                  43.16:  AIR GAP
 VSEW.m                  -5.41:  VERT SEC E/W
 VSNS.m                  -0.12:  VERT SEC N/S
 EKB .m                  43.16:  KB ELEVATION
 EDF .m                  43.16:  DF ELEVATION
 TDL .m                 295.00:  TOTAL DEPTH (LOGGER)
 VSC .                       0:  VS TO CLOSURE
 MAGU.                 1852276:  MAGUTM CHECKSUM
~Parameter Information Block
#MNEM.UNIT       Value        Description
#---------     -----------    ---------------------------
 AV  .mps                 1.60:  Ann Velocity 
 AVMX.mps                 2.10:  Max Ann Veloc 
 AZIF.deg               290.59:  Azm, Final 
 BHAT.        Rotary Steerable:  BHA Type 
 BROT.°/30m               1.00:  Build Rotating 
 BS  .in                  6.50:  Bit Size 
 BSZ .in                  6.50:  Bit Size 
 BTPL.psig              120.00:  Bit Press Loss 
 CABU.                     Yes:  Customer Abuse 
 CGEO.          Eldar Huseynov:  Customer Geo 
 COMM.                     Lì_:  Run Comments 1 
 TCS .hr                 87.00:  Time Ciculation Ended 
 CV  .mps                 4.01:  Crit Velocity 
 CVMX.mps                 5.06:  Max Crit Veloc 
 DD1 .             Aziz Aliyev:  Direct Drillr 1 
 DD2 .            Sanan Aliyev:  Direct Drillr 2 
 DDSV.               Geo-Pilot:  DD Service 
 DEFF.%                  95.00:  % Det Eff 
 DLRX.°/30m               0.75:  Dogleg Rot Max 
 DLSO.°/30m               0.65:  Dogleg Oriented 
 DLSX.°/30m               1.39:  Dogleg Str Max 
 DRET.      18.25.00 19-Jan-20:  Drill End Time 
 DRST.      11.56.48 17-Jan-20:  Drill Start Tim 
 DTIM.hr                 27.16:  Time Drilling 
 EDEP.m                5161.01:  End Depth 
 ENG1.          Rasim Hashimov:  Engineer 1 
 ENG2.      Bakhtiyar Jabbarli:  Engineer 2 
 ETIM.      11.56.48 21-Jan-20:  End Time 
 FLOI.gpm               350.00:  Flow In 
 FLON.gpm               300.00:  Flow In Min 
 FLOS.cptm                0.00:  Fluid Loss 
 FLOX.gpm               400.00:  Flow In Max 
 HFLO.                      No:  High Flow 
 HPRE.                      No:  High Pressure 
 HTEM.                      No:  High Temp 
 HYDO.m                   1.85:  Hydro Offset 
 IFIN.deg                71.58:  Inc, Final 
 IMAX.deg                71.83:  Inc Max 
 IMIN.deg                71.12:  Inc Min 
 IMND.m                5099.48:  Inc Min Depth 
 IMXD.m                5071.08:  Inc Max Depth 
 JARR.                      No:  Jarring 
 LETM.      18.25.00 19-Jan-20:  Log End Time 
 LOST.hr                     0:  Lost Rig Time 
 LSTM.      11.56.48 17-Jan-20:  Log Start Time 
 MDCL.ppm             37000.00:  Mud Chlorides 
 MDES.     Inversion Oil/Synthetic:  Mud Desc 
 DFD .sg                  1.34:  Mud Density 
 MDMN.sg                  1.34:  Dens Mud Min 
 MDMX.sg                  1.34:  Dens Mud Max 
 MOIL.                      69:  Run Mud Oil % 
 MOWR.                   69:31:  Run Mud OWR 
 MSND.                     0.1:  Run Mud Sand % 
 MSOL.                    17.6:  Run Mud Solids% 
 DFV .spqt               79.00:  Mud Viscosity 
 MWOD.in                  4.75:  MWD Tool OD 
 MWSI.                      No:  Serv Intrp, MWD 
 OTIM.hr                126.10:  Time Operating 
 PMAX.psia             6000.00:  Press Op, Max 
 PV  .cP                 29.00:  Mud PV 
 RUN .                     400:  Run Number 
 ROPA.m/hr               11.00:  ROP Avg 
 ROPN.m/hr                5.00:  ROP Min 
 ROPX.m/hr               18.00:  ROP Max 
 RPMA.rpm               139.00:  RPM Surface Avg 
 RPMN.rpm               100.00:  RPM Surface Min 
 RPMX.rpm               140.00:  RPM Surface Max 
 RRUN.                     400:  Rig Run Number 
 SAZI.deg               290.22:  Azm, Start 
 SDEP.m                4868.01:  Start Depth 
 SIDD.                      No:  Serv Intrp, DD 
 SINC.deg                71.77:  Inc, Start 
 SPPA.psig             5550.00:  SPP Avg 
 SPPN.psig             4300.00:  SPP Min 
 SPPX.psig             5600.00:  SPP Max 
 STIM.      23.45.48 15-Jan-20:  Start Time 
 SVCS.                 DD, MWD:  Services 
 SVER.                    9.20:  Sperry Version 
 TDAT.m                5161.01:  Tot Depth Attmp 
 TDDF.                      No:  Trip for DD 
 TDLG.m                 295.00:  Tot Depth Loggd 
 TFF .                      No:  Trip for Fail 
 TQAA.f-kp               13.00:  Torque Abs Avg 
 TQAN.f-kp               13.00:  Torque Abs Min 
 TQAX.f-kp               16.00:  Torque Abs Max 
 TRRT.°/30m               0.25:  Turn Rotating 
 MRT .                     ADR:  Maximum Recorded Temperature 
 TTMX.degC               88.00:  Max Tool Temp 
 VS01.                90577859:  Virtual Str1 SN 
 VS02.                90521879:  Virtual Str2 SN 
 VS03.                90580299:  Virtual Str3 SN 
 VS04.                90515982:  Virtual Str4 SN 
 VS05.                90547765:  Virtual Str5 SN 
 WBMN.klb                 2.00:  WOB Min 
 WITN.           Adil Mammadov:  Customer Rep 
 WITN.        Elmaddin Rahimov:  Customer Rep 2 
 WOBA.klb                 3.00:  WOB Avg 
 WOBX.klb                 5.00:  WOB Max 
 YP  .lhf2               30.00:  Yield Point 
~Curve Information Block
#MNEM.UNIT                 API CODE     Curve Description
#---------               -----------    ---------------------------
 TIME.HHMMSS            00 000 000 000:  GT Time & Date
 GTDEPTH.m              00 000 000 000:  GT Depth
 GTPQH.psia             00 000 000 000:  GT HR Quartz Pressure
 GTTQ.degC              00 000 000 000:  GT Quartz Temperature
 GTTN.NONE              00 000 000 000:  GT Test Number
 GTET.sec               00 000 000 000:  GT Elapsed Test Time
 GTTVD.m                00 000 000 000:  GT True Vertical Depth
#Other Information
#
#WARRANTY: Halliburton will use its best efforts to furnish customers with 
#accurate information and interpretations that are part of, and incident to, the services 
#provided.  However, Halliburton cannot and does not warrant the accuracy 
#or correctness of such information and interpretations.  Under no circumstances should any 
#such information or interpretation be relied upon as the sole basis for any drilling, 
#completion, production, or financial decision or any procedure involving any risk to the 
#safety of any drilling venture, drilling rig or its crew or any other third party.  The 
#Customer has full responsibility for all drilling, completion and production operation.  
#Halliburton makes no representations or warranties, either expressed or 
#implied, including, but not limited to, the implied warranties of merchantability or fitness 
#for a particular purpose, with respect to the services rendered.  In no event will 
#Halliburton be liable for failure to obtain any particular results or for 
#any damages, including, but not limited to, indirect, special or consequential damages, 
#resulting from the use of any information or interpretation provided by Halliburton.
#
~A           TIME           GTDEPTH  GTPQH  GTTQ  GTTN  GTET   GTTVD  
# ...
   05:44:12.691.19-Jan-2020 5052.01 4085.56 81.01 4.00 437.09 2859.87
   05:44:12.891.19-Jan-2020 5052.01 4085.56 81.01 4.00 437.29 2859.87
   05:44:13.091.19-Jan-2020 5052.01 4085.51 81.01 4.00 437.49 2859.87
   05:44:13.292.19-Jan-2020 5052.01 4085.59 81.01 4.00 437.69 2859.87
   05:44:13.492.19-Jan-2020 5052.01 4085.56 81.01 4.00 437.89 2859.87
   05:44:13.692.19-Jan-2020 5052.01 4085.57 81.01 4.00 438.09 2859.87
   05:44:13.892.19-Jan-2020 5052.01 4085.57 81.01 4.00 438.29 2859.87
   05:44:14.092.19-Jan-2020 5052.01 4085.73 81.01 4.00 438.49 2859.87
   05:44:14.292.19-Jan-2020 5052.01 4086.74 81.01 4.00 438.69 2859.87
   05:44:14.492.19-Jan-2020 5052.01 4089.54 81.01 4.00 438.89 2859.87
   05:44:14.692.19-Jan-2020 5052.01 5427.94 81.01 4.00 439.09 2859.87
   05:44:14.892.19-Jan-2020 5052.01 5427.94 81.01 4.00 439.29 2859.87
   05:44:15.092.19-Jan-2020 5052.01 6105.71 81.01 4.00 439.49 2859.87
   05:44:15.292.19-Jan-2020 5052.01 6112.04 81.01 4.00 439.69 2859.87
   05:44:15.492.19-Jan-2020 5052.01 6110.71 81.01 4.00 439.89 2859.87
   05:44:15.692.19-Jan-2020 5052.01 6112.03 81.01 4.00 440.09 2859.87
   05:44:15.892.19-Jan-2020 5052.01 6112.03 81.01 4.00 440.29 2859.87
   05:44:16.092.19-Jan-2020 5052.01 6113.39 81.01 4.00 440.49 2859.87
   05:44:16.292.19-Jan-2020 5052.01 6112.73 81.01 4.00 440.69 2859.87
   05:44:16.492.19-Jan-2020 5052.01 6113.31 81.01 4.00 440.89 2859.87
   05:44:16.692.19-Jan-2020 5052.01 6112.87 81.01 4.00 441.09 2859.87
   05:44:16.892.19-Jan-2020 5052.01 6112.87 81.01 4.00 441.29 2859.87
   05:44:17.092.19-Jan-2020 5052.01 6114.51 81.01 4.00 441.49 2859.87
   05:44:17.292.19-Jan-2020 5052.01 6114.90 81.01 4.00 441.69 2859.87
   05:44:17.492.19-Jan-2020 5052.01 6116.52 81.01 4.00 441.89 2859.87
   05:44:17.692.19-Jan-2020 5052.01 6115.84 81.01 4.00 442.09 2859.87
   05:44:17.892.19-Jan-2020 5052.01 6115.84 81.01 4.00 442.29 2859.87
   05:44:18.093.19-Jan-2020 5052.01 6113.04 81.01 4.00 442.49 2859.87
   05:44:18.293.19-Jan-2020 5052.01 6116.96 81.01 4.00 442.69 2859.87
   05:44:18.493.19-Jan-2020 5052.01 6111.38 81.01 4.00 442.89 2859.87
   05:44:18.693.19-Jan-2020 5052.01 6118.30 81.01 4.00 443.09 2859.87
   05:44:18.893.19-Jan-2020 5052.01 6118.30 81.01 4.00 443.29 2859.87
   05:44:19.093.19-Jan-2020 5052.01 6116.83 81.01 4.00 443.49 2859.87
   05:44:19.293.19-Jan-2020 5052.01 6117.37 81.01 4.00 443.69 2859.87
   05:44:19.493.19-Jan-2020 5052.01 6116.47 81.01 4.00 443.89 2859.87
   05:44:19.693.19-Jan-2020 5052.01 6117.08 81.01 4.00 444.09 2859.87
   05:44:19.893.19-Jan-2020 5052.01 6117.08 81.01 4.00 444.29 2859.87
   05:44:20.093.19-Jan-2020 5052.01 6117.03 81.01 4.00 444.49 2859.87
   05:44:20.293.19-Jan-2020 5052.01 6116.15 81.01 4.00 444.69 2859.87
   05:44:20.493.19-Jan-2020 5052.01 6117.35 81.01 4.00 444.89 2859.87
   05:44:20.693.19-Jan-2020 5052.01 6116.67 81.01 4.00 445.09 2859.87
   05:44:20.893.19-Jan-2020 5052.01 6116.67 81.01 4.00 445.29 2859.87
   05:44:21.093.19-Jan-2020 5052.01 6117.25 81.01 4.00 445.49 2859.87
   05:44:21.293.19-Jan-2020 5052.01 6108.03 81.01 4.00 445.69 2859.87
   05:44:21.493.19-Jan-2020 5052.01 6118.30 81.01 4.00 445.89 2859.87
   05:44:21.693.19-Jan-2020 5052.01 6115.65 81.01 4.00 446.10 2859.87
   05:44:21.893.19-Jan-2020 5052.01 6115.65 81.01 4.00 446.30 2859.87
   05:44:22.093.19-Jan-2020 5052.01 6118.58 81.01 4.00 446.50 2859.87
   05:44:22.293.19-Jan-2020 5052.01 6117.81 81.01 4.00 446.70 2859.87
   05:44:22.493.19-Jan-2020 5052.01 6117.72 81.02 4.00 446.90 2859.87
   05:44:22.694.19-Jan-2020 5052.01 6108.62 81.01 4.00 447.10 2859.87
   05:44:22.894.19-Jan-2020 5052.01 6108.62 81.01 4.00 447.30 2859.87
   05:44:23.094.19-Jan-2020 5052.01 6116.26 81.02 4.00 447.50 2859.87
   05:44:23.294.19-Jan-2020 5052.01 6113.79 81.02 4.00 447.70 2859.87
   05:44:23.494.19-Jan-2020 5052.01 6118.08 81.02 4.00 447.90 2859.87
   05:44:23.694.19-Jan-2020 5052.01 6116.25 81.02 4.00 448.10 2859.87
   05:44:23.894.19-Jan-2020 5052.01 6116.25 81.02 4.00 448.30 2859.87
   05:44:24.094.19-Jan-2020 5052.01 6117.45 81.02 4.00 448.50 2859.87
   05:44:24.294.19-Jan-2020 5052.01 6108.28 81.02 4.00 448.70 2859.87
   05:44:24.494.19-Jan-2020 5052.01 6118.73 81.02 4.00 448.90 2859.87
   05:44:24.694.19-Jan-2020 5052.01 6113.49 81.02 4.00 449.10 2859.87
   05:44:24.894.19-Jan-2020 5052.01 6113.49 81.02 4.00 449.30 2859.87
   05:44:25.094.19-Jan-2020 5052.01 6116.47 81.02 4.00 449.50 2859.87
   05:44:25.294.19-Jan-2020 5052.01 6117.76 81.02 4.00 449.70 2859.87
   05:44:25.494.19-Jan-2020 5052.01 6117.99 81.02 4.00 449.90 2859.87
   05:44:25.694.19-Jan-2020 5052.01 6117.88 81.02 4.00 450.10 2859.87
   05:44:25.894.19-Jan-2020 5052.01 6117.88 81.02 4.00 450.30 2859.87
   05:44:26.094.19-Jan-2020 5052.01 6118.69 81.02 4.00 450.50 2859.87
   05:44:26.294.19-Jan-2020 5052.01 6112.17 81.01 4.00 450.70 2859.87
   05:44:26.494.19-Jan-2020 5052.01 6117.69 81.01 4.00 450.90 2859.87
   05:44:26.694.19-Jan-2020 5052.01 6117.74 81.01 4.00 451.10 2859.87
   05:44:26.894.19-Jan-2020 5052.01 6117.74 81.01 4.00 451.30 2859.87
   05:44:27.094.19-Jan-2020 5052.01 6118.30 81.01 4.00 451.50 2859.87
   05:44:27.294.19-Jan-2020 5052.01 6117.31 81.01 4.00 451.70 2859.87
   05:44:27.495.19-Jan-2020 5052.01 6117.94 81.01 4.00 451.90 2859.87
   05:44:27.695.19-Jan-2020 5052.01 6116.53 81.01 4.00 452.10 2859.87
   05:44:27.895.19-Jan-2020 5052.01 6116.53 81.01 4.00 452.30 2859.87
   05:44:28.095.19-Jan-2020 5052.01 6116.35 81.01 4.00 452.50 2859.87
   05:44:28.295.19-Jan-2020 5052.01 6118.32 81.01 4.00 452.70 2859.87
   05:44:28.495.19-Jan-2020 5052.01 6117.52 81.01 4.00 452.90 2859.87
   05:44:28.695.19-Jan-2020 5052.01 6118.09 81.01 4.00 453.10 2859.87
   05:44:28.895.19-Jan-2020 5052.01 6118.09 81.01 4.00 453.30 2859.87
   05:44:29.095.19-Jan-2020 5052.01 6108.74 81.01 4.00 453.50 2859.87
   05:44:29.295.19-Jan-2020 5052.01 6118.51 81.01 4.00 453.70 2859.87
   05:44:29.495.19-Jan-2020 5052.01 6113.74 81.01 4.00 453.90 2859.87
   05:44:29.695.19-Jan-2020 5052.01 6116.39 81.01 4.00 454.10 2859.87
   05:44:29.895.19-Jan-2020 5052.01 6116.39 81.01 4.00 454.30 2859.87
   05:44:30.095.19-Jan-2020 5052.01 6116.84 81.01 4.00 454.50 2859.87
   05:44:30.295.19-Jan-2020 5052.01 6117.01 81.01 4.00 454.70 2859.87
   05:44:30.495.19-Jan-2020 5052.01 6117.90 81.01 4.00 454.90 2859.87
   05:44:30.695.19-Jan-2020 5052.01 6116.09 81.01 4.00 455.10 2859.87
   05:44:30.895.19-Jan-2020 5052.01 6116.09 81.01 4.00 455.30 2859.87
   05:44:31.095.19-Jan-2020 5052.01 6116.15 81.01 4.00 455.50 2859.87
   05:44:31.295.19-Jan-2020 5052.01 6116.73 81.01 4.00 455.70 2859.87
   05:44:31.495.19-Jan-2020 5052.01 6116.22 81.01 4.00 455.90 2859.87
   05:44:31.695.19-Jan-2020 5052.01 6116.38 81.01 4.00 456.10 2859.87
   05:44:31.895.19-Jan-2020 5052.01 6116.38 81.01 4.00 456.30 2859.87
   05:44:32.096.19-Jan-2020 5052.01 6116.54 81.01 4.00 456.50 2859.87
   05:44:32.296.19-Jan-2020 5052.01 6117.26 81.01 4.00 456.70 2859.87
   05:44:32.496.19-Jan-2020 5052.01 6115.24 81.01 4.00 456.90 2859.87
   05:44:32.696.19-Jan-2020 5052.01 6109.95 81.01 4.00 457.10 2859.87
   05:44:32.896.19-Jan-2020 5052.01 6109.95 81.01 4.00 457.30 2859.87
   05:44:33.096.19-Jan-2020 5052.01 6113.66 81.01 4.00 457.50 2859.87
   05:44:33.296.19-Jan-2020 5052.01 6117.53 81.01 4.00 457.70 2859.87
   05:44:33.496.19-Jan-2020 5052.01 6117.90 81.01 4.00 457.90 2859.87
   05:44:33.696.19-Jan-2020 5052.01 6116.79 81.01 4.00 458.10 2859.87
   05:44:33.896.19-Jan-2020 5052.01 6116.79 81.01 4.00 458.30 2859.87
   05:44:34.096.19-Jan-2020 5052.01 6109.43 81.01 4.00 458.50 2859.87
   05:44:34.296.19-Jan-2020 5052.01 6117.18 81.01 4.00 458.70 2859.87
   05:44:34.496.19-Jan-2020 5052.01 6112.27 81.01 4.00 458.90 2859.87
   05:44:34.696.19-Jan-2020 5052.01 6116.61 81.00 4.00 459.10 2859.87
   05:44:34.896.19-Jan-2020 5052.01 6116.61 81.00 4.00 459.30 2859.87
   05:44:35.096.19-Jan-2020 5052.01 6115.92 81.00 4.00 459.50 2859.87
   05:44:35.296.19-Jan-2020 5052.01 6112.53 81.00 4.00 459.70 2859.87
   05:44:35.496.19-Jan-2020 5052.01 6114.18 81.00 4.00 459.90 2859.87
