~Version Information
 VERS.                  2.0:   CWLS log ASCII Standard -VERSION 2.0
 WRAP.                   NO:   One line per depth step
~Well Information Block
#MNEM.UNIT     VALUE/NAME     DESCRIPTION
#---------     -----------    ---------------------------
 STRT.S             19:23:23 18-Jan-20: START TIME 19:23:23 18-Jan-20
 STOP.S             19:31:15 18-Jan-20: STOP TIME  19:31:15 18-Jan-20
 STEP.S                   0.00: STEP TIME
 NULL.                 -999.25: NULL VALUE
 DFWT.                        :  DIST FWL TEXT
 DFST.                        :  DIST FSL TEXT
 DMF .             Drill Floor:  DRILL MEAS FROM
 STIM.      17.57.20 21-Dec-19:  START TIME
 DATE.      17.57.20 21-Dec-19:  END TIME
 SPUD.               21-Dec-19:  SPUD DATE
 NREF.                    Grid:  NORTH REFERENCE
 HPTY.       Minimum Curvature:  HOLE POS TYPE
 DMOD.             Drill Model:  DRILL MOD DESC
 SVYD.                  Survey:  SURVEY DESC
 ILTD.               Lithology:  INTERP LTH DESC
 FTOP.          Formation Tops:  FORM TOPS DESC
 PDAT.          Mean Sea Level:  PERMANENT DATUM
 FLD .                     ACG:  FIELD NAME
 SON .        AZ-XX-0905715376:  JOB NUMBER
 CTRY.              Azerbaijan:  COUNTRY NAME
 WELL.                    E04Y:  WELL NAME
 SRVC.          TURAN DRILLING:  CONTRACTOR
 COMP.     BP Exploration (Caspian Sea) Ltd.:  COMPANY
 WTYP.                Deviated:  WELL TYPE
 UWI .                     N/a:  UNIQUE WELL IDENTIFIER
 API .                     N/a:  API NUMBER
 BASE.              Azerbaijan:  LOGGING EQUIPMENT BASE LOCATION
 REGN.                   EESSA:  REGION
 MWDS.                    Baku:  MWD SHOP
 RIG .                     DWG:  RIG NAME
 DOE .                     N/a:  DOE NUMBER
 CNTY.                    Baku:  COUNTY NAME
 DCON.         Sperry Drilling:  DIRECTNL CONTR
 UNIT.                     N/a:  LOGGING EQUIPMENT ID
 MDS .        Operator Entered:  MAG DATA SOURCE
 PROV.                        :  PROVINCE
 STAT.                        :  STATE
 LOC .                        :  LOCATION
 LMF .             Drill Floor:  LOG MEASURED FROM
 TVDS.m                  43.16:  TVDSS CORRECTN
 LATI.deg                40.17:  LATITUDE
 LONG.deg                51.17:  LONGITUDE
 WHNS.m                  -0.12:  WELL HEAD N/S
 WHEW.m                  -5.41:  WELL HEAD E/W
 UTMX.m              514337.95:  UTM X
 UTMY.m             4448627.46:  UTM Y
 DFWL.m                   0.00:  DISTANCE FWL
 DFSL.m                   0.00:  DISTANCE FSL
 SDEP.m                   0.00:  START DEPTH
 TDD .m                   0.00:  TOTAL DEPTH (DRILLER)
 VSDR.deg               235.12:  VERT SEC DIRECT
 GVFD.g                   1.00:  GRAVITY FIELD
 MFLD.nT              50294.00:  MAGNETIC FIELD
 MDIP.deg                59.61:  MAGNETIC DIP
 MDEC.deg                 6.58:  MAGNETIC DECL
 GRDC.deg                 0.09:  GRID CORRECTION
 AZTC.deg                 6.49:  AZM TOTAL CORR
 EPD .m                   0.00:  ELEVATION
 EGL .m                   0.00:  GROUND ELEVATION
 WDMS.m                 176.20:  WD ELEV
 APD .m                  43.16:  DEPTH ABOVE PD
 DEP .m                3172.61:  DEPTH
 AGAP.m                  43.16:  AIR GAP
 VSEW.m                  -5.41:  VERT SEC E/W
 VSNS.m                  -0.12:  VERT SEC N/S
 EKB .m                  43.16:  KB ELEVATION
 EDF .m                  43.16:  DF ELEVATION
 TDL .m                 295.00:  TOTAL DEPTH (LOGGER)
 VSC .                       0:  VS TO CLOSURE
 MAGU.                 1852276:  MAGUTM CHECKSUM
~Parameter Information Block
#MNEM.UNIT       Value        Description
#---------     -----------    ---------------------------
 AV  .mps                 1.60:  Ann Velocity 
 AVMX.mps                 2.10:  Max Ann Veloc 
 AZIF.deg               290.59:  Azm, Final 
 BHAT.        Rotary Steerable:  BHA Type 
 BROT.°/30m               1.00:  Build Rotating 
 BS  .in                  6.50:  Bit Size 
 BSZ .in                  6.50:  Bit Size 
 BTPL.psig              120.00:  Bit Press Loss 
 CABU.                     Yes:  Customer Abuse 
 CGEO.          Eldar Huseynov:  Customer Geo 
 COMM.                     ”%\:  Run Comments 1 
 TCS .hr                 87.00:  Time Ciculation Ended 
 CV  .mps                 4.01:  Crit Velocity 
 CVMX.mps                 5.06:  Max Crit Veloc 
 DD1 .             Aziz Aliyev:  Direct Drillr 1 
 DD2 .            Sanan Aliyev:  Direct Drillr 2 
 DDSV.               Geo-Pilot:  DD Service 
 DEFF.%                  95.00:  % Det Eff 
 DLRX.°/30m               0.75:  Dogleg Rot Max 
 DLSO.°/30m               0.65:  Dogleg Oriented 
 DLSX.°/30m               1.39:  Dogleg Str Max 
 DRET.      18.25.00 19-Jan-20:  Drill End Time 
 DRST.      11.56.48 17-Jan-20:  Drill Start Tim 
 DTIM.hr                 27.16:  Time Drilling 
 EDEP.m                5161.01:  End Depth 
 ENG1.          Rasim Hashimov:  Engineer 1 
 ENG2.      Bakhtiyar Jabbarli:  Engineer 2 
 ETIM.      11.56.48 21-Jan-20:  End Time 
 FLOI.gpm               350.00:  Flow In 
 FLON.gpm               300.00:  Flow In Min 
 FLOS.cptm                0.00:  Fluid Loss 
 FLOX.gpm               400.00:  Flow In Max 
 HFLO.                      No:  High Flow 
 HPRE.                      No:  High Pressure 
 HTEM.                      No:  High Temp 
 HYDO.m                   1.85:  Hydro Offset 
 IFIN.deg                71.58:  Inc, Final 
 IMAX.deg                71.83:  Inc Max 
 IMIN.deg                71.12:  Inc Min 
 IMND.m                5099.48:  Inc Min Depth 
 IMXD.m                5071.08:  Inc Max Depth 
 JARR.                      No:  Jarring 
 LETM.      18.25.00 19-Jan-20:  Log End Time 
 LOST.hr                     0:  Lost Rig Time 
 LSTM.      11.56.48 17-Jan-20:  Log Start Time 
 MDCL.ppm             37000.00:  Mud Chlorides 
 MDES.     Inversion Oil/Synthetic:  Mud Desc 
 DFD .sg                  1.34:  Mud Density 
 MDMN.sg                  1.34:  Dens Mud Min 
 MDMX.sg                  1.34:  Dens Mud Max 
 MOIL.                      69:  Run Mud Oil % 
 MOWR.                   69:31:  Run Mud OWR 
 MSND.                     0.1:  Run Mud Sand % 
 MSOL.                    17.6:  Run Mud Solids% 
 DFV .spqt               79.00:  Mud Viscosity 
 MWOD.in                  4.75:  MWD Tool OD 
 MWSI.                      No:  Serv Intrp, MWD 
 OTIM.hr                126.10:  Time Operating 
 PMAX.psia             6000.00:  Press Op, Max 
 PV  .cP                 29.00:  Mud PV 
 RUN .                     400:  Run Number 
 ROPA.m/hr               11.00:  ROP Avg 
 ROPN.m/hr                5.00:  ROP Min 
 ROPX.m/hr               18.00:  ROP Max 
 RPMA.rpm               139.00:  RPM Surface Avg 
 RPMN.rpm               100.00:  RPM Surface Min 
 RPMX.rpm               140.00:  RPM Surface Max 
 RRUN.                     400:  Rig Run Number 
 SAZI.deg               290.22:  Azm, Start 
 SDEP.m                4868.01:  Start Depth 
 SIDD.                      No:  Serv Intrp, DD 
 SINC.deg                71.77:  Inc, Start 
 SPPA.psig             5550.00:  SPP Avg 
 SPPN.psig             4300.00:  SPP Min 
 SPPX.psig             5600.00:  SPP Max 
 STIM.      23.45.48 15-Jan-20:  Start Time 
 SVCS.                 DD, MWD:  Services 
 SVER.                    9.20:  Sperry Version 
 TDAT.m                5161.01:  Tot Depth Attmp 
 TDDF.                      No:  Trip for DD 
 TDLG.m                 295.00:  Tot Depth Loggd 
 TFF .                      No:  Trip for Fail 
 TQAA.f-kp               13.00:  Torque Abs Avg 
 TQAN.f-kp               13.00:  Torque Abs Min 
 TQAX.f-kp               16.00:  Torque Abs Max 
 TRRT.°/30m               0.25:  Turn Rotating 
 MRT .                     ADR:  Maximum Recorded Temperature 
 TTMX.degC               88.00:  Max Tool Temp 
 VS01.                90577859:  Virtual Str1 SN 
 VS02.                90521879:  Virtual Str2 SN 
 VS03.                90580299:  Virtual Str3 SN 
 VS04.                90515982:  Virtual Str4 SN 
 VS05.                90547765:  Virtual Str5 SN 
 WBMN.klb                 2.00:  WOB Min 
 WITN.           Adil Mammadov:  Customer Rep 
 WITN.        Elmaddin Rahimov:  Customer Rep 2 
 WOBA.klb                 3.00:  WOB Avg 
 WOBX.klb                 5.00:  WOB Max 
 YP  .lhf2               30.00:  Yield Point 
~Curve Information Block
#MNEM.UNIT                 API CODE     Curve Description
#---------               -----------    ---------------------------
 TIME.HHMMSS            00 000 000 000:  GT Time & Date
 GTDEPTH.m              00 000 000 000:  GT Depth
 GTPQH.psia             00 000 000 000:  GT HR Quartz Pressure
 GTTQ.degC              00 000 000 000:  GT Quartz Temperature
 GTTN.NONE              00 000 000 000:  GT Test Number
 GTET.sec               00 000 000 000:  GT Elapsed Test Time
 GTTVD.m                00 000 000 000:  GT True Vertical Depth
#Other Information
#
#WARRANTY: Halliburton will use its best efforts to furnish customers with 
#accurate information and interpretations that are part of, and incident to, the services 
#provided.  However, Halliburton cannot and does not warrant the accuracy 
#or correctness of such information and interpretations.  Under no circumstances should any 
#such information or interpretation be relied upon as the sole basis for any drilling, 
#completion, production, or financial decision or any procedure involving any risk to the 
#safety of any drilling venture, drilling rig or its crew or any other third party.  The 
#Customer has full responsibility for all drilling, completion and production operation.  
#Halliburton makes no representations or warranties, either expressed or 
#implied, including, but not limited to, the implied warranties of merchantability or fitness 
#for a particular purpose, with respect to the services rendered.  In no event will 
#Halliburton be liable for failure to obtain any particular results or for 
#any damages, including, but not limited to, indirect, special or consequential damages, 
#resulting from the use of any information or interpretation provided by Halliburton.
#
~A           TIME           GTDEPTH  GTPQH  GTTQ  GTTN  GTET   GTTVD  
# ...
   19:29:31.211.18-Jan-2020 4980.01 4428.15 80.76 3.00 368.07 2836.95
   19:29:31.411.18-Jan-2020 4980.01 4428.15 80.76 3.00 368.27 2836.95
   19:29:31.611.18-Jan-2020 4980.01 4428.09 80.76 3.00 368.47 2836.95
   19:29:31.811.18-Jan-2020 4980.01 4428.16 80.76 3.00 368.67 2836.95
   19:29:32.011.18-Jan-2020 4980.01 4428.19 80.76 3.00 368.87 2836.95
   19:29:32.211.18-Jan-2020 4980.01 4428.17 80.76 3.00 369.07 2836.95
   19:29:32.411.18-Jan-2020 4980.01 4428.17 80.76 3.00 369.27 2836.95
   19:29:32.611.18-Jan-2020 4980.01 4428.16 80.75 3.00 369.47 2836.95
   19:29:32.811.18-Jan-2020 4980.01 4428.14 80.75 3.00 369.67 2836.95
   19:29:33.011.18-Jan-2020 4980.01 4428.15 80.75 3.00 369.87 2836.95
   19:29:33.211.18-Jan-2020 4980.01 4428.13 80.75 3.00 370.07 2836.95
   19:29:33.411.18-Jan-2020 4980.01 4428.13 80.75 3.00 370.27 2836.95
   19:29:33.611.18-Jan-2020 4980.01 4428.12 80.75 3.00 370.47 2836.95
   19:29:33.811.18-Jan-2020 4980.01 4428.15 80.75 3.00 370.67 2836.95
   19:29:34.011.18-Jan-2020 4980.01 4428.11 80.75 3.00 370.87 2836.95
   19:29:34.211.18-Jan-2020 4980.01 4428.13 80.75 3.00 371.07 2836.95
   19:29:34.411.18-Jan-2020 4980.01 4428.13 80.75 3.00 371.27 2836.95
   19:29:34.611.18-Jan-2020 4980.01 4428.13 80.75 3.00 371.47 2836.95
   19:29:34.811.18-Jan-2020 4980.01 4428.13 80.75 3.00 371.67 2836.95
   19:29:35.011.18-Jan-2020 4980.01 4427.95 80.75 3.00 371.87 2836.95
   19:29:35.211.18-Jan-2020 4980.01 4428.29 80.75 3.00 372.07 2836.95
   19:29:35.411.18-Jan-2020 4980.01 4428.29 80.75 3.00 372.27 2836.95
   19:29:35.611.18-Jan-2020 4980.01 4428.17 80.75 3.00 372.47 2836.95
   19:29:35.811.18-Jan-2020 4980.01 4428.06 80.75 3.00 372.67 2836.95
   19:29:36.011.18-Jan-2020 4980.01 4428.20 80.75 3.00 372.87 2836.95
   19:29:36.212.18-Jan-2020 4980.01 4428.12 80.75 3.00 373.07 2836.95
   19:29:36.412.18-Jan-2020 4980.01 4428.12 80.75 3.00 373.27 2836.95
   19:29:36.612.18-Jan-2020 4980.01 4428.15 80.74 3.00 373.47 2836.95
   19:29:36.812.18-Jan-2020 4980.01 4428.18 80.74 3.00 373.67 2836.95
   19:29:37.012.18-Jan-2020 4980.01 4428.16 80.74 3.00 373.87 2836.95
   19:29:37.212.18-Jan-2020 4980.01 4427.98 80.74 3.00 374.07 2836.95
   19:29:37.412.18-Jan-2020 4980.01 4427.98 80.74 3.00 374.27 2836.95
   19:29:37.612.18-Jan-2020 4980.01 4428.15 80.74 3.00 374.47 2836.95
   19:29:37.812.18-Jan-2020 4980.01 4428.18 80.74 3.00 374.67 2836.95
   19:29:38.012.18-Jan-2020 4980.01 4428.15 80.74 3.00 374.87 2836.95
   19:29:38.212.18-Jan-2020 4980.01 4428.18 80.74 3.00 375.07 2836.95
   19:29:38.412.18-Jan-2020 4980.01 4428.18 80.74 3.00 375.27 2836.95
   19:29:38.612.18-Jan-2020 4980.01 4428.10 80.74 3.00 375.47 2836.95
   19:29:38.812.18-Jan-2020 4980.01 4428.17 80.74 3.00 375.67 2836.95
   19:29:39.012.18-Jan-2020 4980.01 4428.15 80.74 3.00 375.87 2836.95
   19:29:39.212.18-Jan-2020 4980.01 4428.19 80.74 3.00 376.07 2836.95
   19:29:39.412.18-Jan-2020 4980.01 4428.19 80.74 3.00 376.27 2836.95
   19:29:39.612.18-Jan-2020 4980.01 4428.16 80.74 3.00 376.47 2836.95
   19:29:39.812.18-Jan-2020 4980.01 4428.16 80.74 3.00 376.67 2836.95
   19:29:40.012.18-Jan-2020 4980.01 4428.16 80.74 3.00 376.87 2836.95
   19:29:40.212.18-Jan-2020 4980.01 4428.14 80.74 3.00 377.07 2836.95
   19:29:40.412.18-Jan-2020 4980.01 4428.14 80.74 3.00 377.27 2836.95
   19:29:40.612.18-Jan-2020 4980.01 4428.12 80.73 3.00 377.47 2836.95
   19:29:40.812.18-Jan-2020 4980.01 4428.16 80.73 3.00 377.67 2836.95
   19:29:41.012.18-Jan-2020 4980.01 4428.12 80.73 3.00 377.87 2836.95
   19:29:41.212.18-Jan-2020 4980.01 4428.16 80.73 3.00 378.07 2836.95
   19:29:41.413.18-Jan-2020 4980.01 4428.16 80.73 3.00 378.27 2836.95
   19:29:41.613.18-Jan-2020 4980.01 4428.14 80.73 3.00 378.47 2836.95
   19:29:41.813.18-Jan-2020 4980.01 4428.05 80.73 3.00 378.67 2836.95
   19:29:42.013.18-Jan-2020 4980.01 4428.17 80.73 3.00 378.87 2836.95
   19:29:42.213.18-Jan-2020 4980.01 4428.13 80.73 3.00 379.07 2836.95
   19:29:42.413.18-Jan-2020 4980.01 4428.13 80.73 3.00 379.27 2836.95
   19:29:42.613.18-Jan-2020 4980.01 4428.16 80.73 3.00 379.47 2836.95
   19:29:42.813.18-Jan-2020 4980.01 4428.14 80.73 3.00 379.67 2836.95
   19:29:43.013.18-Jan-2020 4980.01 4428.17 80.73 3.00 379.87 2836.95
   19:29:43.213.18-Jan-2020 4980.01 4428.12 80.73 3.00 380.07 2836.95
   19:29:43.413.18-Jan-2020 4980.01 4428.12 80.73 3.00 380.27 2836.95
   19:29:43.613.18-Jan-2020 4980.01 4428.13 80.73 3.00 380.47 2836.95
   19:29:43.813.18-Jan-2020 4980.01 4428.14 80.73 3.00 380.67 2836.95
   19:29:44.013.18-Jan-2020 4980.01 4428.11 80.73 3.00 380.87 2836.95
   19:29:44.213.18-Jan-2020 4980.01 4428.14 80.73 3.00 381.07 2836.95
   19:29:44.413.18-Jan-2020 4980.01 4428.14 80.73 3.00 381.27 2836.95
   19:29:44.613.18-Jan-2020 4980.01 4428.13 80.72 3.00 381.47 2836.95
   19:29:44.813.18-Jan-2020 4980.01 4428.13 80.72 3.00 381.67 2836.95
   19:29:45.013.18-Jan-2020 4980.01 4428.11 80.72 3.00 381.87 2836.95
   19:29:45.213.18-Jan-2020 4980.01 4428.11 80.72 3.00 382.07 2836.95
   19:29:45.413.18-Jan-2020 4980.01 4428.11 80.72 3.00 382.27 2836.95
   19:29:45.613.18-Jan-2020 4980.01 4428.18 80.72 3.00 382.47 2836.95
   19:29:45.813.18-Jan-2020 4980.01 4428.17 80.72 3.00 382.67 2836.95
   19:29:46.013.18-Jan-2020 4980.01 4428.16 80.72 3.00 382.87 2836.95
   19:29:46.213.18-Jan-2020 4980.01 4428.01 80.72 3.00 383.07 2836.95
   19:29:46.413.18-Jan-2020 4980.01 4428.01 80.72 3.00 383.27 2836.95
   19:29:46.614.18-Jan-2020 4980.01 4428.11 80.72 3.00 383.47 2836.95
   19:29:46.814.18-Jan-2020 4980.01 4428.20 80.72 3.00 383.67 2836.95
   19:29:47.014.18-Jan-2020 4980.01 4428.15 80.72 3.00 383.87 2836.95
   19:29:47.214.18-Jan-2020 4980.01 4428.16 80.72 3.00 384.07 2836.95
   19:29:47.414.18-Jan-2020 4980.01 4428.16 80.72 3.00 384.27 2836.95
   19:29:47.614.18-Jan-2020 4980.01 4428.08 80.72 3.00 384.47 2836.95
   19:29:47.814.18-Jan-2020 4980.01 4428.18 80.72 3.00 384.67 2836.95
   19:29:48.014.18-Jan-2020 4980.01 4428.18 80.72 3.00 384.87 2836.95
   19:29:48.214.18-Jan-2020 4980.01 4428.17 80.72 3.00 385.07 2836.95
   19:29:48.414.18-Jan-2020 4980.01 4428.17 80.72 3.00 385.27 2836.95
   19:29:48.614.18-Jan-2020 4980.01 4428.17 80.71 3.00 385.47 2836.95
   19:29:48.814.18-Jan-2020 4980.01 4428.14 80.71 3.00 385.67 2836.95
   19:29:49.014.18-Jan-2020 4980.01 4428.02 80.71 3.00 385.87 2836.95
   19:29:49.214.18-Jan-2020 4980.01 4428.25 80.71 3.00 386.07 2836.95
   19:29:49.414.18-Jan-2020 4980.01 4428.25 80.71 3.00 386.27 2836.95
   19:29:49.614.18-Jan-2020 4980.01 4428.20 80.71 3.00 386.47 2836.95
   19:29:49.814.18-Jan-2020 4980.01 4428.15 80.71 3.00 386.67 2836.95
   19:29:50.014.18-Jan-2020 4980.01 4428.17 80.71 3.00 386.87 2836.95
   19:29:50.214.18-Jan-2020 4980.01 4428.13 80.71 3.00 387.08 2836.95
   19:29:50.414.18-Jan-2020 4980.01 4428.13 80.71 3.00 387.28 2836.95
   19:29:50.614.18-Jan-2020 4980.01 4428.13 80.71 3.00 387.48 2836.95
   19:29:50.814.18-Jan-2020 4980.01 4428.16 80.71 3.00 387.68 2836.95
   19:29:51.014.18-Jan-2020 4980.01 4428.12 80.71 3.00 387.88 2836.95
   19:29:51.214.18-Jan-2020 4980.01 4428.14 80.71 3.00 388.08 2836.95
   19:29:51.414.18-Jan-2020 4980.01 4428.14 80.71 3.00 388.28 2836.95
   19:29:51.614.18-Jan-2020 4980.01 4428.14 80.71 3.00 388.48 2836.95
   19:29:51.815.18-Jan-2020 4980.01 4428.13 80.71 3.00 388.68 2836.95
   19:29:52.015.18-Jan-2020 4980.01 4428.13 80.71 3.00 388.88 2836.95
   19:29:52.215.18-Jan-2020 4980.01 4427.99 80.71 3.00 389.08 2836.95
   19:29:52.415.18-Jan-2020 4980.01 4427.99 80.71 3.00 389.28 2836.95
   19:29:52.615.18-Jan-2020 4980.01 4428.12 80.70 3.00 389.48 2836.95
   19:29:52.815.18-Jan-2020 4980.01 4428.18 80.70 3.00 389.68 2836.95
   19:29:53.015.18-Jan-2020 4980.01 4428.17 80.70 3.00 389.88 2836.95
   19:29:53.215.18-Jan-2020 4980.01 4428.13 80.70 3.00 390.08 2836.95
   19:29:53.415.18-Jan-2020 4980.01 4428.13 80.70 3.00 390.28 2836.95
   19:29:53.615.18-Jan-2020 4980.01 4428.13 80.70 3.00 390.48 2836.95
   19:29:53.815.18-Jan-2020 4980.01 4428.15 80.70 3.00 390.68 2836.95
   19:29:54.015.18-Jan-2020 4980.01 4428.12 80.70 3.00 390.88 2836.95
