~Version Information
 VERS.                  2.0:   CWLS log ASCII Standard -VERSION 2.0
 WRAP.                   NO:   One line per depth step
~Well Information Block
#MNEM.UNIT     VALUE/NAME     DESCRIPTION
#---------     -----------    ---------------------------
 STRT.S             14:05:37 19-Jan-20: START TIME 14:05:37 19-Jan-20
 STOP.S             14:13:29 19-Jan-20: STOP TIME  14:13:29 19-Jan-20
 STEP.S                   0.00: STEP TIME
 NULL.                 -999.25: NULL VALUE
 DFWT.                        :  DIST FWL TEXT
 DFST.                        :  DIST FSL TEXT
 DMF .             Drill Floor:  DRILL MEAS FROM
 STIM.      17.57.20 21-Dec-19:  START TIME
 DATE.      17.57.20 21-Dec-19:  END TIME
 SPUD.               21-Dec-19:  SPUD DATE
 NREF.                    Grid:  NORTH REFERENCE
 HPTY.       Minimum Curvature:  HOLE POS TYPE
 DMOD.             Drill Model:  DRILL MOD DESC
 SVYD.                  Survey:  SURVEY DESC
 ILTD.               Lithology:  INTERP LTH DESC
 FTOP.          Formation Tops:  FORM TOPS DESC
 PDAT.          Mean Sea Level:  PERMANENT DATUM
 FLD .                     ACG:  FIELD NAME
 SON .        AZ-XX-0905715376:  JOB NUMBER
 CTRY.              Azerbaijan:  COUNTRY NAME
 WELL.                    E04Y:  WELL NAME
 SRVC.          TURAN DRILLING:  CONTRACTOR
 COMP.     BP Exploration (Caspian Sea) Ltd.:  COMPANY
 WTYP.                Deviated:  WELL TYPE
 UWI .                     N/a:  UNIQUE WELL IDENTIFIER
 API .                     N/a:  API NUMBER
 BASE.              Azerbaijan:  LOGGING EQUIPMENT BASE LOCATION
 REGN.                   EESSA:  REGION
 MWDS.                    Baku:  MWD SHOP
 RIG .                     DWG:  RIG NAME
 DOE .                     N/a:  DOE NUMBER
 CNTY.                    Baku:  COUNTY NAME
 DCON.         Sperry Drilling:  DIRECTNL CONTR
 UNIT.                     N/a:  LOGGING EQUIPMENT ID
 MDS .        Operator Entered:  MAG DATA SOURCE
 PROV.                        :  PROVINCE
 STAT.                        :  STATE
 LOC .                        :  LOCATION
 LMF .             Drill Floor:  LOG MEASURED FROM
 TVDS.m                  43.16:  TVDSS CORRECTN
 LATI.deg                40.17:  LATITUDE
 LONG.deg                51.17:  LONGITUDE
 WHNS.m                  -0.12:  WELL HEAD N/S
 WHEW.m                  -5.41:  WELL HEAD E/W
 UTMX.m              514337.95:  UTM X
 UTMY.m             4448627.46:  UTM Y
 DFWL.m                   0.00:  DISTANCE FWL
 DFSL.m                   0.00:  DISTANCE FSL
 SDEP.m                   0.00:  START DEPTH
 TDD .m                   0.00:  TOTAL DEPTH (DRILLER)
 VSDR.deg               235.12:  VERT SEC DIRECT
 GVFD.g                   1.00:  GRAVITY FIELD
 MFLD.nT              50294.00:  MAGNETIC FIELD
 MDIP.deg                59.61:  MAGNETIC DIP
 MDEC.deg                 6.58:  MAGNETIC DECL
 GRDC.deg                 0.09:  GRID CORRECTION
 AZTC.deg                 6.49:  AZM TOTAL CORR
 EPD .m                   0.00:  ELEVATION
 EGL .m                   0.00:  GROUND ELEVATION
 WDMS.m                 176.20:  WD ELEV
 APD .m                  43.16:  DEPTH ABOVE PD
 DEP .m                3172.61:  DEPTH
 AGAP.m                  43.16:  AIR GAP
 VSEW.m                  -5.41:  VERT SEC E/W
 VSNS.m                  -0.12:  VERT SEC N/S
 EKB .m                  43.16:  KB ELEVATION
 EDF .m                  43.16:  DF ELEVATION
 TDL .m                 295.00:  TOTAL DEPTH (LOGGER)
 VSC .                       0:  VS TO CLOSURE
 MAGU.                 1852276:  MAGUTM CHECKSUM
~Parameter Information Block
#MNEM.UNIT       Value        Description
#---------     -----------    ---------------------------
 AV  .mps                 1.60:  Ann Velocity 
 AVMX.mps                 2.10:  Max Ann Veloc 
 AZIF.deg               290.59:  Azm, Final 
 BHAT.        Rotary Steerable:  BHA Type 
 BROT.°/30m               1.00:  Build Rotating 
 BS  .in                  6.50:  Bit Size 
 BSZ .in                  6.50:  Bit Size 
 BTPL.psig              120.00:  Bit Press Loss 
 CABU.                     Yes:  Customer Abuse 
 CGEO.          Eldar Huseynov:  Customer Geo 
 COMM.                     Tì‚:  Run Comments 1 
 TCS .hr                 87.00:  Time Ciculation Ended 
 CV  .mps                 4.01:  Crit Velocity 
 CVMX.mps                 5.06:  Max Crit Veloc 
 DD1 .             Aziz Aliyev:  Direct Drillr 1 
 DD2 .            Sanan Aliyev:  Direct Drillr 2 
 DDSV.               Geo-Pilot:  DD Service 
 DEFF.%                  95.00:  % Det Eff 
 DLRX.°/30m               0.75:  Dogleg Rot Max 
 DLSO.°/30m               0.65:  Dogleg Oriented 
 DLSX.°/30m               1.39:  Dogleg Str Max 
 DRET.      18.25.00 19-Jan-20:  Drill End Time 
 DRST.      11.56.48 17-Jan-20:  Drill Start Tim 
 DTIM.hr                 27.16:  Time Drilling 
 EDEP.m                5161.01:  End Depth 
 ENG1.          Rasim Hashimov:  Engineer 1 
 ENG2.      Bakhtiyar Jabbarli:  Engineer 2 
 ETIM.      11.56.48 21-Jan-20:  End Time 
 FLOI.gpm               350.00:  Flow In 
 FLON.gpm               300.00:  Flow In Min 
 FLOS.cptm                0.00:  Fluid Loss 
 FLOX.gpm               400.00:  Flow In Max 
 HFLO.                      No:  High Flow 
 HPRE.                      No:  High Pressure 
 HTEM.                      No:  High Temp 
 HYDO.m                   1.85:  Hydro Offset 
 IFIN.deg                71.58:  Inc, Final 
 IMAX.deg                71.83:  Inc Max 
 IMIN.deg                71.12:  Inc Min 
 IMND.m                5099.48:  Inc Min Depth 
 IMXD.m                5071.08:  Inc Max Depth 
 JARR.                      No:  Jarring 
 LETM.      18.25.00 19-Jan-20:  Log End Time 
 LOST.hr                     0:  Lost Rig Time 
 LSTM.      11.56.48 17-Jan-20:  Log Start Time 
 MDCL.ppm             37000.00:  Mud Chlorides 
 MDES.     Inversion Oil/Synthetic:  Mud Desc 
 DFD .sg                  1.34:  Mud Density 
 MDMN.sg                  1.34:  Dens Mud Min 
 MDMX.sg                  1.34:  Dens Mud Max 
 MOIL.                      69:  Run Mud Oil % 
 MOWR.                   69:31:  Run Mud OWR 
 MSND.                     0.1:  Run Mud Sand % 
 MSOL.                    17.6:  Run Mud Solids% 
 DFV .spqt               79.00:  Mud Viscosity 
 MWOD.in                  4.75:  MWD Tool OD 
 MWSI.                      No:  Serv Intrp, MWD 
 OTIM.hr                126.10:  Time Operating 
 PMAX.psia             6000.00:  Press Op, Max 
 PV  .cP                 29.00:  Mud PV 
 RUN .                     400:  Run Number 
 ROPA.m/hr               11.00:  ROP Avg 
 ROPN.m/hr                5.00:  ROP Min 
 ROPX.m/hr               18.00:  ROP Max 
 RPMA.rpm               139.00:  RPM Surface Avg 
 RPMN.rpm               100.00:  RPM Surface Min 
 RPMX.rpm               140.00:  RPM Surface Max 
 RRUN.                     400:  Rig Run Number 
 SAZI.deg               290.22:  Azm, Start 
 SDEP.m                4868.01:  Start Depth 
 SIDD.                      No:  Serv Intrp, DD 
 SINC.deg                71.77:  Inc, Start 
 SPPA.psig             5550.00:  SPP Avg 
 SPPN.psig             4300.00:  SPP Min 
 SPPX.psig             5600.00:  SPP Max 
 STIM.      23.45.48 15-Jan-20:  Start Time 
 SVCS.                 DD, MWD:  Services 
 SVER.                    9.20:  Sperry Version 
 TDAT.m                5161.01:  Tot Depth Attmp 
 TDDF.                      No:  Trip for DD 
 TDLG.m                 295.00:  Tot Depth Loggd 
 TFF .                      No:  Trip for Fail 
 TQAA.f-kp               13.00:  Torque Abs Avg 
 TQAN.f-kp               13.00:  Torque Abs Min 
 TQAX.f-kp               16.00:  Torque Abs Max 
 TRRT.°/30m               0.25:  Turn Rotating 
 MRT .                     ADR:  Maximum Recorded Temperature 
 TTMX.degC               88.00:  Max Tool Temp 
 VS01.                90577859:  Virtual Str1 SN 
 VS02.                90521879:  Virtual Str2 SN 
 VS03.                90580299:  Virtual Str3 SN 
 VS04.                90515982:  Virtual Str4 SN 
 VS05.                90547765:  Virtual Str5 SN 
 WBMN.klb                 2.00:  WOB Min 
 WITN.           Adil Mammadov:  Customer Rep 
 WITN.        Elmaddin Rahimov:  Customer Rep 2 
 WOBA.klb                 3.00:  WOB Avg 
 WOBX.klb                 5.00:  WOB Max 
 YP  .lhf2               30.00:  Yield Point 
~Curve Information Block
#MNEM.UNIT                 API CODE     Curve Description
#---------               -----------    ---------------------------
 TIME.HHMMSS            00 000 000 000:  GT Time & Date
 GTDEPTH.m              00 000 000 000:  GT Depth
 GTPQH.psia             00 000 000 000:  GT HR Quartz Pressure
 GTTQ.degC              00 000 000 000:  GT Quartz Temperature
 GTTN.NONE              00 000 000 000:  GT Test Number
 GTET.sec               00 000 000 000:  GT Elapsed Test Time
 GTTVD.m                00 000 000 000:  GT True Vertical Depth
#Other Information
#
#WARRANTY: Halliburton will use its best efforts to furnish customers with 
#accurate information and interpretations that are part of, and incident to, the services 
#provided.  However, Halliburton cannot and does not warrant the accuracy 
#or correctness of such information and interpretations.  Under no circumstances should any 
#such information or interpretation be relied upon as the sole basis for any drilling, 
#completion, production, or financial decision or any procedure involving any risk to the 
#safety of any drilling venture, drilling rig or its crew or any other third party.  The 
#Customer has full responsibility for all drilling, completion and production operation.  
#Halliburton makes no representations or warranties, either expressed or 
#implied, including, but not limited to, the implied warranties of merchantability or fitness 
#for a particular purpose, with respect to the services rendered.  In no event will 
#Halliburton be liable for failure to obtain any particular results or for 
#any damages, including, but not limited to, indirect, special or consequential damages, 
#resulting from the use of any information or interpretation provided by Halliburton.
#
~A           TIME           GTDEPTH  GTPQH  GTTQ  GTTN  GTET   GTTVD  
# ...
   14:12:08.708.19-Jan-2020 5113.51 4117.13 81.41 6.00 391.08 2879.41
   14:12:08.908.19-Jan-2020 5113.51 4117.13 81.41 6.00 391.28 2879.41
   14:12:09.108.19-Jan-2020 5113.51 4117.15 81.41 6.00 391.48 2879.41
   14:12:09.308.19-Jan-2020 5113.51 4117.14 81.41 6.00 391.68 2879.41
   14:12:09.508.19-Jan-2020 5113.51 4117.15 81.41 6.00 391.88 2879.41
   14:12:09.708.19-Jan-2020 5113.51 4117.13 81.41 6.00 392.08 2879.41
   14:12:09.908.19-Jan-2020 5113.51 4117.13 81.41 6.00 392.28 2879.41
   14:12:10.108.19-Jan-2020 5113.51 4117.12 81.41 6.00 392.48 2879.41
   14:12:10.308.19-Jan-2020 5113.51 4117.13 81.41 6.00 392.68 2879.41
   14:12:10.508.19-Jan-2020 5113.51 4117.13 81.41 6.00 392.88 2879.41
   14:12:10.708.19-Jan-2020 5113.51 4117.14 81.41 6.00 393.08 2879.41
   14:12:10.908.19-Jan-2020 5113.51 4117.14 81.41 6.00 393.28 2879.41
   14:12:11.108.19-Jan-2020 5113.51 4117.13 81.41 6.00 393.48 2879.41
   14:12:11.308.19-Jan-2020 5113.51 4117.12 81.41 6.00 393.68 2879.41
   14:12:11.508.19-Jan-2020 5113.51 4117.02 81.41 6.00 393.88 2879.41
   14:12:11.708.19-Jan-2020 5113.51 4117.18 81.41 6.00 394.08 2879.41
   14:12:11.908.19-Jan-2020 5113.51 4117.18 81.41 6.00 394.28 2879.41
   14:12:12.108.19-Jan-2020 5113.51 4117.15 81.41 6.00 394.48 2879.41
   14:12:12.308.19-Jan-2020 5113.51 4117.04 81.41 6.00 394.68 2879.41
   14:12:12.508.19-Jan-2020 5113.51 4117.21 81.41 6.00 394.88 2879.41
   14:12:12.708.19-Jan-2020 5113.51 4117.14 81.41 6.00 395.08 2879.41
   14:12:12.909.19-Jan-2020 5113.51 4117.14 81.41 6.00 395.28 2879.41
   14:12:13.109.19-Jan-2020 5113.51 4117.15 81.41 6.00 395.48 2879.41
   14:12:13.309.19-Jan-2020 5113.51 4117.17 81.41 6.00 395.68 2879.41
   14:12:13.509.19-Jan-2020 5113.51 4116.97 81.41 6.00 395.88 2879.41
   14:12:13.709.19-Jan-2020 5113.51 4117.26 81.41 6.00 396.08 2879.41
   14:12:13.909.19-Jan-2020 5113.51 4117.26 81.41 6.00 396.28 2879.41
   14:12:14.109.19-Jan-2020 5113.51 4117.14 81.41 6.00 396.48 2879.41
   14:12:14.309.19-Jan-2020 5113.51 4117.18 81.41 6.00 396.68 2879.41
   14:12:14.509.19-Jan-2020 5113.51 4117.05 81.41 6.00 396.88 2879.41
   14:12:14.709.19-Jan-2020 5113.51 4117.21 81.40 6.00 397.08 2879.41
   14:12:14.909.19-Jan-2020 5113.51 4117.21 81.40 6.00 397.28 2879.41
   14:12:15.109.19-Jan-2020 5113.51 4117.17 81.40 6.00 397.48 2879.41
   14:12:15.309.19-Jan-2020 5113.51 4117.16 81.40 6.00 397.68 2879.41
   14:12:15.509.19-Jan-2020 5113.51 4117.18 81.40 6.00 397.88 2879.41
   14:12:15.709.19-Jan-2020 5113.51 4117.17 81.40 6.00 398.08 2879.41
   14:12:15.909.19-Jan-2020 5113.51 4117.17 81.40 6.00 398.28 2879.41
   14:12:16.109.19-Jan-2020 5113.51 4117.15 81.40 6.00 398.48 2879.41
   14:12:16.309.19-Jan-2020 5113.51 4117.16 81.40 6.00 398.68 2879.41
   14:12:16.509.19-Jan-2020 5113.51 4117.15 81.40 6.00 398.88 2879.41
   14:12:16.709.19-Jan-2020 5113.51 4117.15 81.40 6.00 399.08 2879.41
   14:12:16.909.19-Jan-2020 5113.51 4117.15 81.40 6.00 399.28 2879.41
   14:12:17.109.19-Jan-2020 5113.51 4117.15 81.40 6.00 399.48 2879.41
   14:12:17.309.19-Jan-2020 5113.51 4117.14 81.40 6.00 399.68 2879.41
   14:12:17.509.19-Jan-2020 5113.51 4117.15 81.40 6.00 399.88 2879.41
   14:12:17.710.19-Jan-2020 5113.51 4117.04 81.40 6.00 400.08 2879.41
   14:12:17.910.19-Jan-2020 5113.51 4117.04 81.40 6.00 400.28 2879.41
   14:12:18.110.19-Jan-2020 5113.51 4117.15 81.40 6.00 400.48 2879.41
   14:12:18.310.19-Jan-2020 5113.51 4117.14 81.40 6.00 400.68 2879.41
   14:12:18.510.19-Jan-2020 5113.51 4117.17 81.40 6.00 400.88 2879.41
   14:12:18.710.19-Jan-2020 5113.51 4117.16 81.40 6.00 401.08 2879.41
   14:12:18.910.19-Jan-2020 5113.51 4117.16 81.40 6.00 401.28 2879.41
   14:12:19.110.19-Jan-2020 5113.51 4117.16 81.40 6.00 401.48 2879.41
   14:12:19.310.19-Jan-2020 5113.51 4117.15 81.40 6.00 401.68 2879.41
   14:12:19.510.19-Jan-2020 5113.51 4117.16 81.40 6.00 401.88 2879.41
   14:12:19.710.19-Jan-2020 5113.51 4117.14 81.40 6.00 402.08 2879.41
   14:12:19.910.19-Jan-2020 5113.51 4117.14 81.40 6.00 402.28 2879.41
   14:12:20.110.19-Jan-2020 5113.51 4117.15 81.40 6.00 402.48 2879.41
   14:12:20.310.19-Jan-2020 5113.51 4117.16 81.40 6.00 402.68 2879.41
   14:12:20.510.19-Jan-2020 5113.51 4117.14 81.40 6.00 402.88 2879.41
   14:12:20.710.19-Jan-2020 5113.51 4117.14 81.40 6.00 403.08 2879.41
   14:12:20.910.19-Jan-2020 5113.51 4117.14 81.40 6.00 403.28 2879.41
   14:12:21.110.19-Jan-2020 5113.51 4117.04 81.40 6.00 403.48 2879.41
   14:12:21.310.19-Jan-2020 5113.51 4117.19 81.40 6.00 403.68 2879.41
   14:12:21.510.19-Jan-2020 5113.51 4117.14 81.40 6.00 403.88 2879.41
   14:12:21.710.19-Jan-2020 5113.51 4117.16 81.40 6.00 404.08 2879.41
   14:12:21.910.19-Jan-2020 5113.51 4117.16 81.40 6.00 404.28 2879.41
   14:12:22.110.19-Jan-2020 5113.51 4117.22 81.40 6.00 404.48 2879.41
   14:12:22.310.19-Jan-2020 5113.51 4117.15 81.40 6.00 404.68 2879.41
   14:12:22.510.19-Jan-2020 5113.51 4117.16 81.40 6.00 404.88 2879.41
   14:12:22.711.19-Jan-2020 5113.51 4117.16 81.40 6.00 405.08 2879.41
   14:12:22.911.19-Jan-2020 5113.51 4117.16 81.40 6.00 405.28 2879.41
   14:12:23.111.19-Jan-2020 5113.51 4116.97 81.39 6.00 405.48 2879.41
   14:12:23.311.19-Jan-2020 5113.51 4117.29 81.39 6.00 405.68 2879.41
   14:12:23.511.19-Jan-2020 5113.51 4117.18 81.39 6.00 405.88 2879.41
   14:12:23.711.19-Jan-2020 5113.51 4117.15 81.39 6.00 406.08 2879.41
   14:12:23.911.19-Jan-2020 5113.51 4117.15 81.39 6.00 406.28 2879.41
   14:12:24.111.19-Jan-2020 5113.51 4117.05 81.39 6.00 406.48 2879.41
   14:12:24.311.19-Jan-2020 5113.51 4117.22 81.39 6.00 406.68 2879.41
   14:12:24.511.19-Jan-2020 5113.51 4117.15 81.39 6.00 406.88 2879.41
   14:12:24.711.19-Jan-2020 5113.51 4117.18 81.39 6.00 407.08 2879.41
   14:12:24.911.19-Jan-2020 5113.51 4117.18 81.39 6.00 407.28 2879.41
   14:12:25.111.19-Jan-2020 5113.51 4117.18 81.39 6.00 407.48 2879.41
   14:12:25.311.19-Jan-2020 5113.51 4117.19 81.39 6.00 407.68 2879.41
   14:12:25.511.19-Jan-2020 5113.51 4117.16 81.39 6.00 407.88 2879.41
   14:12:25.711.19-Jan-2020 5113.51 4117.17 81.39 6.00 408.08 2879.41
   14:12:25.911.19-Jan-2020 5113.51 4117.17 81.39 6.00 408.28 2879.41
   14:12:26.111.19-Jan-2020 5113.51 4117.17 81.39 6.00 408.48 2879.41
   14:12:26.311.19-Jan-2020 5113.51 4117.17 81.39 6.00 408.68 2879.41
   14:12:26.511.19-Jan-2020 5113.51 4117.16 81.39 6.00 408.88 2879.41
   14:12:26.711.19-Jan-2020 5113.51 4117.16 81.39 6.00 409.08 2879.41
   14:12:26.911.19-Jan-2020 5113.51 4117.16 81.39 6.00 409.28 2879.41
   14:12:27.111.19-Jan-2020 5113.51 4117.16 81.39 6.00 409.48 2879.41
   14:12:27.311.19-Jan-2020 5113.51 4117.06 81.39 6.00 409.68 2879.41
   14:12:27.512.19-Jan-2020 5113.51 4117.22 81.39 6.00 409.88 2879.41
   14:12:27.712.19-Jan-2020 5113.51 4117.18 81.39 6.00 410.08 2879.41
   14:12:27.912.19-Jan-2020 5113.51 4117.18 81.39 6.00 410.28 2879.41
   14:12:28.112.19-Jan-2020 5113.51 4117.19 81.39 6.00 410.48 2879.41
   14:12:28.312.19-Jan-2020 5113.51 4117.20 81.39 6.00 410.68 2879.41
   14:12:28.512.19-Jan-2020 5113.51 4117.18 81.39 6.00 410.88 2879.41
   14:12:28.712.19-Jan-2020 5113.51 4117.18 81.39 6.00 411.08 2879.41
   14:12:28.912.19-Jan-2020 5113.51 4117.18 81.39 6.00 411.28 2879.41
   14:12:29.112.19-Jan-2020 5113.51 4117.18 81.39 6.00 411.48 2879.41
   14:12:29.312.19-Jan-2020 5113.51 4117.16 81.39 6.00 411.68 2879.41
   14:12:29.512.19-Jan-2020 5113.51 4117.18 81.39 6.00 411.88 2879.41
   14:12:29.712.19-Jan-2020 5113.51 4117.16 81.39 6.00 412.08 2879.41
   14:12:29.912.19-Jan-2020 5113.51 4117.16 81.39 6.00 412.28 2879.41
   14:12:30.112.19-Jan-2020 5113.51 4117.16 81.39 6.00 412.48 2879.41
   14:12:30.312.19-Jan-2020 5113.51 4117.17 81.39 6.00 412.68 2879.41
   14:12:30.512.19-Jan-2020 5113.51 4117.16 81.39 6.00 412.88 2879.41
   14:12:30.712.19-Jan-2020 5113.51 4117.06 81.39 6.00 413.08 2879.41
   14:12:30.912.19-Jan-2020 5113.51 4117.06 81.39 6.00 413.28 2879.41
   14:12:31.112.19-Jan-2020 5113.51 4117.16 81.39 6.00 413.48 2879.41
   14:12:31.312.19-Jan-2020 5113.51 4117.17 81.39 6.00 413.68 2879.41
   14:12:31.512.19-Jan-2020 5113.51 4117.08 81.38 6.00 413.89 2879.41
