~Version Information
 VERS.                  2.0:   CWLS log ASCII Standard -VERSION 2.0
 WRAP.                   NO:   One line per depth step
~Well Information Block
#MNEM.UNIT     VALUE/NAME     DESCRIPTION
#---------     -----------    ---------------------------
 STRT.S             14:05:37 19-Jan-20: START TIME 14:05:37 19-Jan-20
 STOP.S             14:13:29 19-Jan-20: STOP TIME  14:13:29 19-Jan-20
 STEP.S                   0.00: STEP TIME
 NULL.                 -999.25: NULL VALUE
 DFWT.                        :  DIST FWL TEXT
 DFST.                        :  DIST FSL TEXT
 DMF .             Drill Floor:  DRILL MEAS FROM
 STIM.      17.57.20 21-Dec-19:  START TIME
 DATE.      17.57.20 21-Dec-19:  END TIME
 SPUD.               21-Dec-19:  SPUD DATE
 NREF.                    Grid:  NORTH REFERENCE
 HPTY.       Minimum Curvature:  HOLE POS TYPE
 DMOD.             Drill Model:  DRILL MOD DESC
 SVYD.                  Survey:  SURVEY DESC
 ILTD.               Lithology:  INTERP LTH DESC
 FTOP.          Formation Tops:  FORM TOPS DESC
 PDAT.          Mean Sea Level:  PERMANENT DATUM
 FLD .                     ACG:  FIELD NAME
 SON .        AZ-XX-0905715376:  JOB NUMBER
 CTRY.              Azerbaijan:  COUNTRY NAME
 WELL.                    E04Y:  WELL NAME
 SRVC.          TURAN DRILLING:  CONTRACTOR
 COMP.     BP Exploration (Caspian Sea) Ltd.:  COMPANY
 WTYP.                Deviated:  WELL TYPE
 UWI .                     N/a:  UNIQUE WELL IDENTIFIER
 API .                     N/a:  API NUMBER
 BASE.              Azerbaijan:  LOGGING EQUIPMENT BASE LOCATION
 REGN.                   EESSA:  REGION
 MWDS.                    Baku:  MWD SHOP
 RIG .                     DWG:  RIG NAME
 DOE .                     N/a:  DOE NUMBER
 CNTY.                    Baku:  COUNTY NAME
 DCON.         Sperry Drilling:  DIRECTNL CONTR
 UNIT.                     N/a:  LOGGING EQUIPMENT ID
 MDS .        Operator Entered:  MAG DATA SOURCE
 PROV.                        :  PROVINCE
 STAT.                        :  STATE
 LOC .                        :  LOCATION
 LMF .             Drill Floor:  LOG MEASURED FROM
 TVDS.m                  43.16:  TVDSS CORRECTN
 LATI.deg                40.17:  LATITUDE
 LONG.deg                51.17:  LONGITUDE
 WHNS.m                  -0.12:  WELL HEAD N/S
 WHEW.m                  -5.41:  WELL HEAD E/W
 UTMX.m              514337.95:  UTM X
 UTMY.m             4448627.46:  UTM Y
 DFWL.m                   0.00:  DISTANCE FWL
 DFSL.m                   0.00:  DISTANCE FSL
 SDEP.m                   0.00:  START DEPTH
 TDD .m                   0.00:  TOTAL DEPTH (DRILLER)
 VSDR.deg               235.12:  VERT SEC DIRECT
 GVFD.g                   1.00:  GRAVITY FIELD
 MFLD.nT              50294.00:  MAGNETIC FIELD
 MDIP.deg                59.61:  MAGNETIC DIP
 MDEC.deg                 6.58:  MAGNETIC DECL
 GRDC.deg                 0.09:  GRID CORRECTION
 AZTC.deg                 6.49:  AZM TOTAL CORR
 EPD .m                   0.00:  ELEVATION
 EGL .m                   0.00:  GROUND ELEVATION
 WDMS.m                 176.20:  WD ELEV
 APD .m                  43.16:  DEPTH ABOVE PD
 DEP .m                3172.61:  DEPTH
 AGAP.m                  43.16:  AIR GAP
 VSEW.m                  -5.41:  VERT SEC E/W
 VSNS.m                  -0.12:  VERT SEC N/S
 EKB .m                  43.16:  KB ELEVATION
 EDF .m                  43.16:  DF ELEVATION
 TDL .m                 295.00:  TOTAL DEPTH (LOGGER)
 VSC .                       0:  VS TO CLOSURE
 MAGU.                 1852276:  MAGUTM CHECKSUM
~Parameter Information Block
#MNEM.UNIT       Value        Description
#---------     -----------    ---------------------------
 AV  .mps                 1.60:  Ann Velocity 
 AVMX.mps                 2.10:  Max Ann Veloc 
 AZIF.deg               290.59:  Azm, Final 
 BHAT.        Rotary Steerable:  BHA Type 
 BROT.°/30m               1.00:  Build Rotating 
 BS  .in                  6.50:  Bit Size 
 BSZ .in                  6.50:  Bit Size 
 BTPL.psig              120.00:  Bit Press Loss 
 CABU.                     Yes:  Customer Abuse 
 CGEO.          Eldar Huseynov:  Customer Geo 
 COMM.                     Tì‚:  Run Comments 1 
 TCS .hr                 87.00:  Time Ciculation Ended 
 CV  .mps                 4.01:  Crit Velocity 
 CVMX.mps                 5.06:  Max Crit Veloc 
 DD1 .             Aziz Aliyev:  Direct Drillr 1 
 DD2 .            Sanan Aliyev:  Direct Drillr 2 
 DDSV.               Geo-Pilot:  DD Service 
 DEFF.%                  95.00:  % Det Eff 
 DLRX.°/30m               0.75:  Dogleg Rot Max 
 DLSO.°/30m               0.65:  Dogleg Oriented 
 DLSX.°/30m               1.39:  Dogleg Str Max 
 DRET.      18.25.00 19-Jan-20:  Drill End Time 
 DRST.      11.56.48 17-Jan-20:  Drill Start Tim 
 DTIM.hr                 27.16:  Time Drilling 
 EDEP.m                5161.01:  End Depth 
 ENG1.          Rasim Hashimov:  Engineer 1 
 ENG2.      Bakhtiyar Jabbarli:  Engineer 2 
 ETIM.      11.56.48 21-Jan-20:  End Time 
 FLOI.gpm               350.00:  Flow In 
 FLON.gpm               300.00:  Flow In Min 
 FLOS.cptm                0.00:  Fluid Loss 
 FLOX.gpm               400.00:  Flow In Max 
 HFLO.                      No:  High Flow 
 HPRE.                      No:  High Pressure 
 HTEM.                      No:  High Temp 
 HYDO.m                   1.85:  Hydro Offset 
 IFIN.deg                71.58:  Inc, Final 
 IMAX.deg                71.83:  Inc Max 
 IMIN.deg                71.12:  Inc Min 
 IMND.m                5099.48:  Inc Min Depth 
 IMXD.m                5071.08:  Inc Max Depth 
 JARR.                      No:  Jarring 
 LETM.      18.25.00 19-Jan-20:  Log End Time 
 LOST.hr                     0:  Lost Rig Time 
 LSTM.      11.56.48 17-Jan-20:  Log Start Time 
 MDCL.ppm             37000.00:  Mud Chlorides 
 MDES.     Inversion Oil/Synthetic:  Mud Desc 
 DFD .sg                  1.34:  Mud Density 
 MDMN.sg                  1.34:  Dens Mud Min 
 MDMX.sg                  1.34:  Dens Mud Max 
 MOIL.                      69:  Run Mud Oil % 
 MOWR.                   69:31:  Run Mud OWR 
 MSND.                     0.1:  Run Mud Sand % 
 MSOL.                    17.6:  Run Mud Solids% 
 DFV .spqt               79.00:  Mud Viscosity 
 MWOD.in                  4.75:  MWD Tool OD 
 MWSI.                      No:  Serv Intrp, MWD 
 OTIM.hr                126.10:  Time Operating 
 PMAX.psia             6000.00:  Press Op, Max 
 PV  .cP                 29.00:  Mud PV 
 RUN .                     400:  Run Number 
 ROPA.m/hr               11.00:  ROP Avg 
 ROPN.m/hr                5.00:  ROP Min 
 ROPX.m/hr               18.00:  ROP Max 
 RPMA.rpm               139.00:  RPM Surface Avg 
 RPMN.rpm               100.00:  RPM Surface Min 
 RPMX.rpm               140.00:  RPM Surface Max 
 RRUN.                     400:  Rig Run Number 
 SAZI.deg               290.22:  Azm, Start 
 SDEP.m                4868.01:  Start Depth 
 SIDD.                      No:  Serv Intrp, DD 
 SINC.deg                71.77:  Inc, Start 
 SPPA.psig             5550.00:  SPP Avg 
 SPPN.psig             4300.00:  SPP Min 
 SPPX.psig             5600.00:  SPP Max 
 STIM.      23.45.48 15-Jan-20:  Start Time 
 SVCS.                 DD, MWD:  Services 
 SVER.                    9.20:  Sperry Version 
 TDAT.m                5161.01:  Tot Depth Attmp 
 TDDF.                      No:  Trip for DD 
 TDLG.m                 295.00:  Tot Depth Loggd 
 TFF .                      No:  Trip for Fail 
 TQAA.f-kp               13.00:  Torque Abs Avg 
 TQAN.f-kp               13.00:  Torque Abs Min 
 TQAX.f-kp               16.00:  Torque Abs Max 
 TRRT.°/30m               0.25:  Turn Rotating 
 MRT .                     ADR:  Maximum Recorded Temperature 
 TTMX.degC               88.00:  Max Tool Temp 
 VS01.                90577859:  Virtual Str1 SN 
 VS02.                90521879:  Virtual Str2 SN 
 VS03.                90580299:  Virtual Str3 SN 
 VS04.                90515982:  Virtual Str4 SN 
 VS05.                90547765:  Virtual Str5 SN 
 WBMN.klb                 2.00:  WOB Min 
 WITN.           Adil Mammadov:  Customer Rep 
 WITN.        Elmaddin Rahimov:  Customer Rep 2 
 WOBA.klb                 3.00:  WOB Avg 
 WOBX.klb                 5.00:  WOB Max 
 YP  .lhf2               30.00:  Yield Point 
~Curve Information Block
#MNEM.UNIT                 API CODE     Curve Description
#---------               -----------    ---------------------------
 TIME.HHMMSS            00 000 000 000:  GT Time & Date
 GTDEPTH.m              00 000 000 000:  GT Depth
 GTPQH.psia             00 000 000 000:  GT HR Quartz Pressure
 GTTQ.degC              00 000 000 000:  GT Quartz Temperature
 GTTN.NONE              00 000 000 000:  GT Test Number
 GTET.sec               00 000 000 000:  GT Elapsed Test Time
 GTTVD.m                00 000 000 000:  GT True Vertical Depth
#Other Information
#
#WARRANTY: Halliburton will use its best efforts to furnish customers with 
#accurate information and interpretations that are part of, and incident to, the services 
#provided.  However, Halliburton cannot and does not warrant the accuracy 
#or correctness of such information and interpretations.  Under no circumstances should any 
#such information or interpretation be relied upon as the sole basis for any drilling, 
#completion, production, or financial decision or any procedure involving any risk to the 
#safety of any drilling venture, drilling rig or its crew or any other third party.  The 
#Customer has full responsibility for all drilling, completion and production operation.  
#Halliburton makes no representations or warranties, either expressed or 
#implied, including, but not limited to, the implied warranties of merchantability or fitness 
#for a particular purpose, with respect to the services rendered.  In no event will 
#Halliburton be liable for failure to obtain any particular results or for 
#any damages, including, but not limited to, indirect, special or consequential damages, 
#resulting from the use of any information or interpretation provided by Halliburton.
#
~A           TIME           GTDEPTH  GTPQH  GTTQ  GTTN  GTET   GTTVD  
# ...
   14:10:36.689.19-Jan-2020 5113.51 4116.90 81.52 6.00 299.06 2879.41
   14:10:36.889.19-Jan-2020 5113.51 4116.90 81.52 6.00 299.26 2879.41
   14:10:37.089.19-Jan-2020 5113.51 4117.06 81.52 6.00 299.46 2879.41
   14:10:37.289.19-Jan-2020 5113.51 4117.04 81.52 6.00 299.66 2879.41
   14:10:37.489.19-Jan-2020 5113.51 4117.07 81.52 6.00 299.86 2879.41
   14:10:37.689.19-Jan-2020 5113.51 4117.06 81.52 6.00 300.06 2879.41
   14:10:37.889.19-Jan-2020 5113.51 4117.06 81.52 6.00 300.26 2879.41
   14:10:38.089.19-Jan-2020 5113.51 4116.91 81.52 6.00 300.46 2879.41
   14:10:38.289.19-Jan-2020 5113.51 4117.07 81.52 6.00 300.66 2879.41
   14:10:38.489.19-Jan-2020 5113.51 4117.04 81.52 6.00 300.86 2879.41
   14:10:38.689.19-Jan-2020 5113.51 4117.08 81.52 6.00 301.06 2879.41
   14:10:38.889.19-Jan-2020 5113.51 4117.08 81.52 6.00 301.26 2879.41
   14:10:39.089.19-Jan-2020 5113.51 4105.17 81.52 6.00 301.46 2879.41
   14:10:39.289.19-Jan-2020 5113.51 4105.33 81.52 6.00 301.66 2879.41
   14:10:39.489.19-Jan-2020 5113.51 4104.89 81.52 6.00 301.86 2879.41
   14:10:39.689.19-Jan-2020 5113.51 4105.05 81.52 6.00 302.06 2879.41
   14:10:39.889.19-Jan-2020 5113.51 4105.05 81.52 6.00 302.26 2879.41
   14:10:40.089.19-Jan-2020 5113.51 4105.09 81.52 6.00 302.46 2879.41
   14:10:40.289.19-Jan-2020 5113.51 4104.86 81.52 6.00 302.66 2879.41
   14:10:40.490.19-Jan-2020 5113.51 4104.70 81.52 6.00 302.86 2879.41
   14:10:40.690.19-Jan-2020 5113.51 4104.98 81.52 6.00 303.06 2879.41
   14:10:40.890.19-Jan-2020 5113.51 4104.98 81.52 6.00 303.26 2879.41
   14:10:41.090.19-Jan-2020 5113.51 4104.84 81.52 6.00 303.46 2879.41
   14:10:41.290.19-Jan-2020 5113.51 4104.71 81.52 6.00 303.66 2879.41
   14:10:41.490.19-Jan-2020 5113.51 4104.52 81.52 6.00 303.86 2879.41
   14:10:41.690.19-Jan-2020 5113.51 4104.71 81.51 6.00 304.06 2879.41
   14:10:41.890.19-Jan-2020 5113.51 4104.71 81.51 6.00 304.26 2879.41
   14:10:42.090.19-Jan-2020 5113.51 4104.51 81.51 6.00 304.46 2879.41
   14:10:42.290.19-Jan-2020 5113.51 4105.01 81.51 6.00 304.66 2879.41
   14:10:42.490.19-Jan-2020 5113.51 4104.69 81.51 6.00 304.86 2879.41
   14:10:42.690.19-Jan-2020 5113.51 4104.53 81.51 6.00 305.06 2879.41
   14:10:42.890.19-Jan-2020 5113.51 4104.53 81.51 6.00 305.26 2879.41
   14:10:43.090.19-Jan-2020 5113.51 4104.76 81.51 6.00 305.46 2879.41
   14:10:43.290.19-Jan-2020 5113.51 4104.75 81.51 6.00 305.66 2879.41
   14:10:43.490.19-Jan-2020 5113.51 4104.88 81.51 6.00 305.86 2879.41
   14:10:43.690.19-Jan-2020 5113.51 4105.02 81.51 6.00 306.06 2879.41
   14:10:43.890.19-Jan-2020 5113.51 4105.02 81.51 6.00 306.26 2879.41
   14:10:44.090.19-Jan-2020 5113.51 4104.40 81.51 6.00 306.46 2879.41
   14:10:44.290.19-Jan-2020 5113.51 4104.57 81.51 6.00 306.66 2879.41
   14:10:44.490.19-Jan-2020 5113.51 4104.89 81.51 6.00 306.86 2879.41
   14:10:44.690.19-Jan-2020 5113.51 4104.90 81.51 6.00 307.06 2879.41
   14:10:44.890.19-Jan-2020 5113.51 4104.90 81.51 6.00 307.26 2879.41
   14:10:45.090.19-Jan-2020 5113.51 4104.60 81.51 6.00 307.46 2879.41
   14:10:45.291.19-Jan-2020 5113.51 4104.56 81.51 6.00 307.66 2879.41
   14:10:45.491.19-Jan-2020 5113.51 4104.21 81.51 6.00 307.86 2879.41
   14:10:45.691.19-Jan-2020 5113.51 4105.03 81.51 6.00 308.06 2879.41
   14:10:45.891.19-Jan-2020 5113.51 4105.03 81.51 6.00 308.26 2879.41
   14:10:46.091.19-Jan-2020 5113.51 4104.46 81.51 6.00 308.46 2879.41
   14:10:46.291.19-Jan-2020 5113.51 4104.41 81.51 6.00 308.66 2879.41
   14:10:46.491.19-Jan-2020 5113.51 4105.00 81.51 6.00 308.86 2879.41
   14:10:46.691.19-Jan-2020 5113.51 4105.01 81.51 6.00 309.06 2879.41
   14:10:46.891.19-Jan-2020 5113.51 4105.01 81.51 6.00 309.26 2879.41
   14:10:47.091.19-Jan-2020 5113.51 4104.50 81.51 6.00 309.46 2879.41
   14:10:47.291.19-Jan-2020 5113.51 4104.48 81.51 6.00 309.66 2879.41
   14:10:47.491.19-Jan-2020 5113.51 4104.22 81.51 6.00 309.86 2879.41
   14:10:47.691.19-Jan-2020 5113.51 4105.07 81.51 6.00 310.06 2879.41
   14:10:47.891.19-Jan-2020 5113.51 4105.07 81.51 6.00 310.26 2879.41
   14:10:48.091.19-Jan-2020 5113.51 4104.58 81.51 6.00 310.46 2879.41
   14:10:48.291.19-Jan-2020 5113.51 4104.94 81.51 6.00 310.66 2879.41
   14:10:48.491.19-Jan-2020 5113.51 4104.05 81.51 6.00 310.86 2879.41
   14:10:48.691.19-Jan-2020 5113.51 4104.66 81.51 6.00 311.06 2879.41
   14:10:48.891.19-Jan-2020 5113.51 4104.66 81.51 6.00 311.26 2879.41
   14:10:49.091.19-Jan-2020 5113.51 4111.93 81.51 6.00 311.46 2879.41
   14:10:49.291.19-Jan-2020 5113.51 4116.50 81.51 6.00 311.66 2879.41
   14:10:49.491.19-Jan-2020 5113.51 4116.56 81.51 6.00 311.86 2879.41
   14:10:49.691.19-Jan-2020 5113.51 4116.61 81.51 6.00 312.06 2879.41
   14:10:49.891.19-Jan-2020 5113.51 4116.61 81.51 6.00 312.26 2879.41
   14:10:50.092.19-Jan-2020 5113.51 4116.66 81.50 6.00 312.46 2879.41
   14:10:50.292.19-Jan-2020 5113.51 4116.71 81.50 6.00 312.66 2879.41
   14:10:50.492.19-Jan-2020 5113.51 4116.70 81.50 6.00 312.86 2879.41
   14:10:50.692.19-Jan-2020 5113.51 4116.74 81.50 6.00 313.06 2879.41
   14:10:50.892.19-Jan-2020 5113.51 4116.74 81.50 6.00 313.26 2879.41
   14:10:51.092.19-Jan-2020 5113.51 4116.76 81.50 6.00 313.46 2879.41
   14:10:51.292.19-Jan-2020 5113.51 4116.76 81.50 6.00 313.66 2879.41
   14:10:51.492.19-Jan-2020 5113.51 4116.79 81.50 6.00 313.86 2879.41
   14:10:51.692.19-Jan-2020 5113.51 4116.64 81.50 6.00 314.06 2879.41
   14:10:51.892.19-Jan-2020 5113.51 4116.64 81.50 6.00 314.26 2879.41
   14:10:52.092.19-Jan-2020 5113.51 4116.89 81.50 6.00 314.46 2879.41
   14:10:52.292.19-Jan-2020 5113.51 4116.88 81.50 6.00 314.66 2879.41
   14:10:52.492.19-Jan-2020 5113.51 4116.93 81.50 6.00 314.86 2879.41
   14:10:52.692.19-Jan-2020 5113.51 4116.90 81.50 6.00 315.06 2879.41
   14:10:52.892.19-Jan-2020 5113.51 4116.90 81.50 6.00 315.26 2879.41
   14:10:53.092.19-Jan-2020 5113.51 4116.91 81.50 6.00 315.46 2879.41
   14:10:53.292.19-Jan-2020 5113.51 4116.92 81.50 6.00 315.66 2879.41
   14:10:53.492.19-Jan-2020 5113.51 4116.91 81.50 6.00 315.86 2879.41
   14:10:53.692.19-Jan-2020 5113.51 4116.93 81.50 6.00 316.06 2879.41
   14:10:53.892.19-Jan-2020 5113.51 4116.93 81.50 6.00 316.26 2879.41
   14:10:54.092.19-Jan-2020 5113.51 4116.93 81.50 6.00 316.47 2879.41
   14:10:54.292.19-Jan-2020 5113.51 4116.92 81.50 6.00 316.67 2879.41
   14:10:54.492.19-Jan-2020 5113.51 4116.93 81.50 6.00 316.87 2879.41
   14:10:54.692.19-Jan-2020 5113.51 4116.93 81.50 6.00 317.07 2879.41
   14:10:54.892.19-Jan-2020 5113.51 4116.93 81.50 6.00 317.27 2879.41
   14:10:55.093.19-Jan-2020 5113.51 4116.76 81.50 6.00 317.47 2879.41
   14:10:55.293.19-Jan-2020 5113.51 4117.06 81.50 6.00 317.67 2879.41
   14:10:55.493.19-Jan-2020 5113.51 4116.98 81.50 6.00 317.87 2879.41
   14:10:55.693.19-Jan-2020 5113.51 4116.95 81.50 6.00 318.07 2879.41
   14:10:55.893.19-Jan-2020 5113.51 4116.95 81.50 6.00 318.27 2879.41
   14:10:56.093.19-Jan-2020 5113.51 4116.91 81.50 6.00 318.47 2879.41
   14:10:56.293.19-Jan-2020 5113.51 4117.01 81.50 6.00 318.67 2879.41
   14:10:56.493.19-Jan-2020 5113.51 4117.00 81.50 6.00 318.87 2879.41
   14:10:56.693.19-Jan-2020 5113.51 4116.98 81.50 6.00 319.07 2879.41
   14:10:56.893.19-Jan-2020 5113.51 4116.98 81.50 6.00 319.27 2879.41
   14:10:57.093.19-Jan-2020 5113.51 4117.08 81.50 6.00 319.47 2879.41
   14:10:57.293.19-Jan-2020 5113.51 4117.02 81.50 6.00 319.67 2879.41
   14:10:57.493.19-Jan-2020 5113.51 4116.97 81.50 6.00 319.87 2879.41
   14:10:57.693.19-Jan-2020 5113.51 4116.87 81.50 6.00 320.07 2879.41
   14:10:57.893.19-Jan-2020 5113.51 4116.87 81.50 6.00 320.27 2879.41
   14:10:58.093.19-Jan-2020 5113.51 4117.02 81.50 6.00 320.47 2879.41
   14:10:58.293.19-Jan-2020 5113.51 4116.98 81.50 6.00 320.67 2879.41
   14:10:58.493.19-Jan-2020 5113.51 4117.06 81.49 6.00 320.87 2879.41
   14:10:58.693.19-Jan-2020 5113.51 4117.00 81.49 6.00 321.07 2879.41
   14:10:58.893.19-Jan-2020 5113.51 4117.00 81.49 6.00 321.27 2879.41
   14:10:59.093.19-Jan-2020 5113.51 4117.01 81.49 6.00 321.47 2879.41
   14:10:59.293.19-Jan-2020 5113.51 4117.02 81.49 6.00 321.67 2879.41
   14:10:59.493.19-Jan-2020 5113.51 4117.02 81.49 6.00 321.87 2879.41
