~Version Information
 VERS.                  2.0:   CWLS log ASCII Standard -VERSION 2.0
 WRAP.                   NO:   One line per depth step
~Well Information Block
#MNEM.UNIT     VALUE/NAME     DESCRIPTION
#---------     -----------    ---------------------------
 STRT.S             19:23:23 18-Jan-20: START TIME 19:23:23 18-Jan-20
 STOP.S             19:31:15 18-Jan-20: STOP TIME  19:31:15 18-Jan-20
 STEP.S                   0.00: STEP TIME
 NULL.                 -999.25: NULL VALUE
 DFWT.                        :  DIST FWL TEXT
 DFST.                        :  DIST FSL TEXT
 DMF .             Drill Floor:  DRILL MEAS FROM
 STIM.      17.57.20 21-Dec-19:  START TIME
 DATE.      17.57.20 21-Dec-19:  END TIME
 SPUD.               21-Dec-19:  SPUD DATE
 NREF.                    Grid:  NORTH REFERENCE
 HPTY.       Minimum Curvature:  HOLE POS TYPE
 DMOD.             Drill Model:  DRILL MOD DESC
 SVYD.                  Survey:  SURVEY DESC
 ILTD.               Lithology:  INTERP LTH DESC
 FTOP.          Formation Tops:  FORM TOPS DESC
 PDAT.          Mean Sea Level:  PERMANENT DATUM
 FLD .                     ACG:  FIELD NAME
 SON .        AZ-XX-0905715376:  JOB NUMBER
 CTRY.              Azerbaijan:  COUNTRY NAME
 WELL.                    E04Y:  WELL NAME
 SRVC.          TURAN DRILLING:  CONTRACTOR
 COMP.     BP Exploration (Caspian Sea) Ltd.:  COMPANY
 WTYP.                Deviated:  WELL TYPE
 UWI .                     N/a:  UNIQUE WELL IDENTIFIER
 API .                     N/a:  API NUMBER
 BASE.              Azerbaijan:  LOGGING EQUIPMENT BASE LOCATION
 REGN.                   EESSA:  REGION
 MWDS.                    Baku:  MWD SHOP
 RIG .                     DWG:  RIG NAME
 DOE .                     N/a:  DOE NUMBER
 CNTY.                    Baku:  COUNTY NAME
 DCON.         Sperry Drilling:  DIRECTNL CONTR
 UNIT.                     N/a:  LOGGING EQUIPMENT ID
 MDS .        Operator Entered:  MAG DATA SOURCE
 PROV.                        :  PROVINCE
 STAT.                        :  STATE
 LOC .                        :  LOCATION
 LMF .             Drill Floor:  LOG MEASURED FROM
 TVDS.m                  43.16:  TVDSS CORRECTN
 LATI.deg                40.17:  LATITUDE
 LONG.deg                51.17:  LONGITUDE
 WHNS.m                  -0.12:  WELL HEAD N/S
 WHEW.m                  -5.41:  WELL HEAD E/W
 UTMX.m              514337.95:  UTM X
 UTMY.m             4448627.46:  UTM Y
 DFWL.m                   0.00:  DISTANCE FWL
 DFSL.m                   0.00:  DISTANCE FSL
 SDEP.m                   0.00:  START DEPTH
 TDD .m                   0.00:  TOTAL DEPTH (DRILLER)
 VSDR.deg               235.12:  VERT SEC DIRECT
 GVFD.g                   1.00:  GRAVITY FIELD
 MFLD.nT              50294.00:  MAGNETIC FIELD
 MDIP.deg                59.61:  MAGNETIC DIP
 MDEC.deg                 6.58:  MAGNETIC DECL
 GRDC.deg                 0.09:  GRID CORRECTION
 AZTC.deg                 6.49:  AZM TOTAL CORR
 EPD .m                   0.00:  ELEVATION
 EGL .m                   0.00:  GROUND ELEVATION
 WDMS.m                 176.20:  WD ELEV
 APD .m                  43.16:  DEPTH ABOVE PD
 DEP .m                3172.61:  DEPTH
 AGAP.m                  43.16:  AIR GAP
 VSEW.m                  -5.41:  VERT SEC E/W
 VSNS.m                  -0.12:  VERT SEC N/S
 EKB .m                  43.16:  KB ELEVATION
 EDF .m                  43.16:  DF ELEVATION
 TDL .m                 295.00:  TOTAL DEPTH (LOGGER)
 VSC .                       0:  VS TO CLOSURE
 MAGU.                 1852276:  MAGUTM CHECKSUM
~Parameter Information Block
#MNEM.UNIT       Value        Description
#---------     -----------    ---------------------------
 AV  .mps                 1.60:  Ann Velocity 
 AVMX.mps                 2.10:  Max Ann Veloc 
 AZIF.deg               290.59:  Azm, Final 
 BHAT.        Rotary Steerable:  BHA Type 
 BROT.°/30m               1.00:  Build Rotating 
 BS  .in                  6.50:  Bit Size 
 BSZ .in                  6.50:  Bit Size 
 BTPL.psig              120.00:  Bit Press Loss 
 CABU.                     Yes:  Customer Abuse 
 CGEO.          Eldar Huseynov:  Customer Geo 
 COMM.                     ”%\:  Run Comments 1 
 TCS .hr                 87.00:  Time Ciculation Ended 
 CV  .mps                 4.01:  Crit Velocity 
 CVMX.mps                 5.06:  Max Crit Veloc 
 DD1 .             Aziz Aliyev:  Direct Drillr 1 
 DD2 .            Sanan Aliyev:  Direct Drillr 2 
 DDSV.               Geo-Pilot:  DD Service 
 DEFF.%                  95.00:  % Det Eff 
 DLRX.°/30m               0.75:  Dogleg Rot Max 
 DLSO.°/30m               0.65:  Dogleg Oriented 
 DLSX.°/30m               1.39:  Dogleg Str Max 
 DRET.      18.25.00 19-Jan-20:  Drill End Time 
 DRST.      11.56.48 17-Jan-20:  Drill Start Tim 
 DTIM.hr                 27.16:  Time Drilling 
 EDEP.m                5161.01:  End Depth 
 ENG1.          Rasim Hashimov:  Engineer 1 
 ENG2.      Bakhtiyar Jabbarli:  Engineer 2 
 ETIM.      11.56.48 21-Jan-20:  End Time 
 FLOI.gpm               350.00:  Flow In 
 FLON.gpm               300.00:  Flow In Min 
 FLOS.cptm                0.00:  Fluid Loss 
 FLOX.gpm               400.00:  Flow In Max 
 HFLO.                      No:  High Flow 
 HPRE.                      No:  High Pressure 
 HTEM.                      No:  High Temp 
 HYDO.m                   1.85:  Hydro Offset 
 IFIN.deg                71.58:  Inc, Final 
 IMAX.deg                71.83:  Inc Max 
 IMIN.deg                71.12:  Inc Min 
 IMND.m                5099.48:  Inc Min Depth 
 IMXD.m                5071.08:  Inc Max Depth 
 JARR.                      No:  Jarring 
 LETM.      18.25.00 19-Jan-20:  Log End Time 
 LOST.hr                     0:  Lost Rig Time 
 LSTM.      11.56.48 17-Jan-20:  Log Start Time 
 MDCL.ppm             37000.00:  Mud Chlorides 
 MDES.     Inversion Oil/Synthetic:  Mud Desc 
 DFD .sg                  1.34:  Mud Density 
 MDMN.sg                  1.34:  Dens Mud Min 
 MDMX.sg                  1.34:  Dens Mud Max 
 MOIL.                      69:  Run Mud Oil % 
 MOWR.                   69:31:  Run Mud OWR 
 MSND.                     0.1:  Run Mud Sand % 
 MSOL.                    17.6:  Run Mud Solids% 
 DFV .spqt               79.00:  Mud Viscosity 
 MWOD.in                  4.75:  MWD Tool OD 
 MWSI.                      No:  Serv Intrp, MWD 
 OTIM.hr                126.10:  Time Operating 
 PMAX.psia             6000.00:  Press Op, Max 
 PV  .cP                 29.00:  Mud PV 
 RUN .                     400:  Run Number 
 ROPA.m/hr               11.00:  ROP Avg 
 ROPN.m/hr                5.00:  ROP Min 
 ROPX.m/hr               18.00:  ROP Max 
 RPMA.rpm               139.00:  RPM Surface Avg 
 RPMN.rpm               100.00:  RPM Surface Min 
 RPMX.rpm               140.00:  RPM Surface Max 
 RRUN.                     400:  Rig Run Number 
 SAZI.deg               290.22:  Azm, Start 
 SDEP.m                4868.01:  Start Depth 
 SIDD.                      No:  Serv Intrp, DD 
 SINC.deg                71.77:  Inc, Start 
 SPPA.psig             5550.00:  SPP Avg 
 SPPN.psig             4300.00:  SPP Min 
 SPPX.psig             5600.00:  SPP Max 
 STIM.      23.45.48 15-Jan-20:  Start Time 
 SVCS.                 DD, MWD:  Services 
 SVER.                    9.20:  Sperry Version 
 TDAT.m                5161.01:  Tot Depth Attmp 
 TDDF.                      No:  Trip for DD 
 TDLG.m                 295.00:  Tot Depth Loggd 
 TFF .                      No:  Trip for Fail 
 TQAA.f-kp               13.00:  Torque Abs Avg 
 TQAN.f-kp               13.00:  Torque Abs Min 
 TQAX.f-kp               16.00:  Torque Abs Max 
 TRRT.°/30m               0.25:  Turn Rotating 
 MRT .                     ADR:  Maximum Recorded Temperature 
 TTMX.degC               88.00:  Max Tool Temp 
 VS01.                90577859:  Virtual Str1 SN 
 VS02.                90521879:  Virtual Str2 SN 
 VS03.                90580299:  Virtual Str3 SN 
 VS04.                90515982:  Virtual Str4 SN 
 VS05.                90547765:  Virtual Str5 SN 
 WBMN.klb                 2.00:  WOB Min 
 WITN.           Adil Mammadov:  Customer Rep 
 WITN.        Elmaddin Rahimov:  Customer Rep 2 
 WOBA.klb                 3.00:  WOB Avg 
 WOBX.klb                 5.00:  WOB Max 
 YP  .lhf2               30.00:  Yield Point 
~Curve Information Block
#MNEM.UNIT                 API CODE     Curve Description
#---------               -----------    ---------------------------
 TIME.HHMMSS            00 000 000 000:  GT Time & Date
 GTDEPTH.m              00 000 000 000:  GT Depth
 GTPQH.psia             00 000 000 000:  GT HR Quartz Pressure
 GTTQ.degC              00 000 000 000:  GT Quartz Temperature
 GTTN.NONE              00 000 000 000:  GT Test Number
 GTET.sec               00 000 000 000:  GT Elapsed Test Time
 GTTVD.m                00 000 000 000:  GT True Vertical Depth
#Other Information
#
#WARRANTY: Halliburton will use its best efforts to furnish customers with 
#accurate information and interpretations that are part of, and incident to, the services 
#provided.  However, Halliburton cannot and does not warrant the accuracy 
#or correctness of such information and interpretations.  Under no circumstances should any 
#such information or interpretation be relied upon as the sole basis for any drilling, 
#completion, production, or financial decision or any procedure involving any risk to the 
#safety of any drilling venture, drilling rig or its crew or any other third party.  The 
#Customer has full responsibility for all drilling, completion and production operation.  
#Halliburton makes no representations or warranties, either expressed or 
#implied, including, but not limited to, the implied warranties of merchantability or fitness 
#for a particular purpose, with respect to the services rendered.  In no event will 
#Halliburton be liable for failure to obtain any particular results or for 
#any damages, including, but not limited to, indirect, special or consequential damages, 
#resulting from the use of any information or interpretation provided by Halliburton.
#
~A           TIME           GTDEPTH  GTPQH  GTTQ  GTTN  GTET   GTTVD  
# ...
   19:24:32.153.18-Jan-2020 4980.01 4428.74 81.61 3.00  69.01 2836.95
   19:24:32.353.18-Jan-2020 4980.01 4428.74 81.61 3.00  69.21 2836.95
   19:24:32.553.18-Jan-2020 4980.01 4428.68 81.61 3.00  69.41 2836.95
   19:24:32.753.18-Jan-2020 4980.01 4428.76 81.61 3.00  69.61 2836.95
   19:24:32.953.18-Jan-2020 4980.01 4428.71 81.61 3.00  69.81 2836.95
   19:24:33.153.18-Jan-2020 4980.01 4428.77 81.61 3.00  70.01 2836.95
   19:24:33.353.18-Jan-2020 4980.01 4428.77 81.61 3.00  70.21 2836.95
   19:24:33.553.18-Jan-2020 4980.01 4428.77 81.61 3.00  70.41 2836.95
   19:24:33.753.18-Jan-2020 4980.01 4428.73 81.61 3.00  70.61 2836.95
   19:24:33.953.18-Jan-2020 4980.01 4428.73 81.60 3.00  70.81 2836.95
   19:24:34.153.18-Jan-2020 4980.01 4428.75 81.60 3.00  71.01 2836.95
   19:24:34.353.18-Jan-2020 4980.01 4428.75 81.60 3.00  71.21 2836.95
   19:24:34.553.18-Jan-2020 4980.01 4428.75 81.60 3.00  71.41 2836.95
   19:24:34.753.18-Jan-2020 4980.01 4428.72 81.60 3.00  71.61 2836.95
   19:24:34.953.18-Jan-2020 4980.01 4428.75 81.60 3.00  71.81 2836.95
   19:24:35.153.18-Jan-2020 4980.01 4428.72 81.60 3.00  72.01 2836.95
   19:24:35.353.18-Jan-2020 4980.01 4428.72 81.60 3.00  72.21 2836.95
   19:24:35.553.18-Jan-2020 4980.01 4428.71 81.60 3.00  72.41 2836.95
   19:24:35.753.18-Jan-2020 4980.01 4428.75 81.60 3.00  72.61 2836.95
   19:24:35.953.18-Jan-2020 4980.01 4428.70 81.60 3.00  72.81 2836.95
   19:24:36.153.18-Jan-2020 4980.01 4428.67 81.60 3.00  73.01 2836.95
   19:24:36.353.18-Jan-2020 4980.01 4428.67 81.60 3.00  73.21 2836.95
   19:24:36.553.18-Jan-2020 4980.01 4428.76 81.60 3.00  73.41 2836.95
   19:24:36.753.18-Jan-2020 4980.01 4428.73 81.59 3.00  73.61 2836.95
   19:24:36.954.18-Jan-2020 4980.01 4428.61 81.59 3.00  73.81 2836.95
   19:24:37.154.18-Jan-2020 4980.01 4428.82 81.59 3.00  74.01 2836.95
   19:24:37.354.18-Jan-2020 4980.01 4428.82 81.59 3.00  74.21 2836.95
   19:24:37.554.18-Jan-2020 4980.01 4428.76 81.59 3.00  74.41 2836.95
   19:24:37.754.18-Jan-2020 4980.01 4428.70 81.59 3.00  74.61 2836.95
   19:24:37.954.18-Jan-2020 4980.01 4428.74 81.59 3.00  74.81 2836.95
   19:24:38.154.18-Jan-2020 4980.01 4428.70 81.59 3.00  75.01 2836.95
   19:24:38.354.18-Jan-2020 4980.01 4428.70 81.59 3.00  75.21 2836.95
   19:24:38.554.18-Jan-2020 4980.01 4428.72 81.59 3.00  75.41 2836.95
   19:24:38.754.18-Jan-2020 4980.01 4428.73 81.59 3.00  75.61 2836.95
   19:24:38.954.18-Jan-2020 4980.01 4428.72 81.59 3.00  75.81 2836.95
   19:24:39.154.18-Jan-2020 4980.01 4428.71 81.59 3.00  76.01 2836.95
   19:24:39.354.18-Jan-2020 4980.01 4428.71 81.59 3.00  76.21 2836.95
   19:24:39.554.18-Jan-2020 4980.01 4428.71 81.59 3.00  76.41 2836.95
   19:24:39.754.18-Jan-2020 4980.01 4428.60 81.58 3.00  76.61 2836.95
   19:24:39.954.18-Jan-2020 4980.01 4428.78 81.58 3.00  76.81 2836.95
   19:24:40.154.18-Jan-2020 4980.01 4428.68 81.58 3.00  77.01 2836.95
   19:24:40.354.18-Jan-2020 4980.01 4428.68 81.58 3.00  77.21 2836.95
   19:24:40.554.18-Jan-2020 4980.01 4428.71 81.58 3.00  77.42 2836.95
   19:24:40.754.18-Jan-2020 4980.01 4428.71 81.58 3.00  77.62 2836.95
   19:24:40.954.18-Jan-2020 4980.01 4428.71 81.58 3.00  77.82 2836.95
   19:24:41.154.18-Jan-2020 4980.01 4428.69 81.58 3.00  78.02 2836.95
   19:24:41.354.18-Jan-2020 4980.01 4428.69 81.58 3.00  78.22 2836.95
   19:24:41.554.18-Jan-2020 4980.01 4428.69 81.58 3.00  78.42 2836.95
   19:24:41.754.18-Jan-2020 4980.01 4428.69 81.58 3.00  78.62 2836.95
   19:24:41.954.18-Jan-2020 4980.01 4428.71 81.58 3.00  78.82 2836.95
   19:24:42.155.18-Jan-2020 4980.01 4428.68 81.58 3.00  79.02 2836.95
   19:24:42.355.18-Jan-2020 4980.01 4428.68 81.58 3.00  79.22 2836.95
   19:24:42.555.18-Jan-2020 4980.01 4428.68 81.57 3.00  79.42 2836.95
   19:24:42.755.18-Jan-2020 4980.01 4428.71 81.57 3.00  79.62 2836.95
   19:24:42.955.18-Jan-2020 4980.01 4428.55 81.57 3.00  79.82 2836.95
   19:24:43.155.18-Jan-2020 4980.01 4428.79 81.57 3.00  80.02 2836.95
   19:24:43.355.18-Jan-2020 4980.01 4428.79 81.57 3.00  80.22 2836.95
   19:24:43.555.18-Jan-2020 4980.01 4428.72 81.57 3.00  80.42 2836.95
   19:24:43.755.18-Jan-2020 4980.01 4428.69 81.57 3.00  80.62 2836.95
   19:24:43.955.18-Jan-2020 4980.01 4428.69 81.57 3.00  80.82 2836.95
   19:24:44.155.18-Jan-2020 4980.01 4428.68 81.57 3.00  81.02 2836.95
   19:24:44.355.18-Jan-2020 4980.01 4428.68 81.57 3.00  81.22 2836.95
   19:24:44.555.18-Jan-2020 4980.01 4428.68 81.57 3.00  81.42 2836.95
   19:24:44.755.18-Jan-2020 4980.01 4428.66 81.57 3.00  81.62 2836.95
   19:24:44.955.18-Jan-2020 4980.01 4428.69 81.57 3.00  81.82 2836.95
   19:24:45.155.18-Jan-2020 4980.01 4428.65 81.57 3.00  82.02 2836.95
   19:24:45.355.18-Jan-2020 4980.01 4428.65 81.57 3.00  82.22 2836.95
   19:24:45.555.18-Jan-2020 4980.01 4428.66 81.56 3.00  82.42 2836.95
   19:24:45.755.18-Jan-2020 4980.01 4428.68 81.56 3.00  82.62 2836.95
   19:24:45.955.18-Jan-2020 4980.01 4428.66 81.56 3.00  82.82 2836.95
   19:24:46.155.18-Jan-2020 4980.01 4428.67 81.56 3.00  83.02 2836.95
   19:24:46.355.18-Jan-2020 4980.01 4428.67 81.56 3.00  83.22 2836.95
   19:24:46.555.18-Jan-2020 4980.01 4428.69 81.56 3.00  83.42 2836.95
   19:24:46.755.18-Jan-2020 4980.01 4428.65 81.56 3.00  83.62 2836.95
   19:24:46.955.18-Jan-2020 4980.01 4428.69 81.56 3.00  83.82 2836.95
   19:24:47.155.18-Jan-2020 4980.01 4428.67 81.56 3.00  84.02 2836.95
   19:24:47.356.18-Jan-2020 4980.01 4428.67 81.56 3.00  84.22 2836.95
   19:24:47.556.18-Jan-2020 4980.01 4428.78 81.56 3.00  84.42 2836.95
   19:24:47.756.18-Jan-2020 4980.01 4428.64 81.56 3.00  84.62 2836.95
   19:24:47.956.18-Jan-2020 4980.01 4428.68 81.56 3.00  84.82 2836.95
   19:24:48.156.18-Jan-2020 4980.01 4428.65 81.56 3.00  85.02 2836.95
   19:24:48.356.18-Jan-2020 4980.01 4428.65 81.56 3.00  85.22 2836.95
   19:24:48.556.18-Jan-2020 4980.01 4428.60 81.55 3.00  85.42 2836.95
   19:24:48.756.18-Jan-2020 4980.01 4428.67 81.55 3.00  85.62 2836.95
   19:24:48.956.18-Jan-2020 4980.01 4428.63 81.55 3.00  85.82 2836.95
   19:24:49.156.18-Jan-2020 4980.01 4428.68 81.55 3.00  86.02 2836.95
   19:24:49.356.18-Jan-2020 4980.01 4428.68 81.55 3.00  86.22 2836.95
   19:24:49.556.18-Jan-2020 4980.01 4428.65 81.55 3.00  86.42 2836.95
   19:24:49.756.18-Jan-2020 4980.01 4428.65 81.55 3.00  86.62 2836.95
   19:24:49.956.18-Jan-2020 4980.01 4428.64 81.55 3.00  86.82 2836.95
   19:24:50.156.18-Jan-2020 4980.01 4428.50 81.55 3.00  87.02 2836.95
   19:24:50.356.18-Jan-2020 4980.01 4428.50 81.55 3.00  87.22 2836.95
   19:24:50.556.18-Jan-2020 4980.01 4428.65 81.55 3.00  87.42 2836.95
   19:24:50.756.18-Jan-2020 4980.01 4428.64 81.55 3.00  87.62 2836.95
   19:24:50.956.18-Jan-2020 4980.01 4428.65 81.55 3.00  87.82 2836.95
   19:24:51.156.18-Jan-2020 4980.01 4428.63 81.55 3.00  88.02 2836.95
   19:24:51.356.18-Jan-2020 4980.01 4428.63 81.55 3.00  88.22 2836.95
   19:24:51.556.18-Jan-2020 4980.01 4428.65 81.54 3.00  88.42 2836.95
   19:24:51.756.18-Jan-2020 4980.01 4428.61 81.54 3.00  88.62 2836.95
   19:24:51.956.18-Jan-2020 4980.01 4428.65 81.54 3.00  88.82 2836.95
   19:24:52.156.18-Jan-2020 4980.01 4428.61 81.54 3.00  89.02 2836.95
   19:24:52.357.18-Jan-2020 4980.01 4428.61 81.54 3.00  89.22 2836.95
   19:24:52.557.18-Jan-2020 4980.01 4428.61 81.54 3.00  89.42 2836.95
   19:24:52.757.18-Jan-2020 4980.01 4428.63 81.54 3.00  89.62 2836.95
   19:24:52.957.18-Jan-2020 4980.01 4428.60 81.54 3.00  89.82 2836.95
   19:24:53.157.18-Jan-2020 4980.01 4428.62 81.54 3.00  90.02 2836.95
   19:24:53.357.18-Jan-2020 4980.01 4428.62 81.54 3.00  90.22 2836.95
   19:24:53.557.18-Jan-2020 4980.01 4428.74 81.54 3.00  90.42 2836.95
   19:24:53.757.18-Jan-2020 4980.01 4428.61 81.54 3.00  90.62 2836.95
   19:24:53.957.18-Jan-2020 4980.01 4428.64 81.54 3.00  90.82 2836.95
   19:24:54.157.18-Jan-2020 4980.01 4428.63 81.54 3.00  91.02 2836.95
   19:24:54.357.18-Jan-2020 4980.01 4428.63 81.54 3.00  91.22 2836.95
   19:24:54.557.18-Jan-2020 4980.01 4428.62 81.53 3.00  91.42 2836.95
   19:24:54.757.18-Jan-2020 4980.01 4428.60 81.53 3.00  91.62 2836.95
   19:24:54.957.18-Jan-2020 4980.01 4428.63 81.53 3.00  91.82 2836.95
