~Version Information
 VERS.                  2.0:   CWLS log ASCII Standard -VERSION 2.0
 WRAP.                   NO:   One line per depth step
~Well Information Block
#MNEM.UNIT     VALUE/NAME     DESCRIPTION
#---------     -----------    ---------------------------
 STRT.S             10:03:43 19-Jan-20: START TIME 10:03:43 19-Jan-20
 STOP.S             10:11:36 19-Jan-20: STOP TIME  10:11:36 19-Jan-20
 STEP.S                   0.00: STEP TIME
 NULL.                 -999.25: NULL VALUE
 DFWT.                        :  DIST FWL TEXT
 DFST.                        :  DIST FSL TEXT
 DMF .             Drill Floor:  DRILL MEAS FROM
 STIM.      17.57.20 21-Dec-19:  START TIME
 DATE.      17.57.20 21-Dec-19:  END TIME
 SPUD.               21-Dec-19:  SPUD DATE
 NREF.                    Grid:  NORTH REFERENCE
 HPTY.       Minimum Curvature:  HOLE POS TYPE
 DMOD.             Drill Model:  DRILL MOD DESC
 SVYD.                  Survey:  SURVEY DESC
 ILTD.               Lithology:  INTERP LTH DESC
 FTOP.          Formation Tops:  FORM TOPS DESC
 PDAT.          Mean Sea Level:  PERMANENT DATUM
 FLD .                     ACG:  FIELD NAME
 SON .        AZ-XX-0905715376:  JOB NUMBER
 CTRY.              Azerbaijan:  COUNTRY NAME
 WELL.                    E04Y:  WELL NAME
 SRVC.          TURAN DRILLING:  CONTRACTOR
 COMP.     BP Exploration (Caspian Sea) Ltd.:  COMPANY
 WTYP.                Deviated:  WELL TYPE
 UWI .                     N/a:  UNIQUE WELL IDENTIFIER
 API .                     N/a:  API NUMBER
 BASE.              Azerbaijan:  LOGGING EQUIPMENT BASE LOCATION
 REGN.                   EESSA:  REGION
 MWDS.                    Baku:  MWD SHOP
 RIG .                     DWG:  RIG NAME
 DOE .                     N/a:  DOE NUMBER
 CNTY.                    Baku:  COUNTY NAME
 DCON.         Sperry Drilling:  DIRECTNL CONTR
 UNIT.                     N/a:  LOGGING EQUIPMENT ID
 MDS .        Operator Entered:  MAG DATA SOURCE
 PROV.                        :  PROVINCE
 STAT.                        :  STATE
 LOC .                        :  LOCATION
 LMF .             Drill Floor:  LOG MEASURED FROM
 TVDS.m                  43.16:  TVDSS CORRECTN
 LATI.deg                40.17:  LATITUDE
 LONG.deg                51.17:  LONGITUDE
 WHNS.m                  -0.12:  WELL HEAD N/S
 WHEW.m                  -5.41:  WELL HEAD E/W
 UTMX.m              514337.95:  UTM X
 UTMY.m             4448627.46:  UTM Y
 DFWL.m                   0.00:  DISTANCE FWL
 DFSL.m                   0.00:  DISTANCE FSL
 SDEP.m                   0.00:  START DEPTH
 TDD .m                   0.00:  TOTAL DEPTH (DRILLER)
 VSDR.deg               235.12:  VERT SEC DIRECT
 GVFD.g                   1.00:  GRAVITY FIELD
 MFLD.nT              50294.00:  MAGNETIC FIELD
 MDIP.deg                59.61:  MAGNETIC DIP
 MDEC.deg                 6.58:  MAGNETIC DECL
 GRDC.deg                 0.09:  GRID CORRECTION
 AZTC.deg                 6.49:  AZM TOTAL CORR
 EPD .m                   0.00:  ELEVATION
 EGL .m                   0.00:  GROUND ELEVATION
 WDMS.m                 176.20:  WD ELEV
 APD .m                  43.16:  DEPTH ABOVE PD
 DEP .m                3172.61:  DEPTH
 AGAP.m                  43.16:  AIR GAP
 VSEW.m                  -5.41:  VERT SEC E/W
 VSNS.m                  -0.12:  VERT SEC N/S
 EKB .m                  43.16:  KB ELEVATION
 EDF .m                  43.16:  DF ELEVATION
 TDL .m                 295.00:  TOTAL DEPTH (LOGGER)
 VSC .                       0:  VS TO CLOSURE
 MAGU.                 1852276:  MAGUTM CHECKSUM
~Parameter Information Block
#MNEM.UNIT       Value        Description
#---------     -----------    ---------------------------
 AV  .mps                 1.60:  Ann Velocity 
 AVMX.mps                 2.10:  Max Ann Veloc 
 AZIF.deg               290.59:  Azm, Final 
 BHAT.        Rotary Steerable:  BHA Type 
 BROT.°/30m               1.00:  Build Rotating 
 BS  .in                  6.50:  Bit Size 
 BSZ .in                  6.50:  Bit Size 
 BTPL.psig              120.00:  Bit Press Loss 
 CABU.                     Yes:  Customer Abuse 
 CGEO.          Eldar Huseynov:  Customer Geo 
 COMM.                     Œòk:  Run Comments 1 
 TCS .hr                 87.00:  Time Ciculation Ended 
 CV  .mps                 4.01:  Crit Velocity 
 CVMX.mps                 5.06:  Max Crit Veloc 
 DD1 .             Aziz Aliyev:  Direct Drillr 1 
 DD2 .            Sanan Aliyev:  Direct Drillr 2 
 DDSV.               Geo-Pilot:  DD Service 
 DEFF.%                  95.00:  % Det Eff 
 DLRX.°/30m               0.75:  Dogleg Rot Max 
 DLSO.°/30m               0.65:  Dogleg Oriented 
 DLSX.°/30m               1.39:  Dogleg Str Max 
 DRET.      18.25.00 19-Jan-20:  Drill End Time 
 DRST.      11.56.48 17-Jan-20:  Drill Start Tim 
 DTIM.hr                 27.16:  Time Drilling 
 EDEP.m                5161.01:  End Depth 
 ENG1.          Rasim Hashimov:  Engineer 1 
 ENG2.      Bakhtiyar Jabbarli:  Engineer 2 
 ETIM.      11.56.48 21-Jan-20:  End Time 
 FLOI.gpm               350.00:  Flow In 
 FLON.gpm               300.00:  Flow In Min 
 FLOS.cptm                0.00:  Fluid Loss 
 FLOX.gpm               400.00:  Flow In Max 
 HFLO.                      No:  High Flow 
 HPRE.                      No:  High Pressure 
 HTEM.                      No:  High Temp 
 HYDO.m                   1.85:  Hydro Offset 
 IFIN.deg                71.58:  Inc, Final 
 IMAX.deg                71.83:  Inc Max 
 IMIN.deg                71.12:  Inc Min 
 IMND.m                5099.48:  Inc Min Depth 
 IMXD.m                5071.08:  Inc Max Depth 
 JARR.                      No:  Jarring 
 LETM.      18.25.00 19-Jan-20:  Log End Time 
 LOST.hr                     0:  Lost Rig Time 
 LSTM.      11.56.48 17-Jan-20:  Log Start Time 
 MDCL.ppm             37000.00:  Mud Chlorides 
 MDES.     Inversion Oil/Synthetic:  Mud Desc 
 DFD .sg                  1.34:  Mud Density 
 MDMN.sg                  1.34:  Dens Mud Min 
 MDMX.sg                  1.34:  Dens Mud Max 
 MOIL.                      69:  Run Mud Oil % 
 MOWR.                   69:31:  Run Mud OWR 
 MSND.                     0.1:  Run Mud Sand % 
 MSOL.                    17.6:  Run Mud Solids% 
 DFV .spqt               79.00:  Mud Viscosity 
 MWOD.in                  4.75:  MWD Tool OD 
 MWSI.                      No:  Serv Intrp, MWD 
 OTIM.hr                126.10:  Time Operating 
 PMAX.psia             6000.00:  Press Op, Max 
 PV  .cP                 29.00:  Mud PV 
 RUN .                     400:  Run Number 
 ROPA.m/hr               11.00:  ROP Avg 
 ROPN.m/hr                5.00:  ROP Min 
 ROPX.m/hr               18.00:  ROP Max 
 RPMA.rpm               139.00:  RPM Surface Avg 
 RPMN.rpm               100.00:  RPM Surface Min 
 RPMX.rpm               140.00:  RPM Surface Max 
 RRUN.                     400:  Rig Run Number 
 SAZI.deg               290.22:  Azm, Start 
 SDEP.m                4868.01:  Start Depth 
 SIDD.                      No:  Serv Intrp, DD 
 SINC.deg                71.77:  Inc, Start 
 SPPA.psig             5550.00:  SPP Avg 
 SPPN.psig             4300.00:  SPP Min 
 SPPX.psig             5600.00:  SPP Max 
 STIM.      23.45.48 15-Jan-20:  Start Time 
 SVCS.                 DD, MWD:  Services 
 SVER.                    9.20:  Sperry Version 
 TDAT.m                5161.01:  Tot Depth Attmp 
 TDDF.                      No:  Trip for DD 
 TDLG.m                 295.00:  Tot Depth Loggd 
 TFF .                      No:  Trip for Fail 
 TQAA.f-kp               13.00:  Torque Abs Avg 
 TQAN.f-kp               13.00:  Torque Abs Min 
 TQAX.f-kp               16.00:  Torque Abs Max 
 TRRT.°/30m               0.25:  Turn Rotating 
 MRT .                     ADR:  Maximum Recorded Temperature 
 TTMX.degC               88.00:  Max Tool Temp 
 VS01.                90577859:  Virtual Str1 SN 
 VS02.                90521879:  Virtual Str2 SN 
 VS03.                90580299:  Virtual Str3 SN 
 VS04.                90515982:  Virtual Str4 SN 
 VS05.                90547765:  Virtual Str5 SN 
 WBMN.klb                 2.00:  WOB Min 
 WITN.           Adil Mammadov:  Customer Rep 
 WITN.        Elmaddin Rahimov:  Customer Rep 2 
 WOBA.klb                 3.00:  WOB Avg 
 WOBX.klb                 5.00:  WOB Max 
 YP  .lhf2               30.00:  Yield Point 
~Curve Information Block
#MNEM.UNIT                 API CODE     Curve Description
#---------               -----------    ---------------------------
 TIME.HHMMSS            00 000 000 000:  GT Time & Date
 GTDEPTH.m              00 000 000 000:  GT Depth
 GTPQH.psia             00 000 000 000:  GT HR Quartz Pressure
 GTTQ.degC              00 000 000 000:  GT Quartz Temperature
 GTTN.NONE              00 000 000 000:  GT Test Number
 GTET.sec               00 000 000 000:  GT Elapsed Test Time
 GTTVD.m                00 000 000 000:  GT True Vertical Depth
#Other Information
#
#WARRANTY: Halliburton will use its best efforts to furnish customers with 
#accurate information and interpretations that are part of, and incident to, the services 
#provided.  However, Halliburton cannot and does not warrant the accuracy 
#or correctness of such information and interpretations.  Under no circumstances should any 
#such information or interpretation be relied upon as the sole basis for any drilling, 
#completion, production, or financial decision or any procedure involving any risk to the 
#safety of any drilling venture, drilling rig or its crew or any other third party.  The 
#Customer has full responsibility for all drilling, completion and production operation.  
#Halliburton makes no representations or warranties, either expressed or 
#implied, including, but not limited to, the implied warranties of merchantability or fitness 
#for a particular purpose, with respect to the services rendered.  In no event will 
#Halliburton be liable for failure to obtain any particular results or for 
#any damages, including, but not limited to, indirect, special or consequential damages, 
#resulting from the use of any information or interpretation provided by Halliburton.
#
~A           TIME           GTDEPTH  GTPQH  GTTQ  GTTN  GTET   GTTVD  
# ...
   10:06:24.802.19-Jan-2020 5081.51 4213.68 81.96 5.00 161.02 2869.15
   10:06:25.002.19-Jan-2020 5081.51 4213.68 81.96 5.00 161.22 2869.15
   10:06:25.202.19-Jan-2020 5081.51 4213.69 81.96 5.00 161.42 2869.15
   10:06:25.402.19-Jan-2020 5081.51 4213.68 81.96 5.00 161.62 2869.15
   10:06:25.602.19-Jan-2020 5081.51 4213.67 81.95 5.00 161.82 2869.15
   10:06:25.802.19-Jan-2020 5081.51 4213.68 81.95 5.00 162.02 2869.15
   10:06:26.003.19-Jan-2020 5081.51 4213.68 81.95 5.00 162.22 2869.15
   10:06:26.203.19-Jan-2020 5081.51 4213.68 81.95 5.00 162.42 2869.15
   10:06:26.403.19-Jan-2020 5081.51 4213.68 81.95 5.00 162.62 2869.15
   10:06:26.603.19-Jan-2020 5081.51 4213.42 81.95 5.00 162.82 2869.15
   10:06:26.803.19-Jan-2020 5081.51 4213.85 81.95 5.00 163.02 2869.15
   10:06:27.003.19-Jan-2020 5081.51 4213.85 81.95 5.00 163.22 2869.15
   10:06:27.203.19-Jan-2020 5081.51 4213.66 81.95 5.00 163.42 2869.15
   10:06:27.403.19-Jan-2020 5081.51 4213.74 81.95 5.00 163.62 2869.15
   10:06:27.603.19-Jan-2020 5081.51 4196.56 81.95 5.00 163.82 2869.15
   10:06:27.803.19-Jan-2020 5081.51 4171.17 81.95 5.00 164.02 2869.15
   10:06:28.003.19-Jan-2020 5081.51 4171.17 81.95 5.00 164.22 2869.15
   10:06:28.203.19-Jan-2020 5081.51 4169.14 81.95 5.00 164.42 2869.15
   10:06:28.403.19-Jan-2020 5081.51 4168.98 81.95 5.00 164.62 2869.15
   10:06:28.603.19-Jan-2020 5081.51 4167.86 81.95 5.00 164.82 2869.15
   10:06:28.803.19-Jan-2020 5081.51 4168.10 81.95 5.00 165.02 2869.15
   10:06:29.003.19-Jan-2020 5081.51 4168.10 81.95 5.00 165.22 2869.15
   10:06:29.203.19-Jan-2020 5081.51 4166.24 81.95 5.00 165.42 2869.15
   10:06:29.403.19-Jan-2020 5081.51 4167.62 81.95 5.00 165.62 2869.15
   10:06:29.603.19-Jan-2020 5081.51 4167.42 81.95 5.00 165.82 2869.15
   10:06:29.803.19-Jan-2020 5081.51 4166.19 81.95 5.00 166.02 2869.15
   10:06:30.003.19-Jan-2020 5081.51 4166.19 81.95 5.00 166.22 2869.15
   10:06:30.203.19-Jan-2020 5081.51 4165.71 81.94 5.00 166.42 2869.15
   10:06:30.403.19-Jan-2020 5081.51 4167.39 81.94 5.00 166.62 2869.15
   10:06:30.603.19-Jan-2020 5081.51 4167.49 81.94 5.00 166.82 2869.15
   10:06:30.803.19-Jan-2020 5081.51 4166.13 81.94 5.00 167.02 2869.15
   10:06:31.003.19-Jan-2020 5081.51 4166.13 81.94 5.00 167.22 2869.15
   10:06:31.203.19-Jan-2020 5081.51 4166.21 81.94 5.00 167.42 2869.15
   10:06:31.403.19-Jan-2020 5081.51 4166.41 81.94 5.00 167.62 2869.15
   10:06:31.603.19-Jan-2020 5081.51 4165.90 81.94 5.00 167.82 2869.15
   10:06:31.803.19-Jan-2020 5081.51 4165.52 81.94 5.00 168.02 2869.15
   10:06:32.003.19-Jan-2020 5081.51 4165.52 81.94 5.00 168.22 2869.15
   10:06:32.203.19-Jan-2020 5081.51 4166.24 81.94 5.00 168.42 2869.15
   10:06:32.403.19-Jan-2020 5081.51 4166.50 81.94 5.00 168.62 2869.15
   10:06:32.603.19-Jan-2020 5081.51 4165.79 81.94 5.00 168.82 2869.15
   10:06:32.803.19-Jan-2020 5081.51 4164.78 81.94 5.00 169.02 2869.15
   10:06:33.003.19-Jan-2020 5081.51 4164.78 81.94 5.00 169.22 2869.15
   10:06:33.203.19-Jan-2020 5081.51 4165.68 81.94 5.00 169.42 2869.15
   10:06:33.403.19-Jan-2020 5081.51 4164.18 81.94 5.00 169.62 2869.15
   10:06:33.603.19-Jan-2020 5081.51 4165.24 81.94 5.00 169.82 2869.15
   10:06:33.803.19-Jan-2020 5081.51 4165.98 81.94 5.00 170.02 2869.15
   10:06:34.004.19-Jan-2020 5081.51 4165.98 81.94 5.00 170.22 2869.15
   10:06:34.204.19-Jan-2020 5081.51 4166.13 81.94 5.00 170.42 2869.15
   10:06:34.404.19-Jan-2020 5081.51 4165.27 81.94 5.00 170.62 2869.15
   10:06:34.604.19-Jan-2020 5081.51 4165.47 81.94 5.00 170.82 2869.15
   10:06:34.804.19-Jan-2020 5081.51 4166.14 81.93 5.00 171.02 2869.15
   10:06:35.004.19-Jan-2020 5081.51 4166.14 81.93 5.00 171.22 2869.15
   10:06:35.204.19-Jan-2020 5081.51 4165.81 81.93 5.00 171.42 2869.15
   10:06:35.404.19-Jan-2020 5081.51 4165.17 81.93 5.00 171.62 2869.15
   10:06:35.604.19-Jan-2020 5081.51 4165.44 81.93 5.00 171.82 2869.15
   10:06:35.804.19-Jan-2020 5081.51 4165.55 81.93 5.00 172.02 2869.15
   10:06:36.004.19-Jan-2020 5081.51 4165.55 81.93 5.00 172.22 2869.15
   10:06:36.204.19-Jan-2020 5081.51 4165.56 81.93 5.00 172.42 2869.15
   10:06:36.404.19-Jan-2020 5081.51 4165.17 81.93 5.00 172.62 2869.15
   10:06:36.604.19-Jan-2020 5081.51 4165.31 81.93 5.00 172.82 2869.15
   10:06:36.804.19-Jan-2020 5081.51 4165.09 81.93 5.00 173.02 2869.15
   10:06:37.004.19-Jan-2020 5081.51 4165.09 81.93 5.00 173.22 2869.15
   10:06:37.204.19-Jan-2020 5081.51 4165.87 81.93 5.00 173.42 2869.15
   10:06:37.404.19-Jan-2020 5081.51 4165.07 81.93 5.00 173.62 2869.15
   10:06:37.604.19-Jan-2020 5081.51 4165.75 81.93 5.00 173.82 2869.15
   10:06:37.804.19-Jan-2020 5081.51 4195.15 81.93 5.00 174.02 2869.15
   10:06:38.004.19-Jan-2020 5081.51 4195.15 81.93 5.00 174.22 2869.15
   10:06:38.204.19-Jan-2020 5081.51 4210.42 81.93 5.00 174.42 2869.15
   10:06:38.404.19-Jan-2020 5081.51 4210.65 81.93 5.00 174.62 2869.15
   10:06:38.604.19-Jan-2020 5081.51 4210.94 81.93 5.00 174.82 2869.15
   10:06:38.804.19-Jan-2020 5081.51 4211.13 81.93 5.00 175.02 2869.15
   10:06:39.004.19-Jan-2020 5081.51 4211.13 81.93 5.00 175.22 2869.15
   10:06:39.204.19-Jan-2020 5081.51 4211.42 81.93 5.00 175.42 2869.15
   10:06:39.404.19-Jan-2020 5081.51 4211.54 81.93 5.00 175.62 2869.15
   10:06:39.604.19-Jan-2020 5081.51 4211.85 81.92 5.00 175.82 2869.15
   10:06:39.804.19-Jan-2020 5081.51 4211.82 81.92 5.00 176.02 2869.15
   10:06:40.004.19-Jan-2020 5081.51 4211.82 81.92 5.00 176.22 2869.15
   10:06:40.204.19-Jan-2020 5081.51 4212.01 81.92 5.00 176.42 2869.15
   10:06:40.404.19-Jan-2020 5081.51 4211.80 81.92 5.00 176.62 2869.15
   10:06:40.604.19-Jan-2020 5081.51 4212.36 81.92 5.00 176.82 2869.15
   10:06:40.804.19-Jan-2020 5081.51 4212.25 81.92 5.00 177.02 2869.15
   10:06:41.004.19-Jan-2020 5081.51 4212.25 81.92 5.00 177.22 2869.15
   10:06:41.204.19-Jan-2020 5081.51 4212.30 81.92 5.00 177.42 2869.15
   10:06:41.404.19-Jan-2020 5081.51 4212.34 81.92 5.00 177.62 2869.15
   10:06:41.604.19-Jan-2020 5081.51 4212.35 81.92 5.00 177.82 2869.15
   10:06:41.804.19-Jan-2020 5081.51 4212.42 81.92 5.00 178.02 2869.15
   10:06:42.005.19-Jan-2020 5081.51 4212.42 81.92 5.00 178.22 2869.15
   10:06:42.205.19-Jan-2020 5081.51 4212.46 81.92 5.00 178.42 2869.15
   10:06:42.405.19-Jan-2020 5081.51 4212.46 81.92 5.00 178.62 2869.15
   10:06:42.605.19-Jan-2020 5081.51 4212.49 81.92 5.00 178.82 2869.15
   10:06:42.805.19-Jan-2020 5081.51 4212.53 81.92 5.00 179.02 2869.15
   10:06:43.005.19-Jan-2020 5081.51 4212.53 81.92 5.00 179.22 2869.15
   10:06:43.205.19-Jan-2020 5081.51 4212.55 81.92 5.00 179.42 2869.15
   10:06:43.405.19-Jan-2020 5081.51 4212.60 81.92 5.00 179.62 2869.15
   10:06:43.605.19-Jan-2020 5081.51 4212.38 81.92 5.00 179.82 2869.15
   10:06:43.805.19-Jan-2020 5081.51 4212.85 81.92 5.00 180.02 2869.15
   10:06:44.005.19-Jan-2020 5081.51 4212.85 81.92 5.00 180.22 2869.15
   10:06:44.205.19-Jan-2020 5081.51 4212.67 81.92 5.00 180.42 2869.15
   10:06:44.405.19-Jan-2020 5081.51 4212.75 81.91 5.00 180.62 2869.15
   10:06:44.605.19-Jan-2020 5081.51 4212.76 81.91 5.00 180.82 2869.15
   10:06:44.805.19-Jan-2020 5081.51 4212.76 81.91 5.00 181.02 2869.15
   10:06:45.005.19-Jan-2020 5081.51 4212.76 81.91 5.00 181.22 2869.15
   10:06:45.205.19-Jan-2020 5081.51 4212.80 81.91 5.00 181.42 2869.15
   10:06:45.405.19-Jan-2020 5081.51 4212.79 81.91 5.00 181.62 2869.15
   10:06:45.605.19-Jan-2020 5081.51 4212.81 81.91 5.00 181.82 2869.15
   10:06:45.805.19-Jan-2020 5081.51 4212.82 81.91 5.00 182.02 2869.15
   10:06:46.005.19-Jan-2020 5081.51 4212.82 81.91 5.00 182.22 2869.15
   10:06:46.205.19-Jan-2020 5081.51 4212.83 81.91 5.00 182.42 2869.15
   10:06:46.405.19-Jan-2020 5081.51 4212.84 81.91 5.00 182.62 2869.15
   10:06:46.605.19-Jan-2020 5081.51 4212.87 81.91 5.00 182.82 2869.15
   10:06:46.805.19-Jan-2020 5081.51 4212.87 81.91 5.00 183.02 2869.15
   10:06:47.005.19-Jan-2020 5081.51 4212.87 81.91 5.00 183.22 2869.15
   10:06:47.205.19-Jan-2020 5081.51 4213.13 81.91 5.00 183.42 2869.15
   10:06:47.405.19-Jan-2020 5081.51 4212.98 81.91 5.00 183.62 2869.15
   10:06:47.605.19-Jan-2020 5081.51 4212.94 81.91 5.00 183.82 2869.15
