~Version Information
 VERS.                  2.0:   CWLS log ASCII Standard -VERSION 2.0
 WRAP.                   NO:   One line per depth step
~Well Information Block
#MNEM.UNIT     VALUE/NAME     DESCRIPTION
#---------     -----------    ---------------------------
 STRT.S             14:05:37 19-Jan-20: START TIME 14:05:37 19-Jan-20
 STOP.S             14:13:29 19-Jan-20: STOP TIME  14:13:29 19-Jan-20
 STEP.S                   0.00: STEP TIME
 NULL.                 -999.25: NULL VALUE
 DFWT.                        :  DIST FWL TEXT
 DFST.                        :  DIST FSL TEXT
 DMF .             Drill Floor:  DRILL MEAS FROM
 STIM.      17.57.20 21-Dec-19:  START TIME
 DATE.      17.57.20 21-Dec-19:  END TIME
 SPUD.               21-Dec-19:  SPUD DATE
 NREF.                    Grid:  NORTH REFERENCE
 HPTY.       Minimum Curvature:  HOLE POS TYPE
 DMOD.             Drill Model:  DRILL MOD DESC
 SVYD.                  Survey:  SURVEY DESC
 ILTD.               Lithology:  INTERP LTH DESC
 FTOP.          Formation Tops:  FORM TOPS DESC
 PDAT.          Mean Sea Level:  PERMANENT DATUM
 FLD .                     ACG:  FIELD NAME
 SON .        AZ-XX-0905715376:  JOB NUMBER
 CTRY.              Azerbaijan:  COUNTRY NAME
 WELL.                    E04Y:  WELL NAME
 SRVC.          TURAN DRILLING:  CONTRACTOR
 COMP.     BP Exploration (Caspian Sea) Ltd.:  COMPANY
 WTYP.                Deviated:  WELL TYPE
 UWI .                     N/a:  UNIQUE WELL IDENTIFIER
 API .                     N/a:  API NUMBER
 BASE.              Azerbaijan:  LOGGING EQUIPMENT BASE LOCATION
 REGN.                   EESSA:  REGION
 MWDS.                    Baku:  MWD SHOP
 RIG .                     DWG:  RIG NAME
 DOE .                     N/a:  DOE NUMBER
 CNTY.                    Baku:  COUNTY NAME
 DCON.         Sperry Drilling:  DIRECTNL CONTR
 UNIT.                     N/a:  LOGGING EQUIPMENT ID
 MDS .        Operator Entered:  MAG DATA SOURCE
 PROV.                        :  PROVINCE
 STAT.                        :  STATE
 LOC .                        :  LOCATION
 LMF .             Drill Floor:  LOG MEASURED FROM
 TVDS.m                  43.16:  TVDSS CORRECTN
 LATI.deg                40.17:  LATITUDE
 LONG.deg                51.17:  LONGITUDE
 WHNS.m                  -0.12:  WELL HEAD N/S
 WHEW.m                  -5.41:  WELL HEAD E/W
 UTMX.m              514337.95:  UTM X
 UTMY.m             4448627.46:  UTM Y
 DFWL.m                   0.00:  DISTANCE FWL
 DFSL.m                   0.00:  DISTANCE FSL
 SDEP.m                   0.00:  START DEPTH
 TDD .m                   0.00:  TOTAL DEPTH (DRILLER)
 VSDR.deg               235.12:  VERT SEC DIRECT
 GVFD.g                   1.00:  GRAVITY FIELD
 MFLD.nT              50294.00:  MAGNETIC FIELD
 MDIP.deg                59.61:  MAGNETIC DIP
 MDEC.deg                 6.58:  MAGNETIC DECL
 GRDC.deg                 0.09:  GRID CORRECTION
 AZTC.deg                 6.49:  AZM TOTAL CORR
 EPD .m                   0.00:  ELEVATION
 EGL .m                   0.00:  GROUND ELEVATION
 WDMS.m                 176.20:  WD ELEV
 APD .m                  43.16:  DEPTH ABOVE PD
 DEP .m                3172.61:  DEPTH
 AGAP.m                  43.16:  AIR GAP
 VSEW.m                  -5.41:  VERT SEC E/W
 VSNS.m                  -0.12:  VERT SEC N/S
 EKB .m                  43.16:  KB ELEVATION
 EDF .m                  43.16:  DF ELEVATION
 TDL .m                 295.00:  TOTAL DEPTH (LOGGER)
 VSC .                       0:  VS TO CLOSURE
 MAGU.                 1852276:  MAGUTM CHECKSUM
~Parameter Information Block
#MNEM.UNIT       Value        Description
#---------     -----------    ---------------------------
 AV  .mps                 1.60:  Ann Velocity 
 AVMX.mps                 2.10:  Max Ann Veloc 
 AZIF.deg               290.59:  Azm, Final 
 BHAT.        Rotary Steerable:  BHA Type 
 BROT.°/30m               1.00:  Build Rotating 
 BS  .in                  6.50:  Bit Size 
 BSZ .in                  6.50:  Bit Size 
 BTPL.psig              120.00:  Bit Press Loss 
 CABU.                     Yes:  Customer Abuse 
 CGEO.          Eldar Huseynov:  Customer Geo 
 COMM.                     Tì‚:  Run Comments 1 
 TCS .hr                 87.00:  Time Ciculation Ended 
 CV  .mps                 4.01:  Crit Velocity 
 CVMX.mps                 5.06:  Max Crit Veloc 
 DD1 .             Aziz Aliyev:  Direct Drillr 1 
 DD2 .            Sanan Aliyev:  Direct Drillr 2 
 DDSV.               Geo-Pilot:  DD Service 
 DEFF.%                  95.00:  % Det Eff 
 DLRX.°/30m               0.75:  Dogleg Rot Max 
 DLSO.°/30m               0.65:  Dogleg Oriented 
 DLSX.°/30m               1.39:  Dogleg Str Max 
 DRET.      18.25.00 19-Jan-20:  Drill End Time 
 DRST.      11.56.48 17-Jan-20:  Drill Start Tim 
 DTIM.hr                 27.16:  Time Drilling 
 EDEP.m                5161.01:  End Depth 
 ENG1.          Rasim Hashimov:  Engineer 1 
 ENG2.      Bakhtiyar Jabbarli:  Engineer 2 
 ETIM.      11.56.48 21-Jan-20:  End Time 
 FLOI.gpm               350.00:  Flow In 
 FLON.gpm               300.00:  Flow In Min 
 FLOS.cptm                0.00:  Fluid Loss 
 FLOX.gpm               400.00:  Flow In Max 
 HFLO.                      No:  High Flow 
 HPRE.                      No:  High Pressure 
 HTEM.                      No:  High Temp 
 HYDO.m                   1.85:  Hydro Offset 
 IFIN.deg                71.58:  Inc, Final 
 IMAX.deg                71.83:  Inc Max 
 IMIN.deg                71.12:  Inc Min 
 IMND.m                5099.48:  Inc Min Depth 
 IMXD.m                5071.08:  Inc Max Depth 
 JARR.                      No:  Jarring 
 LETM.      18.25.00 19-Jan-20:  Log End Time 
 LOST.hr                     0:  Lost Rig Time 
 LSTM.      11.56.48 17-Jan-20:  Log Start Time 
 MDCL.ppm             37000.00:  Mud Chlorides 
 MDES.     Inversion Oil/Synthetic:  Mud Desc 
 DFD .sg                  1.34:  Mud Density 
 MDMN.sg                  1.34:  Dens Mud Min 
 MDMX.sg                  1.34:  Dens Mud Max 
 MOIL.                      69:  Run Mud Oil % 
 MOWR.                   69:31:  Run Mud OWR 
 MSND.                     0.1:  Run Mud Sand % 
 MSOL.                    17.6:  Run Mud Solids% 
 DFV .spqt               79.00:  Mud Viscosity 
 MWOD.in                  4.75:  MWD Tool OD 
 MWSI.                      No:  Serv Intrp, MWD 
 OTIM.hr                126.10:  Time Operating 
 PMAX.psia             6000.00:  Press Op, Max 
 PV  .cP                 29.00:  Mud PV 
 RUN .                     400:  Run Number 
 ROPA.m/hr               11.00:  ROP Avg 
 ROPN.m/hr                5.00:  ROP Min 
 ROPX.m/hr               18.00:  ROP Max 
 RPMA.rpm               139.00:  RPM Surface Avg 
 RPMN.rpm               100.00:  RPM Surface Min 
 RPMX.rpm               140.00:  RPM Surface Max 
 RRUN.                     400:  Rig Run Number 
 SAZI.deg               290.22:  Azm, Start 
 SDEP.m                4868.01:  Start Depth 
 SIDD.                      No:  Serv Intrp, DD 
 SINC.deg                71.77:  Inc, Start 
 SPPA.psig             5550.00:  SPP Avg 
 SPPN.psig             4300.00:  SPP Min 
 SPPX.psig             5600.00:  SPP Max 
 STIM.      23.45.48 15-Jan-20:  Start Time 
 SVCS.                 DD, MWD:  Services 
 SVER.                    9.20:  Sperry Version 
 TDAT.m                5161.01:  Tot Depth Attmp 
 TDDF.                      No:  Trip for DD 
 TDLG.m                 295.00:  Tot Depth Loggd 
 TFF .                      No:  Trip for Fail 
 TQAA.f-kp               13.00:  Torque Abs Avg 
 TQAN.f-kp               13.00:  Torque Abs Min 
 TQAX.f-kp               16.00:  Torque Abs Max 
 TRRT.°/30m               0.25:  Turn Rotating 
 MRT .                     ADR:  Maximum Recorded Temperature 
 TTMX.degC               88.00:  Max Tool Temp 
 VS01.                90577859:  Virtual Str1 SN 
 VS02.                90521879:  Virtual Str2 SN 
 VS03.                90580299:  Virtual Str3 SN 
 VS04.                90515982:  Virtual Str4 SN 
 VS05.                90547765:  Virtual Str5 SN 
 WBMN.klb                 2.00:  WOB Min 
 WITN.           Adil Mammadov:  Customer Rep 
 WITN.        Elmaddin Rahimov:  Customer Rep 2 
 WOBA.klb                 3.00:  WOB Avg 
 WOBX.klb                 5.00:  WOB Max 
 YP  .lhf2               30.00:  Yield Point 
~Curve Information Block
#MNEM.UNIT                 API CODE     Curve Description
#---------               -----------    ---------------------------
 TIME.HHMMSS            00 000 000 000:  GT Time & Date
 GTDEPTH.m              00 000 000 000:  GT Depth
 GTPQH.psia             00 000 000 000:  GT HR Quartz Pressure
 GTTQ.degC              00 000 000 000:  GT Quartz Temperature
 GTTN.NONE              00 000 000 000:  GT Test Number
 GTET.sec               00 000 000 000:  GT Elapsed Test Time
 GTTVD.m                00 000 000 000:  GT True Vertical Depth
#Other Information
#
#WARRANTY: Halliburton will use its best efforts to furnish customers with 
#accurate information and interpretations that are part of, and incident to, the services 
#provided.  However, Halliburton cannot and does not warrant the accuracy 
#or correctness of such information and interpretations.  Under no circumstances should any 
#such information or interpretation be relied upon as the sole basis for any drilling, 
#completion, production, or financial decision or any procedure involving any risk to the 
#safety of any drilling venture, drilling rig or its crew or any other third party.  The 
#Customer has full responsibility for all drilling, completion and production operation.  
#Halliburton makes no representations or warranties, either expressed or 
#implied, including, but not limited to, the implied warranties of merchantability or fitness 
#for a particular purpose, with respect to the services rendered.  In no event will 
#Halliburton be liable for failure to obtain any particular results or for 
#any damages, including, but not limited to, indirect, special or consequential damages, 
#resulting from the use of any information or interpretation provided by Halliburton.
#
~A           TIME           GTDEPTH  GTPQH  GTTQ  GTTN  GTET   GTTVD  
# ...
   14:07:32.651.19-Jan-2020 5113.51 4117.13 81.77 6.00 115.02 2879.41
   14:07:32.851.19-Jan-2020 5113.51 4117.13 81.77 6.00 115.22 2879.41
   14:07:33.051.19-Jan-2020 5113.51 4117.12 81.77 6.00 115.42 2879.41
   14:07:33.251.19-Jan-2020 5113.51 4117.13 81.77 6.00 115.62 2879.41
   14:07:33.451.19-Jan-2020 5113.51 4116.95 81.77 6.00 115.82 2879.41
   14:07:33.651.19-Jan-2020 5113.51 4117.23 81.77 6.00 116.02 2879.41
   14:07:33.851.19-Jan-2020 5113.51 4117.23 81.77 6.00 116.22 2879.41
   14:07:34.051.19-Jan-2020 5113.51 4117.11 81.77 6.00 116.42 2879.41
   14:07:34.251.19-Jan-2020 5113.51 4116.98 81.77 6.00 116.62 2879.41
   14:07:34.451.19-Jan-2020 5113.51 4117.22 81.77 6.00 116.82 2879.41
   14:07:34.651.19-Jan-2020 5113.51 4117.11 81.77 6.00 117.02 2879.41
   14:07:34.851.19-Jan-2020 5113.51 4117.11 81.77 6.00 117.22 2879.41
   14:07:35.051.19-Jan-2020 5113.51 4117.13 81.77 6.00 117.42 2879.41
   14:07:35.251.19-Jan-2020 5113.51 4117.12 81.77 6.00 117.62 2879.41
   14:07:35.452.19-Jan-2020 5113.51 4116.96 81.77 6.00 117.82 2879.41
   14:07:35.652.19-Jan-2020 5113.51 4117.21 81.77 6.00 118.02 2879.41
   14:07:35.852.19-Jan-2020 5113.51 4117.21 81.77 6.00 118.22 2879.41
   14:07:36.052.19-Jan-2020 5113.51 4117.09 81.77 6.00 118.42 2879.41
   14:07:36.252.19-Jan-2020 5113.51 4117.14 81.77 6.00 118.62 2879.41
   14:07:36.452.19-Jan-2020 5113.51 4116.95 81.77 6.00 118.82 2879.41
   14:07:36.652.19-Jan-2020 5113.51 4117.22 81.77 6.00 119.02 2879.41
   14:07:36.852.19-Jan-2020 5113.51 4117.22 81.77 6.00 119.22 2879.41
   14:07:37.052.19-Jan-2020 5113.51 4117.10 81.77 6.00 119.42 2879.41
   14:07:37.252.19-Jan-2020 5113.51 4117.12 81.77 6.00 119.62 2879.41
   14:07:37.452.19-Jan-2020 5113.51 4117.12 81.77 6.00 119.82 2879.41
   14:07:37.652.19-Jan-2020 5113.51 4117.11 81.76 6.00 120.02 2879.41
   14:07:37.852.19-Jan-2020 5113.51 4117.11 81.76 6.00 120.22 2879.41
   14:07:38.052.19-Jan-2020 5113.51 4117.10 81.76 6.00 120.42 2879.41
   14:07:38.252.19-Jan-2020 5113.51 4117.11 81.76 6.00 120.62 2879.41
   14:07:38.452.19-Jan-2020 5113.51 4117.12 81.76 6.00 120.82 2879.41
   14:07:38.652.19-Jan-2020 5113.51 4117.10 81.76 6.00 121.02 2879.41
   14:07:38.852.19-Jan-2020 5113.51 4117.10 81.76 6.00 121.22 2879.41
   14:07:39.052.19-Jan-2020 5113.51 4117.10 81.76 6.00 121.42 2879.41
   14:07:39.252.19-Jan-2020 5113.51 4117.11 81.76 6.00 121.62 2879.41
   14:07:39.452.19-Jan-2020 5113.51 4117.10 81.76 6.00 121.83 2879.41
   14:07:39.652.19-Jan-2020 5113.51 4116.96 81.76 6.00 122.03 2879.41
   14:07:39.852.19-Jan-2020 5113.51 4116.96 81.76 6.00 122.23 2879.41
   14:07:40.052.19-Jan-2020 5113.51 4117.11 81.76 6.00 122.43 2879.41
   14:07:40.253.19-Jan-2020 5113.51 4117.08 81.76 6.00 122.63 2879.41
   14:07:40.453.19-Jan-2020 5113.51 4117.12 81.76 6.00 122.83 2879.41
   14:07:40.653.19-Jan-2020 5113.51 4117.12 81.76 6.00 123.03 2879.41
   14:07:40.853.19-Jan-2020 5113.51 4117.12 81.76 6.00 123.23 2879.41
   14:07:41.053.19-Jan-2020 5113.51 4117.11 81.76 6.00 123.43 2879.41
   14:07:41.253.19-Jan-2020 5113.51 4117.10 81.76 6.00 123.63 2879.41
   14:07:41.453.19-Jan-2020 5113.51 4117.11 81.76 6.00 123.83 2879.41
   14:07:41.653.19-Jan-2020 5113.51 4117.08 81.76 6.00 124.03 2879.41
   14:07:41.853.19-Jan-2020 5113.51 4117.08 81.76 6.00 124.23 2879.41
   14:07:42.053.19-Jan-2020 5113.51 4117.11 81.76 6.00 124.43 2879.41
   14:07:42.253.19-Jan-2020 5113.51 4117.11 81.76 6.00 124.63 2879.41
   14:07:42.453.19-Jan-2020 5113.51 4117.08 81.76 6.00 124.83 2879.41
   14:07:42.653.19-Jan-2020 5113.51 4117.11 81.76 6.00 125.03 2879.41
   14:07:42.853.19-Jan-2020 5113.51 4117.11 81.76 6.00 125.23 2879.41
   14:07:43.053.19-Jan-2020 5113.51 4116.94 81.76 6.00 125.43 2879.41
   14:07:43.253.19-Jan-2020 5113.51 4117.20 81.76 6.00 125.63 2879.41
   14:07:43.453.19-Jan-2020 5113.51 4117.08 81.76 6.00 125.83 2879.41
   14:07:43.653.19-Jan-2020 5113.51 4117.09 81.75 6.00 126.03 2879.41
   14:07:43.853.19-Jan-2020 5113.51 4117.09 81.75 6.00 126.23 2879.41
   14:07:44.053.19-Jan-2020 5113.51 4117.21 81.75 6.00 126.43 2879.41
   14:07:44.253.19-Jan-2020 5113.51 4117.08 81.75 6.00 126.63 2879.41
   14:07:44.453.19-Jan-2020 5113.51 4117.09 81.75 6.00 126.83 2879.41
   14:07:44.653.19-Jan-2020 5113.51 4117.11 81.75 6.00 127.03 2879.41
   14:07:44.853.19-Jan-2020 5113.51 4117.11 81.75 6.00 127.23 2879.41
   14:07:45.053.19-Jan-2020 5113.51 4116.94 81.75 6.00 127.43 2879.41
   14:07:45.254.19-Jan-2020 5113.51 4117.19 81.75 6.00 127.63 2879.41
   14:07:45.454.19-Jan-2020 5113.51 4117.11 81.75 6.00 127.83 2879.41
   14:07:45.654.19-Jan-2020 5113.51 4117.07 81.75 6.00 128.03 2879.41
   14:07:45.854.19-Jan-2020 5113.51 4117.07 81.75 6.00 128.23 2879.41
   14:07:46.054.19-Jan-2020 5113.51 4117.12 81.75 6.00 128.43 2879.41
   14:07:46.254.19-Jan-2020 5113.51 4117.20 81.75 6.00 128.63 2879.41
   14:07:46.454.19-Jan-2020 5113.51 4117.08 81.75 6.00 128.83 2879.41
   14:07:46.654.19-Jan-2020 5113.51 4117.09 81.75 6.00 129.03 2879.41
   14:07:46.854.19-Jan-2020 5113.51 4117.09 81.75 6.00 129.23 2879.41
   14:07:47.054.19-Jan-2020 5113.51 4117.10 81.75 6.00 129.43 2879.41
   14:07:47.254.19-Jan-2020 5113.51 4117.09 81.75 6.00 129.63 2879.41
   14:07:47.454.19-Jan-2020 5113.51 4117.10 81.75 6.00 129.83 2879.41
   14:07:47.654.19-Jan-2020 5113.51 4117.09 81.75 6.00 130.03 2879.41
   14:07:47.854.19-Jan-2020 5113.51 4117.09 81.75 6.00 130.23 2879.41
   14:07:48.054.19-Jan-2020 5113.51 4117.09 81.75 6.00 130.43 2879.41
   14:07:48.254.19-Jan-2020 5113.51 4117.09 81.75 6.00 130.63 2879.41
   14:07:48.454.19-Jan-2020 5113.51 4117.09 81.75 6.00 130.83 2879.41
   14:07:48.654.19-Jan-2020 5113.51 4117.08 81.75 6.00 131.03 2879.41
   14:07:48.854.19-Jan-2020 5113.51 4117.08 81.75 6.00 131.23 2879.41
   14:07:49.054.19-Jan-2020 5113.51 4117.07 81.75 6.00 131.43 2879.41
   14:07:49.254.19-Jan-2020 5113.51 4116.94 81.75 6.00 131.63 2879.41
   14:07:49.454.19-Jan-2020 5113.51 4117.18 81.75 6.00 131.83 2879.41
   14:07:49.654.19-Jan-2020 5113.51 4117.08 81.74 6.00 132.03 2879.41
   14:07:49.854.19-Jan-2020 5113.51 4117.08 81.74 6.00 132.23 2879.41
   14:07:50.055.19-Jan-2020 5113.51 4117.11 81.74 6.00 132.43 2879.41
   14:07:50.255.19-Jan-2020 5113.51 4117.09 81.74 6.00 132.63 2879.41
   14:07:50.455.19-Jan-2020 5113.51 4117.09 81.74 6.00 132.83 2879.41
   14:07:50.655.19-Jan-2020 5113.51 4117.09 81.74 6.00 133.03 2879.41
   14:07:50.855.19-Jan-2020 5113.51 4117.09 81.74 6.00 133.23 2879.41
   14:07:51.055.19-Jan-2020 5113.51 4117.09 81.74 6.00 133.43 2879.41
   14:07:51.255.19-Jan-2020 5113.51 4117.07 81.74 6.00 133.63 2879.41
   14:07:51.455.19-Jan-2020 5113.51 4117.09 81.74 6.00 133.83 2879.41
   14:07:51.655.19-Jan-2020 5113.51 4117.07 81.74 6.00 134.03 2879.41
   14:07:51.855.19-Jan-2020 5113.51 4117.07 81.74 6.00 134.23 2879.41
   14:07:52.055.19-Jan-2020 5113.51 4117.06 81.74 6.00 134.43 2879.41
   14:07:52.255.19-Jan-2020 5113.51 4117.10 81.74 6.00 134.63 2879.41
   14:07:52.455.19-Jan-2020 5113.51 4117.06 81.74 6.00 134.83 2879.41
   14:07:52.655.19-Jan-2020 5113.51 4116.93 81.74 6.00 135.03 2879.41
   14:07:52.855.19-Jan-2020 5113.51 4116.93 81.74 6.00 135.23 2879.41
   14:07:53.055.19-Jan-2020 5113.51 4117.07 81.74 6.00 135.43 2879.41
   14:07:53.255.19-Jan-2020 5113.51 4117.06 81.74 6.00 135.63 2879.41
   14:07:53.455.19-Jan-2020 5113.51 4116.93 81.74 6.00 135.83 2879.41
   14:07:53.655.19-Jan-2020 5113.51 4117.18 81.74 6.00 136.03 2879.41
   14:07:53.855.19-Jan-2020 5113.51 4117.18 81.74 6.00 136.23 2879.41
   14:07:54.055.19-Jan-2020 5113.51 4117.07 81.74 6.00 136.43 2879.41
   14:07:54.255.19-Jan-2020 5113.51 4117.09 81.74 6.00 136.63 2879.41
   14:07:54.455.19-Jan-2020 5113.51 4117.09 81.74 6.00 136.83 2879.41
   14:07:54.655.19-Jan-2020 5113.51 4116.92 81.74 6.00 137.03 2879.41
   14:07:54.856.19-Jan-2020 5113.51 4116.92 81.74 6.00 137.23 2879.41
   14:07:55.056.19-Jan-2020 5113.51 4117.09 81.74 6.00 137.43 2879.41
   14:07:55.256.19-Jan-2020 5113.51 4117.05 81.74 6.00 137.63 2879.41
   14:07:55.456.19-Jan-2020 5113.51 4117.09 81.74 6.00 137.83 2879.41
