~Version Information
 VERS.                  2.0:   CWLS log ASCII Standard -VERSION 2.0
 WRAP.                   NO:   One line per depth step
~Well Information Block
#MNEM.UNIT     VALUE/NAME     DESCRIPTION
#---------     -----------    ---------------------------
 STRT.S             05:36:55 19-Jan-20: START TIME 05:36:55 19-Jan-20
 STOP.S             05:44:47 19-Jan-20: STOP TIME  05:44:47 19-Jan-20
 STEP.S                   0.00: STEP TIME
 NULL.                 -999.25: NULL VALUE
 DFWT.                        :  DIST FWL TEXT
 DFST.                        :  DIST FSL TEXT
 DMF .             Drill Floor:  DRILL MEAS FROM
 STIM.      17.57.20 21-Dec-19:  START TIME
 DATE.      17.57.20 21-Dec-19:  END TIME
 SPUD.               21-Dec-19:  SPUD DATE
 NREF.                    Grid:  NORTH REFERENCE
 HPTY.       Minimum Curvature:  HOLE POS TYPE
 DMOD.             Drill Model:  DRILL MOD DESC
 SVYD.                  Survey:  SURVEY DESC
 ILTD.               Lithology:  INTERP LTH DESC
 FTOP.          Formation Tops:  FORM TOPS DESC
 PDAT.          Mean Sea Level:  PERMANENT DATUM
 FLD .                     ACG:  FIELD NAME
 SON .        AZ-XX-0905715376:  JOB NUMBER
 CTRY.              Azerbaijan:  COUNTRY NAME
 WELL.                    E04Y:  WELL NAME
 SRVC.          TURAN DRILLING:  CONTRACTOR
 COMP.     BP Exploration (Caspian Sea) Ltd.:  COMPANY
 WTYP.                Deviated:  WELL TYPE
 UWI .                     N/a:  UNIQUE WELL IDENTIFIER
 API .                     N/a:  API NUMBER
 BASE.              Azerbaijan:  LOGGING EQUIPMENT BASE LOCATION
 REGN.                   EESSA:  REGION
 MWDS.                    Baku:  MWD SHOP
 RIG .                     DWG:  RIG NAME
 DOE .                     N/a:  DOE NUMBER
 CNTY.                    Baku:  COUNTY NAME
 DCON.         Sperry Drilling:  DIRECTNL CONTR
 UNIT.                     N/a:  LOGGING EQUIPMENT ID
 MDS .        Operator Entered:  MAG DATA SOURCE
 PROV.                        :  PROVINCE
 STAT.                        :  STATE
 LOC .                        :  LOCATION
 LMF .             Drill Floor:  LOG MEASURED FROM
 TVDS.m                  43.16:  TVDSS CORRECTN
 LATI.deg                40.17:  LATITUDE
 LONG.deg                51.17:  LONGITUDE
 WHNS.m                  -0.12:  WELL HEAD N/S
 WHEW.m                  -5.41:  WELL HEAD E/W
 UTMX.m              514337.95:  UTM X
 UTMY.m             4448627.46:  UTM Y
 DFWL.m                   0.00:  DISTANCE FWL
 DFSL.m                   0.00:  DISTANCE FSL
 SDEP.m                   0.00:  START DEPTH
 TDD .m                   0.00:  TOTAL DEPTH (DRILLER)
 VSDR.deg               235.12:  VERT SEC DIRECT
 GVFD.g                   1.00:  GRAVITY FIELD
 MFLD.nT              50294.00:  MAGNETIC FIELD
 MDIP.deg                59.61:  MAGNETIC DIP
 MDEC.deg                 6.58:  MAGNETIC DECL
 GRDC.deg                 0.09:  GRID CORRECTION
 AZTC.deg                 6.49:  AZM TOTAL CORR
 EPD .m                   0.00:  ELEVATION
 EGL .m                   0.00:  GROUND ELEVATION
 WDMS.m                 176.20:  WD ELEV
 APD .m                  43.16:  DEPTH ABOVE PD
 DEP .m                3172.61:  DEPTH
 AGAP.m                  43.16:  AIR GAP
 VSEW.m                  -5.41:  VERT SEC E/W
 VSNS.m                  -0.12:  VERT SEC N/S
 EKB .m                  43.16:  KB ELEVATION
 EDF .m                  43.16:  DF ELEVATION
 TDL .m                 295.00:  TOTAL DEPTH (LOGGER)
 VSC .                       0:  VS TO CLOSURE
 MAGU.                 1852276:  MAGUTM CHECKSUM
~Parameter Information Block
#MNEM.UNIT       Value        Description
#---------     -----------    ---------------------------
 AV  .mps                 1.60:  Ann Velocity 
 AVMX.mps                 2.10:  Max Ann Veloc 
 AZIF.deg               290.59:  Azm, Final 
 BHAT.        Rotary Steerable:  BHA Type 
 BROT.°/30m               1.00:  Build Rotating 
 BS  .in                  6.50:  Bit Size 
 BSZ .in                  6.50:  Bit Size 
 BTPL.psig              120.00:  Bit Press Loss 
 CABU.                     Yes:  Customer Abuse 
 CGEO.          Eldar Huseynov:  Customer Geo 
 COMM.                     Lì_:  Run Comments 1 
 TCS .hr                 87.00:  Time Ciculation Ended 
 CV  .mps                 4.01:  Crit Velocity 
 CVMX.mps                 5.06:  Max Crit Veloc 
 DD1 .             Aziz Aliyev:  Direct Drillr 1 
 DD2 .            Sanan Aliyev:  Direct Drillr 2 
 DDSV.               Geo-Pilot:  DD Service 
 DEFF.%                  95.00:  % Det Eff 
 DLRX.°/30m               0.75:  Dogleg Rot Max 
 DLSO.°/30m               0.65:  Dogleg Oriented 
 DLSX.°/30m               1.39:  Dogleg Str Max 
 DRET.      18.25.00 19-Jan-20:  Drill End Time 
 DRST.      11.56.48 17-Jan-20:  Drill Start Tim 
 DTIM.hr                 27.16:  Time Drilling 
 EDEP.m                5161.01:  End Depth 
 ENG1.          Rasim Hashimov:  Engineer 1 
 ENG2.      Bakhtiyar Jabbarli:  Engineer 2 
 ETIM.      11.56.48 21-Jan-20:  End Time 
 FLOI.gpm               350.00:  Flow In 
 FLON.gpm               300.00:  Flow In Min 
 FLOS.cptm                0.00:  Fluid Loss 
 FLOX.gpm               400.00:  Flow In Max 
 HFLO.                      No:  High Flow 
 HPRE.                      No:  High Pressure 
 HTEM.                      No:  High Temp 
 HYDO.m                   1.85:  Hydro Offset 
 IFIN.deg                71.58:  Inc, Final 
 IMAX.deg                71.83:  Inc Max 
 IMIN.deg                71.12:  Inc Min 
 IMND.m                5099.48:  Inc Min Depth 
 IMXD.m                5071.08:  Inc Max Depth 
 JARR.                      No:  Jarring 
 LETM.      18.25.00 19-Jan-20:  Log End Time 
 LOST.hr                     0:  Lost Rig Time 
 LSTM.      11.56.48 17-Jan-20:  Log Start Time 
 MDCL.ppm             37000.00:  Mud Chlorides 
 MDES.     Inversion Oil/Synthetic:  Mud Desc 
 DFD .sg                  1.34:  Mud Density 
 MDMN.sg                  1.34:  Dens Mud Min 
 MDMX.sg                  1.34:  Dens Mud Max 
 MOIL.                      69:  Run Mud Oil % 
 MOWR.                   69:31:  Run Mud OWR 
 MSND.                     0.1:  Run Mud Sand % 
 MSOL.                    17.6:  Run Mud Solids% 
 DFV .spqt               79.00:  Mud Viscosity 
 MWOD.in                  4.75:  MWD Tool OD 
 MWSI.                      No:  Serv Intrp, MWD 
 OTIM.hr                126.10:  Time Operating 
 PMAX.psia             6000.00:  Press Op, Max 
 PV  .cP                 29.00:  Mud PV 
 RUN .                     400:  Run Number 
 ROPA.m/hr               11.00:  ROP Avg 
 ROPN.m/hr                5.00:  ROP Min 
 ROPX.m/hr               18.00:  ROP Max 
 RPMA.rpm               139.00:  RPM Surface Avg 
 RPMN.rpm               100.00:  RPM Surface Min 
 RPMX.rpm               140.00:  RPM Surface Max 
 RRUN.                     400:  Rig Run Number 
 SAZI.deg               290.22:  Azm, Start 
 SDEP.m                4868.01:  Start Depth 
 SIDD.                      No:  Serv Intrp, DD 
 SINC.deg                71.77:  Inc, Start 
 SPPA.psig             5550.00:  SPP Avg 
 SPPN.psig             4300.00:  SPP Min 
 SPPX.psig             5600.00:  SPP Max 
 STIM.      23.45.48 15-Jan-20:  Start Time 
 SVCS.                 DD, MWD:  Services 
 SVER.                    9.20:  Sperry Version 
 TDAT.m                5161.01:  Tot Depth Attmp 
 TDDF.                      No:  Trip for DD 
 TDLG.m                 295.00:  Tot Depth Loggd 
 TFF .                      No:  Trip for Fail 
 TQAA.f-kp               13.00:  Torque Abs Avg 
 TQAN.f-kp               13.00:  Torque Abs Min 
 TQAX.f-kp               16.00:  Torque Abs Max 
 TRRT.°/30m               0.25:  Turn Rotating 
 MRT .                     ADR:  Maximum Recorded Temperature 
 TTMX.degC               88.00:  Max Tool Temp 
 VS01.                90577859:  Virtual Str1 SN 
 VS02.                90521879:  Virtual Str2 SN 
 VS03.                90580299:  Virtual Str3 SN 
 VS04.                90515982:  Virtual Str4 SN 
 VS05.                90547765:  Virtual Str5 SN 
 WBMN.klb                 2.00:  WOB Min 
 WITN.           Adil Mammadov:  Customer Rep 
 WITN.        Elmaddin Rahimov:  Customer Rep 2 
 WOBA.klb                 3.00:  WOB Avg 
 WOBX.klb                 5.00:  WOB Max 
 YP  .lhf2               30.00:  Yield Point 
~Curve Information Block
#MNEM.UNIT                 API CODE     Curve Description
#---------               -----------    ---------------------------
 TIME.HHMMSS            00 000 000 000:  GT Time & Date
 GTDEPTH.m              00 000 000 000:  GT Depth
 GTPQH.psia             00 000 000 000:  GT HR Quartz Pressure
 GTTQ.degC              00 000 000 000:  GT Quartz Temperature
 GTTN.NONE              00 000 000 000:  GT Test Number
 GTET.sec               00 000 000 000:  GT Elapsed Test Time
 GTTVD.m                00 000 000 000:  GT True Vertical Depth
#Other Information
#
#WARRANTY: Halliburton will use its best efforts to furnish customers with 
#accurate information and interpretations that are part of, and incident to, the services 
#provided.  However, Halliburton cannot and does not warrant the accuracy 
#or correctness of such information and interpretations.  Under no circumstances should any 
#such information or interpretation be relied upon as the sole basis for any drilling, 
#completion, production, or financial decision or any procedure involving any risk to the 
#safety of any drilling venture, drilling rig or its crew or any other third party.  The 
#Customer has full responsibility for all drilling, completion and production operation.  
#Halliburton makes no representations or warranties, either expressed or 
#implied, including, but not limited to, the implied warranties of merchantability or fitness 
#for a particular purpose, with respect to the services rendered.  In no event will 
#Halliburton be liable for failure to obtain any particular results or for 
#any damages, including, but not limited to, indirect, special or consequential damages, 
#resulting from the use of any information or interpretation provided by Halliburton.
#
~A           TIME           GTDEPTH  GTPQH  GTTQ  GTTN  GTET   GTTVD  
# ...
   05:43:26.682.19-Jan-2020 5052.01 4085.44 81.10 4.00 391.08 2859.87
   05:43:26.882.19-Jan-2020 5052.01 4085.44 81.10 4.00 391.28 2859.87
   05:43:27.082.19-Jan-2020 5052.01 4085.56 81.10 4.00 391.48 2859.87
   05:43:27.282.19-Jan-2020 5052.01 4085.61 81.10 4.00 391.68 2859.87
   05:43:27.482.19-Jan-2020 5052.01 4085.59 81.10 4.00 391.88 2859.87
   05:43:27.682.19-Jan-2020 5052.01 4085.58 81.10 4.00 392.08 2859.87
   05:43:27.882.19-Jan-2020 5052.01 4085.58 81.10 4.00 392.28 2859.87
   05:43:28.082.19-Jan-2020 5052.01 4085.53 81.10 4.00 392.48 2859.87
   05:43:28.282.19-Jan-2020 5052.01 4085.52 81.10 4.00 392.68 2859.87
   05:43:28.482.19-Jan-2020 5052.01 4085.60 81.10 4.00 392.88 2859.87
   05:43:28.682.19-Jan-2020 5052.01 4085.56 81.10 4.00 393.08 2859.87
   05:43:28.882.19-Jan-2020 5052.01 4085.56 81.10 4.00 393.28 2859.87
   05:43:29.082.19-Jan-2020 5052.01 4085.58 81.10 4.00 393.48 2859.87
   05:43:29.282.19-Jan-2020 5052.01 4085.58 81.09 4.00 393.68 2859.87
   05:43:29.482.19-Jan-2020 5052.01 4085.58 81.09 4.00 393.88 2859.87
   05:43:29.682.19-Jan-2020 5052.01 4085.45 81.09 4.00 394.08 2859.87
   05:43:29.882.19-Jan-2020 5052.01 4085.45 81.09 4.00 394.28 2859.87
   05:43:30.082.19-Jan-2020 5052.01 4085.58 81.09 4.00 394.48 2859.87
   05:43:30.282.19-Jan-2020 5052.01 4085.56 81.09 4.00 394.68 2859.87
   05:43:30.482.19-Jan-2020 5052.01 4085.60 81.09 4.00 394.88 2859.87
   05:43:30.682.19-Jan-2020 5052.01 4085.57 81.09 4.00 395.08 2859.87
   05:43:30.882.19-Jan-2020 5052.01 4085.57 81.09 4.00 395.28 2859.87
   05:43:31.083.19-Jan-2020 5052.01 4085.56 81.09 4.00 395.48 2859.87
   05:43:31.283.19-Jan-2020 5052.01 4085.57 81.09 4.00 395.68 2859.87
   05:43:31.483.19-Jan-2020 5052.01 4085.55 81.09 4.00 395.88 2859.87
   05:43:31.683.19-Jan-2020 5052.01 4085.56 81.09 4.00 396.08 2859.87
   05:43:31.883.19-Jan-2020 5052.01 4085.56 81.09 4.00 396.28 2859.87
   05:43:32.083.19-Jan-2020 5052.01 4085.55 81.09 4.00 396.48 2859.87
   05:43:32.283.19-Jan-2020 5052.01 4085.54 81.09 4.00 396.68 2859.87
   05:43:32.483.19-Jan-2020 5052.01 4085.56 81.09 4.00 396.88 2859.87
   05:43:32.683.19-Jan-2020 5052.01 4085.54 81.09 4.00 397.08 2859.87
   05:43:32.883.19-Jan-2020 5052.01 4085.54 81.09 4.00 397.28 2859.87
   05:43:33.083.19-Jan-2020 5052.01 4085.42 81.09 4.00 397.48 2859.87
   05:43:33.283.19-Jan-2020 5052.01 4085.62 81.09 4.00 397.68 2859.87
   05:43:33.483.19-Jan-2020 5052.01 4085.58 81.09 4.00 397.88 2859.87
   05:43:33.683.19-Jan-2020 5052.01 4085.56 81.09 4.00 398.08 2859.87
   05:43:33.883.19-Jan-2020 5052.01 4085.56 81.09 4.00 398.28 2859.87
   05:43:34.083.19-Jan-2020 5052.01 4085.55 81.09 4.00 398.48 2859.87
   05:43:34.283.19-Jan-2020 5052.01 4085.58 81.09 4.00 398.68 2859.87
   05:43:34.483.19-Jan-2020 5052.01 4085.55 81.08 4.00 398.88 2859.87
   05:43:34.683.19-Jan-2020 5052.01 4085.56 81.08 4.00 399.09 2859.87
   05:43:34.883.19-Jan-2020 5052.01 4085.56 81.08 4.00 399.29 2859.87
   05:43:35.083.19-Jan-2020 5052.01 4085.55 81.08 4.00 399.49 2859.87
   05:43:35.283.19-Jan-2020 5052.01 4085.55 81.08 4.00 399.69 2859.87
   05:43:35.483.19-Jan-2020 5052.01 4085.54 81.08 4.00 399.89 2859.87
   05:43:35.683.19-Jan-2020 5052.01 4085.54 81.08 4.00 400.09 2859.87
   05:43:35.884.19-Jan-2020 5052.01 4085.54 81.08 4.00 400.29 2859.87
   05:43:36.084.19-Jan-2020 5052.01 4085.54 81.08 4.00 400.49 2859.87
   05:43:36.284.19-Jan-2020 5052.01 4085.52 81.08 4.00 400.69 2859.87
   05:43:36.484.19-Jan-2020 5052.01 4085.42 81.08 4.00 400.89 2859.87
   05:43:36.684.19-Jan-2020 5052.01 4085.62 81.08 4.00 401.09 2859.87
   05:43:36.884.19-Jan-2020 5052.01 4085.62 81.08 4.00 401.29 2859.87
   05:43:37.084.19-Jan-2020 5052.01 4085.57 81.08 4.00 401.49 2859.87
   05:43:37.284.19-Jan-2020 5052.01 4085.58 81.08 4.00 401.69 2859.87
   05:43:37.484.19-Jan-2020 5052.01 4085.55 81.08 4.00 401.89 2859.87
   05:43:37.684.19-Jan-2020 5052.01 4085.56 81.08 4.00 402.09 2859.87
   05:43:37.884.19-Jan-2020 5052.01 4085.56 81.08 4.00 402.29 2859.87
   05:43:38.084.19-Jan-2020 5052.01 4085.63 81.08 4.00 402.49 2859.87
   05:43:38.284.19-Jan-2020 5052.01 4085.57 81.08 4.00 402.69 2859.87
   05:43:38.484.19-Jan-2020 5052.01 4085.58 81.08 4.00 402.89 2859.87
   05:43:38.684.19-Jan-2020 5052.01 4085.58 81.08 4.00 403.09 2859.87
   05:43:38.884.19-Jan-2020 5052.01 4085.58 81.08 4.00 403.29 2859.87
   05:43:39.084.19-Jan-2020 5052.01 4085.58 81.08 4.00 403.49 2859.87
   05:43:39.284.19-Jan-2020 5052.01 4085.50 81.08 4.00 403.69 2859.87
   05:43:39.484.19-Jan-2020 5052.01 4085.52 81.08 4.00 403.89 2859.87
   05:43:39.684.19-Jan-2020 5052.01 4085.60 81.08 4.00 404.09 2859.87
   05:43:39.884.19-Jan-2020 5052.01 4085.60 81.08 4.00 404.29 2859.87
   05:43:40.084.19-Jan-2020 5052.01 4085.58 81.07 4.00 404.49 2859.87
   05:43:40.284.19-Jan-2020 5052.01 4085.58 81.07 4.00 404.69 2859.87
   05:43:40.485.19-Jan-2020 5052.01 4085.58 81.07 4.00 404.89 2859.87
   05:43:40.685.19-Jan-2020 5052.01 4085.57 81.07 4.00 405.09 2859.87
   05:43:40.885.19-Jan-2020 5052.01 4085.57 81.07 4.00 405.29 2859.87
   05:43:41.085.19-Jan-2020 5052.01 4085.61 81.07 4.00 405.49 2859.87
   05:43:41.285.19-Jan-2020 5052.01 4085.59 81.07 4.00 405.69 2859.87
   05:43:41.485.19-Jan-2020 5052.01 4085.56 81.07 4.00 405.89 2859.87
   05:43:41.685.19-Jan-2020 5052.01 4085.59 81.07 4.00 406.09 2859.87
   05:43:41.885.19-Jan-2020 5052.01 4085.59 81.07 4.00 406.29 2859.87
   05:43:42.085.19-Jan-2020 5052.01 4085.57 81.07 4.00 406.49 2859.87
   05:43:42.285.19-Jan-2020 5052.01 4085.56 81.07 4.00 406.69 2859.87
   05:43:42.485.19-Jan-2020 5052.01 4085.56 81.07 4.00 406.89 2859.87
   05:43:42.685.19-Jan-2020 5052.01 4085.55 81.07 4.00 407.09 2859.87
   05:43:42.885.19-Jan-2020 5052.01 4085.55 81.07 4.00 407.29 2859.87
   05:43:43.085.19-Jan-2020 5052.01 4085.55 81.07 4.00 407.49 2859.87
   05:43:43.285.19-Jan-2020 5052.01 4085.54 81.07 4.00 407.69 2859.87
   05:43:43.485.19-Jan-2020 5052.01 4085.55 81.07 4.00 407.89 2859.87
   05:43:43.685.19-Jan-2020 5052.01 4085.53 81.07 4.00 408.09 2859.87
   05:43:43.885.19-Jan-2020 5052.01 4085.53 81.07 4.00 408.29 2859.87
   05:43:44.085.19-Jan-2020 5052.01 4085.53 81.07 4.00 408.49 2859.87
   05:43:44.285.19-Jan-2020 5052.01 4085.41 81.07 4.00 408.69 2859.87
   05:43:44.485.19-Jan-2020 5052.01 4085.61 81.07 4.00 408.89 2859.87
   05:43:44.685.19-Jan-2020 5052.01 4085.58 81.07 4.00 409.09 2859.87
   05:43:44.885.19-Jan-2020 5052.01 4085.58 81.07 4.00 409.29 2859.87
   05:43:45.086.19-Jan-2020 5052.01 4085.59 81.07 4.00 409.49 2859.87
   05:43:45.286.19-Jan-2020 5052.01 4085.55 81.06 4.00 409.69 2859.87
   05:43:45.486.19-Jan-2020 5052.01 4085.57 81.06 4.00 409.89 2859.87
   05:43:45.686.19-Jan-2020 5052.01 4085.56 81.06 4.00 410.09 2859.87
   05:43:45.886.19-Jan-2020 5052.01 4085.56 81.06 4.00 410.29 2859.87
   05:43:46.086.19-Jan-2020 5052.01 4085.55 81.06 4.00 410.49 2859.87
   05:43:46.286.19-Jan-2020 5052.01 4085.54 81.06 4.00 410.69 2859.87
   05:43:46.486.19-Jan-2020 5052.01 4085.55 81.06 4.00 410.89 2859.87
   05:43:46.686.19-Jan-2020 5052.01 4085.54 81.06 4.00 411.09 2859.87
   05:43:46.886.19-Jan-2020 5052.01 4085.54 81.06 4.00 411.29 2859.87
   05:43:47.086.19-Jan-2020 5052.01 4085.53 81.06 4.00 411.49 2859.87
   05:43:47.286.19-Jan-2020 5052.01 4085.54 81.06 4.00 411.69 2859.87
   05:43:47.486.19-Jan-2020 5052.01 4085.52 81.06 4.00 411.89 2859.87
   05:43:47.686.19-Jan-2020 5052.01 4085.42 81.06 4.00 412.09 2859.87
   05:43:47.886.19-Jan-2020 5052.01 4085.42 81.06 4.00 412.29 2859.87
   05:43:48.086.19-Jan-2020 5052.01 4085.54 81.06 4.00 412.49 2859.87
   05:43:48.286.19-Jan-2020 5052.01 4085.58 81.06 4.00 412.69 2859.87
   05:43:48.486.19-Jan-2020 5052.01 4085.57 81.06 4.00 412.89 2859.87
   05:43:48.686.19-Jan-2020 5052.01 4085.57 81.06 4.00 413.09 2859.87
   05:43:48.886.19-Jan-2020 5052.01 4085.57 81.06 4.00 413.29 2859.87
   05:43:49.086.19-Jan-2020 5052.01 4085.44 81.06 4.00 413.49 2859.87
   05:43:49.286.19-Jan-2020 5052.01 4085.63 81.06 4.00 413.69 2859.87
   05:43:49.486.19-Jan-2020 5052.01 4085.57 81.06 4.00 413.89 2859.87
