~Version Information
 VERS.                  2.0:   CWLS log ASCII Standard -VERSION 2.0
 WRAP.                   NO:   One line per depth step
~Well Information Block
#MNEM.UNIT     VALUE/NAME     DESCRIPTION
#---------     -----------    ---------------------------
 STRT.S             05:36:55 19-Jan-20: START TIME 05:36:55 19-Jan-20
 STOP.S             05:44:47 19-Jan-20: STOP TIME  05:44:47 19-Jan-20
 STEP.S                   0.00: STEP TIME
 NULL.                 -999.25: NULL VALUE
 DFWT.                        :  DIST FWL TEXT
 DFST.                        :  DIST FSL TEXT
 DMF .             Drill Floor:  DRILL MEAS FROM
 STIM.      17.57.20 21-Dec-19:  START TIME
 DATE.      17.57.20 21-Dec-19:  END TIME
 SPUD.               21-Dec-19:  SPUD DATE
 NREF.                    Grid:  NORTH REFERENCE
 HPTY.       Minimum Curvature:  HOLE POS TYPE
 DMOD.             Drill Model:  DRILL MOD DESC
 SVYD.                  Survey:  SURVEY DESC
 ILTD.               Lithology:  INTERP LTH DESC
 FTOP.          Formation Tops:  FORM TOPS DESC
 PDAT.          Mean Sea Level:  PERMANENT DATUM
 FLD .                     ACG:  FIELD NAME
 SON .        AZ-XX-0905715376:  JOB NUMBER
 CTRY.              Azerbaijan:  COUNTRY NAME
 WELL.                    E04Y:  WELL NAME
 SRVC.          TURAN DRILLING:  CONTRACTOR
 COMP.     BP Exploration (Caspian Sea) Ltd.:  COMPANY
 WTYP.                Deviated:  WELL TYPE
 UWI .                     N/a:  UNIQUE WELL IDENTIFIER
 API .                     N/a:  API NUMBER
 BASE.              Azerbaijan:  LOGGING EQUIPMENT BASE LOCATION
 REGN.                   EESSA:  REGION
 MWDS.                    Baku:  MWD SHOP
 RIG .                     DWG:  RIG NAME
 DOE .                     N/a:  DOE NUMBER
 CNTY.                    Baku:  COUNTY NAME
 DCON.         Sperry Drilling:  DIRECTNL CONTR
 UNIT.                     N/a:  LOGGING EQUIPMENT ID
 MDS .        Operator Entered:  MAG DATA SOURCE
 PROV.                        :  PROVINCE
 STAT.                        :  STATE
 LOC .                        :  LOCATION
 LMF .             Drill Floor:  LOG MEASURED FROM
 TVDS.m                  43.16:  TVDSS CORRECTN
 LATI.deg                40.17:  LATITUDE
 LONG.deg                51.17:  LONGITUDE
 WHNS.m                  -0.12:  WELL HEAD N/S
 WHEW.m                  -5.41:  WELL HEAD E/W
 UTMX.m              514337.95:  UTM X
 UTMY.m             4448627.46:  UTM Y
 DFWL.m                   0.00:  DISTANCE FWL
 DFSL.m                   0.00:  DISTANCE FSL
 SDEP.m                   0.00:  START DEPTH
 TDD .m                   0.00:  TOTAL DEPTH (DRILLER)
 VSDR.deg               235.12:  VERT SEC DIRECT
 GVFD.g                   1.00:  GRAVITY FIELD
 MFLD.nT              50294.00:  MAGNETIC FIELD
 MDIP.deg                59.61:  MAGNETIC DIP
 MDEC.deg                 6.58:  MAGNETIC DECL
 GRDC.deg                 0.09:  GRID CORRECTION
 AZTC.deg                 6.49:  AZM TOTAL CORR
 EPD .m                   0.00:  ELEVATION
 EGL .m                   0.00:  GROUND ELEVATION
 WDMS.m                 176.20:  WD ELEV
 APD .m                  43.16:  DEPTH ABOVE PD
 DEP .m                3172.61:  DEPTH
 AGAP.m                  43.16:  AIR GAP
 VSEW.m                  -5.41:  VERT SEC E/W
 VSNS.m                  -0.12:  VERT SEC N/S
 EKB .m                  43.16:  KB ELEVATION
 EDF .m                  43.16:  DF ELEVATION
 TDL .m                 295.00:  TOTAL DEPTH (LOGGER)
 VSC .                       0:  VS TO CLOSURE
 MAGU.                 1852276:  MAGUTM CHECKSUM
~Parameter Information Block
#MNEM.UNIT       Value        Description
#---------     -----------    ---------------------------
 AV  .mps                 1.60:  Ann Velocity 
 AVMX.mps                 2.10:  Max Ann Veloc 
 AZIF.deg               290.59:  Azm, Final 
 BHAT.        Rotary Steerable:  BHA Type 
 BROT.°/30m               1.00:  Build Rotating 
 BS  .in                  6.50:  Bit Size 
 BSZ .in                  6.50:  Bit Size 
 BTPL.psig              120.00:  Bit Press Loss 
 CABU.                     Yes:  Customer Abuse 
 CGEO.          Eldar Huseynov:  Customer Geo 
 COMM.                     Lì_:  Run Comments 1 
 TCS .hr                 87.00:  Time Ciculation Ended 
 CV  .mps                 4.01:  Crit Velocity 
 CVMX.mps                 5.06:  Max Crit Veloc 
 DD1 .             Aziz Aliyev:  Direct Drillr 1 
 DD2 .            Sanan Aliyev:  Direct Drillr 2 
 DDSV.               Geo-Pilot:  DD Service 
 DEFF.%                  95.00:  % Det Eff 
 DLRX.°/30m               0.75:  Dogleg Rot Max 
 DLSO.°/30m               0.65:  Dogleg Oriented 
 DLSX.°/30m               1.39:  Dogleg Str Max 
 DRET.      18.25.00 19-Jan-20:  Drill End Time 
 DRST.      11.56.48 17-Jan-20:  Drill Start Tim 
 DTIM.hr                 27.16:  Time Drilling 
 EDEP.m                5161.01:  End Depth 
 ENG1.          Rasim Hashimov:  Engineer 1 
 ENG2.      Bakhtiyar Jabbarli:  Engineer 2 
 ETIM.      11.56.48 21-Jan-20:  End Time 
 FLOI.gpm               350.00:  Flow In 
 FLON.gpm               300.00:  Flow In Min 
 FLOS.cptm                0.00:  Fluid Loss 
 FLOX.gpm               400.00:  Flow In Max 
 HFLO.                      No:  High Flow 
 HPRE.                      No:  High Pressure 
 HTEM.                      No:  High Temp 
 HYDO.m                   1.85:  Hydro Offset 
 IFIN.deg                71.58:  Inc, Final 
 IMAX.deg                71.83:  Inc Max 
 IMIN.deg                71.12:  Inc Min 
 IMND.m                5099.48:  Inc Min Depth 
 IMXD.m                5071.08:  Inc Max Depth 
 JARR.                      No:  Jarring 
 LETM.      18.25.00 19-Jan-20:  Log End Time 
 LOST.hr                     0:  Lost Rig Time 
 LSTM.      11.56.48 17-Jan-20:  Log Start Time 
 MDCL.ppm             37000.00:  Mud Chlorides 
 MDES.     Inversion Oil/Synthetic:  Mud Desc 
 DFD .sg                  1.34:  Mud Density 
 MDMN.sg                  1.34:  Dens Mud Min 
 MDMX.sg                  1.34:  Dens Mud Max 
 MOIL.                      69:  Run Mud Oil % 
 MOWR.                   69:31:  Run Mud OWR 
 MSND.                     0.1:  Run Mud Sand % 
 MSOL.                    17.6:  Run Mud Solids% 
 DFV .spqt               79.00:  Mud Viscosity 
 MWOD.in                  4.75:  MWD Tool OD 
 MWSI.                      No:  Serv Intrp, MWD 
 OTIM.hr                126.10:  Time Operating 
 PMAX.psia             6000.00:  Press Op, Max 
 PV  .cP                 29.00:  Mud PV 
 RUN .                     400:  Run Number 
 ROPA.m/hr               11.00:  ROP Avg 
 ROPN.m/hr                5.00:  ROP Min 
 ROPX.m/hr               18.00:  ROP Max 
 RPMA.rpm               139.00:  RPM Surface Avg 
 RPMN.rpm               100.00:  RPM Surface Min 
 RPMX.rpm               140.00:  RPM Surface Max 
 RRUN.                     400:  Rig Run Number 
 SAZI.deg               290.22:  Azm, Start 
 SDEP.m                4868.01:  Start Depth 
 SIDD.                      No:  Serv Intrp, DD 
 SINC.deg                71.77:  Inc, Start 
 SPPA.psig             5550.00:  SPP Avg 
 SPPN.psig             4300.00:  SPP Min 
 SPPX.psig             5600.00:  SPP Max 
 STIM.      23.45.48 15-Jan-20:  Start Time 
 SVCS.                 DD, MWD:  Services 
 SVER.                    9.20:  Sperry Version 
 TDAT.m                5161.01:  Tot Depth Attmp 
 TDDF.                      No:  Trip for DD 
 TDLG.m                 295.00:  Tot Depth Loggd 
 TFF .                      No:  Trip for Fail 
 TQAA.f-kp               13.00:  Torque Abs Avg 
 TQAN.f-kp               13.00:  Torque Abs Min 
 TQAX.f-kp               16.00:  Torque Abs Max 
 TRRT.°/30m               0.25:  Turn Rotating 
 MRT .                     ADR:  Maximum Recorded Temperature 
 TTMX.degC               88.00:  Max Tool Temp 
 VS01.                90577859:  Virtual Str1 SN 
 VS02.                90521879:  Virtual Str2 SN 
 VS03.                90580299:  Virtual Str3 SN 
 VS04.                90515982:  Virtual Str4 SN 
 VS05.                90547765:  Virtual Str5 SN 
 WBMN.klb                 2.00:  WOB Min 
 WITN.           Adil Mammadov:  Customer Rep 
 WITN.        Elmaddin Rahimov:  Customer Rep 2 
 WOBA.klb                 3.00:  WOB Avg 
 WOBX.klb                 5.00:  WOB Max 
 YP  .lhf2               30.00:  Yield Point 
~Curve Information Block
#MNEM.UNIT                 API CODE     Curve Description
#---------               -----------    ---------------------------
 TIME.HHMMSS            00 000 000 000:  GT Time & Date
 GTDEPTH.m              00 000 000 000:  GT Depth
 GTPQH.psia             00 000 000 000:  GT HR Quartz Pressure
 GTTQ.degC              00 000 000 000:  GT Quartz Temperature
 GTTN.NONE              00 000 000 000:  GT Test Number
 GTET.sec               00 000 000 000:  GT Elapsed Test Time
 GTTVD.m                00 000 000 000:  GT True Vertical Depth
#Other Information
#
#WARRANTY: Halliburton will use its best efforts to furnish customers with 
#accurate information and interpretations that are part of, and incident to, the services 
#provided.  However, Halliburton cannot and does not warrant the accuracy 
#or correctness of such information and interpretations.  Under no circumstances should any 
#such information or interpretation be relied upon as the sole basis for any drilling, 
#completion, production, or financial decision or any procedure involving any risk to the 
#safety of any drilling venture, drilling rig or its crew or any other third party.  The 
#Customer has full responsibility for all drilling, completion and production operation.  
#Halliburton makes no representations or warranties, either expressed or 
#implied, including, but not limited to, the implied warranties of merchantability or fitness 
#for a particular purpose, with respect to the services rendered.  In no event will 
#Halliburton be liable for failure to obtain any particular results or for 
#any damages, including, but not limited to, indirect, special or consequential damages, 
#resulting from the use of any information or interpretation provided by Halliburton.
#
~A           TIME           GTDEPTH  GTPQH  GTTQ  GTTN  GTET   GTTVD  
# ...
   05:43:03.677.19-Jan-2020 5052.01 4085.59 81.14 4.00 368.08 2859.87
   05:43:03.877.19-Jan-2020 5052.01 4085.59 81.14 4.00 368.28 2859.87
   05:43:04.077.19-Jan-2020 5052.01 4085.57 81.14 4.00 368.48 2859.87
   05:43:04.277.19-Jan-2020 5052.01 4085.46 81.14 4.00 368.68 2859.87
   05:43:04.477.19-Jan-2020 5052.01 4085.64 81.14 4.00 368.88 2859.87
   05:43:04.677.19-Jan-2020 5052.01 4085.59 81.14 4.00 369.08 2859.87
   05:43:04.877.19-Jan-2020 5052.01 4085.59 81.14 4.00 369.28 2859.87
   05:43:05.077.19-Jan-2020 5052.01 4085.60 81.14 4.00 369.48 2859.87
   05:43:05.277.19-Jan-2020 5052.01 4085.58 81.14 4.00 369.68 2859.87
   05:43:05.477.19-Jan-2020 5052.01 4085.58 81.14 4.00 369.88 2859.87
   05:43:05.677.19-Jan-2020 5052.01 4085.54 81.14 4.00 370.08 2859.87
   05:43:05.877.19-Jan-2020 5052.01 4085.54 81.14 4.00 370.28 2859.87
   05:43:06.077.19-Jan-2020 5052.01 4085.62 81.14 4.00 370.48 2859.87
   05:43:06.277.19-Jan-2020 5052.01 4085.57 81.14 4.00 370.68 2859.87
   05:43:06.477.19-Jan-2020 5052.01 4085.60 81.14 4.00 370.88 2859.87
   05:43:06.677.19-Jan-2020 5052.01 4085.59 81.14 4.00 371.08 2859.87
   05:43:06.877.19-Jan-2020 5052.01 4085.59 81.14 4.00 371.28 2859.87
   05:43:07.077.19-Jan-2020 5052.01 4085.57 81.14 4.00 371.48 2859.87
   05:43:07.277.19-Jan-2020 5052.01 4085.47 81.14 4.00 371.68 2859.87
   05:43:07.477.19-Jan-2020 5052.01 4085.63 81.14 4.00 371.88 2859.87
   05:43:07.678.19-Jan-2020 5052.01 4085.62 81.13 4.00 372.08 2859.87
   05:43:07.878.19-Jan-2020 5052.01 4085.62 81.13 4.00 372.28 2859.87
   05:43:08.078.19-Jan-2020 5052.01 4085.62 81.13 4.00 372.48 2859.87
   05:43:08.278.19-Jan-2020 5052.01 4085.60 81.13 4.00 372.68 2859.87
   05:43:08.478.19-Jan-2020 5052.01 4085.59 81.13 4.00 372.88 2859.87
   05:43:08.678.19-Jan-2020 5052.01 4085.60 81.13 4.00 373.08 2859.87
   05:43:08.878.19-Jan-2020 5052.01 4085.60 81.13 4.00 373.28 2859.87
   05:43:09.078.19-Jan-2020 5052.01 4085.58 81.13 4.00 373.48 2859.87
   05:43:09.278.19-Jan-2020 5052.01 4085.57 81.13 4.00 373.68 2859.87
   05:43:09.478.19-Jan-2020 5052.01 4085.58 81.13 4.00 373.88 2859.87
   05:43:09.678.19-Jan-2020 5052.01 4085.55 81.13 4.00 374.08 2859.87
   05:43:09.878.19-Jan-2020 5052.01 4085.55 81.13 4.00 374.28 2859.87
   05:43:10.078.19-Jan-2020 5052.01 4085.57 81.13 4.00 374.48 2859.87
   05:43:10.278.19-Jan-2020 5052.01 4085.56 81.13 4.00 374.68 2859.87
   05:43:10.478.19-Jan-2020 5052.01 4085.56 81.13 4.00 374.88 2859.87
   05:43:10.678.19-Jan-2020 5052.01 4085.43 81.13 4.00 375.08 2859.87
   05:43:10.878.19-Jan-2020 5052.01 4085.43 81.13 4.00 375.28 2859.87
   05:43:11.078.19-Jan-2020 5052.01 4085.58 81.13 4.00 375.48 2859.87
   05:43:11.278.19-Jan-2020 5052.01 4085.58 81.13 4.00 375.68 2859.87
   05:43:11.478.19-Jan-2020 5052.01 4085.59 81.13 4.00 375.88 2859.87
   05:43:11.678.19-Jan-2020 5052.01 4085.57 81.13 4.00 376.08 2859.87
   05:43:11.878.19-Jan-2020 5052.01 4085.57 81.13 4.00 376.28 2859.87
   05:43:12.078.19-Jan-2020 5052.01 4085.58 81.13 4.00 376.48 2859.87
   05:43:12.279.19-Jan-2020 5052.01 4085.57 81.13 4.00 376.68 2859.87
   05:43:12.479.19-Jan-2020 5052.01 4085.57 81.13 4.00 376.88 2859.87
   05:43:12.679.19-Jan-2020 5052.01 4085.55 81.13 4.00 377.08 2859.87
   05:43:12.879.19-Jan-2020 5052.01 4085.55 81.13 4.00 377.28 2859.87
   05:43:13.079.19-Jan-2020 5052.01 4085.55 81.13 4.00 377.48 2859.87
   05:43:13.279.19-Jan-2020 5052.01 4085.55 81.12 4.00 377.68 2859.87
   05:43:13.479.19-Jan-2020 5052.01 4085.56 81.12 4.00 377.88 2859.87
   05:43:13.679.19-Jan-2020 5052.01 4085.54 81.12 4.00 378.08 2859.87
   05:43:13.879.19-Jan-2020 5052.01 4085.54 81.12 4.00 378.28 2859.87
   05:43:14.079.19-Jan-2020 5052.01 4085.42 81.12 4.00 378.48 2859.87
   05:43:14.279.19-Jan-2020 5052.01 4085.64 81.12 4.00 378.68 2859.87
   05:43:14.479.19-Jan-2020 5052.01 4085.56 81.12 4.00 378.88 2859.87
   05:43:14.679.19-Jan-2020 5052.01 4085.59 81.12 4.00 379.08 2859.87
   05:43:14.879.19-Jan-2020 5052.01 4085.59 81.12 4.00 379.28 2859.87
   05:43:15.079.19-Jan-2020 5052.01 4085.57 81.12 4.00 379.48 2859.87
   05:43:15.279.19-Jan-2020 5052.01 4085.56 81.12 4.00 379.68 2859.87
   05:43:15.479.19-Jan-2020 5052.01 4085.45 81.12 4.00 379.88 2859.87
   05:43:15.679.19-Jan-2020 5052.01 4085.64 81.12 4.00 380.08 2859.87
   05:43:15.879.19-Jan-2020 5052.01 4085.64 81.12 4.00 380.28 2859.87
   05:43:16.079.19-Jan-2020 5052.01 4085.60 81.12 4.00 380.48 2859.87
   05:43:16.279.19-Jan-2020 5052.01 4085.58 81.12 4.00 380.68 2859.87
   05:43:16.479.19-Jan-2020 5052.01 4085.58 81.12 4.00 380.88 2859.87
   05:43:16.679.19-Jan-2020 5052.01 4085.57 81.12 4.00 381.08 2859.87
   05:43:16.879.19-Jan-2020 5052.01 4085.57 81.12 4.00 381.28 2859.87
   05:43:17.080.19-Jan-2020 5052.01 4085.51 81.12 4.00 381.48 2859.87
   05:43:17.280.19-Jan-2020 5052.01 4085.62 81.12 4.00 381.68 2859.87
   05:43:17.480.19-Jan-2020 5052.01 4085.57 81.12 4.00 381.88 2859.87
   05:43:17.680.19-Jan-2020 5052.01 4085.59 81.12 4.00 382.08 2859.87
   05:43:17.880.19-Jan-2020 5052.01 4085.59 81.12 4.00 382.28 2859.87
   05:43:18.080.19-Jan-2020 5052.01 4085.58 81.12 4.00 382.48 2859.87
   05:43:18.280.19-Jan-2020 5052.01 4085.57 81.12 4.00 382.68 2859.87
   05:43:18.480.19-Jan-2020 5052.01 4085.46 81.11 4.00 382.88 2859.87
   05:43:18.680.19-Jan-2020 5052.01 4085.62 81.11 4.00 383.08 2859.87
   05:43:18.880.19-Jan-2020 5052.01 4085.62 81.11 4.00 383.28 2859.87
   05:43:19.080.19-Jan-2020 5052.01 4085.56 81.11 4.00 383.48 2859.87
   05:43:19.280.19-Jan-2020 5052.01 4085.58 81.11 4.00 383.68 2859.87
   05:43:19.480.19-Jan-2020 5052.01 4085.59 81.11 4.00 383.88 2859.87
   05:43:19.680.19-Jan-2020 5052.01 4085.57 81.11 4.00 384.08 2859.87
   05:43:19.880.19-Jan-2020 5052.01 4085.57 81.11 4.00 384.28 2859.87
   05:43:20.080.19-Jan-2020 5052.01 4085.55 81.11 4.00 384.48 2859.87
   05:43:20.280.19-Jan-2020 5052.01 4085.57 81.11 4.00 384.68 2859.87
   05:43:20.480.19-Jan-2020 5052.01 4085.55 81.11 4.00 384.88 2859.87
   05:43:20.680.19-Jan-2020 5052.01 4085.62 81.11 4.00 385.08 2859.87
   05:43:20.880.19-Jan-2020 5052.01 4085.56 81.11 4.00 385.28 2859.87
   05:43:21.080.19-Jan-2020 5052.01 4085.56 81.11 4.00 385.48 2859.87
   05:43:21.280.19-Jan-2020 5052.01 4085.56 81.11 4.00 385.68 2859.87
   05:43:21.480.19-Jan-2020 5052.01 4085.54 81.11 4.00 385.88 2859.87
   05:43:21.681.19-Jan-2020 5052.01 4085.54 81.11 4.00 386.08 2859.87
   05:43:21.881.19-Jan-2020 5052.01 4085.54 81.11 4.00 386.28 2859.87
   05:43:22.081.19-Jan-2020 5052.01 4085.65 81.11 4.00 386.48 2859.87
   05:43:22.281.19-Jan-2020 5052.01 4085.59 81.11 4.00 386.68 2859.87
   05:43:22.481.19-Jan-2020 5052.01 4085.60 81.11 4.00 386.88 2859.87
   05:43:22.681.19-Jan-2020 5052.01 4085.60 81.11 4.00 387.08 2859.87
   05:43:22.881.19-Jan-2020 5052.01 4085.60 81.11 4.00 387.28 2859.87
   05:43:23.081.19-Jan-2020 5052.01 4085.58 81.11 4.00 387.48 2859.87
   05:43:23.281.19-Jan-2020 5052.01 4085.57 81.11 4.00 387.68 2859.87
   05:43:23.481.19-Jan-2020 5052.01 4085.58 81.11 4.00 387.88 2859.87
   05:43:23.681.19-Jan-2020 5052.01 4085.56 81.10 4.00 388.08 2859.87
   05:43:23.881.19-Jan-2020 5052.01 4085.56 81.10 4.00 388.28 2859.87
   05:43:24.081.19-Jan-2020 5052.01 4085.55 81.10 4.00 388.48 2859.87
   05:43:24.281.19-Jan-2020 5052.01 4085.57 81.10 4.00 388.68 2859.87
   05:43:24.481.19-Jan-2020 5052.01 4085.55 81.10 4.00 388.88 2859.87
   05:43:24.681.19-Jan-2020 5052.01 4085.57 81.10 4.00 389.08 2859.87
   05:43:24.881.19-Jan-2020 5052.01 4085.57 81.10 4.00 389.28 2859.87
   05:43:25.081.19-Jan-2020 5052.01 4085.55 81.10 4.00 389.48 2859.87
   05:43:25.281.19-Jan-2020 5052.01 4085.43 81.10 4.00 389.68 2859.87
   05:43:25.481.19-Jan-2020 5052.01 4085.63 81.10 4.00 389.88 2859.87
   05:43:25.681.19-Jan-2020 5052.01 4085.57 81.10 4.00 390.08 2859.87
   05:43:25.881.19-Jan-2020 5052.01 4085.57 81.10 4.00 390.28 2859.87
   05:43:26.081.19-Jan-2020 5052.01 4085.58 81.10 4.00 390.48 2859.87
   05:43:26.281.19-Jan-2020 5052.01 4085.57 81.10 4.00 390.68 2859.87
   05:43:26.482.19-Jan-2020 5052.01 4085.57 81.10 4.00 390.88 2859.87
