~Version Information
 VERS.                  2.0:   CWLS log ASCII Standard -VERSION 2.0
 WRAP.                   NO:   One line per depth step
~Well Information Block
#MNEM.UNIT     VALUE/NAME     DESCRIPTION
#---------     -----------    ---------------------------
 STRT.S             19:23:23 18-Jan-20: START TIME 19:23:23 18-Jan-20
 STOP.S             19:31:15 18-Jan-20: STOP TIME  19:31:15 18-Jan-20
 STEP.S                   0.00: STEP TIME
 NULL.                 -999.25: NULL VALUE
 DFWT.                        :  DIST FWL TEXT
 DFST.                        :  DIST FSL TEXT
 DMF .             Drill Floor:  DRILL MEAS FROM
 STIM.      17.57.20 21-Dec-19:  START TIME
 DATE.      17.57.20 21-Dec-19:  END TIME
 SPUD.               21-Dec-19:  SPUD DATE
 NREF.                    Grid:  NORTH REFERENCE
 HPTY.       Minimum Curvature:  HOLE POS TYPE
 DMOD.             Drill Model:  DRILL MOD DESC
 SVYD.                  Survey:  SURVEY DESC
 ILTD.               Lithology:  INTERP LTH DESC
 FTOP.          Formation Tops:  FORM TOPS DESC
 PDAT.          Mean Sea Level:  PERMANENT DATUM
 FLD .                     ACG:  FIELD NAME
 SON .        AZ-XX-0905715376:  JOB NUMBER
 CTRY.              Azerbaijan:  COUNTRY NAME
 WELL.                    E04Y:  WELL NAME
 SRVC.          TURAN DRILLING:  CONTRACTOR
 COMP.     BP Exploration (Caspian Sea) Ltd.:  COMPANY
 WTYP.                Deviated:  WELL TYPE
 UWI .                     N/a:  UNIQUE WELL IDENTIFIER
 API .                     N/a:  API NUMBER
 BASE.              Azerbaijan:  LOGGING EQUIPMENT BASE LOCATION
 REGN.                   EESSA:  REGION
 MWDS.                    Baku:  MWD SHOP
 RIG .                     DWG:  RIG NAME
 DOE .                     N/a:  DOE NUMBER
 CNTY.                    Baku:  COUNTY NAME
 DCON.         Sperry Drilling:  DIRECTNL CONTR
 UNIT.                     N/a:  LOGGING EQUIPMENT ID
 MDS .        Operator Entered:  MAG DATA SOURCE
 PROV.                        :  PROVINCE
 STAT.                        :  STATE
 LOC .                        :  LOCATION
 LMF .             Drill Floor:  LOG MEASURED FROM
 TVDS.m                  43.16:  TVDSS CORRECTN
 LATI.deg                40.17:  LATITUDE
 LONG.deg                51.17:  LONGITUDE
 WHNS.m                  -0.12:  WELL HEAD N/S
 WHEW.m                  -5.41:  WELL HEAD E/W
 UTMX.m              514337.95:  UTM X
 UTMY.m             4448627.46:  UTM Y
 DFWL.m                   0.00:  DISTANCE FWL
 DFSL.m                   0.00:  DISTANCE FSL
 SDEP.m                   0.00:  START DEPTH
 TDD .m                   0.00:  TOTAL DEPTH (DRILLER)
 VSDR.deg               235.12:  VERT SEC DIRECT
 GVFD.g                   1.00:  GRAVITY FIELD
 MFLD.nT              50294.00:  MAGNETIC FIELD
 MDIP.deg                59.61:  MAGNETIC DIP
 MDEC.deg                 6.58:  MAGNETIC DECL
 GRDC.deg                 0.09:  GRID CORRECTION
 AZTC.deg                 6.49:  AZM TOTAL CORR
 EPD .m                   0.00:  ELEVATION
 EGL .m                   0.00:  GROUND ELEVATION
 WDMS.m                 176.20:  WD ELEV
 APD .m                  43.16:  DEPTH ABOVE PD
 DEP .m                3172.61:  DEPTH
 AGAP.m                  43.16:  AIR GAP
 VSEW.m                  -5.41:  VERT SEC E/W
 VSNS.m                  -0.12:  VERT SEC N/S
 EKB .m                  43.16:  KB ELEVATION
 EDF .m                  43.16:  DF ELEVATION
 TDL .m                 295.00:  TOTAL DEPTH (LOGGER)
 VSC .                       0:  VS TO CLOSURE
 MAGU.                 1852276:  MAGUTM CHECKSUM
~Parameter Information Block
#MNEM.UNIT       Value        Description
#---------     -----------    ---------------------------
 AV  .mps                 1.60:  Ann Velocity 
 AVMX.mps                 2.10:  Max Ann Veloc 
 AZIF.deg               290.59:  Azm, Final 
 BHAT.        Rotary Steerable:  BHA Type 
 BROT.°/30m               1.00:  Build Rotating 
 BS  .in                  6.50:  Bit Size 
 BSZ .in                  6.50:  Bit Size 
 BTPL.psig              120.00:  Bit Press Loss 
 CABU.                     Yes:  Customer Abuse 
 CGEO.          Eldar Huseynov:  Customer Geo 
 COMM.                     ”%\:  Run Comments 1 
 TCS .hr                 87.00:  Time Ciculation Ended 
 CV  .mps                 4.01:  Crit Velocity 
 CVMX.mps                 5.06:  Max Crit Veloc 
 DD1 .             Aziz Aliyev:  Direct Drillr 1 
 DD2 .            Sanan Aliyev:  Direct Drillr 2 
 DDSV.               Geo-Pilot:  DD Service 
 DEFF.%                  95.00:  % Det Eff 
 DLRX.°/30m               0.75:  Dogleg Rot Max 
 DLSO.°/30m               0.65:  Dogleg Oriented 
 DLSX.°/30m               1.39:  Dogleg Str Max 
 DRET.      18.25.00 19-Jan-20:  Drill End Time 
 DRST.      11.56.48 17-Jan-20:  Drill Start Tim 
 DTIM.hr                 27.16:  Time Drilling 
 EDEP.m                5161.01:  End Depth 
 ENG1.          Rasim Hashimov:  Engineer 1 
 ENG2.      Bakhtiyar Jabbarli:  Engineer 2 
 ETIM.      11.56.48 21-Jan-20:  End Time 
 FLOI.gpm               350.00:  Flow In 
 FLON.gpm               300.00:  Flow In Min 
 FLOS.cptm                0.00:  Fluid Loss 
 FLOX.gpm               400.00:  Flow In Max 
 HFLO.                      No:  High Flow 
 HPRE.                      No:  High Pressure 
 HTEM.                      No:  High Temp 
 HYDO.m                   1.85:  Hydro Offset 
 IFIN.deg                71.58:  Inc, Final 
 IMAX.deg                71.83:  Inc Max 
 IMIN.deg                71.12:  Inc Min 
 IMND.m                5099.48:  Inc Min Depth 
 IMXD.m                5071.08:  Inc Max Depth 
 JARR.                      No:  Jarring 
 LETM.      18.25.00 19-Jan-20:  Log End Time 
 LOST.hr                     0:  Lost Rig Time 
 LSTM.      11.56.48 17-Jan-20:  Log Start Time 
 MDCL.ppm             37000.00:  Mud Chlorides 
 MDES.     Inversion Oil/Synthetic:  Mud Desc 
 DFD .sg                  1.34:  Mud Density 
 MDMN.sg                  1.34:  Dens Mud Min 
 MDMX.sg                  1.34:  Dens Mud Max 
 MOIL.                      69:  Run Mud Oil % 
 MOWR.                   69:31:  Run Mud OWR 
 MSND.                     0.1:  Run Mud Sand % 
 MSOL.                    17.6:  Run Mud Solids% 
 DFV .spqt               79.00:  Mud Viscosity 
 MWOD.in                  4.75:  MWD Tool OD 
 MWSI.                      No:  Serv Intrp, MWD 
 OTIM.hr                126.10:  Time Operating 
 PMAX.psia             6000.00:  Press Op, Max 
 PV  .cP                 29.00:  Mud PV 
 RUN .                     400:  Run Number 
 ROPA.m/hr               11.00:  ROP Avg 
 ROPN.m/hr                5.00:  ROP Min 
 ROPX.m/hr               18.00:  ROP Max 
 RPMA.rpm               139.00:  RPM Surface Avg 
 RPMN.rpm               100.00:  RPM Surface Min 
 RPMX.rpm               140.00:  RPM Surface Max 
 RRUN.                     400:  Rig Run Number 
 SAZI.deg               290.22:  Azm, Start 
 SDEP.m                4868.01:  Start Depth 
 SIDD.                      No:  Serv Intrp, DD 
 SINC.deg                71.77:  Inc, Start 
 SPPA.psig             5550.00:  SPP Avg 
 SPPN.psig             4300.00:  SPP Min 
 SPPX.psig             5600.00:  SPP Max 
 STIM.      23.45.48 15-Jan-20:  Start Time 
 SVCS.                 DD, MWD:  Services 
 SVER.                    9.20:  Sperry Version 
 TDAT.m                5161.01:  Tot Depth Attmp 
 TDDF.                      No:  Trip for DD 
 TDLG.m                 295.00:  Tot Depth Loggd 
 TFF .                      No:  Trip for Fail 
 TQAA.f-kp               13.00:  Torque Abs Avg 
 TQAN.f-kp               13.00:  Torque Abs Min 
 TQAX.f-kp               16.00:  Torque Abs Max 
 TRRT.°/30m               0.25:  Turn Rotating 
 MRT .                     ADR:  Maximum Recorded Temperature 
 TTMX.degC               88.00:  Max Tool Temp 
 VS01.                90577859:  Virtual Str1 SN 
 VS02.                90521879:  Virtual Str2 SN 
 VS03.                90580299:  Virtual Str3 SN 
 VS04.                90515982:  Virtual Str4 SN 
 VS05.                90547765:  Virtual Str5 SN 
 WBMN.klb                 2.00:  WOB Min 
 WITN.           Adil Mammadov:  Customer Rep 
 WITN.        Elmaddin Rahimov:  Customer Rep 2 
 WOBA.klb                 3.00:  WOB Avg 
 WOBX.klb                 5.00:  WOB Max 
 YP  .lhf2               30.00:  Yield Point 
~Curve Information Block
#MNEM.UNIT                 API CODE     Curve Description
#---------               -----------    ---------------------------
 TIME.HHMMSS            00 000 000 000:  GT Time & Date
 GTDEPTH.m              00 000 000 000:  GT Depth
 GTPQH.psia             00 000 000 000:  GT HR Quartz Pressure
 GTTQ.degC              00 000 000 000:  GT Quartz Temperature
 GTTN.NONE              00 000 000 000:  GT Test Number
 GTET.sec               00 000 000 000:  GT Elapsed Test Time
 GTTVD.m                00 000 000 000:  GT True Vertical Depth
#Other Information
#
#WARRANTY: Halliburton will use its best efforts to furnish customers with 
#accurate information and interpretations that are part of, and incident to, the services 
#provided.  However, Halliburton cannot and does not warrant the accuracy 
#or correctness of such information and interpretations.  Under no circumstances should any 
#such information or interpretation be relied upon as the sole basis for any drilling, 
#completion, production, or financial decision or any procedure involving any risk to the 
#safety of any drilling venture, drilling rig or its crew or any other third party.  The 
#Customer has full responsibility for all drilling, completion and production operation.  
#Halliburton makes no representations or warranties, either expressed or 
#implied, including, but not limited to, the implied warranties of merchantability or fitness 
#for a particular purpose, with respect to the services rendered.  In no event will 
#Halliburton be liable for failure to obtain any particular results or for 
#any damages, including, but not limited to, indirect, special or consequential damages, 
#resulting from the use of any information or interpretation provided by Halliburton.
#
~A           TIME           GTDEPTH  GTPQH  GTTQ  GTTN  GTET   GTTVD  
# ...
   19:30:40.224.18-Jan-2020 4980.01 4428.13 80.58 3.00 437.08 2836.95
   19:30:40.424.18-Jan-2020 4980.01 4428.13 80.58 3.00 437.28 2836.95
   19:30:40.624.18-Jan-2020 4980.01 4428.13 80.58 3.00 437.48 2836.95
   19:30:40.824.18-Jan-2020 4980.01 4427.97 80.58 3.00 437.68 2836.95
   19:30:41.024.18-Jan-2020 4980.01 4428.25 80.58 3.00 437.88 2836.95
   19:30:41.224.18-Jan-2020 4980.01 4428.16 80.58 3.00 438.08 2836.95
   19:30:41.424.18-Jan-2020 4980.01 4428.16 80.58 3.00 438.28 2836.95
   19:30:41.624.18-Jan-2020 4980.01 4428.15 80.58 3.00 438.48 2836.95
   19:30:41.824.18-Jan-2020 4980.01 4428.15 80.58 3.00 438.69 2836.95
   19:30:42.024.18-Jan-2020 4980.01 4428.13 80.58 3.00 438.89 2836.95
   19:30:42.224.18-Jan-2020 4980.01 4428.60 80.58 3.00 439.09 2836.95
   19:30:42.424.18-Jan-2020 4980.01 4428.60 80.58 3.00 439.29 2836.95
   19:30:42.624.18-Jan-2020 4980.01 4436.32 80.58 3.00 439.49 2836.95
   19:30:42.824.18-Jan-2020 4980.01 5171.22 80.58 3.00 439.69 2836.95
   19:30:43.024.18-Jan-2020 4980.01 6037.82 80.58 3.00 439.89 2836.95
   19:30:43.224.18-Jan-2020 4980.01 6054.96 80.58 3.00 440.09 2836.95
   19:30:43.425.18-Jan-2020 4980.01 6054.96 80.58 3.00 440.29 2836.95
   19:30:43.625.18-Jan-2020 4980.01 6055.76 80.58 3.00 440.49 2836.95
   19:30:43.825.18-Jan-2020 4980.01 6055.02 80.58 3.00 440.69 2836.95
   19:30:44.025.18-Jan-2020 4980.01 6047.63 80.58 3.00 440.89 2836.95
   19:30:44.225.18-Jan-2020 4980.01 6056.80 80.57 3.00 441.09 2836.95
   19:30:44.425.18-Jan-2020 4980.01 6056.80 80.57 3.00 441.29 2836.95
   19:30:44.625.18-Jan-2020 4980.01 6056.55 80.57 3.00 441.49 2836.95
   19:30:44.825.18-Jan-2020 4980.01 6058.61 80.57 3.00 441.69 2836.95
   19:30:45.025.18-Jan-2020 4980.01 6057.77 80.57 3.00 441.89 2836.95
   19:30:45.225.18-Jan-2020 4980.01 6059.31 80.57 3.00 442.09 2836.95
   19:30:45.425.18-Jan-2020 4980.01 6059.31 80.57 3.00 442.29 2836.95
   19:30:45.625.18-Jan-2020 4980.01 6058.71 80.57 3.00 442.49 2836.95
   19:30:45.825.18-Jan-2020 4980.01 6058.38 80.57 3.00 442.69 2836.95
   19:30:46.025.18-Jan-2020 4980.01 6058.25 80.57 3.00 442.89 2836.95
   19:30:46.225.18-Jan-2020 4980.01 6059.09 80.57 3.00 443.09 2836.95
   19:30:46.425.18-Jan-2020 4980.01 6059.09 80.57 3.00 443.29 2836.95
   19:30:46.625.18-Jan-2020 4980.01 6060.08 80.57 3.00 443.49 2836.95
   19:30:46.825.18-Jan-2020 4980.01 6058.10 80.57 3.00 443.69 2836.95
   19:30:47.025.18-Jan-2020 4980.01 6060.52 80.57 3.00 443.89 2836.95
   19:30:47.225.18-Jan-2020 4980.01 6058.40 80.57 3.00 444.09 2836.95
   19:30:47.425.18-Jan-2020 4980.01 6058.40 80.57 3.00 444.29 2836.95
   19:30:47.625.18-Jan-2020 4980.01 6053.80 80.57 3.00 444.49 2836.95
   19:30:47.825.18-Jan-2020 4980.01 6056.08 80.57 3.00 444.69 2836.95
   19:30:48.025.18-Jan-2020 4980.01 6060.38 80.57 3.00 444.89 2836.95
   19:30:48.225.18-Jan-2020 4980.01 6060.47 80.57 3.00 445.09 2836.95
   19:30:48.426.18-Jan-2020 4980.01 6060.47 80.57 3.00 445.29 2836.95
   19:30:48.626.18-Jan-2020 4980.01 6061.34 80.57 3.00 445.49 2836.95
   19:30:48.826.18-Jan-2020 4980.01 6057.85 80.57 3.00 445.69 2836.95
   19:30:49.026.18-Jan-2020 4980.01 6058.99 80.57 3.00 445.89 2836.95
   19:30:49.226.18-Jan-2020 4980.01 6060.66 80.57 3.00 446.09 2836.95
   19:30:49.426.18-Jan-2020 4980.01 6060.66 80.57 3.00 446.29 2836.95
   19:30:49.626.18-Jan-2020 4980.01 6058.98 80.57 3.00 446.49 2836.95
   19:30:49.826.18-Jan-2020 4980.01 6054.70 80.57 3.00 446.69 2836.95
   19:30:50.026.18-Jan-2020 4980.01 6056.27 80.57 3.00 446.89 2836.95
   19:30:50.226.18-Jan-2020 4980.01 6059.77 80.57 3.00 447.09 2836.95
   19:30:50.426.18-Jan-2020 4980.01 6059.77 80.57 3.00 447.29 2836.95
   19:30:50.626.18-Jan-2020 4980.01 6059.75 80.57 3.00 447.49 2836.95
   19:30:50.826.18-Jan-2020 4980.01 6059.46 80.57 3.00 447.69 2836.95
   19:30:51.026.18-Jan-2020 4980.01 6060.18 80.57 3.00 447.89 2836.95
   19:30:51.226.18-Jan-2020 4980.01 6049.43 80.57 3.00 448.09 2836.95
   19:30:51.426.18-Jan-2020 4980.01 6049.43 80.57 3.00 448.29 2836.95
   19:30:51.626.18-Jan-2020 4980.01 6056.53 80.57 3.00 448.49 2836.95
   19:30:51.826.18-Jan-2020 4980.01 6061.63 80.57 3.00 448.69 2836.95
   19:30:52.026.18-Jan-2020 4980.01 6058.97 80.57 3.00 448.89 2836.95
   19:30:52.226.18-Jan-2020 4980.01 6061.82 80.57 3.00 449.09 2836.95
   19:30:52.426.18-Jan-2020 4980.01 6061.82 80.57 3.00 449.29 2836.95
   19:30:52.626.18-Jan-2020 4980.01 6061.55 80.57 3.00 449.49 2836.95
   19:30:52.826.18-Jan-2020 4980.01 6059.48 80.57 3.00 449.69 2836.95
   19:30:53.026.18-Jan-2020 4980.01 6060.30 80.57 3.00 449.89 2836.95
   19:30:53.226.18-Jan-2020 4980.01 6059.45 80.56 3.00 450.09 2836.95
   19:30:53.426.18-Jan-2020 4980.01 6059.45 80.56 3.00 450.29 2836.95
   19:30:53.627.18-Jan-2020 4980.01 6060.81 80.56 3.00 450.49 2836.95
   19:30:53.827.18-Jan-2020 4980.01 6059.20 80.56 3.00 450.69 2836.95
   19:30:54.027.18-Jan-2020 4980.01 6061.13 80.56 3.00 450.89 2836.95
   19:30:54.227.18-Jan-2020 4980.01 6058.71 80.56 3.00 451.09 2836.95
   19:30:54.427.18-Jan-2020 4980.01 6058.71 80.56 3.00 451.29 2836.95
   19:30:54.627.18-Jan-2020 4980.01 6060.32 80.56 3.00 451.49 2836.95
   19:30:54.827.18-Jan-2020 4980.01 6055.21 80.56 3.00 451.69 2836.95
   19:30:55.027.18-Jan-2020 4980.01 6059.82 80.56 3.00 451.89 2836.95
   19:30:55.227.18-Jan-2020 4980.01 6060.53 80.56 3.00 452.09 2836.95
   19:30:55.427.18-Jan-2020 4980.01 6060.53 80.56 3.00 452.29 2836.95
   19:30:55.627.18-Jan-2020 4980.01 6060.31 80.56 3.00 452.49 2836.95
   19:30:55.827.18-Jan-2020 4980.01 6059.96 80.56 3.00 452.69 2836.95
   19:30:56.027.18-Jan-2020 4980.01 6058.95 80.56 3.00 452.89 2836.95
   19:30:56.227.18-Jan-2020 4980.01 6059.78 80.56 3.00 453.09 2836.95
   19:30:56.427.18-Jan-2020 4980.01 6059.78 80.56 3.00 453.29 2836.95
   19:30:56.627.18-Jan-2020 4980.01 6060.06 80.56 3.00 453.49 2836.95
   19:30:56.827.18-Jan-2020 4980.01 6057.96 80.56 3.00 453.69 2836.95
   19:30:57.027.18-Jan-2020 4980.01 6060.38 80.56 3.00 453.89 2836.95
   19:30:57.227.18-Jan-2020 4980.01 6058.01 80.56 3.00 454.09 2836.95
   19:30:57.427.18-Jan-2020 4980.01 6058.01 80.56 3.00 454.29 2836.95
   19:30:57.627.18-Jan-2020 4980.01 6058.59 80.56 3.00 454.49 2836.95
   19:30:57.827.18-Jan-2020 4980.01 6059.88 80.56 3.00 454.69 2836.95
   19:30:58.027.18-Jan-2020 4980.01 6049.05 80.56 3.00 454.89 2836.95
   19:30:58.227.18-Jan-2020 4980.01 6061.06 80.56 3.00 455.09 2836.95
   19:30:58.427.18-Jan-2020 4980.01 6061.06 80.56 3.00 455.29 2836.95
   19:30:58.627.18-Jan-2020 4980.01 6060.38 80.56 3.00 455.49 2836.95
   19:30:58.828.18-Jan-2020 4980.01 6061.51 80.56 3.00 455.69 2836.95
   19:30:59.028.18-Jan-2020 4980.01 6059.76 80.56 3.00 455.89 2836.95
   19:30:59.228.18-Jan-2020 4980.01 6061.51 80.56 3.00 456.09 2836.95
   19:30:59.428.18-Jan-2020 4980.01 6061.51 80.56 3.00 456.29 2836.95
   19:30:59.628.18-Jan-2020 4980.01 6051.83 80.55 3.00 456.49 2836.95
   19:30:59.828.18-Jan-2020 4980.01 6056.12 80.55 3.00 456.69 2836.95
   19:31:00.028.18-Jan-2020 4980.01 6059.57 80.55 3.00 456.89 2836.95
   19:31:00.228.18-Jan-2020 4980.01 6058.63 80.55 3.00 457.09 2836.95
   19:31:00.428.18-Jan-2020 4980.01 6058.63 80.55 3.00 457.29 2836.95
   19:31:00.628.18-Jan-2020 4980.01 6057.32 80.55 3.00 457.49 2836.95
   19:31:00.828.18-Jan-2020 4980.01 6058.72 80.55 3.00 457.69 2836.95
   19:31:01.028.18-Jan-2020 4980.01 6059.16 80.55 3.00 457.89 2836.95
   19:31:01.228.18-Jan-2020 4980.01 6059.01 80.55 3.00 458.09 2836.95
   19:31:01.428.18-Jan-2020 4980.01 6059.01 80.55 3.00 458.29 2836.95
   19:31:01.628.18-Jan-2020 4980.01 6059.01 80.55 3.00 458.49 2836.95
   19:31:01.828.18-Jan-2020 4980.01 6052.98 80.55 3.00 458.69 2836.95
   19:31:02.028.18-Jan-2020 4980.01 6056.86 80.55 3.00 458.89 2836.95
   19:31:02.228.18-Jan-2020 4980.01 6060.43 80.55 3.00 459.09 2836.95
   19:31:02.428.18-Jan-2020 4980.01 6060.43 80.55 3.00 459.29 2836.95
   19:31:02.628.18-Jan-2020 4980.01 6060.71 80.55 3.00 459.49 2836.95
   19:31:02.828.18-Jan-2020 4980.01 6058.46 80.55 3.00 459.69 2836.95
   19:31:03.028.18-Jan-2020 4980.01 6059.69 80.55 3.00 459.89 2836.95
