~Version Information
 VERS.                  2.0:   CWLS log ASCII Standard -VERSION 2.0
 WRAP.                   NO:   One line per depth step
~Well Information Block
#MNEM.UNIT     VALUE/NAME     DESCRIPTION
#---------     -----------    ---------------------------
 STRT.S             16:13:28 18-Jan-20: START TIME 16:13:28 18-Jan-20
 STOP.S             16:21:32 18-Jan-20: STOP TIME  16:21:32 18-Jan-20
 STEP.S                   0.00: STEP TIME
 NULL.                 -999.25: NULL VALUE
 DFWT.                        :  DIST FWL TEXT
 DFST.                        :  DIST FSL TEXT
 DMF .             Drill Floor:  DRILL MEAS FROM
 STIM.      17.57.20 21-Dec-19:  START TIME
 DATE.      17.57.20 21-Dec-19:  END TIME
 SPUD.               21-Dec-19:  SPUD DATE
 NREF.                    Grid:  NORTH REFERENCE
 HPTY.       Minimum Curvature:  HOLE POS TYPE
 DMOD.             Drill Model:  DRILL MOD DESC
 SVYD.                  Survey:  SURVEY DESC
 ILTD.               Lithology:  INTERP LTH DESC
 FTOP.          Formation Tops:  FORM TOPS DESC
 PDAT.          Mean Sea Level:  PERMANENT DATUM
 FLD .                     ACG:  FIELD NAME
 SON .        AZ-XX-0905715376:  JOB NUMBER
 CTRY.              Azerbaijan:  COUNTRY NAME
 WELL.                    E04Y:  WELL NAME
 SRVC.          TURAN DRILLING:  CONTRACTOR
 COMP.     BP Exploration (Caspian Sea) Ltd.:  COMPANY
 WTYP.                Deviated:  WELL TYPE
 UWI .                     N/a:  UNIQUE WELL IDENTIFIER
 API .                     N/a:  API NUMBER
 BASE.              Azerbaijan:  LOGGING EQUIPMENT BASE LOCATION
 REGN.                   EESSA:  REGION
 MWDS.                    Baku:  MWD SHOP
 RIG .                     DWG:  RIG NAME
 DOE .                     N/a:  DOE NUMBER
 CNTY.                    Baku:  COUNTY NAME
 DCON.         Sperry Drilling:  DIRECTNL CONTR
 UNIT.                     N/a:  LOGGING EQUIPMENT ID
 MDS .        Operator Entered:  MAG DATA SOURCE
 PROV.                        :  PROVINCE
 STAT.                        :  STATE
 LOC .                        :  LOCATION
 LMF .             Drill Floor:  LOG MEASURED FROM
 TVDS.m                  43.16:  TVDSS CORRECTN
 LATI.deg                40.17:  LATITUDE
 LONG.deg                51.17:  LONGITUDE
 WHNS.m                  -0.12:  WELL HEAD N/S
 WHEW.m                  -5.41:  WELL HEAD E/W
 UTMX.m              514337.95:  UTM X
 UTMY.m             4448627.46:  UTM Y
 DFWL.m                   0.00:  DISTANCE FWL
 DFSL.m                   0.00:  DISTANCE FSL
 SDEP.m                   0.00:  START DEPTH
 TDD .m                   0.00:  TOTAL DEPTH (DRILLER)
 VSDR.deg               235.12:  VERT SEC DIRECT
 GVFD.g                   1.00:  GRAVITY FIELD
 MFLD.nT              50294.00:  MAGNETIC FIELD
 MDIP.deg                59.61:  MAGNETIC DIP
 MDEC.deg                 6.58:  MAGNETIC DECL
 GRDC.deg                 0.09:  GRID CORRECTION
 AZTC.deg                 6.49:  AZM TOTAL CORR
 EPD .m                   0.00:  ELEVATION
 EGL .m                   0.00:  GROUND ELEVATION
 WDMS.m                 176.20:  WD ELEV
 APD .m                  43.16:  DEPTH ABOVE PD
 DEP .m                3172.61:  DEPTH
 AGAP.m                  43.16:  AIR GAP
 VSEW.m                  -5.41:  VERT SEC E/W
 VSNS.m                  -0.12:  VERT SEC N/S
 EKB .m                  43.16:  KB ELEVATION
 EDF .m                  43.16:  DF ELEVATION
 TDL .m                 295.00:  TOTAL DEPTH (LOGGER)
 VSC .                       0:  VS TO CLOSURE
 MAGU.                 1852276:  MAGUTM CHECKSUM
~Parameter Information Block
#MNEM.UNIT       Value        Description
#---------     -----------    ---------------------------
 AV  .mps                 1.60:  Ann Velocity 
 AVMX.mps                 2.10:  Max Ann Veloc 
 AZIF.deg               290.59:  Azm, Final 
 BHAT.        Rotary Steerable:  BHA Type 
 BROT.°/30m               1.00:  Build Rotating 
 BS  .in                  6.50:  Bit Size 
 BSZ .in                  6.50:  Bit Size 
 BTPL.psig              120.00:  Bit Press Loss 
 CABU.                     Yes:  Customer Abuse 
 CGEO.          Eldar Huseynov:  Customer Geo 
 COMM.                     Ôs:  Run Comments 1 
 TCS .hr                 87.00:  Time Ciculation Ended 
 CV  .mps                 4.01:  Crit Velocity 
 CVMX.mps                 5.06:  Max Crit Veloc 
 DD1 .             Aziz Aliyev:  Direct Drillr 1 
 DD2 .            Sanan Aliyev:  Direct Drillr 2 
 DDSV.               Geo-Pilot:  DD Service 
 DEFF.%                  95.00:  % Det Eff 
 DLRX.°/30m               0.75:  Dogleg Rot Max 
 DLSO.°/30m               0.65:  Dogleg Oriented 
 DLSX.°/30m               1.39:  Dogleg Str Max 
 DRET.      18.25.00 19-Jan-20:  Drill End Time 
 DRST.      11.56.48 17-Jan-20:  Drill Start Tim 
 DTIM.hr                 27.16:  Time Drilling 
 EDEP.m                5161.01:  End Depth 
 ENG1.          Rasim Hashimov:  Engineer 1 
 ENG2.      Bakhtiyar Jabbarli:  Engineer 2 
 ETIM.      11.56.48 21-Jan-20:  End Time 
 FLOI.gpm               350.00:  Flow In 
 FLON.gpm               300.00:  Flow In Min 
 FLOS.cptm                0.00:  Fluid Loss 
 FLOX.gpm               400.00:  Flow In Max 
 HFLO.                      No:  High Flow 
 HPRE.                      No:  High Pressure 
 HTEM.                      No:  High Temp 
 HYDO.m                   1.85:  Hydro Offset 
 IFIN.deg                71.58:  Inc, Final 
 IMAX.deg                71.83:  Inc Max 
 IMIN.deg                71.12:  Inc Min 
 IMND.m                5099.48:  Inc Min Depth 
 IMXD.m                5071.08:  Inc Max Depth 
 JARR.                      No:  Jarring 
 LETM.      18.25.00 19-Jan-20:  Log End Time 
 LOST.hr                     0:  Lost Rig Time 
 LSTM.      11.56.48 17-Jan-20:  Log Start Time 
 MDCL.ppm             37000.00:  Mud Chlorides 
 MDES.     Inversion Oil/Synthetic:  Mud Desc 
 DFD .sg                  1.34:  Mud Density 
 MDMN.sg                  1.34:  Dens Mud Min 
 MDMX.sg                  1.34:  Dens Mud Max 
 MOIL.                      69:  Run Mud Oil % 
 MOWR.                   69:31:  Run Mud OWR 
 MSND.                     0.1:  Run Mud Sand % 
 MSOL.                    17.6:  Run Mud Solids% 
 DFV .spqt               79.00:  Mud Viscosity 
 MWOD.in                  4.75:  MWD Tool OD 
 MWSI.                      No:  Serv Intrp, MWD 
 OTIM.hr                126.10:  Time Operating 
 PMAX.psia             6000.00:  Press Op, Max 
 PV  .cP                 29.00:  Mud PV 
 RUN .                     400:  Run Number 
 ROPA.m/hr               11.00:  ROP Avg 
 ROPN.m/hr                5.00:  ROP Min 
 ROPX.m/hr               18.00:  ROP Max 
 RPMA.rpm               139.00:  RPM Surface Avg 
 RPMN.rpm               100.00:  RPM Surface Min 
 RPMX.rpm               140.00:  RPM Surface Max 
 RRUN.                     400:  Rig Run Number 
 SAZI.deg               290.22:  Azm, Start 
 SDEP.m                4868.01:  Start Depth 
 SIDD.                      No:  Serv Intrp, DD 
 SINC.deg                71.77:  Inc, Start 
 SPPA.psig             5550.00:  SPP Avg 
 SPPN.psig             4300.00:  SPP Min 
 SPPX.psig             5600.00:  SPP Max 
 STIM.      23.45.48 15-Jan-20:  Start Time 
 SVCS.                 DD, MWD:  Services 
 SVER.                    9.20:  Sperry Version 
 TDAT.m                5161.01:  Tot Depth Attmp 
 TDDF.                      No:  Trip for DD 
 TDLG.m                 295.00:  Tot Depth Loggd 
 TFF .                      No:  Trip for Fail 
 TQAA.f-kp               13.00:  Torque Abs Avg 
 TQAN.f-kp               13.00:  Torque Abs Min 
 TQAX.f-kp               16.00:  Torque Abs Max 
 TRRT.°/30m               0.25:  Turn Rotating 
 MRT .                     ADR:  Maximum Recorded Temperature 
 TTMX.degC               88.00:  Max Tool Temp 
 VS01.                90577859:  Virtual Str1 SN 
 VS02.                90521879:  Virtual Str2 SN 
 VS03.                90580299:  Virtual Str3 SN 
 VS04.                90515982:  Virtual Str4 SN 
 VS05.                90547765:  Virtual Str5 SN 
 WBMN.klb                 2.00:  WOB Min 
 WITN.           Adil Mammadov:  Customer Rep 
 WITN.        Elmaddin Rahimov:  Customer Rep 2 
 WOBA.klb                 3.00:  WOB Avg 
 WOBX.klb                 5.00:  WOB Max 
 YP  .lhf2               30.00:  Yield Point 
~Curve Information Block
#MNEM.UNIT                 API CODE     Curve Description
#---------               -----------    ---------------------------
 TIME.HHMMSS            00 000 000 000:  GT Time & Date
 GTDEPTH.m              00 000 000 000:  GT Depth
 GTPQH.psia             00 000 000 000:  GT HR Quartz Pressure
 GTTQ.degC              00 000 000 000:  GT Quartz Temperature
 GTTN.NONE              00 000 000 000:  GT Test Number
 GTET.sec               00 000 000 000:  GT Elapsed Test Time
 GTTVD.m                00 000 000 000:  GT True Vertical Depth
#Other Information
#
#WARRANTY: Halliburton will use its best efforts to furnish customers with 
#accurate information and interpretations that are part of, and incident to, the services 
#provided.  However, Halliburton cannot and does not warrant the accuracy 
#or correctness of such information and interpretations.  Under no circumstances should any 
#such information or interpretation be relied upon as the sole basis for any drilling, 
#completion, production, or financial decision or any procedure involving any risk to the 
#safety of any drilling venture, drilling rig or its crew or any other third party.  The 
#Customer has full responsibility for all drilling, completion and production operation.  
#Halliburton makes no representations or warranties, either expressed or 
#implied, including, but not limited to, the implied warranties of merchantability or fitness 
#for a particular purpose, with respect to the services rendered.  In no event will 
#Halliburton be liable for failure to obtain any particular results or for 
#any damages, including, but not limited to, indirect, special or consequential damages, 
#resulting from the use of any information or interpretation provided by Halliburton.
#
~A           TIME           GTDEPTH  GTPQH  GTTQ  GTTN  GTET   GTTVD  
# ...
   16:13:51.550.18-Jan-2020 4958.01 6041.00 81.02 2.00  23.00 2829.97
   16:13:51.750.18-Jan-2020 4958.01 6041.00 81.02 2.00  23.20 2829.97
   16:13:51.950.18-Jan-2020 4958.01 6034.55 81.02 2.00  23.40 2829.97
   16:13:52.150.18-Jan-2020 4958.01 6039.66 81.02 2.00  23.60 2829.97
   16:13:52.350.18-Jan-2020 4958.01 6037.09 81.02 2.00  23.80 2829.97
   16:13:52.550.18-Jan-2020 4958.01 6033.05 81.02 2.00  24.00 2829.97
   16:13:52.750.18-Jan-2020 4958.01 6033.05 81.02 2.00  24.20 2829.97
   16:13:52.950.18-Jan-2020 4958.01 6035.19 81.02 2.00  24.40 2829.97
   16:13:53.150.18-Jan-2020 4958.01 6024.71 81.01 2.00  24.60 2829.97
   16:13:53.350.18-Jan-2020 4958.01 6036.44 81.01 2.00  24.80 2829.97
   16:13:53.550.18-Jan-2020 4958.01 6022.67 81.01 2.00  25.00 2829.97
   16:13:53.750.18-Jan-2020 4958.01 6022.67 81.01 2.00  25.20 2829.97
   16:13:53.950.18-Jan-2020 4958.01 6022.04 81.01 2.00  25.40 2829.97
   16:13:54.150.18-Jan-2020 4958.01 6019.04 81.01 2.00  25.60 2829.97
   16:13:54.350.18-Jan-2020 4958.01 6001.30 81.01 2.00  25.80 2829.97
   16:13:54.550.18-Jan-2020 4958.01 5978.40 81.01 2.00  26.00 2829.97
   16:13:54.750.18-Jan-2020 4958.01 5978.40 81.01 2.00  26.20 2829.97
   16:13:54.950.18-Jan-2020 4958.01 5948.61 81.01 2.00  26.40 2829.97
   16:13:55.150.18-Jan-2020 4958.01 6019.74 81.01 2.00  26.60 2829.97
   16:13:55.350.18-Jan-2020 4958.01 5952.90 81.01 2.00  26.80 2829.97
   16:13:55.550.18-Jan-2020 4958.01 5880.38 81.00 2.00  27.00 2829.97
   16:13:55.750.18-Jan-2020 4958.01 5880.38 81.00 2.00  27.20 2829.97
   16:13:55.950.18-Jan-2020 4958.01 5987.40 81.00 2.00  27.40 2829.97
   16:13:56.151.18-Jan-2020 4958.01 5953.40 81.00 2.00  27.60 2829.97
   16:13:56.351.18-Jan-2020 4958.01 5858.94 81.00 2.00  27.80 2829.97
   16:13:56.551.18-Jan-2020 4958.01 5863.65 81.00 2.00  28.00 2829.97
   16:13:56.751.18-Jan-2020 4958.01 5863.65 81.00 2.00  28.20 2829.97
   16:13:56.951.18-Jan-2020 4958.01 5773.10 81.00 2.00  28.40 2829.97
   16:13:57.151.18-Jan-2020 4958.01 5637.94 81.00 2.00  28.60 2829.97
   16:13:57.351.18-Jan-2020 4958.01 5587.77 81.00 2.00  28.80 2829.97
   16:13:57.551.18-Jan-2020 4958.01 5515.94 81.00 2.00  29.00 2829.97
   16:13:57.751.18-Jan-2020 4958.01 5515.94 81.00 2.00  29.20 2829.97
   16:13:57.951.18-Jan-2020 4958.01 5392.10 80.99 2.00  29.40 2829.97
   16:13:58.151.18-Jan-2020 4958.01 5356.29 80.99 2.00  29.60 2829.97
   16:13:58.351.18-Jan-2020 4958.01 5373.78 80.99 2.00  29.80 2829.97
   16:13:58.551.18-Jan-2020 4958.01 5315.60 80.99 2.00  30.00 2829.97
   16:13:58.751.18-Jan-2020 4958.01 5315.60 80.99 2.00  30.20 2829.97
   16:13:58.951.18-Jan-2020 4958.01 5422.71 80.99 2.00  30.40 2829.97
   16:13:59.151.18-Jan-2020 4958.01 5388.06 80.99 2.00  30.60 2829.97
   16:13:59.351.18-Jan-2020 4958.01 5468.18 80.99 2.00  30.80 2829.97
   16:13:59.551.18-Jan-2020 4958.01 5426.79 80.99 2.00  31.00 2829.97
   16:13:59.751.18-Jan-2020 4958.01 5426.79 80.99 2.00  31.20 2829.97
   16:13:59.951.18-Jan-2020 4958.01 6407.38 80.99 2.00  31.40 2829.97
   16:14:00.151.18-Jan-2020 4958.01 6887.30 80.98 2.00  31.60 2829.97
   16:14:00.351.18-Jan-2020 4958.01 7089.65 80.98 2.00  31.80 2829.97
   16:14:00.551.18-Jan-2020 4958.01 7262.84 80.98 2.00  32.00 2829.97
   16:14:00.751.18-Jan-2020 4958.01 7262.84 80.98 2.00  32.20 2829.97
   16:14:00.951.18-Jan-2020 4958.01 7527.07 80.98 2.00  32.40 2829.97
   16:14:01.151.18-Jan-2020 4958.01 7601.40 80.98 2.00  32.60 2829.97
   16:14:01.351.18-Jan-2020 4958.01 7679.38 80.98 2.00  32.80 2829.97
   16:14:01.551.18-Jan-2020 4958.01 7735.48 80.98 2.00  33.00 2829.97
   16:14:01.751.18-Jan-2020 4958.01 7735.48 80.98 2.00  33.20 2829.97
   16:14:01.951.18-Jan-2020 4958.01 7799.12 80.98 2.00  33.40 2829.97
   16:14:02.151.18-Jan-2020 4958.01 7857.40 80.98 2.00  33.60 2829.97
   16:14:02.351.18-Jan-2020 4958.01 7930.16 80.98 2.00  33.80 2829.97
   16:14:02.551.18-Jan-2020 4958.01 7975.60 80.98 2.00  34.00 2829.97
   16:14:02.751.18-Jan-2020 4958.01 7975.60 80.98 2.00  34.20 2829.97
   16:14:02.951.18-Jan-2020 4958.01 8055.53 80.98 2.00  34.40 2829.97
   16:14:03.151.18-Jan-2020 4958.01 8069.34 80.98 2.00  34.60 2829.97
   16:14:03.351.18-Jan-2020 4958.01 8078.91 80.97 2.00  34.80 2829.97
   16:14:03.551.18-Jan-2020 4958.01 8073.12 80.97 2.00  35.00 2829.97
   16:14:03.751.18-Jan-2020 4958.01 8073.12 80.97 2.00  35.20 2829.97
   16:14:03.951.18-Jan-2020 4958.01 8073.94 80.97 2.00  35.40 2829.97
   16:14:04.151.18-Jan-2020 4958.01 8075.26 80.97 2.00  35.60 2829.97
   16:14:04.351.18-Jan-2020 4958.01 8073.60 80.97 2.00  35.80 2829.97
   16:14:04.551.18-Jan-2020 4958.01 8076.68 80.97 2.00  36.00 2829.97
   16:14:04.751.18-Jan-2020 4958.01 8076.68 80.97 2.00  36.20 2829.97
   16:14:04.951.18-Jan-2020 4958.01 8078.96 80.97 2.00  36.40 2829.97
   16:14:05.151.18-Jan-2020 4958.01 8077.39 80.97 2.00  36.60 2829.97
   16:14:05.351.18-Jan-2020 4958.01 8078.29 80.97 2.00  36.80 2829.97
   16:14:05.551.18-Jan-2020 4958.01 8078.34 80.97 2.00  37.00 2829.97
   16:14:05.751.18-Jan-2020 4958.01 8078.34 80.97 2.00  37.20 2829.97
   16:14:05.951.18-Jan-2020 4958.01 8075.47 80.97 2.00  37.40 2829.97
   16:14:06.151.18-Jan-2020 4958.01 8072.82 80.97 2.00  37.60 2829.97
   16:14:06.351.18-Jan-2020 4958.01 7350.06 80.97 2.00  37.80 2829.97
   16:14:06.551.18-Jan-2020 4958.01 6894.43 80.97 2.00  38.00 2829.97
   16:14:06.751.18-Jan-2020 4958.01 6894.43 80.97 2.00  38.20 2829.97
   16:14:06.951.18-Jan-2020 4958.01 6082.72 80.97 2.00  38.40 2829.97
   16:14:07.151.18-Jan-2020 4958.01 5995.51 80.97 2.00  38.60 2829.97
   16:14:07.351.18-Jan-2020 4958.01 5910.68 80.97 2.00  38.80 2829.97
   16:14:07.551.18-Jan-2020 4958.01 5793.35 80.97 2.00  39.00 2829.97
   16:14:07.751.18-Jan-2020 4958.01 5793.35 80.97 2.00  39.20 2829.97
   16:14:07.951.18-Jan-2020 4958.01 5292.08 80.97 2.00  39.40 2829.97
   16:14:08.151.18-Jan-2020 4958.01 4934.69 80.97 2.00  39.60 2829.97
   16:14:08.352.18-Jan-2020 4958.01 4565.25 80.97 2.00  39.80 2829.97
   16:14:08.552.18-Jan-2020 4958.01 4395.04 80.97 2.00  40.00 2829.97
   16:14:08.752.18-Jan-2020 4958.01 4395.04 80.97 2.00  40.20 2829.97
   16:14:08.952.18-Jan-2020 4958.01 4392.52 80.97 2.00  40.40 2829.97
   16:14:09.152.18-Jan-2020 4958.01 4405.60 80.97 2.00  40.60 2829.97
   16:14:09.352.18-Jan-2020 4958.01 4403.93 80.96 2.00  40.80 2829.97
   16:14:09.552.18-Jan-2020 4958.01 4402.02 80.96 2.00  41.00 2829.97
   16:14:09.752.18-Jan-2020 4958.01 4402.02 80.96 2.00  41.20 2829.97
   16:14:09.952.18-Jan-2020 4958.01 4400.84 80.96 2.00  41.40 2829.97
   16:14:10.152.18-Jan-2020 4958.01 4401.93 80.96 2.00  41.60 2829.97
   16:14:10.352.18-Jan-2020 4958.01 4400.12 80.96 2.00  41.80 2829.97
   16:14:10.552.18-Jan-2020 4958.01 4402.52 80.96 2.00  42.00 2829.97
   16:14:10.752.18-Jan-2020 4958.01 4402.52 80.96 2.00  42.20 2829.97
   16:14:10.952.18-Jan-2020 4958.01 4397.44 80.96 2.00  42.40 2829.97
   16:14:11.152.18-Jan-2020 4958.01 4397.38 80.95 2.00  42.60 2829.97
   16:14:11.352.18-Jan-2020 4958.01 4399.93 80.95 2.00  42.80 2829.97
   16:14:11.552.18-Jan-2020 4958.01 4396.96 80.95 2.00  43.00 2829.97
   16:14:11.752.18-Jan-2020 4958.01 4396.96 80.95 2.00  43.20 2829.97
   16:14:11.952.18-Jan-2020 4958.01 4394.36 80.95 2.00  43.40 2829.97
   16:14:12.152.18-Jan-2020 4958.01 4393.86 80.95 2.00  43.60 2829.97
   16:14:12.352.18-Jan-2020 4958.01 4393.56 80.95 2.00  43.80 2829.97
   16:14:12.552.18-Jan-2020 4958.01 4393.17 80.94 2.00  44.00 2829.97
   16:14:12.752.18-Jan-2020 4958.01 4393.17 80.94 2.00  44.20 2829.97
   16:14:12.952.18-Jan-2020 4958.01 4393.28 80.94 2.00  44.40 2829.97
   16:14:13.152.18-Jan-2020 4958.01 4393.12 80.94 2.00  44.60 2829.97
   16:14:13.352.18-Jan-2020 4958.01 4393.11 80.94 2.00  44.80 2829.97
   16:14:13.552.18-Jan-2020 4958.01 4392.75 80.94 2.00  45.00 2829.97
   16:14:13.752.18-Jan-2020 4958.01 4392.75 80.94 2.00  45.20 2829.97
   16:14:13.952.18-Jan-2020 4958.01 4392.30 80.93 2.00  45.40 2829.97
   16:14:14.152.18-Jan-2020 4958.01 4393.03 80.93 2.00  45.60 2829.97
   16:14:14.352.18-Jan-2020 4958.01 4392.91 80.93 2.00  45.80 2829.97
