~Version Information
 VERS.                  2.0:   CWLS log ASCII Standard -VERSION 2.0
 WRAP.                   NO:   One line per depth step
~Well Information Block
#MNEM.UNIT     VALUE/NAME     DESCRIPTION
#---------     -----------    ---------------------------
 STRT.S             10:03:43 19-Jan-20: START TIME 10:03:43 19-Jan-20
 STOP.S             10:11:36 19-Jan-20: STOP TIME  10:11:36 19-Jan-20
 STEP.S                   0.00: STEP TIME
 NULL.                 -999.25: NULL VALUE
 DFWT.                        :  DIST FWL TEXT
 DFST.                        :  DIST FSL TEXT
 DMF .             Drill Floor:  DRILL MEAS FROM
 STIM.      17.57.20 21-Dec-19:  START TIME
 DATE.      17.57.20 21-Dec-19:  END TIME
 SPUD.               21-Dec-19:  SPUD DATE
 NREF.                    Grid:  NORTH REFERENCE
 HPTY.       Minimum Curvature:  HOLE POS TYPE
 DMOD.             Drill Model:  DRILL MOD DESC
 SVYD.                  Survey:  SURVEY DESC
 ILTD.               Lithology:  INTERP LTH DESC
 FTOP.          Formation Tops:  FORM TOPS DESC
 PDAT.          Mean Sea Level:  PERMANENT DATUM
 FLD .                     ACG:  FIELD NAME
 SON .        AZ-XX-0905715376:  JOB NUMBER
 CTRY.              Azerbaijan:  COUNTRY NAME
 WELL.                    E04Y:  WELL NAME
 SRVC.          TURAN DRILLING:  CONTRACTOR
 COMP.     BP Exploration (Caspian Sea) Ltd.:  COMPANY
 WTYP.                Deviated:  WELL TYPE
 UWI .                     N/a:  UNIQUE WELL IDENTIFIER
 API .                     N/a:  API NUMBER
 BASE.              Azerbaijan:  LOGGING EQUIPMENT BASE LOCATION
 REGN.                   EESSA:  REGION
 MWDS.                    Baku:  MWD SHOP
 RIG .                     DWG:  RIG NAME
 DOE .                     N/a:  DOE NUMBER
 CNTY.                    Baku:  COUNTY NAME
 DCON.         Sperry Drilling:  DIRECTNL CONTR
 UNIT.                     N/a:  LOGGING EQUIPMENT ID
 MDS .        Operator Entered:  MAG DATA SOURCE
 PROV.                        :  PROVINCE
 STAT.                        :  STATE
 LOC .                        :  LOCATION
 LMF .             Drill Floor:  LOG MEASURED FROM
 TVDS.m                  43.16:  TVDSS CORRECTN
 LATI.deg                40.17:  LATITUDE
 LONG.deg                51.17:  LONGITUDE
 WHNS.m                  -0.12:  WELL HEAD N/S
 WHEW.m                  -5.41:  WELL HEAD E/W
 UTMX.m              514337.95:  UTM X
 UTMY.m             4448627.46:  UTM Y
 DFWL.m                   0.00:  DISTANCE FWL
 DFSL.m                   0.00:  DISTANCE FSL
 SDEP.m                   0.00:  START DEPTH
 TDD .m                   0.00:  TOTAL DEPTH (DRILLER)
 VSDR.deg               235.12:  VERT SEC DIRECT
 GVFD.g                   1.00:  GRAVITY FIELD
 MFLD.nT              50294.00:  MAGNETIC FIELD
 MDIP.deg                59.61:  MAGNETIC DIP
 MDEC.deg                 6.58:  MAGNETIC DECL
 GRDC.deg                 0.09:  GRID CORRECTION
 AZTC.deg                 6.49:  AZM TOTAL CORR
 EPD .m                   0.00:  ELEVATION
 EGL .m                   0.00:  GROUND ELEVATION
 WDMS.m                 176.20:  WD ELEV
 APD .m                  43.16:  DEPTH ABOVE PD
 DEP .m                3172.61:  DEPTH
 AGAP.m                  43.16:  AIR GAP
 VSEW.m                  -5.41:  VERT SEC E/W
 VSNS.m                  -0.12:  VERT SEC N/S
 EKB .m                  43.16:  KB ELEVATION
 EDF .m                  43.16:  DF ELEVATION
 TDL .m                 295.00:  TOTAL DEPTH (LOGGER)
 VSC .                       0:  VS TO CLOSURE
 MAGU.                 1852276:  MAGUTM CHECKSUM
~Parameter Information Block
#MNEM.UNIT       Value        Description
#---------     -----------    ---------------------------
 AV  .mps                 1.60:  Ann Velocity 
 AVMX.mps                 2.10:  Max Ann Veloc 
 AZIF.deg               290.59:  Azm, Final 
 BHAT.        Rotary Steerable:  BHA Type 
 BROT.°/30m               1.00:  Build Rotating 
 BS  .in                  6.50:  Bit Size 
 BSZ .in                  6.50:  Bit Size 
 BTPL.psig              120.00:  Bit Press Loss 
 CABU.                     Yes:  Customer Abuse 
 CGEO.          Eldar Huseynov:  Customer Geo 
 COMM.                     Œòk:  Run Comments 1 
 TCS .hr                 87.00:  Time Ciculation Ended 
 CV  .mps                 4.01:  Crit Velocity 
 CVMX.mps                 5.06:  Max Crit Veloc 
 DD1 .             Aziz Aliyev:  Direct Drillr 1 
 DD2 .            Sanan Aliyev:  Direct Drillr 2 
 DDSV.               Geo-Pilot:  DD Service 
 DEFF.%                  95.00:  % Det Eff 
 DLRX.°/30m               0.75:  Dogleg Rot Max 
 DLSO.°/30m               0.65:  Dogleg Oriented 
 DLSX.°/30m               1.39:  Dogleg Str Max 
 DRET.      18.25.00 19-Jan-20:  Drill End Time 
 DRST.      11.56.48 17-Jan-20:  Drill Start Tim 
 DTIM.hr                 27.16:  Time Drilling 
 EDEP.m                5161.01:  End Depth 
 ENG1.          Rasim Hashimov:  Engineer 1 
 ENG2.      Bakhtiyar Jabbarli:  Engineer 2 
 ETIM.      11.56.48 21-Jan-20:  End Time 
 FLOI.gpm               350.00:  Flow In 
 FLON.gpm               300.00:  Flow In Min 
 FLOS.cptm                0.00:  Fluid Loss 
 FLOX.gpm               400.00:  Flow In Max 
 HFLO.                      No:  High Flow 
 HPRE.                      No:  High Pressure 
 HTEM.                      No:  High Temp 
 HYDO.m                   1.85:  Hydro Offset 
 IFIN.deg                71.58:  Inc, Final 
 IMAX.deg                71.83:  Inc Max 
 IMIN.deg                71.12:  Inc Min 
 IMND.m                5099.48:  Inc Min Depth 
 IMXD.m                5071.08:  Inc Max Depth 
 JARR.                      No:  Jarring 
 LETM.      18.25.00 19-Jan-20:  Log End Time 
 LOST.hr                     0:  Lost Rig Time 
 LSTM.      11.56.48 17-Jan-20:  Log Start Time 
 MDCL.ppm             37000.00:  Mud Chlorides 
 MDES.     Inversion Oil/Synthetic:  Mud Desc 
 DFD .sg                  1.34:  Mud Density 
 MDMN.sg                  1.34:  Dens Mud Min 
 MDMX.sg                  1.34:  Dens Mud Max 
 MOIL.                      69:  Run Mud Oil % 
 MOWR.                   69:31:  Run Mud OWR 
 MSND.                     0.1:  Run Mud Sand % 
 MSOL.                    17.6:  Run Mud Solids% 
 DFV .spqt               79.00:  Mud Viscosity 
 MWOD.in                  4.75:  MWD Tool OD 
 MWSI.                      No:  Serv Intrp, MWD 
 OTIM.hr                126.10:  Time Operating 
 PMAX.psia             6000.00:  Press Op, Max 
 PV  .cP                 29.00:  Mud PV 
 RUN .                     400:  Run Number 
 ROPA.m/hr               11.00:  ROP Avg 
 ROPN.m/hr                5.00:  ROP Min 
 ROPX.m/hr               18.00:  ROP Max 
 RPMA.rpm               139.00:  RPM Surface Avg 
 RPMN.rpm               100.00:  RPM Surface Min 
 RPMX.rpm               140.00:  RPM Surface Max 
 RRUN.                     400:  Rig Run Number 
 SAZI.deg               290.22:  Azm, Start 
 SDEP.m                4868.01:  Start Depth 
 SIDD.                      No:  Serv Intrp, DD 
 SINC.deg                71.77:  Inc, Start 
 SPPA.psig             5550.00:  SPP Avg 
 SPPN.psig             4300.00:  SPP Min 
 SPPX.psig             5600.00:  SPP Max 
 STIM.      23.45.48 15-Jan-20:  Start Time 
 SVCS.                 DD, MWD:  Services 
 SVER.                    9.20:  Sperry Version 
 TDAT.m                5161.01:  Tot Depth Attmp 
 TDDF.                      No:  Trip for DD 
 TDLG.m                 295.00:  Tot Depth Loggd 
 TFF .                      No:  Trip for Fail 
 TQAA.f-kp               13.00:  Torque Abs Avg 
 TQAN.f-kp               13.00:  Torque Abs Min 
 TQAX.f-kp               16.00:  Torque Abs Max 
 TRRT.°/30m               0.25:  Turn Rotating 
 MRT .                     ADR:  Maximum Recorded Temperature 
 TTMX.degC               88.00:  Max Tool Temp 
 VS01.                90577859:  Virtual Str1 SN 
 VS02.                90521879:  Virtual Str2 SN 
 VS03.                90580299:  Virtual Str3 SN 
 VS04.                90515982:  Virtual Str4 SN 
 VS05.                90547765:  Virtual Str5 SN 
 WBMN.klb                 2.00:  WOB Min 
 WITN.           Adil Mammadov:  Customer Rep 
 WITN.        Elmaddin Rahimov:  Customer Rep 2 
 WOBA.klb                 3.00:  WOB Avg 
 WOBX.klb                 5.00:  WOB Max 
 YP  .lhf2               30.00:  Yield Point 
~Curve Information Block
#MNEM.UNIT                 API CODE     Curve Description
#---------               -----------    ---------------------------
 TIME.HHMMSS            00 000 000 000:  GT Time & Date
 GTDEPTH.m              00 000 000 000:  GT Depth
 GTPQH.psia             00 000 000 000:  GT HR Quartz Pressure
 GTTQ.degC              00 000 000 000:  GT Quartz Temperature
 GTTN.NONE              00 000 000 000:  GT Test Number
 GTET.sec               00 000 000 000:  GT Elapsed Test Time
 GTTVD.m                00 000 000 000:  GT True Vertical Depth
#Other Information
#
#WARRANTY: Halliburton will use its best efforts to furnish customers with 
#accurate information and interpretations that are part of, and incident to, the services 
#provided.  However, Halliburton cannot and does not warrant the accuracy 
#or correctness of such information and interpretations.  Under no circumstances should any 
#such information or interpretation be relied upon as the sole basis for any drilling, 
#completion, production, or financial decision or any procedure involving any risk to the 
#safety of any drilling venture, drilling rig or its crew or any other third party.  The 
#Customer has full responsibility for all drilling, completion and production operation.  
#Halliburton makes no representations or warranties, either expressed or 
#implied, including, but not limited to, the implied warranties of merchantability or fitness 
#for a particular purpose, with respect to the services rendered.  In no event will 
#Halliburton be liable for failure to obtain any particular results or for 
#any damages, including, but not limited to, indirect, special or consequential damages, 
#resulting from the use of any information or interpretation provided by Halliburton.
#
~A           TIME           GTDEPTH  GTPQH  GTTQ  GTTN  GTET   GTTVD  
# ...
   10:10:14.831.19-Jan-2020 5081.51 4214.09 81.52 5.00 391.05 2869.15
   10:10:15.031.19-Jan-2020 5081.51 4214.09 81.52 5.00 391.25 2869.15
   10:10:15.231.19-Jan-2020 5081.51 4214.09 81.52 5.00 391.45 2869.15
   10:10:15.431.19-Jan-2020 5081.51 4214.13 81.52 5.00 391.65 2869.15
   10:10:15.631.19-Jan-2020 5081.51 4214.08 81.52 5.00 391.85 2869.15
   10:10:15.832.19-Jan-2020 5081.51 4214.09 81.52 5.00 392.05 2869.15
   10:10:16.032.19-Jan-2020 5081.51 4214.09 81.52 5.00 392.25 2869.15
   10:10:16.232.19-Jan-2020 5081.51 4214.08 81.52 5.00 392.45 2869.15
   10:10:16.432.19-Jan-2020 5081.51 4214.08 81.52 5.00 392.65 2869.15
   10:10:16.632.19-Jan-2020 5081.51 4214.07 81.52 5.00 392.85 2869.15
   10:10:16.832.19-Jan-2020 5081.51 4214.08 81.52 5.00 393.05 2869.15
   10:10:17.032.19-Jan-2020 5081.51 4214.08 81.52 5.00 393.25 2869.15
   10:10:17.232.19-Jan-2020 5081.51 4214.26 81.52 5.00 393.45 2869.15
   10:10:17.432.19-Jan-2020 5081.51 4214.10 81.52 5.00 393.65 2869.15
   10:10:17.632.19-Jan-2020 5081.51 4214.06 81.52 5.00 393.85 2869.15
   10:10:17.832.19-Jan-2020 5081.51 4214.14 81.52 5.00 394.05 2869.15
   10:10:18.032.19-Jan-2020 5081.51 4214.14 81.52 5.00 394.25 2869.15
   10:10:18.232.19-Jan-2020 5081.51 4214.09 81.52 5.00 394.45 2869.15
   10:10:18.432.19-Jan-2020 5081.51 4214.13 81.52 5.00 394.65 2869.15
   10:10:18.632.19-Jan-2020 5081.51 4214.08 81.52 5.00 394.85 2869.15
   10:10:18.832.19-Jan-2020 5081.51 4214.08 81.52 5.00 395.05 2869.15
   10:10:19.032.19-Jan-2020 5081.51 4214.08 81.52 5.00 395.25 2869.15
   10:10:19.232.19-Jan-2020 5081.51 4214.08 81.51 5.00 395.45 2869.15
   10:10:19.432.19-Jan-2020 5081.51 4214.10 81.51 5.00 395.65 2869.15
   10:10:19.632.19-Jan-2020 5081.51 4214.06 81.51 5.00 395.85 2869.15
   10:10:19.832.19-Jan-2020 5081.51 4214.10 81.51 5.00 396.05 2869.15
   10:10:20.032.19-Jan-2020 5081.51 4214.10 81.51 5.00 396.25 2869.15
   10:10:20.232.19-Jan-2020 5081.51 4214.08 81.51 5.00 396.45 2869.15
   10:10:20.432.19-Jan-2020 5081.51 4213.84 81.51 5.00 396.65 2869.15
   10:10:20.632.19-Jan-2020 5081.51 4214.26 81.51 5.00 396.85 2869.15
   10:10:20.832.19-Jan-2020 5081.51 4214.14 81.51 5.00 397.05 2869.15
   10:10:21.032.19-Jan-2020 5081.51 4214.14 81.51 5.00 397.25 2869.15
   10:10:21.232.19-Jan-2020 5081.51 4214.14 81.51 5.00 397.45 2869.15
   10:10:21.432.19-Jan-2020 5081.51 4214.02 81.51 5.00 397.65 2869.15
   10:10:21.632.19-Jan-2020 5081.51 4214.13 81.51 5.00 397.85 2869.15
   10:10:21.832.19-Jan-2020 5081.51 4214.12 81.51 5.00 398.05 2869.15
   10:10:22.032.19-Jan-2020 5081.51 4214.12 81.51 5.00 398.25 2869.15
   10:10:22.232.19-Jan-2020 5081.51 4214.17 81.51 5.00 398.45 2869.15
   10:10:22.432.19-Jan-2020 5081.51 4214.13 81.51 5.00 398.65 2869.15
   10:10:22.632.19-Jan-2020 5081.51 4214.11 81.51 5.00 398.85 2869.15
   10:10:22.832.19-Jan-2020 5081.51 4214.15 81.51 5.00 399.05 2869.15
   10:10:23.032.19-Jan-2020 5081.51 4214.15 81.51 5.00 399.25 2869.15
   10:10:23.232.19-Jan-2020 5081.51 4214.24 81.51 5.00 399.45 2869.15
   10:10:23.432.19-Jan-2020 5081.51 4214.15 81.51 5.00 399.65 2869.15
   10:10:23.632.19-Jan-2020 5081.51 4214.12 81.51 5.00 399.85 2869.15
   10:10:23.833.19-Jan-2020 5081.51 4214.14 81.51 5.00 400.05 2869.15
   10:10:24.033.19-Jan-2020 5081.51 4214.14 81.51 5.00 400.25 2869.15
   10:10:24.233.19-Jan-2020 5081.51 4214.18 81.51 5.00 400.45 2869.15
   10:10:24.433.19-Jan-2020 5081.51 4214.09 81.51 5.00 400.65 2869.15
   10:10:24.633.19-Jan-2020 5081.51 4214.20 81.51 5.00 400.85 2869.15
   10:10:24.833.19-Jan-2020 5081.51 4214.14 81.50 5.00 401.05 2869.15
   10:10:25.033.19-Jan-2020 5081.51 4214.14 81.50 5.00 401.25 2869.15
   10:10:25.233.19-Jan-2020 5081.51 4214.13 81.50 5.00 401.45 2869.15
   10:10:25.433.19-Jan-2020 5081.51 4214.14 81.50 5.00 401.65 2869.15
   10:10:25.633.19-Jan-2020 5081.51 4214.14 81.50 5.00 401.85 2869.15
   10:10:25.833.19-Jan-2020 5081.51 4214.12 81.50 5.00 402.05 2869.15
   10:10:26.033.19-Jan-2020 5081.51 4214.12 81.50 5.00 402.25 2869.15
   10:10:26.233.19-Jan-2020 5081.51 4214.13 81.50 5.00 402.45 2869.15
   10:10:26.433.19-Jan-2020 5081.51 4214.11 81.50 5.00 402.65 2869.15
   10:10:26.633.19-Jan-2020 5081.51 4214.11 81.50 5.00 402.85 2869.15
   10:10:26.833.19-Jan-2020 5081.51 4214.13 81.50 5.00 403.05 2869.15
   10:10:27.033.19-Jan-2020 5081.51 4214.13 81.50 5.00 403.25 2869.15
   10:10:27.233.19-Jan-2020 5081.51 4214.04 81.50 5.00 403.45 2869.15
   10:10:27.433.19-Jan-2020 5081.51 4214.15 81.50 5.00 403.65 2869.15
   10:10:27.633.19-Jan-2020 5081.51 4214.11 81.50 5.00 403.85 2869.15
   10:10:27.833.19-Jan-2020 5081.51 4214.18 81.50 5.00 404.05 2869.15
   10:10:28.033.19-Jan-2020 5081.51 4214.18 81.50 5.00 404.25 2869.15
   10:10:28.233.19-Jan-2020 5081.51 4214.12 81.50 5.00 404.45 2869.15
   10:10:28.433.19-Jan-2020 5081.51 4214.16 81.50 5.00 404.65 2869.15
   10:10:28.633.19-Jan-2020 5081.51 4214.15 81.50 5.00 404.85 2869.15
   10:10:28.833.19-Jan-2020 5081.51 4214.10 81.50 5.00 405.05 2869.15
   10:10:29.033.19-Jan-2020 5081.51 4214.10 81.50 5.00 405.25 2869.15
   10:10:29.233.19-Jan-2020 5081.51 4214.12 81.50 5.00 405.45 2869.15
   10:10:29.433.19-Jan-2020 5081.51 4214.12 81.50 5.00 405.65 2869.15
   10:10:29.633.19-Jan-2020 5081.51 4214.11 81.50 5.00 405.85 2869.15
   10:10:29.833.19-Jan-2020 5081.51 4214.12 81.50 5.00 406.05 2869.15
   10:10:30.033.19-Jan-2020 5081.51 4214.12 81.50 5.00 406.25 2869.15
   10:10:30.233.19-Jan-2020 5081.51 4214.13 81.50 5.00 406.45 2869.15
   10:10:30.433.19-Jan-2020 5081.51 4214.10 81.50 5.00 406.65 2869.15
   10:10:30.633.19-Jan-2020 5081.51 4214.03 81.49 5.00 406.85 2869.15
   10:10:30.833.19-Jan-2020 5081.51 4214.17 81.49 5.00 407.05 2869.15
   10:10:31.033.19-Jan-2020 5081.51 4214.17 81.49 5.00 407.25 2869.15
   10:10:31.233.19-Jan-2020 5081.51 4214.20 81.49 5.00 407.45 2869.15
   10:10:31.433.19-Jan-2020 5081.51 4214.15 81.49 5.00 407.65 2869.15
   10:10:31.634.19-Jan-2020 5081.51 4213.92 81.49 5.00 407.85 2869.15
   10:10:31.834.19-Jan-2020 5081.51 4214.27 81.49 5.00 408.05 2869.15
   10:10:32.034.19-Jan-2020 5081.51 4214.27 81.49 5.00 408.25 2869.15
   10:10:32.234.19-Jan-2020 5081.51 4214.13 81.49 5.00 408.45 2869.15
   10:10:32.434.19-Jan-2020 5081.51 4214.18 81.49 5.00 408.65 2869.15
   10:10:32.634.19-Jan-2020 5081.51 4214.15 81.49 5.00 408.85 2869.15
   10:10:32.834.19-Jan-2020 5081.51 4214.17 81.49 5.00 409.05 2869.15
   10:10:33.034.19-Jan-2020 5081.51 4214.17 81.49 5.00 409.25 2869.15
   10:10:33.234.19-Jan-2020 5081.51 4214.17 81.49 5.00 409.45 2869.15
   10:10:33.434.19-Jan-2020 5081.51 4214.19 81.49 5.00 409.65 2869.15
   10:10:33.634.19-Jan-2020 5081.51 4214.09 81.49 5.00 409.85 2869.15
   10:10:33.834.19-Jan-2020 5081.51 4214.22 81.49 5.00 410.05 2869.15
   10:10:34.034.19-Jan-2020 5081.51 4214.22 81.49 5.00 410.25 2869.15
   10:10:34.234.19-Jan-2020 5081.51 4214.32 81.49 5.00 410.45 2869.15
   10:10:34.434.19-Jan-2020 5081.51 4214.20 81.49 5.00 410.65 2869.15
   10:10:34.634.19-Jan-2020 5081.51 4214.16 81.49 5.00 410.85 2869.15
   10:10:34.834.19-Jan-2020 5081.51 4214.18 81.49 5.00 411.05 2869.15
   10:10:35.034.19-Jan-2020 5081.51 4214.18 81.49 5.00 411.25 2869.15
   10:10:35.234.19-Jan-2020 5081.51 4214.15 81.49 5.00 411.45 2869.15
   10:10:35.434.19-Jan-2020 5081.51 4214.18 81.49 5.00 411.65 2869.15
   10:10:35.634.19-Jan-2020 5081.51 4214.17 81.49 5.00 411.85 2869.15
   10:10:35.834.19-Jan-2020 5081.51 4214.16 81.49 5.00 412.05 2869.15
   10:10:36.034.19-Jan-2020 5081.51 4214.16 81.49 5.00 412.25 2869.15
   10:10:36.234.19-Jan-2020 5081.51 4214.16 81.48 5.00 412.45 2869.15
   10:10:36.434.19-Jan-2020 5081.51 4214.15 81.48 5.00 412.65 2869.15
   10:10:36.634.19-Jan-2020 5081.51 4214.14 81.48 5.00 412.85 2869.15
   10:10:36.834.19-Jan-2020 5081.51 4214.16 81.48 5.00 413.05 2869.15
   10:10:37.034.19-Jan-2020 5081.51 4214.16 81.48 5.00 413.25 2869.15
   10:10:37.234.19-Jan-2020 5081.51 4213.92 81.48 5.00 413.45 2869.15
   10:10:37.434.19-Jan-2020 5081.51 4214.31 81.48 5.00 413.65 2869.15
   10:10:37.634.19-Jan-2020 5081.51 4214.20 81.48 5.00 413.85 2869.15
