~Version Information
 VERS.                  2.0:   CWLS log ASCII Standard -VERSION 2.0
 WRAP.                   NO:   One line per depth step
~Well Information Block
#MNEM.UNIT     VALUE/NAME     DESCRIPTION
#---------     -----------    ---------------------------
 STRT.S             16:13:28 18-Jan-20: START TIME 16:13:28 18-Jan-20
 STOP.S             16:21:32 18-Jan-20: STOP TIME  16:21:32 18-Jan-20
 STEP.S                   0.00: STEP TIME
 NULL.                 -999.25: NULL VALUE
 DFWT.                        :  DIST FWL TEXT
 DFST.                        :  DIST FSL TEXT
 DMF .             Drill Floor:  DRILL MEAS FROM
 STIM.      17.57.20 21-Dec-19:  START TIME
 DATE.      17.57.20 21-Dec-19:  END TIME
 SPUD.               21-Dec-19:  SPUD DATE
 NREF.                    Grid:  NORTH REFERENCE
 HPTY.       Minimum Curvature:  HOLE POS TYPE
 DMOD.             Drill Model:  DRILL MOD DESC
 SVYD.                  Survey:  SURVEY DESC
 ILTD.               Lithology:  INTERP LTH DESC
 FTOP.          Formation Tops:  FORM TOPS DESC
 PDAT.          Mean Sea Level:  PERMANENT DATUM
 FLD .                     ACG:  FIELD NAME
 SON .        AZ-XX-0905715376:  JOB NUMBER
 CTRY.              Azerbaijan:  COUNTRY NAME
 WELL.                    E04Y:  WELL NAME
 SRVC.          TURAN DRILLING:  CONTRACTOR
 COMP.     BP Exploration (Caspian Sea) Ltd.:  COMPANY
 WTYP.                Deviated:  WELL TYPE
 UWI .                     N/a:  UNIQUE WELL IDENTIFIER
 API .                     N/a:  API NUMBER
 BASE.              Azerbaijan:  LOGGING EQUIPMENT BASE LOCATION
 REGN.                   EESSA:  REGION
 MWDS.                    Baku:  MWD SHOP
 RIG .                     DWG:  RIG NAME
 DOE .                     N/a:  DOE NUMBER
 CNTY.                    Baku:  COUNTY NAME
 DCON.         Sperry Drilling:  DIRECTNL CONTR
 UNIT.                     N/a:  LOGGING EQUIPMENT ID
 MDS .        Operator Entered:  MAG DATA SOURCE
 PROV.                        :  PROVINCE
 STAT.                        :  STATE
 LOC .                        :  LOCATION
 LMF .             Drill Floor:  LOG MEASURED FROM
 TVDS.m                  43.16:  TVDSS CORRECTN
 LATI.deg                40.17:  LATITUDE
 LONG.deg                51.17:  LONGITUDE
 WHNS.m                  -0.12:  WELL HEAD N/S
 WHEW.m                  -5.41:  WELL HEAD E/W
 UTMX.m              514337.95:  UTM X
 UTMY.m             4448627.46:  UTM Y
 DFWL.m                   0.00:  DISTANCE FWL
 DFSL.m                   0.00:  DISTANCE FSL
 SDEP.m                   0.00:  START DEPTH
 TDD .m                   0.00:  TOTAL DEPTH (DRILLER)
 VSDR.deg               235.12:  VERT SEC DIRECT
 GVFD.g                   1.00:  GRAVITY FIELD
 MFLD.nT              50294.00:  MAGNETIC FIELD
 MDIP.deg                59.61:  MAGNETIC DIP
 MDEC.deg                 6.58:  MAGNETIC DECL
 GRDC.deg                 0.09:  GRID CORRECTION
 AZTC.deg                 6.49:  AZM TOTAL CORR
 EPD .m                   0.00:  ELEVATION
 EGL .m                   0.00:  GROUND ELEVATION
 WDMS.m                 176.20:  WD ELEV
 APD .m                  43.16:  DEPTH ABOVE PD
 DEP .m                3172.61:  DEPTH
 AGAP.m                  43.16:  AIR GAP
 VSEW.m                  -5.41:  VERT SEC E/W
 VSNS.m                  -0.12:  VERT SEC N/S
 EKB .m                  43.16:  KB ELEVATION
 EDF .m                  43.16:  DF ELEVATION
 TDL .m                 295.00:  TOTAL DEPTH (LOGGER)
 VSC .                       0:  VS TO CLOSURE
 MAGU.                 1852276:  MAGUTM CHECKSUM
~Parameter Information Block
#MNEM.UNIT       Value        Description
#---------     -----------    ---------------------------
 AV  .mps                 1.60:  Ann Velocity 
 AVMX.mps                 2.10:  Max Ann Veloc 
 AZIF.deg               290.59:  Azm, Final 
 BHAT.        Rotary Steerable:  BHA Type 
 BROT.°/30m               1.00:  Build Rotating 
 BS  .in                  6.50:  Bit Size 
 BSZ .in                  6.50:  Bit Size 
 BTPL.psig              120.00:  Bit Press Loss 
 CABU.                     Yes:  Customer Abuse 
 CGEO.          Eldar Huseynov:  Customer Geo 
 COMM.                     Ôs:  Run Comments 1 
 TCS .hr                 87.00:  Time Ciculation Ended 
 CV  .mps                 4.01:  Crit Velocity 
 CVMX.mps                 5.06:  Max Crit Veloc 
 DD1 .             Aziz Aliyev:  Direct Drillr 1 
 DD2 .            Sanan Aliyev:  Direct Drillr 2 
 DDSV.               Geo-Pilot:  DD Service 
 DEFF.%                  95.00:  % Det Eff 
 DLRX.°/30m               0.75:  Dogleg Rot Max 
 DLSO.°/30m               0.65:  Dogleg Oriented 
 DLSX.°/30m               1.39:  Dogleg Str Max 
 DRET.      18.25.00 19-Jan-20:  Drill End Time 
 DRST.      11.56.48 17-Jan-20:  Drill Start Tim 
 DTIM.hr                 27.16:  Time Drilling 
 EDEP.m                5161.01:  End Depth 
 ENG1.          Rasim Hashimov:  Engineer 1 
 ENG2.      Bakhtiyar Jabbarli:  Engineer 2 
 ETIM.      11.56.48 21-Jan-20:  End Time 
 FLOI.gpm               350.00:  Flow In 
 FLON.gpm               300.00:  Flow In Min 
 FLOS.cptm                0.00:  Fluid Loss 
 FLOX.gpm               400.00:  Flow In Max 
 HFLO.                      No:  High Flow 
 HPRE.                      No:  High Pressure 
 HTEM.                      No:  High Temp 
 HYDO.m                   1.85:  Hydro Offset 
 IFIN.deg                71.58:  Inc, Final 
 IMAX.deg                71.83:  Inc Max 
 IMIN.deg                71.12:  Inc Min 
 IMND.m                5099.48:  Inc Min Depth 
 IMXD.m                5071.08:  Inc Max Depth 
 JARR.                      No:  Jarring 
 LETM.      18.25.00 19-Jan-20:  Log End Time 
 LOST.hr                     0:  Lost Rig Time 
 LSTM.      11.56.48 17-Jan-20:  Log Start Time 
 MDCL.ppm             37000.00:  Mud Chlorides 
 MDES.     Inversion Oil/Synthetic:  Mud Desc 
 DFD .sg                  1.34:  Mud Density 
 MDMN.sg                  1.34:  Dens Mud Min 
 MDMX.sg                  1.34:  Dens Mud Max 
 MOIL.                      69:  Run Mud Oil % 
 MOWR.                   69:31:  Run Mud OWR 
 MSND.                     0.1:  Run Mud Sand % 
 MSOL.                    17.6:  Run Mud Solids% 
 DFV .spqt               79.00:  Mud Viscosity 
 MWOD.in                  4.75:  MWD Tool OD 
 MWSI.                      No:  Serv Intrp, MWD 
 OTIM.hr                126.10:  Time Operating 
 PMAX.psia             6000.00:  Press Op, Max 
 PV  .cP                 29.00:  Mud PV 
 RUN .                     400:  Run Number 
 ROPA.m/hr               11.00:  ROP Avg 
 ROPN.m/hr                5.00:  ROP Min 
 ROPX.m/hr               18.00:  ROP Max 
 RPMA.rpm               139.00:  RPM Surface Avg 
 RPMN.rpm               100.00:  RPM Surface Min 
 RPMX.rpm               140.00:  RPM Surface Max 
 RRUN.                     400:  Rig Run Number 
 SAZI.deg               290.22:  Azm, Start 
 SDEP.m                4868.01:  Start Depth 
 SIDD.                      No:  Serv Intrp, DD 
 SINC.deg                71.77:  Inc, Start 
 SPPA.psig             5550.00:  SPP Avg 
 SPPN.psig             4300.00:  SPP Min 
 SPPX.psig             5600.00:  SPP Max 
 STIM.      23.45.48 15-Jan-20:  Start Time 
 SVCS.                 DD, MWD:  Services 
 SVER.                    9.20:  Sperry Version 
 TDAT.m                5161.01:  Tot Depth Attmp 
 TDDF.                      No:  Trip for DD 
 TDLG.m                 295.00:  Tot Depth Loggd 
 TFF .                      No:  Trip for Fail 
 TQAA.f-kp               13.00:  Torque Abs Avg 
 TQAN.f-kp               13.00:  Torque Abs Min 
 TQAX.f-kp               16.00:  Torque Abs Max 
 TRRT.°/30m               0.25:  Turn Rotating 
 MRT .                     ADR:  Maximum Recorded Temperature 
 TTMX.degC               88.00:  Max Tool Temp 
 VS01.                90577859:  Virtual Str1 SN 
 VS02.                90521879:  Virtual Str2 SN 
 VS03.                90580299:  Virtual Str3 SN 
 VS04.                90515982:  Virtual Str4 SN 
 VS05.                90547765:  Virtual Str5 SN 
 WBMN.klb                 2.00:  WOB Min 
 WITN.           Adil Mammadov:  Customer Rep 
 WITN.        Elmaddin Rahimov:  Customer Rep 2 
 WOBA.klb                 3.00:  WOB Avg 
 WOBX.klb                 5.00:  WOB Max 
 YP  .lhf2               30.00:  Yield Point 
~Curve Information Block
#MNEM.UNIT                 API CODE     Curve Description
#---------               -----------    ---------------------------
 TIME.HHMMSS            00 000 000 000:  GT Time & Date
 GTDEPTH.m              00 000 000 000:  GT Depth
 GTPQH.psia             00 000 000 000:  GT HR Quartz Pressure
 GTTQ.degC              00 000 000 000:  GT Quartz Temperature
 GTTN.NONE              00 000 000 000:  GT Test Number
 GTET.sec               00 000 000 000:  GT Elapsed Test Time
 GTTVD.m                00 000 000 000:  GT True Vertical Depth
#Other Information
#
#WARRANTY: Halliburton will use its best efforts to furnish customers with 
#accurate information and interpretations that are part of, and incident to, the services 
#provided.  However, Halliburton cannot and does not warrant the accuracy 
#or correctness of such information and interpretations.  Under no circumstances should any 
#such information or interpretation be relied upon as the sole basis for any drilling, 
#completion, production, or financial decision or any procedure involving any risk to the 
#safety of any drilling venture, drilling rig or its crew or any other third party.  The 
#Customer has full responsibility for all drilling, completion and production operation.  
#Halliburton makes no representations or warranties, either expressed or 
#implied, including, but not limited to, the implied warranties of merchantability or fitness 
#for a particular purpose, with respect to the services rendered.  In no event will 
#Halliburton be liable for failure to obtain any particular results or for 
#any damages, including, but not limited to, indirect, special or consequential damages, 
#resulting from the use of any information or interpretation provided by Halliburton.
#
~A           TIME           GTDEPTH  GTPQH  GTTQ  GTTN  GTET   GTTVD  
# ...
   16:21:08.586.18-Jan-2020 4958.01 6042.82 79.75 2.00 460.04 2829.97
   16:21:08.786.18-Jan-2020 4958.01 6042.82 79.75 2.00 460.24 2829.97
   16:21:08.986.18-Jan-2020 4958.01 6039.18 79.75 2.00 460.44 2829.97
   16:21:09.186.18-Jan-2020 4958.01 6036.15 79.75 2.00 460.64 2829.97
   16:21:09.386.18-Jan-2020 4958.01 6036.65 79.75 2.00 460.84 2829.97
   16:21:09.586.18-Jan-2020 4958.01 6042.14 79.75 2.00 461.04 2829.97
   16:21:09.786.18-Jan-2020 4958.01 6042.14 79.75 2.00 461.24 2829.97
   16:21:09.986.18-Jan-2020 4958.01 6042.15 79.75 2.00 461.44 2829.97
   16:21:10.186.18-Jan-2020 4958.01 6041.10 79.75 2.00 461.64 2829.97
   16:21:10.386.18-Jan-2020 4958.01 6042.42 79.75 2.00 461.84 2829.97
   16:21:10.586.18-Jan-2020 4958.01 6041.16 79.75 2.00 462.04 2829.97
   16:21:10.786.18-Jan-2020 4958.01 6041.16 79.75 2.00 462.24 2829.97
   16:21:10.986.18-Jan-2020 4958.01 6040.61 79.75 2.00 462.44 2829.97
   16:21:11.186.18-Jan-2020 4958.01 6041.83 79.75 2.00 462.64 2829.97
   16:21:11.386.18-Jan-2020 4958.01 6040.66 79.74 2.00 462.84 2829.97
   16:21:11.586.18-Jan-2020 4958.01 6041.95 79.74 2.00 463.04 2829.97
   16:21:11.786.18-Jan-2020 4958.01 6041.95 79.74 2.00 463.24 2829.97
   16:21:11.986.18-Jan-2020 4958.01 6041.37 79.74 2.00 463.44 2829.97
   16:21:12.186.18-Jan-2020 4958.01 6041.14 79.74 2.00 463.64 2829.97
   16:21:12.386.18-Jan-2020 4958.01 6031.40 79.74 2.00 463.84 2829.97
   16:21:12.586.18-Jan-2020 4958.01 6037.13 79.74 2.00 464.04 2829.97
   16:21:12.786.18-Jan-2020 4958.01 6037.13 79.74 2.00 464.24 2829.97
   16:21:12.986.18-Jan-2020 4958.01 6041.87 79.74 2.00 464.44 2829.97
   16:21:13.186.18-Jan-2020 4958.01 6040.99 79.74 2.00 464.64 2829.97
   16:21:13.386.18-Jan-2020 4958.01 6042.56 79.74 2.00 464.84 2829.97
   16:21:13.586.18-Jan-2020 4958.01 6040.36 79.74 2.00 465.04 2829.97
   16:21:13.786.18-Jan-2020 4958.01 6040.36 79.74 2.00 465.24 2829.97
   16:21:13.986.18-Jan-2020 4958.01 6039.85 79.74 2.00 465.44 2829.97
   16:21:14.186.18-Jan-2020 4958.01 6040.71 79.74 2.00 465.64 2829.97
   16:21:14.386.18-Jan-2020 4958.01 6040.19 79.74 2.00 465.84 2829.97
   16:21:14.586.18-Jan-2020 4958.01 6040.16 79.74 2.00 466.04 2829.97
   16:21:14.786.18-Jan-2020 4958.01 6040.16 79.74 2.00 466.24 2829.97
   16:21:14.986.18-Jan-2020 4958.01 6039.81 79.74 2.00 466.44 2829.97
   16:21:15.186.18-Jan-2020 4958.01 6040.96 79.74 2.00 466.64 2829.97
   16:21:15.386.18-Jan-2020 4958.01 6039.51 79.74 2.00 466.84 2829.97
   16:21:15.586.18-Jan-2020 4958.01 6040.65 79.74 2.00 467.04 2829.97
   16:21:15.786.18-Jan-2020 4958.01 6040.65 79.74 2.00 467.24 2829.97
   16:21:15.987.18-Jan-2020 4958.01 6037.01 79.74 2.00 467.44 2829.97
   16:21:16.187.18-Jan-2020 4958.01 6035.30 79.74 2.00 467.64 2829.97
   16:21:16.387.18-Jan-2020 4958.01 6042.27 79.74 2.00 467.84 2829.97
   16:21:16.587.18-Jan-2020 4958.01 6041.30 79.74 2.00 468.04 2829.97
   16:21:16.787.18-Jan-2020 4958.01 6041.30 79.74 2.00 468.24 2829.97
   16:21:16.987.18-Jan-2020 4958.01 6041.66 79.74 2.00 468.44 2829.97
   16:21:17.187.18-Jan-2020 4958.01 6031.16 79.74 2.00 468.64 2829.97
   16:21:17.387.18-Jan-2020 4958.01 6039.80 79.74 2.00 468.84 2829.97
   16:21:17.587.18-Jan-2020 4958.01 6038.63 79.73 2.00 469.04 2829.97
   16:21:17.787.18-Jan-2020 4958.01 6038.63 79.73 2.00 469.24 2829.97
   16:21:17.987.18-Jan-2020 4958.01 6040.56 79.73 2.00 469.44 2829.97
   16:21:18.187.18-Jan-2020 4958.01 6032.32 79.73 2.00 469.64 2829.97
   16:21:18.387.18-Jan-2020 4958.01 6039.14 79.73 2.00 469.84 2829.97
   16:21:18.587.18-Jan-2020 4958.01 6040.42 79.73 2.00 470.04 2829.97
   16:21:18.787.18-Jan-2020 4958.01 6040.42 79.73 2.00 470.24 2829.97
   16:21:18.987.18-Jan-2020 4958.01 6032.30 79.73 2.00 470.44 2829.97
   16:21:19.187.18-Jan-2020 4958.01 6039.96 79.73 2.00 470.64 2829.97
   16:21:19.387.18-Jan-2020 4958.01 6037.47 79.73 2.00 470.84 2829.97
   16:21:19.587.18-Jan-2020 4958.01 6041.49 79.73 2.00 471.04 2829.97
   16:21:19.787.18-Jan-2020 4958.01 6041.49 79.73 2.00 471.24 2829.97
   16:21:19.987.18-Jan-2020 4958.01 6042.74 79.73 2.00 471.44 2829.97
   16:21:20.187.18-Jan-2020 4958.01 6041.54 79.73 2.00 471.64 2829.97
   16:21:20.387.18-Jan-2020 4958.01 6041.98 79.73 2.00 471.84 2829.97
   16:21:20.587.18-Jan-2020 4958.01 6039.74 79.73 2.00 472.04 2829.97
   16:21:20.787.18-Jan-2020 4958.01 6039.74 79.73 2.00 472.24 2829.97
   16:21:20.987.18-Jan-2020 4958.01 6040.60 79.73 2.00 472.44 2829.97
   16:21:21.187.18-Jan-2020 4958.01 6042.07 79.73 2.00 472.64 2829.97
   16:21:21.387.18-Jan-2020 4958.01 6041.16 79.73 2.00 472.84 2829.97
   16:21:21.587.18-Jan-2020 4958.01 6042.55 79.73 2.00 473.04 2829.97
   16:21:21.787.18-Jan-2020 4958.01 6042.55 79.73 2.00 473.24 2829.97
   16:21:21.987.18-Jan-2020 4958.01 6042.17 79.73 2.00 473.44 2829.97
   16:21:22.187.18-Jan-2020 4958.01 6039.33 79.73 2.00 473.64 2829.97
   16:21:22.387.18-Jan-2020 4958.01 6036.24 79.72 2.00 473.84 2829.97
   16:21:22.587.18-Jan-2020 4958.01 6036.40 79.72 2.00 474.04 2829.97
   16:21:22.787.18-Jan-2020 4958.01 6036.40 79.72 2.00 474.24 2829.97
   16:21:22.987.18-Jan-2020 4958.01 6043.27 79.72 2.00 474.44 2829.97
   16:21:23.187.18-Jan-2020 4958.01 6041.45 79.72 2.00 474.64 2829.97
   16:21:23.387.18-Jan-2020 4958.01 6042.77 79.72 2.00 474.84 2829.97
   16:21:23.587.18-Jan-2020 4958.01 6040.49 79.72 2.00 475.04 2829.97
   16:21:23.787.18-Jan-2020 4958.01 6040.49 79.72 2.00 475.24 2829.97
   16:21:23.987.18-Jan-2020 4958.01 6039.51 79.72 2.00 475.44 2829.97
   16:21:24.187.18-Jan-2020 4958.01 6040.32 79.72 2.00 475.64 2829.97
   16:21:24.387.18-Jan-2020 4958.01 6040.02 79.72 2.00 475.84 2829.97
   16:21:24.587.18-Jan-2020 4958.01 6040.17 79.72 2.00 476.04 2829.97
   16:21:24.787.18-Jan-2020 4958.01 6040.17 79.72 2.00 476.24 2829.97
   16:21:24.987.18-Jan-2020 4958.01 6039.77 79.72 2.00 476.44 2829.97
   16:21:25.187.18-Jan-2020 4958.01 6040.53 79.72 2.00 476.64 2829.97
   16:21:25.387.18-Jan-2020 4958.01 6039.22 79.72 2.00 476.84 2829.97
   16:21:25.587.18-Jan-2020 4958.01 6040.46 79.72 2.00 477.04 2829.97
   16:21:25.787.18-Jan-2020 4958.01 6040.46 79.72 2.00 477.24 2829.97
   16:21:25.987.18-Jan-2020 4958.01 6041.10 79.72 2.00 477.44 2829.97
   16:21:26.187.18-Jan-2020 4958.01 6036.78 79.72 2.00 477.64 2829.97
   16:21:26.387.18-Jan-2020 4958.01 6041.45 79.72 2.00 477.84 2829.97
   16:21:26.587.18-Jan-2020 4958.01 6041.21 79.71 2.00 478.04 2829.97
   16:21:26.787.18-Jan-2020 4958.01 6041.21 79.71 2.00 478.24 2829.97
   16:21:26.987.18-Jan-2020 4958.01 6040.58 79.71 2.00 478.44 2829.97
   16:21:27.187.18-Jan-2020 4958.01 6030.90 79.71 2.00 478.64 2829.97
   16:21:27.387.18-Jan-2020 4958.01 6036.22 79.71 2.00 478.84 2829.97
   16:21:27.587.18-Jan-2020 4958.01 6039.34 79.71 2.00 479.04 2829.97
   16:21:27.787.18-Jan-2020 4958.01 6039.34 79.71 2.00 479.24 2829.97
   16:21:27.987.18-Jan-2020 4958.01 6039.68 79.71 2.00 479.44 2829.97
   16:21:28.188.18-Jan-2020 4958.01 6032.85 79.71 2.00 479.64 2829.97
   16:21:28.388.18-Jan-2020 4958.01 6035.85 79.71 2.00 479.84 2829.97
   16:21:28.588.18-Jan-2020 4958.01 6041.61 79.71 2.00 480.04 2829.97
   16:21:28.788.18-Jan-2020 4958.01 6041.61 79.71 2.00 480.24 2829.97
   16:21:28.988.18-Jan-2020 4958.01 6031.60 79.71 2.00 480.44 2829.97
   16:21:29.188.18-Jan-2020 4958.01 6038.97 79.71 2.00 480.64 2829.97
   16:21:29.388.18-Jan-2020 4958.01 6040.01 79.71 2.00 480.84 2829.97
   16:21:29.588.18-Jan-2020 4958.01 6041.42 79.71 2.00 481.04 2829.97
   16:21:29.788.18-Jan-2020 4958.01 6041.42 79.71 2.00 481.24 2829.97
   16:21:29.988.18-Jan-2020 4958.01 6042.85 79.71 2.00 481.44 2829.97
   16:21:30.188.18-Jan-2020 4958.01 6041.15 79.71 2.00 481.64 2829.97
   16:21:30.388.18-Jan-2020 4958.01 6041.63 79.71 2.00 481.84 2829.97
   16:21:30.588.18-Jan-2020 4958.01 6039.01 79.71 2.00 482.04 2829.97
   16:21:30.788.18-Jan-2020 4958.01 6039.01 79.71 2.00 482.24 2829.97
   16:21:30.988.18-Jan-2020 4958.01 6040.18 79.70 2.00 482.44 2829.97
   16:21:31.188.18-Jan-2020 4958.01 6041.82 79.70 2.00 482.64 2829.97
   16:21:31.388.18-Jan-2020 4958.01 6040.09 79.70 2.00 482.84 2829.97
