~Version Information
 VERS.                  2.0:   CWLS log ASCII Standard -VERSION 2.0
 WRAP.                   NO:   One line per depth step
~Well Information Block
#MNEM.UNIT     VALUE/NAME     DESCRIPTION
#---------     -----------    ---------------------------
 STRT.S             10:03:43 19-Jan-20: START TIME 10:03:43 19-Jan-20
 STOP.S             10:11:36 19-Jan-20: STOP TIME  10:11:36 19-Jan-20
 STEP.S                   0.00: STEP TIME
 NULL.                 -999.25: NULL VALUE
 DFWT.                        :  DIST FWL TEXT
 DFST.                        :  DIST FSL TEXT
 DMF .             Drill Floor:  DRILL MEAS FROM
 STIM.      17.57.20 21-Dec-19:  START TIME
 DATE.      17.57.20 21-Dec-19:  END TIME
 SPUD.               21-Dec-19:  SPUD DATE
 NREF.                    Grid:  NORTH REFERENCE
 HPTY.       Minimum Curvature:  HOLE POS TYPE
 DMOD.             Drill Model:  DRILL MOD DESC
 SVYD.                  Survey:  SURVEY DESC
 ILTD.               Lithology:  INTERP LTH DESC
 FTOP.          Formation Tops:  FORM TOPS DESC
 PDAT.          Mean Sea Level:  PERMANENT DATUM
 FLD .                     ACG:  FIELD NAME
 SON .        AZ-XX-0905715376:  JOB NUMBER
 CTRY.              Azerbaijan:  COUNTRY NAME
 WELL.                    E04Y:  WELL NAME
 SRVC.          TURAN DRILLING:  CONTRACTOR
 COMP.     BP Exploration (Caspian Sea) Ltd.:  COMPANY
 WTYP.                Deviated:  WELL TYPE
 UWI .                     N/a:  UNIQUE WELL IDENTIFIER
 API .                     N/a:  API NUMBER
 BASE.              Azerbaijan:  LOGGING EQUIPMENT BASE LOCATION
 REGN.                   EESSA:  REGION
 MWDS.                    Baku:  MWD SHOP
 RIG .                     DWG:  RIG NAME
 DOE .                     N/a:  DOE NUMBER
 CNTY.                    Baku:  COUNTY NAME
 DCON.         Sperry Drilling:  DIRECTNL CONTR
 UNIT.                     N/a:  LOGGING EQUIPMENT ID
 MDS .        Operator Entered:  MAG DATA SOURCE
 PROV.                        :  PROVINCE
 STAT.                        :  STATE
 LOC .                        :  LOCATION
 LMF .             Drill Floor:  LOG MEASURED FROM
 TVDS.m                  43.16:  TVDSS CORRECTN
 LATI.deg                40.17:  LATITUDE
 LONG.deg                51.17:  LONGITUDE
 WHNS.m                  -0.12:  WELL HEAD N/S
 WHEW.m                  -5.41:  WELL HEAD E/W
 UTMX.m              514337.95:  UTM X
 UTMY.m             4448627.46:  UTM Y
 DFWL.m                   0.00:  DISTANCE FWL
 DFSL.m                   0.00:  DISTANCE FSL
 SDEP.m                   0.00:  START DEPTH
 TDD .m                   0.00:  TOTAL DEPTH (DRILLER)
 VSDR.deg               235.12:  VERT SEC DIRECT
 GVFD.g                   1.00:  GRAVITY FIELD
 MFLD.nT              50294.00:  MAGNETIC FIELD
 MDIP.deg                59.61:  MAGNETIC DIP
 MDEC.deg                 6.58:  MAGNETIC DECL
 GRDC.deg                 0.09:  GRID CORRECTION
 AZTC.deg                 6.49:  AZM TOTAL CORR
 EPD .m                   0.00:  ELEVATION
 EGL .m                   0.00:  GROUND ELEVATION
 WDMS.m                 176.20:  WD ELEV
 APD .m                  43.16:  DEPTH ABOVE PD
 DEP .m                3172.61:  DEPTH
 AGAP.m                  43.16:  AIR GAP
 VSEW.m                  -5.41:  VERT SEC E/W
 VSNS.m                  -0.12:  VERT SEC N/S
 EKB .m                  43.16:  KB ELEVATION
 EDF .m                  43.16:  DF ELEVATION
 TDL .m                 295.00:  TOTAL DEPTH (LOGGER)
 VSC .                       0:  VS TO CLOSURE
 MAGU.                 1852276:  MAGUTM CHECKSUM
~Parameter Information Block
#MNEM.UNIT       Value        Description
#---------     -----------    ---------------------------
 AV  .mps                 1.60:  Ann Velocity 
 AVMX.mps                 2.10:  Max Ann Veloc 
 AZIF.deg               290.59:  Azm, Final 
 BHAT.        Rotary Steerable:  BHA Type 
 BROT.°/30m               1.00:  Build Rotating 
 BS  .in                  6.50:  Bit Size 
 BSZ .in                  6.50:  Bit Size 
 BTPL.psig              120.00:  Bit Press Loss 
 CABU.                     Yes:  Customer Abuse 
 CGEO.          Eldar Huseynov:  Customer Geo 
 COMM.                     Œòk:  Run Comments 1 
 TCS .hr                 87.00:  Time Ciculation Ended 
 CV  .mps                 4.01:  Crit Velocity 
 CVMX.mps                 5.06:  Max Crit Veloc 
 DD1 .             Aziz Aliyev:  Direct Drillr 1 
 DD2 .            Sanan Aliyev:  Direct Drillr 2 
 DDSV.               Geo-Pilot:  DD Service 
 DEFF.%                  95.00:  % Det Eff 
 DLRX.°/30m               0.75:  Dogleg Rot Max 
 DLSO.°/30m               0.65:  Dogleg Oriented 
 DLSX.°/30m               1.39:  Dogleg Str Max 
 DRET.      18.25.00 19-Jan-20:  Drill End Time 
 DRST.      11.56.48 17-Jan-20:  Drill Start Tim 
 DTIM.hr                 27.16:  Time Drilling 
 EDEP.m                5161.01:  End Depth 
 ENG1.          Rasim Hashimov:  Engineer 1 
 ENG2.      Bakhtiyar Jabbarli:  Engineer 2 
 ETIM.      11.56.48 21-Jan-20:  End Time 
 FLOI.gpm               350.00:  Flow In 
 FLON.gpm               300.00:  Flow In Min 
 FLOS.cptm                0.00:  Fluid Loss 
 FLOX.gpm               400.00:  Flow In Max 
 HFLO.                      No:  High Flow 
 HPRE.                      No:  High Pressure 
 HTEM.                      No:  High Temp 
 HYDO.m                   1.85:  Hydro Offset 
 IFIN.deg                71.58:  Inc, Final 
 IMAX.deg                71.83:  Inc Max 
 IMIN.deg                71.12:  Inc Min 
 IMND.m                5099.48:  Inc Min Depth 
 IMXD.m                5071.08:  Inc Max Depth 
 JARR.                      No:  Jarring 
 LETM.      18.25.00 19-Jan-20:  Log End Time 
 LOST.hr                     0:  Lost Rig Time 
 LSTM.      11.56.48 17-Jan-20:  Log Start Time 
 MDCL.ppm             37000.00:  Mud Chlorides 
 MDES.     Inversion Oil/Synthetic:  Mud Desc 
 DFD .sg                  1.34:  Mud Density 
 MDMN.sg                  1.34:  Dens Mud Min 
 MDMX.sg                  1.34:  Dens Mud Max 
 MOIL.                      69:  Run Mud Oil % 
 MOWR.                   69:31:  Run Mud OWR 
 MSND.                     0.1:  Run Mud Sand % 
 MSOL.                    17.6:  Run Mud Solids% 
 DFV .spqt               79.00:  Mud Viscosity 
 MWOD.in                  4.75:  MWD Tool OD 
 MWSI.                      No:  Serv Intrp, MWD 
 OTIM.hr                126.10:  Time Operating 
 PMAX.psia             6000.00:  Press Op, Max 
 PV  .cP                 29.00:  Mud PV 
 RUN .                     400:  Run Number 
 ROPA.m/hr               11.00:  ROP Avg 
 ROPN.m/hr                5.00:  ROP Min 
 ROPX.m/hr               18.00:  ROP Max 
 RPMA.rpm               139.00:  RPM Surface Avg 
 RPMN.rpm               100.00:  RPM Surface Min 
 RPMX.rpm               140.00:  RPM Surface Max 
 RRUN.                     400:  Rig Run Number 
 SAZI.deg               290.22:  Azm, Start 
 SDEP.m                4868.01:  Start Depth 
 SIDD.                      No:  Serv Intrp, DD 
 SINC.deg                71.77:  Inc, Start 
 SPPA.psig             5550.00:  SPP Avg 
 SPPN.psig             4300.00:  SPP Min 
 SPPX.psig             5600.00:  SPP Max 
 STIM.      23.45.48 15-Jan-20:  Start Time 
 SVCS.                 DD, MWD:  Services 
 SVER.                    9.20:  Sperry Version 
 TDAT.m                5161.01:  Tot Depth Attmp 
 TDDF.                      No:  Trip for DD 
 TDLG.m                 295.00:  Tot Depth Loggd 
 TFF .                      No:  Trip for Fail 
 TQAA.f-kp               13.00:  Torque Abs Avg 
 TQAN.f-kp               13.00:  Torque Abs Min 
 TQAX.f-kp               16.00:  Torque Abs Max 
 TRRT.°/30m               0.25:  Turn Rotating 
 MRT .                     ADR:  Maximum Recorded Temperature 
 TTMX.degC               88.00:  Max Tool Temp 
 VS01.                90577859:  Virtual Str1 SN 
 VS02.                90521879:  Virtual Str2 SN 
 VS03.                90580299:  Virtual Str3 SN 
 VS04.                90515982:  Virtual Str4 SN 
 VS05.                90547765:  Virtual Str5 SN 
 WBMN.klb                 2.00:  WOB Min 
 WITN.           Adil Mammadov:  Customer Rep 
 WITN.        Elmaddin Rahimov:  Customer Rep 2 
 WOBA.klb                 3.00:  WOB Avg 
 WOBX.klb                 5.00:  WOB Max 
 YP  .lhf2               30.00:  Yield Point 
~Curve Information Block
#MNEM.UNIT                 API CODE     Curve Description
#---------               -----------    ---------------------------
 TIME.HHMMSS            00 000 000 000:  GT Time & Date
 GTDEPTH.m              00 000 000 000:  GT Depth
 GTPQH.psia             00 000 000 000:  GT HR Quartz Pressure
 GTTQ.degC              00 000 000 000:  GT Quartz Temperature
 GTTN.NONE              00 000 000 000:  GT Test Number
 GTET.sec               00 000 000 000:  GT Elapsed Test Time
 GTTVD.m                00 000 000 000:  GT True Vertical Depth
#Other Information
#
#WARRANTY: Halliburton will use its best efforts to furnish customers with 
#accurate information and interpretations that are part of, and incident to, the services 
#provided.  However, Halliburton cannot and does not warrant the accuracy 
#or correctness of such information and interpretations.  Under no circumstances should any 
#such information or interpretation be relied upon as the sole basis for any drilling, 
#completion, production, or financial decision or any procedure involving any risk to the 
#safety of any drilling venture, drilling rig or its crew or any other third party.  The 
#Customer has full responsibility for all drilling, completion and production operation.  
#Halliburton makes no representations or warranties, either expressed or 
#implied, including, but not limited to, the implied warranties of merchantability or fitness 
#for a particular purpose, with respect to the services rendered.  In no event will 
#Halliburton be liable for failure to obtain any particular results or for 
#any damages, including, but not limited to, indirect, special or consequential damages, 
#resulting from the use of any information or interpretation provided by Halliburton.
#
~A           TIME           GTDEPTH  GTPQH  GTTQ  GTTN  GTET   GTTVD  
# ...
   10:09:28.826.19-Jan-2020 5081.51 4213.80 81.60 5.00 345.04 2869.15
   10:09:29.026.19-Jan-2020 5081.51 4213.80 81.60 5.00 345.24 2869.15
   10:09:29.226.19-Jan-2020 5081.51 4213.79 81.60 5.00 345.44 2869.15
   10:09:29.426.19-Jan-2020 5081.51 4213.79 81.60 5.00 345.64 2869.15
   10:09:29.626.19-Jan-2020 5081.51 4213.71 81.60 5.00 345.84 2869.15
   10:09:29.826.19-Jan-2020 5081.51 4213.85 81.60 5.00 346.04 2869.15
   10:09:30.026.19-Jan-2020 5081.51 4213.85 81.60 5.00 346.24 2869.15
   10:09:30.226.19-Jan-2020 5081.51 4213.88 81.60 5.00 346.44 2869.15
   10:09:30.426.19-Jan-2020 5081.51 4213.82 81.60 5.00 346.64 2869.15
   10:09:30.626.19-Jan-2020 5081.51 4213.73 81.60 5.00 346.84 2869.15
   10:09:30.826.19-Jan-2020 5081.51 4213.89 81.60 5.00 347.04 2869.15
   10:09:31.026.19-Jan-2020 5081.51 4213.89 81.60 5.00 347.24 2869.15
   10:09:31.226.19-Jan-2020 5081.51 4213.88 81.60 5.00 347.44 2869.15
   10:09:31.426.19-Jan-2020 5081.51 4213.87 81.60 5.00 347.64 2869.15
   10:09:31.626.19-Jan-2020 5081.51 4213.83 81.60 5.00 347.84 2869.15
   10:09:31.826.19-Jan-2020 5081.51 4213.85 81.60 5.00 348.04 2869.15
   10:09:32.026.19-Jan-2020 5081.51 4213.85 81.60 5.00 348.24 2869.15
   10:09:32.226.19-Jan-2020 5081.51 4213.84 81.60 5.00 348.44 2869.15
   10:09:32.426.19-Jan-2020 5081.51 4213.88 81.60 5.00 348.64 2869.15
   10:09:32.626.19-Jan-2020 5081.51 4213.78 81.60 5.00 348.84 2869.15
   10:09:32.826.19-Jan-2020 5081.51 4213.92 81.60 5.00 349.04 2869.15
   10:09:33.026.19-Jan-2020 5081.51 4213.92 81.60 5.00 349.24 2869.15
   10:09:33.226.19-Jan-2020 5081.51 4213.76 81.60 5.00 349.44 2869.15
   10:09:33.426.19-Jan-2020 5081.51 4213.91 81.60 5.00 349.64 2869.15
   10:09:33.626.19-Jan-2020 5081.51 4213.83 81.60 5.00 349.84 2869.15
   10:09:33.826.19-Jan-2020 5081.51 4213.92 81.60 5.00 350.04 2869.15
   10:09:34.026.19-Jan-2020 5081.51 4213.92 81.60 5.00 350.24 2869.15
   10:09:34.226.19-Jan-2020 5081.51 4213.87 81.60 5.00 350.44 2869.15
   10:09:34.426.19-Jan-2020 5081.51 4213.86 81.59 5.00 350.64 2869.15
   10:09:34.626.19-Jan-2020 5081.51 4213.90 81.59 5.00 350.84 2869.15
   10:09:34.826.19-Jan-2020 5081.51 4213.84 81.59 5.00 351.04 2869.15
   10:09:35.026.19-Jan-2020 5081.51 4213.84 81.59 5.00 351.24 2869.15
   10:09:35.226.19-Jan-2020 5081.51 4213.85 81.59 5.00 351.44 2869.15
   10:09:35.426.19-Jan-2020 5081.51 4213.86 81.59 5.00 351.64 2869.15
   10:09:35.626.19-Jan-2020 5081.51 4213.86 81.59 5.00 351.84 2869.15
   10:09:35.826.19-Jan-2020 5081.51 4213.86 81.59 5.00 352.04 2869.15
   10:09:36.026.19-Jan-2020 5081.51 4213.86 81.59 5.00 352.24 2869.15
   10:09:36.227.19-Jan-2020 5081.51 4213.85 81.59 5.00 352.44 2869.15
   10:09:36.427.19-Jan-2020 5081.51 4213.79 81.59 5.00 352.64 2869.15
   10:09:36.627.19-Jan-2020 5081.51 4213.90 81.59 5.00 352.84 2869.15
   10:09:36.827.19-Jan-2020 5081.51 4213.84 81.59 5.00 353.04 2869.15
   10:09:37.027.19-Jan-2020 5081.51 4213.84 81.59 5.00 353.24 2869.15
   10:09:37.227.19-Jan-2020 5081.51 4213.91 81.59 5.00 353.44 2869.15
   10:09:37.427.19-Jan-2020 5081.51 4213.88 81.59 5.00 353.64 2869.15
   10:09:37.627.19-Jan-2020 5081.51 4213.90 81.59 5.00 353.84 2869.15
   10:09:37.827.19-Jan-2020 5081.51 4213.87 81.59 5.00 354.04 2869.15
   10:09:38.027.19-Jan-2020 5081.51 4213.87 81.59 5.00 354.24 2869.15
   10:09:38.227.19-Jan-2020 5081.51 4213.87 81.59 5.00 354.44 2869.15
   10:09:38.427.19-Jan-2020 5081.51 4213.87 81.59 5.00 354.64 2869.15
   10:09:38.627.19-Jan-2020 5081.51 4213.88 81.59 5.00 354.84 2869.15
   10:09:38.827.19-Jan-2020 5081.51 4213.88 81.59 5.00 355.04 2869.15
   10:09:39.027.19-Jan-2020 5081.51 4213.88 81.59 5.00 355.24 2869.15
   10:09:39.227.19-Jan-2020 5081.51 4213.88 81.59 5.00 355.44 2869.15
   10:09:39.427.19-Jan-2020 5081.51 4213.88 81.59 5.00 355.64 2869.15
   10:09:39.627.19-Jan-2020 5081.51 4213.86 81.59 5.00 355.84 2869.15
   10:09:39.827.19-Jan-2020 5081.51 4213.80 81.58 5.00 356.04 2869.15
   10:09:40.027.19-Jan-2020 5081.51 4213.80 81.58 5.00 356.24 2869.15
   10:09:40.227.19-Jan-2020 5081.51 4213.87 81.58 5.00 356.44 2869.15
   10:09:40.427.19-Jan-2020 5081.51 4213.96 81.58 5.00 356.65 2869.15
   10:09:40.627.19-Jan-2020 5081.51 4213.92 81.58 5.00 356.85 2869.15
   10:09:40.827.19-Jan-2020 5081.51 4213.79 81.58 5.00 357.05 2869.15
   10:09:41.027.19-Jan-2020 5081.51 4213.79 81.58 5.00 357.25 2869.15
   10:09:41.227.19-Jan-2020 5081.51 4213.88 81.58 5.00 357.45 2869.15
   10:09:41.427.19-Jan-2020 5081.51 4213.96 81.58 5.00 357.65 2869.15
   10:09:41.627.19-Jan-2020 5081.51 4213.93 81.58 5.00 357.85 2869.15
   10:09:41.827.19-Jan-2020 5081.51 4213.92 81.58 5.00 358.05 2869.15
   10:09:42.027.19-Jan-2020 5081.51 4213.92 81.58 5.00 358.25 2869.15
   10:09:42.227.19-Jan-2020 5081.51 4213.85 81.58 5.00 358.45 2869.15
   10:09:42.427.19-Jan-2020 5081.51 4213.93 81.58 5.00 358.65 2869.15
   10:09:42.627.19-Jan-2020 5081.51 4213.92 81.58 5.00 358.85 2869.15
   10:09:42.827.19-Jan-2020 5081.51 4213.88 81.58 5.00 359.05 2869.15
   10:09:43.027.19-Jan-2020 5081.51 4213.88 81.58 5.00 359.25 2869.15
   10:09:43.227.19-Jan-2020 5081.51 4213.94 81.58 5.00 359.45 2869.15
   10:09:43.427.19-Jan-2020 5081.51 4213.81 81.58 5.00 359.65 2869.15
   10:09:43.627.19-Jan-2020 5081.51 4214.00 81.58 5.00 359.85 2869.15
   10:09:43.827.19-Jan-2020 5081.51 4213.91 81.58 5.00 360.05 2869.15
   10:09:44.027.19-Jan-2020 5081.51 4213.91 81.58 5.00 360.25 2869.15
   10:09:44.228.19-Jan-2020 5081.51 4213.96 81.58 5.00 360.45 2869.15
   10:09:44.428.19-Jan-2020 5081.51 4213.93 81.58 5.00 360.65 2869.15
   10:09:44.628.19-Jan-2020 5081.51 4213.96 81.58 5.00 360.85 2869.15
   10:09:44.828.19-Jan-2020 5081.51 4213.93 81.58 5.00 361.05 2869.15
   10:09:45.028.19-Jan-2020 5081.51 4213.93 81.58 5.00 361.25 2869.15
   10:09:45.228.19-Jan-2020 5081.51 4213.90 81.58 5.00 361.45 2869.15
   10:09:45.428.19-Jan-2020 5081.51 4213.96 81.57 5.00 361.65 2869.15
   10:09:45.628.19-Jan-2020 5081.51 4213.92 81.57 5.00 361.85 2869.15
   10:09:45.828.19-Jan-2020 5081.51 4213.94 81.57 5.00 362.05 2869.15
   10:09:46.028.19-Jan-2020 5081.51 4213.94 81.57 5.00 362.25 2869.15
   10:09:46.228.19-Jan-2020 5081.51 4213.94 81.57 5.00 362.45 2869.15
   10:09:46.428.19-Jan-2020 5081.51 4213.92 81.57 5.00 362.65 2869.15
   10:09:46.628.19-Jan-2020 5081.51 4213.85 81.57 5.00 362.85 2869.15
   10:09:46.828.19-Jan-2020 5081.51 4213.99 81.57 5.00 363.05 2869.15
   10:09:47.028.19-Jan-2020 5081.51 4213.99 81.57 5.00 363.25 2869.15
   10:09:47.228.19-Jan-2020 5081.51 4213.99 81.57 5.00 363.45 2869.15
   10:09:47.428.19-Jan-2020 5081.51 4213.97 81.57 5.00 363.65 2869.15
   10:09:47.628.19-Jan-2020 5081.51 4213.96 81.57 5.00 363.85 2869.15
   10:09:47.828.19-Jan-2020 5081.51 4213.94 81.57 5.00 364.05 2869.15
   10:09:48.028.19-Jan-2020 5081.51 4213.94 81.57 5.00 364.25 2869.15
   10:09:48.228.19-Jan-2020 5081.51 4213.95 81.57 5.00 364.45 2869.15
   10:09:48.428.19-Jan-2020 5081.51 4213.96 81.57 5.00 364.65 2869.15
   10:09:48.628.19-Jan-2020 5081.51 4213.94 81.57 5.00 364.85 2869.15
   10:09:48.828.19-Jan-2020 5081.51 4213.94 81.57 5.00 365.05 2869.15
   10:09:49.028.19-Jan-2020 5081.51 4213.94 81.57 5.00 365.25 2869.15
   10:09:49.228.19-Jan-2020 5081.51 4213.95 81.57 5.00 365.45 2869.15
   10:09:49.428.19-Jan-2020 5081.51 4213.94 81.57 5.00 365.65 2869.15
   10:09:49.628.19-Jan-2020 5081.51 4213.92 81.57 5.00 365.85 2869.15
   10:09:49.828.19-Jan-2020 5081.51 4213.94 81.57 5.00 366.05 2869.15
   10:09:50.028.19-Jan-2020 5081.51 4213.94 81.57 5.00 366.25 2869.15
   10:09:50.228.19-Jan-2020 5081.51 4214.07 81.57 5.00 366.45 2869.15
   10:09:50.428.19-Jan-2020 5081.51 4213.93 81.57 5.00 366.65 2869.15
   10:09:50.628.19-Jan-2020 5081.51 4214.02 81.57 5.00 366.85 2869.15
   10:09:50.828.19-Jan-2020 5081.51 4213.98 81.57 5.00 367.05 2869.15
   10:09:51.028.19-Jan-2020 5081.51 4213.98 81.57 5.00 367.25 2869.15
   10:09:51.228.19-Jan-2020 5081.51 4214.01 81.56 5.00 367.45 2869.15
   10:09:51.428.19-Jan-2020 5081.51 4213.93 81.56 5.00 367.65 2869.15
   10:09:51.628.19-Jan-2020 5081.51 4214.04 81.56 5.00 367.85 2869.15
