~Version Information
 VERS.                  2.0:   CWLS log ASCII Standard -VERSION 2.0
 WRAP.                   NO:   One line per depth step
~Well Information Block
#MNEM.UNIT     VALUE/NAME     DESCRIPTION
#---------     -----------    ---------------------------
 STRT.S             16:13:28 18-Jan-20: START TIME 16:13:28 18-Jan-20
 STOP.S             16:21:32 18-Jan-20: STOP TIME  16:21:32 18-Jan-20
 STEP.S                   0.00: STEP TIME
 NULL.                 -999.25: NULL VALUE
 DFWT.                        :  DIST FWL TEXT
 DFST.                        :  DIST FSL TEXT
 DMF .             Drill Floor:  DRILL MEAS FROM
 STIM.      17.57.20 21-Dec-19:  START TIME
 DATE.      17.57.20 21-Dec-19:  END TIME
 SPUD.               21-Dec-19:  SPUD DATE
 NREF.                    Grid:  NORTH REFERENCE
 HPTY.       Minimum Curvature:  HOLE POS TYPE
 DMOD.             Drill Model:  DRILL MOD DESC
 SVYD.                  Survey:  SURVEY DESC
 ILTD.               Lithology:  INTERP LTH DESC
 FTOP.          Formation Tops:  FORM TOPS DESC
 PDAT.          Mean Sea Level:  PERMANENT DATUM
 FLD .                     ACG:  FIELD NAME
 SON .        AZ-XX-0905715376:  JOB NUMBER
 CTRY.              Azerbaijan:  COUNTRY NAME
 WELL.                    E04Y:  WELL NAME
 SRVC.          TURAN DRILLING:  CONTRACTOR
 COMP.     BP Exploration (Caspian Sea) Ltd.:  COMPANY
 WTYP.                Deviated:  WELL TYPE
 UWI .                     N/a:  UNIQUE WELL IDENTIFIER
 API .                     N/a:  API NUMBER
 BASE.              Azerbaijan:  LOGGING EQUIPMENT BASE LOCATION
 REGN.                   EESSA:  REGION
 MWDS.                    Baku:  MWD SHOP
 RIG .                     DWG:  RIG NAME
 DOE .                     N/a:  DOE NUMBER
 CNTY.                    Baku:  COUNTY NAME
 DCON.         Sperry Drilling:  DIRECTNL CONTR
 UNIT.                     N/a:  LOGGING EQUIPMENT ID
 MDS .        Operator Entered:  MAG DATA SOURCE
 PROV.                        :  PROVINCE
 STAT.                        :  STATE
 LOC .                        :  LOCATION
 LMF .             Drill Floor:  LOG MEASURED FROM
 TVDS.m                  43.16:  TVDSS CORRECTN
 LATI.deg                40.17:  LATITUDE
 LONG.deg                51.17:  LONGITUDE
 WHNS.m                  -0.12:  WELL HEAD N/S
 WHEW.m                  -5.41:  WELL HEAD E/W
 UTMX.m              514337.95:  UTM X
 UTMY.m             4448627.46:  UTM Y
 DFWL.m                   0.00:  DISTANCE FWL
 DFSL.m                   0.00:  DISTANCE FSL
 SDEP.m                   0.00:  START DEPTH
 TDD .m                   0.00:  TOTAL DEPTH (DRILLER)
 VSDR.deg               235.12:  VERT SEC DIRECT
 GVFD.g                   1.00:  GRAVITY FIELD
 MFLD.nT              50294.00:  MAGNETIC FIELD
 MDIP.deg                59.61:  MAGNETIC DIP
 MDEC.deg                 6.58:  MAGNETIC DECL
 GRDC.deg                 0.09:  GRID CORRECTION
 AZTC.deg                 6.49:  AZM TOTAL CORR
 EPD .m                   0.00:  ELEVATION
 EGL .m                   0.00:  GROUND ELEVATION
 WDMS.m                 176.20:  WD ELEV
 APD .m                  43.16:  DEPTH ABOVE PD
 DEP .m                3172.61:  DEPTH
 AGAP.m                  43.16:  AIR GAP
 VSEW.m                  -5.41:  VERT SEC E/W
 VSNS.m                  -0.12:  VERT SEC N/S
 EKB .m                  43.16:  KB ELEVATION
 EDF .m                  43.16:  DF ELEVATION
 TDL .m                 295.00:  TOTAL DEPTH (LOGGER)
 VSC .                       0:  VS TO CLOSURE
 MAGU.                 1852276:  MAGUTM CHECKSUM
~Parameter Information Block
#MNEM.UNIT       Value        Description
#---------     -----------    ---------------------------
 AV  .mps                 1.60:  Ann Velocity 
 AVMX.mps                 2.10:  Max Ann Veloc 
 AZIF.deg               290.59:  Azm, Final 
 BHAT.        Rotary Steerable:  BHA Type 
 BROT.°/30m               1.00:  Build Rotating 
 BS  .in                  6.50:  Bit Size 
 BSZ .in                  6.50:  Bit Size 
 BTPL.psig              120.00:  Bit Press Loss 
 CABU.                     Yes:  Customer Abuse 
 CGEO.          Eldar Huseynov:  Customer Geo 
 COMM.                     Ôs:  Run Comments 1 
 TCS .hr                 87.00:  Time Ciculation Ended 
 CV  .mps                 4.01:  Crit Velocity 
 CVMX.mps                 5.06:  Max Crit Veloc 
 DD1 .             Aziz Aliyev:  Direct Drillr 1 
 DD2 .            Sanan Aliyev:  Direct Drillr 2 
 DDSV.               Geo-Pilot:  DD Service 
 DEFF.%                  95.00:  % Det Eff 
 DLRX.°/30m               0.75:  Dogleg Rot Max 
 DLSO.°/30m               0.65:  Dogleg Oriented 
 DLSX.°/30m               1.39:  Dogleg Str Max 
 DRET.      18.25.00 19-Jan-20:  Drill End Time 
 DRST.      11.56.48 17-Jan-20:  Drill Start Tim 
 DTIM.hr                 27.16:  Time Drilling 
 EDEP.m                5161.01:  End Depth 
 ENG1.          Rasim Hashimov:  Engineer 1 
 ENG2.      Bakhtiyar Jabbarli:  Engineer 2 
 ETIM.      11.56.48 21-Jan-20:  End Time 
 FLOI.gpm               350.00:  Flow In 
 FLON.gpm               300.00:  Flow In Min 
 FLOS.cptm                0.00:  Fluid Loss 
 FLOX.gpm               400.00:  Flow In Max 
 HFLO.                      No:  High Flow 
 HPRE.                      No:  High Pressure 
 HTEM.                      No:  High Temp 
 HYDO.m                   1.85:  Hydro Offset 
 IFIN.deg                71.58:  Inc, Final 
 IMAX.deg                71.83:  Inc Max 
 IMIN.deg                71.12:  Inc Min 
 IMND.m                5099.48:  Inc Min Depth 
 IMXD.m                5071.08:  Inc Max Depth 
 JARR.                      No:  Jarring 
 LETM.      18.25.00 19-Jan-20:  Log End Time 
 LOST.hr                     0:  Lost Rig Time 
 LSTM.      11.56.48 17-Jan-20:  Log Start Time 
 MDCL.ppm             37000.00:  Mud Chlorides 
 MDES.     Inversion Oil/Synthetic:  Mud Desc 
 DFD .sg                  1.34:  Mud Density 
 MDMN.sg                  1.34:  Dens Mud Min 
 MDMX.sg                  1.34:  Dens Mud Max 
 MOIL.                      69:  Run Mud Oil % 
 MOWR.                   69:31:  Run Mud OWR 
 MSND.                     0.1:  Run Mud Sand % 
 MSOL.                    17.6:  Run Mud Solids% 
 DFV .spqt               79.00:  Mud Viscosity 
 MWOD.in                  4.75:  MWD Tool OD 
 MWSI.                      No:  Serv Intrp, MWD 
 OTIM.hr                126.10:  Time Operating 
 PMAX.psia             6000.00:  Press Op, Max 
 PV  .cP                 29.00:  Mud PV 
 RUN .                     400:  Run Number 
 ROPA.m/hr               11.00:  ROP Avg 
 ROPN.m/hr                5.00:  ROP Min 
 ROPX.m/hr               18.00:  ROP Max 
 RPMA.rpm               139.00:  RPM Surface Avg 
 RPMN.rpm               100.00:  RPM Surface Min 
 RPMX.rpm               140.00:  RPM Surface Max 
 RRUN.                     400:  Rig Run Number 
 SAZI.deg               290.22:  Azm, Start 
 SDEP.m                4868.01:  Start Depth 
 SIDD.                      No:  Serv Intrp, DD 
 SINC.deg                71.77:  Inc, Start 
 SPPA.psig             5550.00:  SPP Avg 
 SPPN.psig             4300.00:  SPP Min 
 SPPX.psig             5600.00:  SPP Max 
 STIM.      23.45.48 15-Jan-20:  Start Time 
 SVCS.                 DD, MWD:  Services 
 SVER.                    9.20:  Sperry Version 
 TDAT.m                5161.01:  Tot Depth Attmp 
 TDDF.                      No:  Trip for DD 
 TDLG.m                 295.00:  Tot Depth Loggd 
 TFF .                      No:  Trip for Fail 
 TQAA.f-kp               13.00:  Torque Abs Avg 
 TQAN.f-kp               13.00:  Torque Abs Min 
 TQAX.f-kp               16.00:  Torque Abs Max 
 TRRT.°/30m               0.25:  Turn Rotating 
 MRT .                     ADR:  Maximum Recorded Temperature 
 TTMX.degC               88.00:  Max Tool Temp 
 VS01.                90577859:  Virtual Str1 SN 
 VS02.                90521879:  Virtual Str2 SN 
 VS03.                90580299:  Virtual Str3 SN 
 VS04.                90515982:  Virtual Str4 SN 
 VS05.                90547765:  Virtual Str5 SN 
 WBMN.klb                 2.00:  WOB Min 
 WITN.           Adil Mammadov:  Customer Rep 
 WITN.        Elmaddin Rahimov:  Customer Rep 2 
 WOBA.klb                 3.00:  WOB Avg 
 WOBX.klb                 5.00:  WOB Max 
 YP  .lhf2               30.00:  Yield Point 
~Curve Information Block
#MNEM.UNIT                 API CODE     Curve Description
#---------               -----------    ---------------------------
 TIME.HHMMSS            00 000 000 000:  GT Time & Date
 GTDEPTH.m              00 000 000 000:  GT Depth
 GTPQH.psia             00 000 000 000:  GT HR Quartz Pressure
 GTTQ.degC              00 000 000 000:  GT Quartz Temperature
 GTTN.NONE              00 000 000 000:  GT Test Number
 GTET.sec               00 000 000 000:  GT Elapsed Test Time
 GTTVD.m                00 000 000 000:  GT True Vertical Depth
#Other Information
#
#WARRANTY: Halliburton will use its best efforts to furnish customers with 
#accurate information and interpretations that are part of, and incident to, the services 
#provided.  However, Halliburton cannot and does not warrant the accuracy 
#or correctness of such information and interpretations.  Under no circumstances should any 
#such information or interpretation be relied upon as the sole basis for any drilling, 
#completion, production, or financial decision or any procedure involving any risk to the 
#safety of any drilling venture, drilling rig or its crew or any other third party.  The 
#Customer has full responsibility for all drilling, completion and production operation.  
#Halliburton makes no representations or warranties, either expressed or 
#implied, including, but not limited to, the implied warranties of merchantability or fitness 
#for a particular purpose, with respect to the services rendered.  In no event will 
#Halliburton be liable for failure to obtain any particular results or for 
#any damages, including, but not limited to, indirect, special or consequential damages, 
#resulting from the use of any information or interpretation provided by Halliburton.
#
~A           TIME           GTDEPTH  GTPQH  GTTQ  GTTN  GTET   GTTVD  
# ...
   16:17:41.569.18-Jan-2020 4958.01 4406.86 80.26 2.00 253.02 2829.97
   16:17:41.769.18-Jan-2020 4958.01 4406.86 80.26 2.00 253.22 2829.97
   16:17:41.969.18-Jan-2020 4958.01 4406.85 80.26 2.00 253.42 2829.97
   16:17:42.169.18-Jan-2020 4958.01 4406.84 80.26 2.00 253.62 2829.97
   16:17:42.369.18-Jan-2020 4958.01 4406.85 80.26 2.00 253.82 2829.97
   16:17:42.569.18-Jan-2020 4958.01 4406.84 80.26 2.00 254.02 2829.97
   16:17:42.769.18-Jan-2020 4958.01 4406.84 80.26 2.00 254.22 2829.97
   16:17:42.969.18-Jan-2020 4958.01 4406.82 80.26 2.00 254.42 2829.97
   16:17:43.169.18-Jan-2020 4958.01 4406.85 80.26 2.00 254.62 2829.97
   16:17:43.369.18-Jan-2020 4958.01 4406.82 80.26 2.00 254.82 2829.97
   16:17:43.569.18-Jan-2020 4958.01 4406.85 80.26 2.00 255.02 2829.97
   16:17:43.769.18-Jan-2020 4958.01 4406.85 80.26 2.00 255.22 2829.97
   16:17:43.969.18-Jan-2020 4958.01 4406.84 80.26 2.00 255.42 2829.97
   16:17:44.169.18-Jan-2020 4958.01 4406.62 80.26 2.00 255.62 2829.97
   16:17:44.369.18-Jan-2020 4958.01 4406.97 80.26 2.00 255.82 2829.97
   16:17:44.569.18-Jan-2020 4958.01 4406.91 80.25 2.00 256.02 2829.97
   16:17:44.769.18-Jan-2020 4958.01 4406.91 80.25 2.00 256.22 2829.97
   16:17:44.969.18-Jan-2020 4958.01 4406.88 80.25 2.00 256.42 2829.97
   16:17:45.169.18-Jan-2020 4958.01 4406.73 80.25 2.00 256.62 2829.97
   16:17:45.369.18-Jan-2020 4958.01 4406.95 80.25 2.00 256.82 2829.97
   16:17:45.569.18-Jan-2020 4958.01 4406.80 80.25 2.00 257.02 2829.97
   16:17:45.769.18-Jan-2020 4958.01 4406.80 80.25 2.00 257.22 2829.97
   16:17:45.969.18-Jan-2020 4958.01 4406.85 80.25 2.00 257.42 2829.97
   16:17:46.169.18-Jan-2020 4958.01 4406.88 80.25 2.00 257.62 2829.97
   16:17:46.369.18-Jan-2020 4958.01 4406.75 80.25 2.00 257.82 2829.97
   16:17:46.569.18-Jan-2020 4958.01 4406.88 80.25 2.00 258.02 2829.97
   16:17:46.769.18-Jan-2020 4958.01 4406.88 80.25 2.00 258.22 2829.97
   16:17:46.969.18-Jan-2020 4958.01 4406.86 80.25 2.00 258.42 2829.97
   16:17:47.169.18-Jan-2020 4958.01 4406.89 80.25 2.00 258.62 2829.97
   16:17:47.369.18-Jan-2020 4958.01 4406.84 80.25 2.00 258.82 2829.97
   16:17:47.569.18-Jan-2020 4958.01 4406.75 80.25 2.00 259.02 2829.97
   16:17:47.769.18-Jan-2020 4958.01 4406.75 80.25 2.00 259.22 2829.97
   16:17:47.969.18-Jan-2020 4958.01 4406.85 80.25 2.00 259.42 2829.97
   16:17:48.169.18-Jan-2020 4958.01 4406.86 80.24 2.00 259.62 2829.97
   16:17:48.370.18-Jan-2020 4958.01 4406.88 80.24 2.00 259.82 2829.97
   16:17:48.570.18-Jan-2020 4958.01 4406.85 80.24 2.00 260.02 2829.97
   16:17:48.770.18-Jan-2020 4958.01 4406.85 80.24 2.00 260.22 2829.97
   16:17:48.970.18-Jan-2020 4958.01 4406.84 80.24 2.00 260.42 2829.97
   16:17:49.170.18-Jan-2020 4958.01 4406.87 80.24 2.00 260.62 2829.97
   16:17:49.370.18-Jan-2020 4958.01 4406.85 80.24 2.00 260.82 2829.97
   16:17:49.570.18-Jan-2020 4958.01 4406.84 80.24 2.00 261.02 2829.97
   16:17:49.770.18-Jan-2020 4958.01 4406.84 80.24 2.00 261.22 2829.97
   16:17:49.970.18-Jan-2020 4958.01 4406.83 80.24 2.00 261.42 2829.97
   16:17:50.170.18-Jan-2020 4958.01 4406.87 80.24 2.00 261.62 2829.97
   16:17:50.370.18-Jan-2020 4958.01 4406.82 80.24 2.00 261.82 2829.97
   16:17:50.570.18-Jan-2020 4958.01 4406.85 80.24 2.00 262.02 2829.97
   16:17:50.770.18-Jan-2020 4958.01 4406.85 80.24 2.00 262.22 2829.97
   16:17:50.970.18-Jan-2020 4958.01 4406.93 80.24 2.00 262.42 2829.97
   16:17:51.170.18-Jan-2020 4958.01 4406.82 80.24 2.00 262.62 2829.97
   16:17:51.370.18-Jan-2020 4958.01 4406.88 80.24 2.00 262.82 2829.97
   16:17:51.570.18-Jan-2020 4958.01 4406.86 80.24 2.00 263.02 2829.97
   16:17:51.770.18-Jan-2020 4958.01 4406.86 80.24 2.00 263.22 2829.97
   16:17:51.970.18-Jan-2020 4958.01 4406.84 80.23 2.00 263.42 2829.97
   16:17:52.170.18-Jan-2020 4958.01 4406.84 80.23 2.00 263.62 2829.97
   16:17:52.370.18-Jan-2020 4958.01 4406.84 80.23 2.00 263.82 2829.97
   16:17:52.570.18-Jan-2020 4958.01 4406.83 80.23 2.00 264.02 2829.97
   16:17:52.770.18-Jan-2020 4958.01 4406.83 80.23 2.00 264.22 2829.97
   16:17:52.970.18-Jan-2020 4958.01 4406.81 80.23 2.00 264.42 2829.97
   16:17:53.170.18-Jan-2020 4958.01 4406.86 80.23 2.00 264.62 2829.97
   16:17:53.370.18-Jan-2020 4958.01 4406.81 80.23 2.00 264.82 2829.97
   16:17:53.570.18-Jan-2020 4958.01 4406.85 80.23 2.00 265.02 2829.97
   16:17:53.770.18-Jan-2020 4958.01 4406.85 80.23 2.00 265.22 2829.97
   16:17:53.970.18-Jan-2020 4958.01 4406.83 80.23 2.00 265.42 2829.97
   16:17:54.170.18-Jan-2020 4958.01 4406.79 80.23 2.00 265.62 2829.97
   16:17:54.370.18-Jan-2020 4958.01 4406.82 80.23 2.00 265.82 2829.97
   16:17:54.570.18-Jan-2020 4958.01 4406.82 80.23 2.00 266.02 2829.97
   16:17:54.770.18-Jan-2020 4958.01 4406.82 80.23 2.00 266.22 2829.97
   16:17:54.970.18-Jan-2020 4958.01 4406.87 80.23 2.00 266.42 2829.97
   16:17:55.170.18-Jan-2020 4958.01 4406.83 80.23 2.00 266.62 2829.97
   16:17:55.370.18-Jan-2020 4958.01 4406.76 80.23 2.00 266.82 2829.97
   16:17:55.570.18-Jan-2020 4958.01 4406.84 80.22 2.00 267.02 2829.97
   16:17:55.770.18-Jan-2020 4958.01 4406.84 80.22 2.00 267.22 2829.97
   16:17:55.970.18-Jan-2020 4958.01 4406.83 80.22 2.00 267.42 2829.97
   16:17:56.170.18-Jan-2020 4958.01 4406.88 80.22 2.00 267.62 2829.97
   16:17:56.370.18-Jan-2020 4958.01 4406.73 80.22 2.00 267.82 2829.97
   16:17:56.570.18-Jan-2020 4958.01 4406.93 80.22 2.00 268.02 2829.97
   16:17:56.770.18-Jan-2020 4958.01 4406.93 80.22 2.00 268.22 2829.97
   16:17:56.970.18-Jan-2020 4958.01 4406.86 80.22 2.00 268.42 2829.97
   16:17:57.170.18-Jan-2020 4958.01 4406.88 80.22 2.00 268.62 2829.97
   16:17:57.370.18-Jan-2020 4958.01 4406.85 80.22 2.00 268.82 2829.97
   16:17:57.570.18-Jan-2020 4958.01 4406.86 80.22 2.00 269.02 2829.97
   16:17:57.770.18-Jan-2020 4958.01 4406.86 80.22 2.00 269.22 2829.97
   16:17:57.970.18-Jan-2020 4958.01 4406.88 80.22 2.00 269.42 2829.97
   16:17:58.170.18-Jan-2020 4958.01 4406.90 80.22 2.00 269.62 2829.97
   16:17:58.370.18-Jan-2020 4958.01 4406.85 80.22 2.00 269.82 2829.97
   16:17:58.570.18-Jan-2020 4958.01 4406.84 80.22 2.00 270.02 2829.97
   16:17:58.770.18-Jan-2020 4958.01 4406.84 80.22 2.00 270.22 2829.97
   16:17:58.970.18-Jan-2020 4958.01 4406.84 80.22 2.00 270.42 2829.97
   16:17:59.170.18-Jan-2020 4958.01 4406.85 80.21 2.00 270.62 2829.97
   16:17:59.370.18-Jan-2020 4958.01 4406.85 80.21 2.00 270.82 2829.97
   16:17:59.570.18-Jan-2020 4958.01 4406.83 80.21 2.00 271.02 2829.97
   16:17:59.770.18-Jan-2020 4958.01 4406.83 80.21 2.00 271.22 2829.97
   16:17:59.970.18-Jan-2020 4958.01 4406.82 80.21 2.00 271.42 2829.97
   16:18:00.170.18-Jan-2020 4958.01 4406.85 80.21 2.00 271.62 2829.97
   16:18:00.370.18-Jan-2020 4958.01 4406.81 80.21 2.00 271.82 2829.97
   16:18:00.571.18-Jan-2020 4958.01 4406.85 80.21 2.00 272.02 2829.97
   16:18:00.771.18-Jan-2020 4958.01 4406.85 80.21 2.00 272.22 2829.97
   16:18:00.971.18-Jan-2020 4958.01 4406.74 80.21 2.00 272.42 2829.97
   16:18:01.171.18-Jan-2020 4958.01 4406.84 80.21 2.00 272.62 2829.97
   16:18:01.371.18-Jan-2020 4958.01 4406.89 80.21 2.00 272.82 2829.97
   16:18:01.571.18-Jan-2020 4958.01 4406.85 80.21 2.00 273.02 2829.97
   16:18:01.771.18-Jan-2020 4958.01 4406.85 80.21 2.00 273.22 2829.97
   16:18:01.971.18-Jan-2020 4958.01 4406.85 80.21 2.00 273.42 2829.97
   16:18:02.171.18-Jan-2020 4958.01 4406.83 80.21 2.00 273.62 2829.97
   16:18:02.371.18-Jan-2020 4958.01 4406.84 80.21 2.00 273.82 2829.97
   16:18:02.571.18-Jan-2020 4958.01 4406.82 80.21 2.00 274.02 2829.97
   16:18:02.771.18-Jan-2020 4958.01 4406.82 80.21 2.00 274.22 2829.97
   16:18:02.971.18-Jan-2020 4958.01 4406.81 80.20 2.00 274.42 2829.97
   16:18:03.171.18-Jan-2020 4958.01 4406.83 80.20 2.00 274.62 2829.97
   16:18:03.371.18-Jan-2020 4958.01 4406.82 80.20 2.00 274.82 2829.97
   16:18:03.571.18-Jan-2020 4958.01 4406.83 80.20 2.00 275.02 2829.97
   16:18:03.771.18-Jan-2020 4958.01 4406.83 80.20 2.00 275.22 2829.97
   16:18:03.971.18-Jan-2020 4958.01 4406.82 80.20 2.00 275.42 2829.97
   16:18:04.171.18-Jan-2020 4958.01 4406.81 80.20 2.00 275.62 2829.97
   16:18:04.371.18-Jan-2020 4958.01 4406.59 80.20 2.00 275.82 2829.97
