~Version Information
 VERS.                  2.0:   CWLS log ASCII Standard -VERSION 2.0
 WRAP.                   NO:   One line per depth step
~Well Information Block
#MNEM.UNIT     VALUE/NAME     DESCRIPTION
#---------     -----------    ---------------------------
 STRT.S             10:03:43 19-Jan-20: START TIME 10:03:43 19-Jan-20
 STOP.S             10:11:36 19-Jan-20: STOP TIME  10:11:36 19-Jan-20
 STEP.S                   0.00: STEP TIME
 NULL.                 -999.25: NULL VALUE
 DFWT.                        :  DIST FWL TEXT
 DFST.                        :  DIST FSL TEXT
 DMF .             Drill Floor:  DRILL MEAS FROM
 STIM.      17.57.20 21-Dec-19:  START TIME
 DATE.      17.57.20 21-Dec-19:  END TIME
 SPUD.               21-Dec-19:  SPUD DATE
 NREF.                    Grid:  NORTH REFERENCE
 HPTY.       Minimum Curvature:  HOLE POS TYPE
 DMOD.             Drill Model:  DRILL MOD DESC
 SVYD.                  Survey:  SURVEY DESC
 ILTD.               Lithology:  INTERP LTH DESC
 FTOP.          Formation Tops:  FORM TOPS DESC
 PDAT.          Mean Sea Level:  PERMANENT DATUM
 FLD .                     ACG:  FIELD NAME
 SON .        AZ-XX-0905715376:  JOB NUMBER
 CTRY.              Azerbaijan:  COUNTRY NAME
 WELL.                    E04Y:  WELL NAME
 SRVC.          TURAN DRILLING:  CONTRACTOR
 COMP.     BP Exploration (Caspian Sea) Ltd.:  COMPANY
 WTYP.                Deviated:  WELL TYPE
 UWI .                     N/a:  UNIQUE WELL IDENTIFIER
 API .                     N/a:  API NUMBER
 BASE.              Azerbaijan:  LOGGING EQUIPMENT BASE LOCATION
 REGN.                   EESSA:  REGION
 MWDS.                    Baku:  MWD SHOP
 RIG .                     DWG:  RIG NAME
 DOE .                     N/a:  DOE NUMBER
 CNTY.                    Baku:  COUNTY NAME
 DCON.         Sperry Drilling:  DIRECTNL CONTR
 UNIT.                     N/a:  LOGGING EQUIPMENT ID
 MDS .        Operator Entered:  MAG DATA SOURCE
 PROV.                        :  PROVINCE
 STAT.                        :  STATE
 LOC .                        :  LOCATION
 LMF .             Drill Floor:  LOG MEASURED FROM
 TVDS.m                  43.16:  TVDSS CORRECTN
 LATI.deg                40.17:  LATITUDE
 LONG.deg                51.17:  LONGITUDE
 WHNS.m                  -0.12:  WELL HEAD N/S
 WHEW.m                  -5.41:  WELL HEAD E/W
 UTMX.m              514337.95:  UTM X
 UTMY.m             4448627.46:  UTM Y
 DFWL.m                   0.00:  DISTANCE FWL
 DFSL.m                   0.00:  DISTANCE FSL
 SDEP.m                   0.00:  START DEPTH
 TDD .m                   0.00:  TOTAL DEPTH (DRILLER)
 VSDR.deg               235.12:  VERT SEC DIRECT
 GVFD.g                   1.00:  GRAVITY FIELD
 MFLD.nT              50294.00:  MAGNETIC FIELD
 MDIP.deg                59.61:  MAGNETIC DIP
 MDEC.deg                 6.58:  MAGNETIC DECL
 GRDC.deg                 0.09:  GRID CORRECTION
 AZTC.deg                 6.49:  AZM TOTAL CORR
 EPD .m                   0.00:  ELEVATION
 EGL .m                   0.00:  GROUND ELEVATION
 WDMS.m                 176.20:  WD ELEV
 APD .m                  43.16:  DEPTH ABOVE PD
 DEP .m                3172.61:  DEPTH
 AGAP.m                  43.16:  AIR GAP
 VSEW.m                  -5.41:  VERT SEC E/W
 VSNS.m                  -0.12:  VERT SEC N/S
 EKB .m                  43.16:  KB ELEVATION
 EDF .m                  43.16:  DF ELEVATION
 TDL .m                 295.00:  TOTAL DEPTH (LOGGER)
 VSC .                       0:  VS TO CLOSURE
 MAGU.                 1852276:  MAGUTM CHECKSUM
~Parameter Information Block
#MNEM.UNIT       Value        Description
#---------     -----------    ---------------------------
 AV  .mps                 1.60:  Ann Velocity 
 AVMX.mps                 2.10:  Max Ann Veloc 
 AZIF.deg               290.59:  Azm, Final 
 BHAT.        Rotary Steerable:  BHA Type 
 BROT.°/30m               1.00:  Build Rotating 
 BS  .in                  6.50:  Bit Size 
 BSZ .in                  6.50:  Bit Size 
 BTPL.psig              120.00:  Bit Press Loss 
 CABU.                     Yes:  Customer Abuse 
 CGEO.          Eldar Huseynov:  Customer Geo 
 COMM.                     Œòk:  Run Comments 1 
 TCS .hr                 87.00:  Time Ciculation Ended 
 CV  .mps                 4.01:  Crit Velocity 
 CVMX.mps                 5.06:  Max Crit Veloc 
 DD1 .             Aziz Aliyev:  Direct Drillr 1 
 DD2 .            Sanan Aliyev:  Direct Drillr 2 
 DDSV.               Geo-Pilot:  DD Service 
 DEFF.%                  95.00:  % Det Eff 
 DLRX.°/30m               0.75:  Dogleg Rot Max 
 DLSO.°/30m               0.65:  Dogleg Oriented 
 DLSX.°/30m               1.39:  Dogleg Str Max 
 DRET.      18.25.00 19-Jan-20:  Drill End Time 
 DRST.      11.56.48 17-Jan-20:  Drill Start Tim 
 DTIM.hr                 27.16:  Time Drilling 
 EDEP.m                5161.01:  End Depth 
 ENG1.          Rasim Hashimov:  Engineer 1 
 ENG2.      Bakhtiyar Jabbarli:  Engineer 2 
 ETIM.      11.56.48 21-Jan-20:  End Time 
 FLOI.gpm               350.00:  Flow In 
 FLON.gpm               300.00:  Flow In Min 
 FLOS.cptm                0.00:  Fluid Loss 
 FLOX.gpm               400.00:  Flow In Max 
 HFLO.                      No:  High Flow 
 HPRE.                      No:  High Pressure 
 HTEM.                      No:  High Temp 
 HYDO.m                   1.85:  Hydro Offset 
 IFIN.deg                71.58:  Inc, Final 
 IMAX.deg                71.83:  Inc Max 
 IMIN.deg                71.12:  Inc Min 
 IMND.m                5099.48:  Inc Min Depth 
 IMXD.m                5071.08:  Inc Max Depth 
 JARR.                      No:  Jarring 
 LETM.      18.25.00 19-Jan-20:  Log End Time 
 LOST.hr                     0:  Lost Rig Time 
 LSTM.      11.56.48 17-Jan-20:  Log Start Time 
 MDCL.ppm             37000.00:  Mud Chlorides 
 MDES.     Inversion Oil/Synthetic:  Mud Desc 
 DFD .sg                  1.34:  Mud Density 
 MDMN.sg                  1.34:  Dens Mud Min 
 MDMX.sg                  1.34:  Dens Mud Max 
 MOIL.                      69:  Run Mud Oil % 
 MOWR.                   69:31:  Run Mud OWR 
 MSND.                     0.1:  Run Mud Sand % 
 MSOL.                    17.6:  Run Mud Solids% 
 DFV .spqt               79.00:  Mud Viscosity 
 MWOD.in                  4.75:  MWD Tool OD 
 MWSI.                      No:  Serv Intrp, MWD 
 OTIM.hr                126.10:  Time Operating 
 PMAX.psia             6000.00:  Press Op, Max 
 PV  .cP                 29.00:  Mud PV 
 RUN .                     400:  Run Number 
 ROPA.m/hr               11.00:  ROP Avg 
 ROPN.m/hr                5.00:  ROP Min 
 ROPX.m/hr               18.00:  ROP Max 
 RPMA.rpm               139.00:  RPM Surface Avg 
 RPMN.rpm               100.00:  RPM Surface Min 
 RPMX.rpm               140.00:  RPM Surface Max 
 RRUN.                     400:  Rig Run Number 
 SAZI.deg               290.22:  Azm, Start 
 SDEP.m                4868.01:  Start Depth 
 SIDD.                      No:  Serv Intrp, DD 
 SINC.deg                71.77:  Inc, Start 
 SPPA.psig             5550.00:  SPP Avg 
 SPPN.psig             4300.00:  SPP Min 
 SPPX.psig             5600.00:  SPP Max 
 STIM.      23.45.48 15-Jan-20:  Start Time 
 SVCS.                 DD, MWD:  Services 
 SVER.                    9.20:  Sperry Version 
 TDAT.m                5161.01:  Tot Depth Attmp 
 TDDF.                      No:  Trip for DD 
 TDLG.m                 295.00:  Tot Depth Loggd 
 TFF .                      No:  Trip for Fail 
 TQAA.f-kp               13.00:  Torque Abs Avg 
 TQAN.f-kp               13.00:  Torque Abs Min 
 TQAX.f-kp               16.00:  Torque Abs Max 
 TRRT.°/30m               0.25:  Turn Rotating 
 MRT .                     ADR:  Maximum Recorded Temperature 
 TTMX.degC               88.00:  Max Tool Temp 
 VS01.                90577859:  Virtual Str1 SN 
 VS02.                90521879:  Virtual Str2 SN 
 VS03.                90580299:  Virtual Str3 SN 
 VS04.                90515982:  Virtual Str4 SN 
 VS05.                90547765:  Virtual Str5 SN 
 WBMN.klb                 2.00:  WOB Min 
 WITN.           Adil Mammadov:  Customer Rep 
 WITN.        Elmaddin Rahimov:  Customer Rep 2 
 WOBA.klb                 3.00:  WOB Avg 
 WOBX.klb                 5.00:  WOB Max 
 YP  .lhf2               30.00:  Yield Point 
~Curve Information Block
#MNEM.UNIT                 API CODE     Curve Description
#---------               -----------    ---------------------------
 TIME.HHMMSS            00 000 000 000:  GT Time & Date
 GTDEPTH.m              00 000 000 000:  GT Depth
 GTPQH.psia             00 000 000 000:  GT HR Quartz Pressure
 GTTQ.degC              00 000 000 000:  GT Quartz Temperature
 GTTN.NONE              00 000 000 000:  GT Test Number
 GTET.sec               00 000 000 000:  GT Elapsed Test Time
 GTTVD.m                00 000 000 000:  GT True Vertical Depth
#Other Information
#
#WARRANTY: Halliburton will use its best efforts to furnish customers with 
#accurate information and interpretations that are part of, and incident to, the services 
#provided.  However, Halliburton cannot and does not warrant the accuracy 
#or correctness of such information and interpretations.  Under no circumstances should any 
#such information or interpretation be relied upon as the sole basis for any drilling, 
#completion, production, or financial decision or any procedure involving any risk to the 
#safety of any drilling venture, drilling rig or its crew or any other third party.  The 
#Customer has full responsibility for all drilling, completion and production operation.  
#Halliburton makes no representations or warranties, either expressed or 
#implied, including, but not limited to, the implied warranties of merchantability or fitness 
#for a particular purpose, with respect to the services rendered.  In no event will 
#Halliburton be liable for failure to obtain any particular results or for 
#any damages, including, but not limited to, indirect, special or consequential damages, 
#resulting from the use of any information or interpretation provided by Halliburton.
#
~A           TIME           GTDEPTH  GTPQH  GTTQ  GTTN  GTET   GTTVD  
# ...
   10:06:47.805.19-Jan-2020 5081.51 4212.74 81.91 5.00 184.02 2869.15
   10:06:48.005.19-Jan-2020 5081.51 4212.74 81.91 5.00 184.22 2869.15
   10:06:48.205.19-Jan-2020 5081.51 4213.03 81.91 5.00 184.42 2869.15
   10:06:48.405.19-Jan-2020 5081.51 4212.99 81.91 5.00 184.62 2869.15
   10:06:48.605.19-Jan-2020 5081.51 4213.05 81.91 5.00 184.82 2869.15
   10:06:48.805.19-Jan-2020 5081.51 4213.03 81.91 5.00 185.02 2869.15
   10:06:49.005.19-Jan-2020 5081.51 4213.03 81.91 5.00 185.22 2869.15
   10:06:49.205.19-Jan-2020 5081.51 4212.93 81.91 5.00 185.42 2869.15
   10:06:49.405.19-Jan-2020 5081.51 4213.11 81.91 5.00 185.62 2869.15
   10:06:49.605.19-Jan-2020 5081.51 4213.04 81.90 5.00 185.82 2869.15
   10:06:49.806.19-Jan-2020 5081.51 4213.12 81.90 5.00 186.02 2869.15
   10:06:50.006.19-Jan-2020 5081.51 4213.12 81.90 5.00 186.22 2869.15
   10:06:50.206.19-Jan-2020 5081.51 4213.08 81.90 5.00 186.42 2869.15
   10:06:50.406.19-Jan-2020 5081.51 4213.10 81.90 5.00 186.62 2869.15
   10:06:50.606.19-Jan-2020 5081.51 4212.99 81.90 5.00 186.82 2869.15
   10:06:50.806.19-Jan-2020 5081.51 4213.16 81.90 5.00 187.02 2869.15
   10:06:51.006.19-Jan-2020 5081.51 4213.16 81.90 5.00 187.22 2869.15
   10:06:51.206.19-Jan-2020 5081.51 4213.16 81.90 5.00 187.42 2869.15
   10:06:51.406.19-Jan-2020 5081.51 4213.16 81.90 5.00 187.62 2869.15
   10:06:51.606.19-Jan-2020 5081.51 4213.13 81.90 5.00 187.82 2869.15
   10:06:51.806.19-Jan-2020 5081.51 4213.17 81.90 5.00 188.02 2869.15
   10:06:52.006.19-Jan-2020 5081.51 4213.17 81.90 5.00 188.22 2869.15
   10:06:52.206.19-Jan-2020 5081.51 4213.14 81.90 5.00 188.42 2869.15
   10:06:52.406.19-Jan-2020 5081.51 4213.15 81.90 5.00 188.62 2869.15
   10:06:52.606.19-Jan-2020 5081.51 4213.18 81.90 5.00 188.82 2869.15
   10:06:52.806.19-Jan-2020 5081.51 4213.14 81.90 5.00 189.02 2869.15
   10:06:53.006.19-Jan-2020 5081.51 4213.14 81.90 5.00 189.22 2869.15
   10:06:53.206.19-Jan-2020 5081.51 4213.19 81.90 5.00 189.42 2869.15
   10:06:53.406.19-Jan-2020 5081.51 4213.17 81.90 5.00 189.62 2869.15
   10:06:53.606.19-Jan-2020 5081.51 4213.17 81.90 5.00 189.82 2869.15
   10:06:53.806.19-Jan-2020 5081.51 4213.06 81.90 5.00 190.02 2869.15
   10:06:54.006.19-Jan-2020 5081.51 4213.06 81.90 5.00 190.22 2869.15
   10:06:54.206.19-Jan-2020 5081.51 4213.18 81.90 5.00 190.42 2869.15
   10:06:54.406.19-Jan-2020 5081.51 4213.25 81.89 5.00 190.62 2869.15
   10:06:54.606.19-Jan-2020 5081.51 4213.24 81.89 5.00 190.82 2869.15
   10:06:54.806.19-Jan-2020 5081.51 4213.21 81.89 5.00 191.02 2869.15
   10:06:55.006.19-Jan-2020 5081.51 4213.21 81.89 5.00 191.22 2869.15
   10:06:55.206.19-Jan-2020 5081.51 4213.23 81.89 5.00 191.42 2869.15
   10:06:55.406.19-Jan-2020 5081.51 4213.22 81.89 5.00 191.62 2869.15
   10:06:55.606.19-Jan-2020 5081.51 4213.25 81.89 5.00 191.82 2869.15
   10:06:55.806.19-Jan-2020 5081.51 4213.24 81.89 5.00 192.02 2869.15
   10:06:56.006.19-Jan-2020 5081.51 4213.24 81.89 5.00 192.22 2869.15
   10:06:56.206.19-Jan-2020 5081.51 4213.26 81.89 5.00 192.42 2869.15
   10:06:56.406.19-Jan-2020 5081.51 4213.22 81.89 5.00 192.62 2869.15
   10:06:56.606.19-Jan-2020 5081.51 4213.25 81.89 5.00 192.82 2869.15
   10:06:56.806.19-Jan-2020 5081.51 4213.26 81.89 5.00 193.02 2869.15
   10:06:57.006.19-Jan-2020 5081.51 4213.26 81.89 5.00 193.22 2869.15
   10:06:57.206.19-Jan-2020 5081.51 4213.13 81.89 5.00 193.42 2869.15
   10:06:57.406.19-Jan-2020 5081.51 4213.35 81.89 5.00 193.62 2869.15
   10:06:57.606.19-Jan-2020 5081.51 4213.25 81.89 5.00 193.82 2869.15
   10:06:57.807.19-Jan-2020 5081.51 4213.34 81.89 5.00 194.02 2869.15
   10:06:58.007.19-Jan-2020 5081.51 4213.34 81.89 5.00 194.22 2869.15
   10:06:58.207.19-Jan-2020 5081.51 4213.18 81.89 5.00 194.42 2869.15
   10:06:58.407.19-Jan-2020 5081.51 4213.37 81.89 5.00 194.62 2869.15
   10:06:58.607.19-Jan-2020 5081.51 4213.29 81.89 5.00 194.82 2869.15
   10:06:58.807.19-Jan-2020 5081.51 4213.36 81.89 5.00 195.02 2869.15
   10:06:59.007.19-Jan-2020 5081.51 4213.36 81.89 5.00 195.22 2869.15
   10:06:59.207.19-Jan-2020 5081.51 4213.32 81.89 5.00 195.42 2869.15
   10:06:59.407.19-Jan-2020 5081.51 4213.33 81.88 5.00 195.62 2869.15
   10:06:59.607.19-Jan-2020 5081.51 4213.14 81.88 5.00 195.82 2869.15
   10:06:59.807.19-Jan-2020 5081.51 4213.46 81.88 5.00 196.02 2869.15
   10:07:00.007.19-Jan-2020 5081.51 4213.46 81.88 5.00 196.22 2869.15
   10:07:00.207.19-Jan-2020 5081.51 4213.30 81.88 5.00 196.42 2869.15
   10:07:00.407.19-Jan-2020 5081.51 4213.39 81.88 5.00 196.62 2869.15
   10:07:00.607.19-Jan-2020 5081.51 4213.35 81.88 5.00 196.82 2869.15
   10:07:00.807.19-Jan-2020 5081.51 4213.09 81.88 5.00 197.02 2869.15
   10:07:01.007.19-Jan-2020 5081.51 4213.09 81.88 5.00 197.22 2869.15
   10:07:01.207.19-Jan-2020 5081.51 4213.41 81.88 5.00 197.42 2869.15
   10:07:01.407.19-Jan-2020 5081.51 4213.34 81.88 5.00 197.62 2869.15
   10:07:01.607.19-Jan-2020 5081.51 4213.40 81.88 5.00 197.82 2869.15
   10:07:01.807.19-Jan-2020 5081.51 4213.38 81.88 5.00 198.02 2869.15
   10:07:02.007.19-Jan-2020 5081.51 4213.38 81.88 5.00 198.23 2869.15
   10:07:02.207.19-Jan-2020 5081.51 4213.39 81.88 5.00 198.43 2869.15
   10:07:02.407.19-Jan-2020 5081.51 4213.39 81.88 5.00 198.63 2869.15
   10:07:02.607.19-Jan-2020 5081.51 4213.38 81.88 5.00 198.83 2869.15
   10:07:02.807.19-Jan-2020 5081.51 4213.39 81.88 5.00 199.03 2869.15
   10:07:03.007.19-Jan-2020 5081.51 4213.39 81.88 5.00 199.23 2869.15
   10:07:03.207.19-Jan-2020 5081.51 4213.39 81.88 5.00 199.43 2869.15
   10:07:03.407.19-Jan-2020 5081.51 4213.38 81.88 5.00 199.63 2869.15
   10:07:03.607.19-Jan-2020 5081.51 4213.40 81.88 5.00 199.83 2869.15
   10:07:03.807.19-Jan-2020 5081.51 4213.38 81.88 5.00 200.03 2869.15
   10:07:04.007.19-Jan-2020 5081.51 4213.38 81.88 5.00 200.23 2869.15
   10:07:04.207.19-Jan-2020 5081.51 4213.58 81.88 5.00 200.43 2869.15
   10:07:04.407.19-Jan-2020 5081.51 4213.43 81.87 5.00 200.63 2869.15
   10:07:04.607.19-Jan-2020 5081.51 4213.37 81.87 5.00 200.83 2869.15
   10:07:04.807.19-Jan-2020 5081.51 4213.45 81.87 5.00 201.03 2869.15
   10:07:05.007.19-Jan-2020 5081.51 4213.45 81.87 5.00 201.23 2869.15
   10:07:05.207.19-Jan-2020 5081.51 4213.41 81.87 5.00 201.43 2869.15
   10:07:05.407.19-Jan-2020 5081.51 4213.41 81.87 5.00 201.63 2869.15
   10:07:05.608.19-Jan-2020 5081.51 4213.42 81.87 5.00 201.83 2869.15
   10:07:05.808.19-Jan-2020 5081.51 4213.43 81.87 5.00 202.03 2869.15
   10:07:06.008.19-Jan-2020 5081.51 4213.43 81.87 5.00 202.23 2869.15
   10:07:06.208.19-Jan-2020 5081.51 4213.43 81.87 5.00 202.43 2869.15
   10:07:06.408.19-Jan-2020 5081.51 4213.41 81.87 5.00 202.63 2869.15
   10:07:06.608.19-Jan-2020 5081.51 4213.43 81.87 5.00 202.83 2869.15
   10:07:06.808.19-Jan-2020 5081.51 4213.41 81.87 5.00 203.03 2869.15
   10:07:07.008.19-Jan-2020 5081.51 4213.41 81.87 5.00 203.23 2869.15
   10:07:07.208.19-Jan-2020 5081.51 4213.43 81.87 5.00 203.43 2869.15
   10:07:07.408.19-Jan-2020 5081.51 4213.16 81.87 5.00 203.63 2869.15
   10:07:07.608.19-Jan-2020 5081.51 4213.63 81.87 5.00 203.83 2869.15
   10:07:07.808.19-Jan-2020 5081.51 4213.49 81.87 5.00 204.03 2869.15
   10:07:08.008.19-Jan-2020 5081.51 4213.49 81.87 5.00 204.23 2869.15
   10:07:08.208.19-Jan-2020 5081.51 4213.47 81.87 5.00 204.43 2869.15
   10:07:08.408.19-Jan-2020 5081.51 4213.22 81.87 5.00 204.63 2869.15
   10:07:08.608.19-Jan-2020 5081.51 4213.64 81.87 5.00 204.83 2869.15
   10:07:08.808.19-Jan-2020 5081.51 4213.51 81.87 5.00 205.03 2869.15
   10:07:09.008.19-Jan-2020 5081.51 4213.51 81.87 5.00 205.23 2869.15
   10:07:09.208.19-Jan-2020 5081.51 4213.50 81.87 5.00 205.43 2869.15
   10:07:09.408.19-Jan-2020 5081.51 4213.48 81.86 5.00 205.63 2869.15
   10:07:09.608.19-Jan-2020 5081.51 4213.50 81.86 5.00 205.83 2869.15
   10:07:09.808.19-Jan-2020 5081.51 4213.49 81.86 5.00 206.03 2869.15
   10:07:10.008.19-Jan-2020 5081.51 4213.49 81.86 5.00 206.23 2869.15
   10:07:10.208.19-Jan-2020 5081.51 4213.54 81.86 5.00 206.43 2869.15
   10:07:10.408.19-Jan-2020 5081.51 4213.46 81.86 5.00 206.63 2869.15
   10:07:10.608.19-Jan-2020 5081.51 4213.54 81.86 5.00 206.83 2869.15
