~Version Information
 VERS.                  2.0:   CWLS log ASCII Standard -VERSION 2.0
 WRAP.                   NO:   One line per depth step
~Well Information Block
#MNEM.UNIT     VALUE/NAME     DESCRIPTION
#---------     -----------    ---------------------------
 STRT.S             14:05:37 19-Jan-20: START TIME 14:05:37 19-Jan-20
 STOP.S             14:13:29 19-Jan-20: STOP TIME  14:13:29 19-Jan-20
 STEP.S                   0.00: STEP TIME
 NULL.                 -999.25: NULL VALUE
 DFWT.                        :  DIST FWL TEXT
 DFST.                        :  DIST FSL TEXT
 DMF .             Drill Floor:  DRILL MEAS FROM
 STIM.      17.57.20 21-Dec-19:  START TIME
 DATE.      17.57.20 21-Dec-19:  END TIME
 SPUD.               21-Dec-19:  SPUD DATE
 NREF.                    Grid:  NORTH REFERENCE
 HPTY.       Minimum Curvature:  HOLE POS TYPE
 DMOD.             Drill Model:  DRILL MOD DESC
 SVYD.                  Survey:  SURVEY DESC
 ILTD.               Lithology:  INTERP LTH DESC
 FTOP.          Formation Tops:  FORM TOPS DESC
 PDAT.          Mean Sea Level:  PERMANENT DATUM
 FLD .                     ACG:  FIELD NAME
 SON .        AZ-XX-0905715376:  JOB NUMBER
 CTRY.              Azerbaijan:  COUNTRY NAME
 WELL.                    E04Y:  WELL NAME
 SRVC.          TURAN DRILLING:  CONTRACTOR
 COMP.     BP Exploration (Caspian Sea) Ltd.:  COMPANY
 WTYP.                Deviated:  WELL TYPE
 UWI .                     N/a:  UNIQUE WELL IDENTIFIER
 API .                     N/a:  API NUMBER
 BASE.              Azerbaijan:  LOGGING EQUIPMENT BASE LOCATION
 REGN.                   EESSA:  REGION
 MWDS.                    Baku:  MWD SHOP
 RIG .                     DWG:  RIG NAME
 DOE .                     N/a:  DOE NUMBER
 CNTY.                    Baku:  COUNTY NAME
 DCON.         Sperry Drilling:  DIRECTNL CONTR
 UNIT.                     N/a:  LOGGING EQUIPMENT ID
 MDS .        Operator Entered:  MAG DATA SOURCE
 PROV.                        :  PROVINCE
 STAT.                        :  STATE
 LOC .                        :  LOCATION
 LMF .             Drill Floor:  LOG MEASURED FROM
 TVDS.m                  43.16:  TVDSS CORRECTN
 LATI.deg                40.17:  LATITUDE
 LONG.deg                51.17:  LONGITUDE
 WHNS.m                  -0.12:  WELL HEAD N/S
 WHEW.m                  -5.41:  WELL HEAD E/W
 UTMX.m              514337.95:  UTM X
 UTMY.m             4448627.46:  UTM Y
 DFWL.m                   0.00:  DISTANCE FWL
 DFSL.m                   0.00:  DISTANCE FSL
 SDEP.m                   0.00:  START DEPTH
 TDD .m                   0.00:  TOTAL DEPTH (DRILLER)
 VSDR.deg               235.12:  VERT SEC DIRECT
 GVFD.g                   1.00:  GRAVITY FIELD
 MFLD.nT              50294.00:  MAGNETIC FIELD
 MDIP.deg                59.61:  MAGNETIC DIP
 MDEC.deg                 6.58:  MAGNETIC DECL
 GRDC.deg                 0.09:  GRID CORRECTION
 AZTC.deg                 6.49:  AZM TOTAL CORR
 EPD .m                   0.00:  ELEVATION
 EGL .m                   0.00:  GROUND ELEVATION
 WDMS.m                 176.20:  WD ELEV
 APD .m                  43.16:  DEPTH ABOVE PD
 DEP .m                3172.61:  DEPTH
 AGAP.m                  43.16:  AIR GAP
 VSEW.m                  -5.41:  VERT SEC E/W
 VSNS.m                  -0.12:  VERT SEC N/S
 EKB .m                  43.16:  KB ELEVATION
 EDF .m                  43.16:  DF ELEVATION
 TDL .m                 295.00:  TOTAL DEPTH (LOGGER)
 VSC .                       0:  VS TO CLOSURE
 MAGU.                 1852276:  MAGUTM CHECKSUM
~Parameter Information Block
#MNEM.UNIT       Value        Description
#---------     -----------    ---------------------------
 AV  .mps                 1.60:  Ann Velocity 
 AVMX.mps                 2.10:  Max Ann Veloc 
 AZIF.deg               290.59:  Azm, Final 
 BHAT.        Rotary Steerable:  BHA Type 
 BROT.°/30m               1.00:  Build Rotating 
 BS  .in                  6.50:  Bit Size 
 BSZ .in                  6.50:  Bit Size 
 BTPL.psig              120.00:  Bit Press Loss 
 CABU.                     Yes:  Customer Abuse 
 CGEO.          Eldar Huseynov:  Customer Geo 
 COMM.                     Tì‚:  Run Comments 1 
 TCS .hr                 87.00:  Time Ciculation Ended 
 CV  .mps                 4.01:  Crit Velocity 
 CVMX.mps                 5.06:  Max Crit Veloc 
 DD1 .             Aziz Aliyev:  Direct Drillr 1 
 DD2 .            Sanan Aliyev:  Direct Drillr 2 
 DDSV.               Geo-Pilot:  DD Service 
 DEFF.%                  95.00:  % Det Eff 
 DLRX.°/30m               0.75:  Dogleg Rot Max 
 DLSO.°/30m               0.65:  Dogleg Oriented 
 DLSX.°/30m               1.39:  Dogleg Str Max 
 DRET.      18.25.00 19-Jan-20:  Drill End Time 
 DRST.      11.56.48 17-Jan-20:  Drill Start Tim 
 DTIM.hr                 27.16:  Time Drilling 
 EDEP.m                5161.01:  End Depth 
 ENG1.          Rasim Hashimov:  Engineer 1 
 ENG2.      Bakhtiyar Jabbarli:  Engineer 2 
 ETIM.      11.56.48 21-Jan-20:  End Time 
 FLOI.gpm               350.00:  Flow In 
 FLON.gpm               300.00:  Flow In Min 
 FLOS.cptm                0.00:  Fluid Loss 
 FLOX.gpm               400.00:  Flow In Max 
 HFLO.                      No:  High Flow 
 HPRE.                      No:  High Pressure 
 HTEM.                      No:  High Temp 
 HYDO.m                   1.85:  Hydro Offset 
 IFIN.deg                71.58:  Inc, Final 
 IMAX.deg                71.83:  Inc Max 
 IMIN.deg                71.12:  Inc Min 
 IMND.m                5099.48:  Inc Min Depth 
 IMXD.m                5071.08:  Inc Max Depth 
 JARR.                      No:  Jarring 
 LETM.      18.25.00 19-Jan-20:  Log End Time 
 LOST.hr                     0:  Lost Rig Time 
 LSTM.      11.56.48 17-Jan-20:  Log Start Time 
 MDCL.ppm             37000.00:  Mud Chlorides 
 MDES.     Inversion Oil/Synthetic:  Mud Desc 
 DFD .sg                  1.34:  Mud Density 
 MDMN.sg                  1.34:  Dens Mud Min 
 MDMX.sg                  1.34:  Dens Mud Max 
 MOIL.                      69:  Run Mud Oil % 
 MOWR.                   69:31:  Run Mud OWR 
 MSND.                     0.1:  Run Mud Sand % 
 MSOL.                    17.6:  Run Mud Solids% 
 DFV .spqt               79.00:  Mud Viscosity 
 MWOD.in                  4.75:  MWD Tool OD 
 MWSI.                      No:  Serv Intrp, MWD 
 OTIM.hr                126.10:  Time Operating 
 PMAX.psia             6000.00:  Press Op, Max 
 PV  .cP                 29.00:  Mud PV 
 RUN .                     400:  Run Number 
 ROPA.m/hr               11.00:  ROP Avg 
 ROPN.m/hr                5.00:  ROP Min 
 ROPX.m/hr               18.00:  ROP Max 
 RPMA.rpm               139.00:  RPM Surface Avg 
 RPMN.rpm               100.00:  RPM Surface Min 
 RPMX.rpm               140.00:  RPM Surface Max 
 RRUN.                     400:  Rig Run Number 
 SAZI.deg               290.22:  Azm, Start 
 SDEP.m                4868.01:  Start Depth 
 SIDD.                      No:  Serv Intrp, DD 
 SINC.deg                71.77:  Inc, Start 
 SPPA.psig             5550.00:  SPP Avg 
 SPPN.psig             4300.00:  SPP Min 
 SPPX.psig             5600.00:  SPP Max 
 STIM.      23.45.48 15-Jan-20:  Start Time 
 SVCS.                 DD, MWD:  Services 
 SVER.                    9.20:  Sperry Version 
 TDAT.m                5161.01:  Tot Depth Attmp 
 TDDF.                      No:  Trip for DD 
 TDLG.m                 295.00:  Tot Depth Loggd 
 TFF .                      No:  Trip for Fail 
 TQAA.f-kp               13.00:  Torque Abs Avg 
 TQAN.f-kp               13.00:  Torque Abs Min 
 TQAX.f-kp               16.00:  Torque Abs Max 
 TRRT.°/30m               0.25:  Turn Rotating 
 MRT .                     ADR:  Maximum Recorded Temperature 
 TTMX.degC               88.00:  Max Tool Temp 
 VS01.                90577859:  Virtual Str1 SN 
 VS02.                90521879:  Virtual Str2 SN 
 VS03.                90580299:  Virtual Str3 SN 
 VS04.                90515982:  Virtual Str4 SN 
 VS05.                90547765:  Virtual Str5 SN 
 WBMN.klb                 2.00:  WOB Min 
 WITN.           Adil Mammadov:  Customer Rep 
 WITN.        Elmaddin Rahimov:  Customer Rep 2 
 WOBA.klb                 3.00:  WOB Avg 
 WOBX.klb                 5.00:  WOB Max 
 YP  .lhf2               30.00:  Yield Point 
~Curve Information Block
#MNEM.UNIT                 API CODE     Curve Description
#---------               -----------    ---------------------------
 TIME.HHMMSS            00 000 000 000:  GT Time & Date
 GTDEPTH.m              00 000 000 000:  GT Depth
 GTPQH.psia             00 000 000 000:  GT HR Quartz Pressure
 GTTQ.degC              00 000 000 000:  GT Quartz Temperature
 GTTN.NONE              00 000 000 000:  GT Test Number
 GTET.sec               00 000 000 000:  GT Elapsed Test Time
 GTTVD.m                00 000 000 000:  GT True Vertical Depth
#Other Information
#
#WARRANTY: Halliburton will use its best efforts to furnish customers with 
#accurate information and interpretations that are part of, and incident to, the services 
#provided.  However, Halliburton cannot and does not warrant the accuracy 
#or correctness of such information and interpretations.  Under no circumstances should any 
#such information or interpretation be relied upon as the sole basis for any drilling, 
#completion, production, or financial decision or any procedure involving any risk to the 
#safety of any drilling venture, drilling rig or its crew or any other third party.  The 
#Customer has full responsibility for all drilling, completion and production operation.  
#Halliburton makes no representations or warranties, either expressed or 
#implied, including, but not limited to, the implied warranties of merchantability or fitness 
#for a particular purpose, with respect to the services rendered.  In no event will 
#Halliburton be liable for failure to obtain any particular results or for 
#any damages, including, but not limited to, indirect, special or consequential damages, 
#resulting from the use of any information or interpretation provided by Halliburton.
#
~A           TIME           GTDEPTH  GTPQH  GTTQ  GTTN  GTET   GTTVD  
# ...
   14:09:50.679.19-Jan-2020 5113.51 4117.04 81.58 6.00 253.05 2879.41
   14:09:50.879.19-Jan-2020 5113.51 4117.04 81.58 6.00 253.25 2879.41
   14:09:51.079.19-Jan-2020 5113.51 4117.07 81.58 6.00 253.45 2879.41
   14:09:51.279.19-Jan-2020 5113.51 4117.03 81.58 6.00 253.65 2879.41
   14:09:51.479.19-Jan-2020 5113.51 4117.00 81.58 6.00 253.85 2879.41
   14:09:51.680.19-Jan-2020 5113.51 4117.01 81.58 6.00 254.05 2879.41
   14:09:51.880.19-Jan-2020 5113.51 4117.01 81.58 6.00 254.25 2879.41
   14:09:52.080.19-Jan-2020 5113.51 4117.01 81.58 6.00 254.45 2879.41
   14:09:52.280.19-Jan-2020 5113.51 4117.02 81.57 6.00 254.65 2879.41
   14:09:52.480.19-Jan-2020 5113.51 4117.01 81.57 6.00 254.85 2879.41
   14:09:52.680.19-Jan-2020 5113.51 4117.00 81.57 6.00 255.05 2879.41
   14:09:52.880.19-Jan-2020 5113.51 4117.00 81.57 6.00 255.25 2879.41
   14:09:53.080.19-Jan-2020 5113.51 4116.99 81.57 6.00 255.45 2879.41
   14:09:53.280.19-Jan-2020 5113.51 4117.01 81.57 6.00 255.65 2879.41
   14:09:53.480.19-Jan-2020 5113.51 4116.98 81.57 6.00 255.85 2879.41
   14:09:53.680.19-Jan-2020 5113.51 4117.01 81.57 6.00 256.05 2879.41
   14:09:53.880.19-Jan-2020 5113.51 4117.01 81.57 6.00 256.25 2879.41
   14:09:54.080.19-Jan-2020 5113.51 4116.87 81.57 6.00 256.45 2879.41
   14:09:54.280.19-Jan-2020 5113.51 4117.06 81.57 6.00 256.65 2879.41
   14:09:54.480.19-Jan-2020 5113.51 4117.02 81.57 6.00 256.85 2879.41
   14:09:54.680.19-Jan-2020 5113.51 4116.98 81.57 6.00 257.05 2879.41
   14:09:54.880.19-Jan-2020 5113.51 4116.98 81.57 6.00 257.25 2879.41
   14:09:55.080.19-Jan-2020 5113.51 4117.02 81.57 6.00 257.45 2879.41
   14:09:55.280.19-Jan-2020 5113.51 4117.01 81.57 6.00 257.65 2879.41
   14:09:55.480.19-Jan-2020 5113.51 4117.01 81.57 6.00 257.85 2879.41
   14:09:55.680.19-Jan-2020 5113.51 4117.00 81.57 6.00 258.05 2879.41
   14:09:55.880.19-Jan-2020 5113.51 4117.00 81.57 6.00 258.25 2879.41
   14:09:56.080.19-Jan-2020 5113.51 4116.99 81.57 6.00 258.45 2879.41
   14:09:56.280.19-Jan-2020 5113.51 4117.01 81.57 6.00 258.65 2879.41
   14:09:56.480.19-Jan-2020 5113.51 4116.99 81.57 6.00 258.85 2879.41
   14:09:56.681.19-Jan-2020 5113.51 4116.99 81.57 6.00 259.05 2879.41
   14:09:56.881.19-Jan-2020 5113.51 4116.99 81.57 6.00 259.25 2879.41
   14:09:57.081.19-Jan-2020 5113.51 4117.00 81.57 6.00 259.45 2879.41
   14:09:57.281.19-Jan-2020 5113.51 4117.00 81.57 6.00 259.65 2879.41
   14:09:57.481.19-Jan-2020 5113.51 4116.85 81.57 6.00 259.85 2879.41
   14:09:57.681.19-Jan-2020 5113.51 4117.07 81.57 6.00 260.05 2879.41
   14:09:57.881.19-Jan-2020 5113.51 4117.07 81.57 6.00 260.25 2879.41
   14:09:58.081.19-Jan-2020 5113.51 4117.02 81.57 6.00 260.45 2879.41
   14:09:58.281.19-Jan-2020 5113.51 4116.89 81.57 6.00 260.65 2879.41
   14:09:58.481.19-Jan-2020 5113.51 4117.07 81.57 6.00 260.85 2879.41
   14:09:58.681.19-Jan-2020 5113.51 4117.03 81.57 6.00 261.05 2879.41
   14:09:58.881.19-Jan-2020 5113.51 4117.03 81.57 6.00 261.25 2879.41
   14:09:59.081.19-Jan-2020 5113.51 4117.03 81.57 6.00 261.45 2879.41
   14:09:59.281.19-Jan-2020 5113.51 4116.99 81.57 6.00 261.65 2879.41
   14:09:59.481.19-Jan-2020 5113.51 4116.95 81.57 6.00 261.85 2879.41
   14:09:59.681.19-Jan-2020 5113.51 4117.04 81.57 6.00 262.05 2879.41
   14:09:59.881.19-Jan-2020 5113.51 4117.04 81.57 6.00 262.25 2879.41
   14:10:00.081.19-Jan-2020 5113.51 4116.99 81.57 6.00 262.45 2879.41
   14:10:00.281.19-Jan-2020 5113.51 4117.04 81.57 6.00 262.65 2879.41
   14:10:00.481.19-Jan-2020 5113.51 4116.88 81.56 6.00 262.85 2879.41
   14:10:00.681.19-Jan-2020 5113.51 4117.08 81.56 6.00 263.05 2879.41
   14:10:00.881.19-Jan-2020 5113.51 4117.08 81.56 6.00 263.25 2879.41
   14:10:01.081.19-Jan-2020 5113.51 4117.01 81.56 6.00 263.45 2879.41
   14:10:01.281.19-Jan-2020 5113.51 4117.04 81.56 6.00 263.65 2879.41
   14:10:01.482.19-Jan-2020 5113.51 4117.04 81.56 6.00 263.85 2879.41
   14:10:01.682.19-Jan-2020 5113.51 4117.02 81.56 6.00 264.05 2879.41
   14:10:01.882.19-Jan-2020 5113.51 4117.02 81.56 6.00 264.25 2879.41
   14:10:02.082.19-Jan-2020 5113.51 4117.02 81.56 6.00 264.45 2879.41
   14:10:02.282.19-Jan-2020 5113.51 4117.03 81.56 6.00 264.65 2879.41
   14:10:02.482.19-Jan-2020 5113.51 4117.01 81.56 6.00 264.85 2879.41
   14:10:02.682.19-Jan-2020 5113.51 4117.01 81.56 6.00 265.05 2879.41
   14:10:02.882.19-Jan-2020 5113.51 4117.01 81.56 6.00 265.25 2879.41
   14:10:03.082.19-Jan-2020 5113.51 4117.00 81.56 6.00 265.45 2879.41
   14:10:03.282.19-Jan-2020 5113.51 4117.02 81.56 6.00 265.65 2879.41
   14:10:03.482.19-Jan-2020 5113.51 4117.00 81.56 6.00 265.85 2879.41
   14:10:03.682.19-Jan-2020 5113.51 4116.88 81.56 6.00 266.05 2879.41
   14:10:03.882.19-Jan-2020 5113.51 4116.88 81.56 6.00 266.25 2879.41
   14:10:04.082.19-Jan-2020 5113.51 4117.04 81.56 6.00 266.45 2879.41
   14:10:04.282.19-Jan-2020 5113.51 4116.98 81.56 6.00 266.65 2879.41
   14:10:04.482.19-Jan-2020 5113.51 4117.05 81.56 6.00 266.85 2879.41
   14:10:04.682.19-Jan-2020 5113.51 4117.02 81.56 6.00 267.05 2879.41
   14:10:04.882.19-Jan-2020 5113.51 4117.02 81.56 6.00 267.25 2879.41
   14:10:05.082.19-Jan-2020 5113.51 4117.02 81.56 6.00 267.45 2879.41
   14:10:05.282.19-Jan-2020 5113.51 4117.01 81.56 6.00 267.65 2879.41
   14:10:05.482.19-Jan-2020 5113.51 4117.02 81.56 6.00 267.86 2879.41
   14:10:05.682.19-Jan-2020 5113.51 4117.00 81.56 6.00 268.06 2879.41
   14:10:05.882.19-Jan-2020 5113.51 4117.00 81.56 6.00 268.26 2879.41
   14:10:06.082.19-Jan-2020 5113.51 4117.00 81.56 6.00 268.46 2879.41
   14:10:06.283.19-Jan-2020 5113.51 4117.02 81.56 6.00 268.66 2879.41
   14:10:06.483.19-Jan-2020 5113.51 4117.00 81.56 6.00 268.86 2879.41
   14:10:06.683.19-Jan-2020 5113.51 4117.01 81.56 6.00 269.06 2879.41
   14:10:06.883.19-Jan-2020 5113.51 4117.01 81.56 6.00 269.26 2879.41
   14:10:07.083.19-Jan-2020 5113.51 4116.86 81.56 6.00 269.46 2879.41
   14:10:07.283.19-Jan-2020 5113.51 4117.07 81.56 6.00 269.66 2879.41
   14:10:07.483.19-Jan-2020 5113.51 4117.03 81.56 6.00 269.86 2879.41
   14:10:07.683.19-Jan-2020 5113.51 4117.00 81.56 6.00 270.06 2879.41
   14:10:07.883.19-Jan-2020 5113.51 4117.00 81.56 6.00 270.26 2879.41
   14:10:08.083.19-Jan-2020 5113.51 4117.09 81.56 6.00 270.46 2879.41
   14:10:08.283.19-Jan-2020 5113.51 4117.03 81.56 6.00 270.66 2879.41
   14:10:08.483.19-Jan-2020 5113.51 4117.01 81.55 6.00 270.86 2879.41
   14:10:08.683.19-Jan-2020 5113.51 4117.04 81.55 6.00 271.06 2879.41
   14:10:08.883.19-Jan-2020 5113.51 4117.04 81.55 6.00 271.26 2879.41
   14:10:09.083.19-Jan-2020 5113.51 4117.06 81.55 6.00 271.46 2879.41
   14:10:09.283.19-Jan-2020 5113.51 4117.02 81.55 6.00 271.66 2879.41
   14:10:09.483.19-Jan-2020 5113.51 4117.02 81.55 6.00 271.86 2879.41
   14:10:09.683.19-Jan-2020 5113.51 4117.04 81.55 6.00 272.06 2879.41
   14:10:09.883.19-Jan-2020 5113.51 4117.04 81.55 6.00 272.26 2879.41
   14:10:10.083.19-Jan-2020 5113.51 4116.84 81.55 6.00 272.46 2879.41
   14:10:10.283.19-Jan-2020 5113.51 4117.14 81.55 6.00 272.66 2879.41
   14:10:10.483.19-Jan-2020 5113.51 4117.03 81.55 6.00 272.86 2879.41
   14:10:10.683.19-Jan-2020 5113.51 4117.02 81.55 6.00 273.06 2879.41
   14:10:10.883.19-Jan-2020 5113.51 4117.02 81.55 6.00 273.26 2879.41
   14:10:11.083.19-Jan-2020 5113.51 4117.04 81.55 6.00 273.46 2879.41
   14:10:11.284.19-Jan-2020 5113.51 4117.02 81.55 6.00 273.66 2879.41
   14:10:11.484.19-Jan-2020 5113.51 4117.03 81.55 6.00 273.86 2879.41
   14:10:11.684.19-Jan-2020 5113.51 4117.02 81.55 6.00 274.06 2879.41
   14:10:11.884.19-Jan-2020 5113.51 4117.02 81.55 6.00 274.26 2879.41
   14:10:12.084.19-Jan-2020 5113.51 4117.03 81.55 6.00 274.46 2879.41
   14:10:12.284.19-Jan-2020 5113.51 4117.02 81.55 6.00 274.66 2879.41
   14:10:12.484.19-Jan-2020 5113.51 4117.02 81.55 6.00 274.86 2879.41
   14:10:12.684.19-Jan-2020 5113.51 4117.02 81.55 6.00 275.06 2879.41
   14:10:12.884.19-Jan-2020 5113.51 4117.02 81.55 6.00 275.26 2879.41
   14:10:13.084.19-Jan-2020 5113.51 4117.02 81.55 6.00 275.46 2879.41
   14:10:13.284.19-Jan-2020 5113.51 4116.83 81.55 6.00 275.66 2879.41
   14:10:13.484.19-Jan-2020 5113.51 4117.13 81.55 6.00 275.86 2879.41
