~Version Information
 VERS.                  2.0:   CWLS log ASCII Standard -VERSION 2.0
 WRAP.                   NO:   One line per depth step
~Well Information Block
#MNEM.UNIT     VALUE/NAME     DESCRIPTION
#---------     -----------    ---------------------------
 STRT.S             10:03:43 19-Jan-20: START TIME 10:03:43 19-Jan-20
 STOP.S             10:11:36 19-Jan-20: STOP TIME  10:11:36 19-Jan-20
 STEP.S                   0.00: STEP TIME
 NULL.                 -999.25: NULL VALUE
 DFWT.                        :  DIST FWL TEXT
 DFST.                        :  DIST FSL TEXT
 DMF .             Drill Floor:  DRILL MEAS FROM
 STIM.      17.57.20 21-Dec-19:  START TIME
 DATE.      17.57.20 21-Dec-19:  END TIME
 SPUD.               21-Dec-19:  SPUD DATE
 NREF.                    Grid:  NORTH REFERENCE
 HPTY.       Minimum Curvature:  HOLE POS TYPE
 DMOD.             Drill Model:  DRILL MOD DESC
 SVYD.                  Survey:  SURVEY DESC
 ILTD.               Lithology:  INTERP LTH DESC
 FTOP.          Formation Tops:  FORM TOPS DESC
 PDAT.          Mean Sea Level:  PERMANENT DATUM
 FLD .                     ACG:  FIELD NAME
 SON .        AZ-XX-0905715376:  JOB NUMBER
 CTRY.              Azerbaijan:  COUNTRY NAME
 WELL.                    E04Y:  WELL NAME
 SRVC.          TURAN DRILLING:  CONTRACTOR
 COMP.     BP Exploration (Caspian Sea) Ltd.:  COMPANY
 WTYP.                Deviated:  WELL TYPE
 UWI .                     N/a:  UNIQUE WELL IDENTIFIER
 API .                     N/a:  API NUMBER
 BASE.              Azerbaijan:  LOGGING EQUIPMENT BASE LOCATION
 REGN.                   EESSA:  REGION
 MWDS.                    Baku:  MWD SHOP
 RIG .                     DWG:  RIG NAME
 DOE .                     N/a:  DOE NUMBER
 CNTY.                    Baku:  COUNTY NAME
 DCON.         Sperry Drilling:  DIRECTNL CONTR
 UNIT.                     N/a:  LOGGING EQUIPMENT ID
 MDS .        Operator Entered:  MAG DATA SOURCE
 PROV.                        :  PROVINCE
 STAT.                        :  STATE
 LOC .                        :  LOCATION
 LMF .             Drill Floor:  LOG MEASURED FROM
 TVDS.m                  43.16:  TVDSS CORRECTN
 LATI.deg                40.17:  LATITUDE
 LONG.deg                51.17:  LONGITUDE
 WHNS.m                  -0.12:  WELL HEAD N/S
 WHEW.m                  -5.41:  WELL HEAD E/W
 UTMX.m              514337.95:  UTM X
 UTMY.m             4448627.46:  UTM Y
 DFWL.m                   0.00:  DISTANCE FWL
 DFSL.m                   0.00:  DISTANCE FSL
 SDEP.m                   0.00:  START DEPTH
 TDD .m                   0.00:  TOTAL DEPTH (DRILLER)
 VSDR.deg               235.12:  VERT SEC DIRECT
 GVFD.g                   1.00:  GRAVITY FIELD
 MFLD.nT              50294.00:  MAGNETIC FIELD
 MDIP.deg                59.61:  MAGNETIC DIP
 MDEC.deg                 6.58:  MAGNETIC DECL
 GRDC.deg                 0.09:  GRID CORRECTION
 AZTC.deg                 6.49:  AZM TOTAL CORR
 EPD .m                   0.00:  ELEVATION
 EGL .m                   0.00:  GROUND ELEVATION
 WDMS.m                 176.20:  WD ELEV
 APD .m                  43.16:  DEPTH ABOVE PD
 DEP .m                3172.61:  DEPTH
 AGAP.m                  43.16:  AIR GAP
 VSEW.m                  -5.41:  VERT SEC E/W
 VSNS.m                  -0.12:  VERT SEC N/S
 EKB .m                  43.16:  KB ELEVATION
 EDF .m                  43.16:  DF ELEVATION
 TDL .m                 295.00:  TOTAL DEPTH (LOGGER)
 VSC .                       0:  VS TO CLOSURE
 MAGU.                 1852276:  MAGUTM CHECKSUM
~Parameter Information Block
#MNEM.UNIT       Value        Description
#---------     -----------    ---------------------------
 AV  .mps                 1.60:  Ann Velocity 
 AVMX.mps                 2.10:  Max Ann Veloc 
 AZIF.deg               290.59:  Azm, Final 
 BHAT.        Rotary Steerable:  BHA Type 
 BROT.°/30m               1.00:  Build Rotating 
 BS  .in                  6.50:  Bit Size 
 BSZ .in                  6.50:  Bit Size 
 BTPL.psig              120.00:  Bit Press Loss 
 CABU.                     Yes:  Customer Abuse 
 CGEO.          Eldar Huseynov:  Customer Geo 
 COMM.                     Œòk:  Run Comments 1 
 TCS .hr                 87.00:  Time Ciculation Ended 
 CV  .mps                 4.01:  Crit Velocity 
 CVMX.mps                 5.06:  Max Crit Veloc 
 DD1 .             Aziz Aliyev:  Direct Drillr 1 
 DD2 .            Sanan Aliyev:  Direct Drillr 2 
 DDSV.               Geo-Pilot:  DD Service 
 DEFF.%                  95.00:  % Det Eff 
 DLRX.°/30m               0.75:  Dogleg Rot Max 
 DLSO.°/30m               0.65:  Dogleg Oriented 
 DLSX.°/30m               1.39:  Dogleg Str Max 
 DRET.      18.25.00 19-Jan-20:  Drill End Time 
 DRST.      11.56.48 17-Jan-20:  Drill Start Tim 
 DTIM.hr                 27.16:  Time Drilling 
 EDEP.m                5161.01:  End Depth 
 ENG1.          Rasim Hashimov:  Engineer 1 
 ENG2.      Bakhtiyar Jabbarli:  Engineer 2 
 ETIM.      11.56.48 21-Jan-20:  End Time 
 FLOI.gpm               350.00:  Flow In 
 FLON.gpm               300.00:  Flow In Min 
 FLOS.cptm                0.00:  Fluid Loss 
 FLOX.gpm               400.00:  Flow In Max 
 HFLO.                      No:  High Flow 
 HPRE.                      No:  High Pressure 
 HTEM.                      No:  High Temp 
 HYDO.m                   1.85:  Hydro Offset 
 IFIN.deg                71.58:  Inc, Final 
 IMAX.deg                71.83:  Inc Max 
 IMIN.deg                71.12:  Inc Min 
 IMND.m                5099.48:  Inc Min Depth 
 IMXD.m                5071.08:  Inc Max Depth 
 JARR.                      No:  Jarring 
 LETM.      18.25.00 19-Jan-20:  Log End Time 
 LOST.hr                     0:  Lost Rig Time 
 LSTM.      11.56.48 17-Jan-20:  Log Start Time 
 MDCL.ppm             37000.00:  Mud Chlorides 
 MDES.     Inversion Oil/Synthetic:  Mud Desc 
 DFD .sg                  1.34:  Mud Density 
 MDMN.sg                  1.34:  Dens Mud Min 
 MDMX.sg                  1.34:  Dens Mud Max 
 MOIL.                      69:  Run Mud Oil % 
 MOWR.                   69:31:  Run Mud OWR 
 MSND.                     0.1:  Run Mud Sand % 
 MSOL.                    17.6:  Run Mud Solids% 
 DFV .spqt               79.00:  Mud Viscosity 
 MWOD.in                  4.75:  MWD Tool OD 
 MWSI.                      No:  Serv Intrp, MWD 
 OTIM.hr                126.10:  Time Operating 
 PMAX.psia             6000.00:  Press Op, Max 
 PV  .cP                 29.00:  Mud PV 
 RUN .                     400:  Run Number 
 ROPA.m/hr               11.00:  ROP Avg 
 ROPN.m/hr                5.00:  ROP Min 
 ROPX.m/hr               18.00:  ROP Max 
 RPMA.rpm               139.00:  RPM Surface Avg 
 RPMN.rpm               100.00:  RPM Surface Min 
 RPMX.rpm               140.00:  RPM Surface Max 
 RRUN.                     400:  Rig Run Number 
 SAZI.deg               290.22:  Azm, Start 
 SDEP.m                4868.01:  Start Depth 
 SIDD.                      No:  Serv Intrp, DD 
 SINC.deg                71.77:  Inc, Start 
 SPPA.psig             5550.00:  SPP Avg 
 SPPN.psig             4300.00:  SPP Min 
 SPPX.psig             5600.00:  SPP Max 
 STIM.      23.45.48 15-Jan-20:  Start Time 
 SVCS.                 DD, MWD:  Services 
 SVER.                    9.20:  Sperry Version 
 TDAT.m                5161.01:  Tot Depth Attmp 
 TDDF.                      No:  Trip for DD 
 TDLG.m                 295.00:  Tot Depth Loggd 
 TFF .                      No:  Trip for Fail 
 TQAA.f-kp               13.00:  Torque Abs Avg 
 TQAN.f-kp               13.00:  Torque Abs Min 
 TQAX.f-kp               16.00:  Torque Abs Max 
 TRRT.°/30m               0.25:  Turn Rotating 
 MRT .                     ADR:  Maximum Recorded Temperature 
 TTMX.degC               88.00:  Max Tool Temp 
 VS01.                90577859:  Virtual Str1 SN 
 VS02.                90521879:  Virtual Str2 SN 
 VS03.                90580299:  Virtual Str3 SN 
 VS04.                90515982:  Virtual Str4 SN 
 VS05.                90547765:  Virtual Str5 SN 
 WBMN.klb                 2.00:  WOB Min 
 WITN.           Adil Mammadov:  Customer Rep 
 WITN.        Elmaddin Rahimov:  Customer Rep 2 
 WOBA.klb                 3.00:  WOB Avg 
 WOBX.klb                 5.00:  WOB Max 
 YP  .lhf2               30.00:  Yield Point 
~Curve Information Block
#MNEM.UNIT                 API CODE     Curve Description
#---------               -----------    ---------------------------
 TIME.HHMMSS            00 000 000 000:  GT Time & Date
 GTDEPTH.m              00 000 000 000:  GT Depth
 GTPQH.psia             00 000 000 000:  GT HR Quartz Pressure
 GTTQ.degC              00 000 000 000:  GT Quartz Temperature
 GTTN.NONE              00 000 000 000:  GT Test Number
 GTET.sec               00 000 000 000:  GT Elapsed Test Time
 GTTVD.m                00 000 000 000:  GT True Vertical Depth
#Other Information
#
#WARRANTY: Halliburton will use its best efforts to furnish customers with 
#accurate information and interpretations that are part of, and incident to, the services 
#provided.  However, Halliburton cannot and does not warrant the accuracy 
#or correctness of such information and interpretations.  Under no circumstances should any 
#such information or interpretation be relied upon as the sole basis for any drilling, 
#completion, production, or financial decision or any procedure involving any risk to the 
#safety of any drilling venture, drilling rig or its crew or any other third party.  The 
#Customer has full responsibility for all drilling, completion and production operation.  
#Halliburton makes no representations or warranties, either expressed or 
#implied, including, but not limited to, the implied warranties of merchantability or fitness 
#for a particular purpose, with respect to the services rendered.  In no event will 
#Halliburton be liable for failure to obtain any particular results or for 
#any damages, including, but not limited to, indirect, special or consequential damages, 
#resulting from the use of any information or interpretation provided by Halliburton.
#
~A           TIME           GTDEPTH  GTPQH  GTTQ  GTTN  GTET   GTTVD  
# ...
   10:05:15.794.19-Jan-2020 5081.51 4213.39 82.11 5.00  92.01 2869.15
   10:05:15.994.19-Jan-2020 5081.51 4213.39 82.11 5.00  92.21 2869.15
   10:05:16.194.19-Jan-2020 5081.51 4213.23 82.11 5.00  92.41 2869.15
   10:05:16.394.19-Jan-2020 5081.51 4213.56 82.11 5.00  92.61 2869.15
   10:05:16.594.19-Jan-2020 5081.51 4213.45 82.11 5.00  92.81 2869.15
   10:05:16.794.19-Jan-2020 5081.51 4213.38 82.11 5.00  93.01 2869.15
   10:05:16.994.19-Jan-2020 5081.51 4213.38 82.11 5.00  93.21 2869.15
   10:05:17.194.19-Jan-2020 5081.51 4213.44 82.11 5.00  93.41 2869.15
   10:05:17.394.19-Jan-2020 5081.51 4213.40 82.11 5.00  93.61 2869.15
   10:05:17.594.19-Jan-2020 5081.51 4213.47 82.11 5.00  93.81 2869.15
   10:05:17.794.19-Jan-2020 5081.51 4213.33 82.11 5.00  94.01 2869.15
   10:05:17.994.19-Jan-2020 5081.51 4213.33 82.11 5.00  94.21 2869.15
   10:05:18.194.19-Jan-2020 5081.51 4213.41 82.11 5.00  94.41 2869.15
   10:05:18.394.19-Jan-2020 5081.51 4213.47 82.11 5.00  94.61 2869.15
   10:05:18.594.19-Jan-2020 5081.51 4213.44 82.11 5.00  94.81 2869.15
   10:05:18.794.19-Jan-2020 5081.51 4213.24 82.11 5.00  95.01 2869.15
   10:05:18.994.19-Jan-2020 5081.51 4213.24 82.11 5.00  95.21 2869.15
   10:05:19.194.19-Jan-2020 5081.51 4213.48 82.11 5.00  95.41 2869.15
   10:05:19.394.19-Jan-2020 5081.51 4213.40 82.11 5.00  95.61 2869.15
   10:05:19.594.19-Jan-2020 5081.51 4213.46 82.11 5.00  95.81 2869.15
   10:05:19.794.19-Jan-2020 5081.51 4213.44 82.10 5.00  96.01 2869.15
   10:05:19.994.19-Jan-2020 5081.51 4213.44 82.10 5.00  96.21 2869.15
   10:05:20.194.19-Jan-2020 5081.51 4213.46 82.10 5.00  96.41 2869.15
   10:05:20.394.19-Jan-2020 5081.51 4213.45 82.10 5.00  96.61 2869.15
   10:05:20.594.19-Jan-2020 5081.51 4213.44 82.10 5.00  96.81 2869.15
   10:05:20.794.19-Jan-2020 5081.51 4213.43 82.10 5.00  97.01 2869.15
   10:05:20.994.19-Jan-2020 5081.51 4213.43 82.10 5.00  97.21 2869.15
   10:05:21.194.19-Jan-2020 5081.51 4213.44 82.10 5.00  97.41 2869.15
   10:05:21.394.19-Jan-2020 5081.51 4213.44 82.10 5.00  97.61 2869.15
   10:05:21.594.19-Jan-2020 5081.51 4213.43 82.10 5.00  97.81 2869.15
   10:05:21.794.19-Jan-2020 5081.51 4213.45 82.10 5.00  98.01 2869.15
   10:05:21.994.19-Jan-2020 5081.51 4213.45 82.10 5.00  98.21 2869.15
   10:05:22.194.19-Jan-2020 5081.51 4213.59 82.10 5.00  98.41 2869.15
   10:05:22.394.19-Jan-2020 5081.51 4213.47 82.10 5.00  98.61 2869.15
   10:05:22.595.19-Jan-2020 5081.51 4213.42 82.10 5.00  98.81 2869.15
   10:05:22.795.19-Jan-2020 5081.51 4213.49 82.10 5.00  99.01 2869.15
   10:05:22.995.19-Jan-2020 5081.51 4213.49 82.10 5.00  99.21 2869.15
   10:05:23.195.19-Jan-2020 5081.51 4213.46 82.10 5.00  99.41 2869.15
   10:05:23.395.19-Jan-2020 5081.51 4213.45 82.10 5.00  99.61 2869.15
   10:05:23.595.19-Jan-2020 5081.51 4213.46 82.10 5.00  99.81 2869.15
   10:05:23.795.19-Jan-2020 5081.51 4213.46 82.09 5.00 100.01 2869.15
   10:05:23.995.19-Jan-2020 5081.51 4213.46 82.09 5.00 100.21 2869.15
   10:05:24.195.19-Jan-2020 5081.51 4213.46 82.09 5.00 100.41 2869.15
   10:05:24.395.19-Jan-2020 5081.51 4213.46 82.09 5.00 100.61 2869.15
   10:05:24.595.19-Jan-2020 5081.51 4213.46 82.09 5.00 100.81 2869.15
   10:05:24.795.19-Jan-2020 5081.51 4213.45 82.09 5.00 101.01 2869.15
   10:05:24.995.19-Jan-2020 5081.51 4213.45 82.09 5.00 101.21 2869.15
   10:05:25.195.19-Jan-2020 5081.51 4213.47 82.09 5.00 101.41 2869.15
   10:05:25.395.19-Jan-2020 5081.51 4213.28 82.09 5.00 101.61 2869.15
   10:05:25.595.19-Jan-2020 5081.51 4213.59 82.09 5.00 101.81 2869.15
   10:05:25.795.19-Jan-2020 5081.51 4213.50 82.09 5.00 102.01 2869.15
   10:05:25.995.19-Jan-2020 5081.51 4213.50 82.09 5.00 102.21 2869.15
   10:05:26.195.19-Jan-2020 5081.51 4213.50 82.09 5.00 102.41 2869.15
   10:05:26.395.19-Jan-2020 5081.51 4213.30 82.09 5.00 102.61 2869.15
   10:05:26.595.19-Jan-2020 5081.51 4213.61 82.09 5.00 102.81 2869.15
   10:05:26.795.19-Jan-2020 5081.51 4213.49 82.09 5.00 103.01 2869.15
   10:05:26.995.19-Jan-2020 5081.51 4213.49 82.09 5.00 103.21 2869.15
   10:05:27.195.19-Jan-2020 5081.51 4213.50 82.09 5.00 103.41 2869.15
   10:05:27.395.19-Jan-2020 5081.51 4213.50 82.09 5.00 103.61 2869.15
   10:05:27.595.19-Jan-2020 5081.51 4213.48 82.09 5.00 103.81 2869.15
   10:05:27.795.19-Jan-2020 5081.51 4213.51 82.09 5.00 104.01 2869.15
   10:05:27.995.19-Jan-2020 5081.51 4213.51 82.09 5.00 104.21 2869.15
   10:05:28.195.19-Jan-2020 5081.51 4213.52 82.08 5.00 104.41 2869.15
   10:05:28.395.19-Jan-2020 5081.51 4213.44 82.08 5.00 104.61 2869.15
   10:05:28.595.19-Jan-2020 5081.51 4213.53 82.08 5.00 104.81 2869.15
   10:05:28.795.19-Jan-2020 5081.51 4213.50 82.08 5.00 105.01 2869.15
   10:05:28.995.19-Jan-2020 5081.51 4213.50 82.08 5.00 105.21 2869.15
   10:05:29.195.19-Jan-2020 5081.51 4213.63 82.08 5.00 105.41 2869.15
   10:05:29.395.19-Jan-2020 5081.51 4213.52 82.08 5.00 105.61 2869.15
   10:05:29.595.19-Jan-2020 5081.51 4213.47 82.08 5.00 105.81 2869.15
   10:05:29.795.19-Jan-2020 5081.51 4213.50 82.08 5.00 106.01 2869.15
   10:05:29.995.19-Jan-2020 5081.51 4213.50 82.08 5.00 106.21 2869.15
   10:05:30.195.19-Jan-2020 5081.51 4213.49 82.08 5.00 106.41 2869.15
   10:05:30.395.19-Jan-2020 5081.51 4213.51 82.08 5.00 106.61 2869.15
   10:05:30.596.19-Jan-2020 5081.51 4213.49 82.08 5.00 106.81 2869.15
   10:05:30.796.19-Jan-2020 5081.51 4213.50 82.08 5.00 107.01 2869.15
   10:05:30.996.19-Jan-2020 5081.51 4213.50 82.08 5.00 107.21 2869.15
   10:05:31.196.19-Jan-2020 5081.51 4213.48 82.08 5.00 107.41 2869.15
   10:05:31.396.19-Jan-2020 5081.51 4213.50 82.08 5.00 107.61 2869.15
   10:05:31.596.19-Jan-2020 5081.51 4213.48 82.08 5.00 107.81 2869.15
   10:05:31.796.19-Jan-2020 5081.51 4213.51 82.08 5.00 108.01 2869.15
   10:05:31.996.19-Jan-2020 5081.51 4213.51 82.08 5.00 108.21 2869.15
   10:05:32.196.19-Jan-2020 5081.51 4213.29 82.08 5.00 108.41 2869.15
   10:05:32.396.19-Jan-2020 5081.51 4213.64 82.07 5.00 108.61 2869.15
   10:05:32.596.19-Jan-2020 5081.51 4213.52 82.07 5.00 108.81 2869.15
   10:05:32.796.19-Jan-2020 5081.51 4213.46 82.07 5.00 109.01 2869.15
   10:05:32.996.19-Jan-2020 5081.51 4213.46 82.07 5.00 109.21 2869.15
   10:05:33.196.19-Jan-2020 5081.51 4213.51 82.07 5.00 109.41 2869.15
   10:05:33.396.19-Jan-2020 5081.51 4213.50 82.07 5.00 109.61 2869.15
   10:05:33.596.19-Jan-2020 5081.51 4213.51 82.07 5.00 109.81 2869.15
   10:05:33.796.19-Jan-2020 5081.51 4213.50 82.07 5.00 110.01 2869.15
   10:05:33.996.19-Jan-2020 5081.51 4213.50 82.07 5.00 110.21 2869.15
   10:05:34.196.19-Jan-2020 5081.51 4213.49 82.07 5.00 110.41 2869.15
   10:05:34.396.19-Jan-2020 5081.51 4213.51 82.07 5.00 110.61 2869.15
   10:05:34.596.19-Jan-2020 5081.51 4213.50 82.07 5.00 110.81 2869.15
   10:05:34.796.19-Jan-2020 5081.51 4213.50 82.07 5.00 111.01 2869.15
   10:05:34.996.19-Jan-2020 5081.51 4213.50 82.07 5.00 111.21 2869.15
   10:05:35.196.19-Jan-2020 5081.51 4213.49 82.07 5.00 111.41 2869.15
   10:05:35.396.19-Jan-2020 5081.51 4213.51 82.07 5.00 111.61 2869.15
   10:05:35.596.19-Jan-2020 5081.51 4213.31 82.07 5.00 111.81 2869.15
   10:05:35.796.19-Jan-2020 5081.51 4213.64 82.07 5.00 112.01 2869.15
   10:05:35.996.19-Jan-2020 5081.51 4213.64 82.07 5.00 112.21 2869.15
   10:05:36.196.19-Jan-2020 5081.51 4213.50 82.07 5.00 112.41 2869.15
   10:05:36.396.19-Jan-2020 5081.51 4213.54 82.06 5.00 112.61 2869.15
   10:05:36.596.19-Jan-2020 5081.51 4213.31 82.06 5.00 112.81 2869.15
   10:05:36.796.19-Jan-2020 5081.51 4213.67 82.06 5.00 113.01 2869.15
   10:05:36.996.19-Jan-2020 5081.51 4213.67 82.06 5.00 113.21 2869.15
   10:05:37.196.19-Jan-2020 5081.51 4213.50 82.06 5.00 113.41 2869.15
   10:05:37.396.19-Jan-2020 5081.51 4213.55 82.06 5.00 113.61 2869.15
   10:05:37.596.19-Jan-2020 5081.51 4213.52 82.06 5.00 113.81 2869.15
   10:05:37.796.19-Jan-2020 5081.51 4213.52 82.06 5.00 114.01 2869.15
   10:05:37.996.19-Jan-2020 5081.51 4213.52 82.06 5.00 114.21 2869.15
   10:05:38.196.19-Jan-2020 5081.51 4213.42 82.06 5.00 114.41 2869.15
   10:05:38.396.19-Jan-2020 5081.51 4213.56 82.06 5.00 114.61 2869.15
   10:05:38.597.19-Jan-2020 5081.51 4213.49 82.06 5.00 114.81 2869.15
