~Version Information
 VERS.                  2.0:   CWLS log ASCII Standard -VERSION 2.0
 WRAP.                   NO:   One line per depth step
~Well Information Block
#MNEM.UNIT     VALUE/NAME     DESCRIPTION
#---------     -----------    ---------------------------
 STRT.S             10:03:43 19-Jan-20: START TIME 10:03:43 19-Jan-20
 STOP.S             10:11:36 19-Jan-20: STOP TIME  10:11:36 19-Jan-20
 STEP.S                   0.00: STEP TIME
 NULL.                 -999.25: NULL VALUE
 DFWT.                        :  DIST FWL TEXT
 DFST.                        :  DIST FSL TEXT
 DMF .             Drill Floor:  DRILL MEAS FROM
 STIM.      17.57.20 21-Dec-19:  START TIME
 DATE.      17.57.20 21-Dec-19:  END TIME
 SPUD.               21-Dec-19:  SPUD DATE
 NREF.                    Grid:  NORTH REFERENCE
 HPTY.       Minimum Curvature:  HOLE POS TYPE
 DMOD.             Drill Model:  DRILL MOD DESC
 SVYD.                  Survey:  SURVEY DESC
 ILTD.               Lithology:  INTERP LTH DESC
 FTOP.          Formation Tops:  FORM TOPS DESC
 PDAT.          Mean Sea Level:  PERMANENT DATUM
 FLD .                     ACG:  FIELD NAME
 SON .        AZ-XX-0905715376:  JOB NUMBER
 CTRY.              Azerbaijan:  COUNTRY NAME
 WELL.                    E04Y:  WELL NAME
 SRVC.          TURAN DRILLING:  CONTRACTOR
 COMP.     BP Exploration (Caspian Sea) Ltd.:  COMPANY
 WTYP.                Deviated:  WELL TYPE
 UWI .                     N/a:  UNIQUE WELL IDENTIFIER
 API .                     N/a:  API NUMBER
 BASE.              Azerbaijan:  LOGGING EQUIPMENT BASE LOCATION
 REGN.                   EESSA:  REGION
 MWDS.                    Baku:  MWD SHOP
 RIG .                     DWG:  RIG NAME
 DOE .                     N/a:  DOE NUMBER
 CNTY.                    Baku:  COUNTY NAME
 DCON.         Sperry Drilling:  DIRECTNL CONTR
 UNIT.                     N/a:  LOGGING EQUIPMENT ID
 MDS .        Operator Entered:  MAG DATA SOURCE
 PROV.                        :  PROVINCE
 STAT.                        :  STATE
 LOC .                        :  LOCATION
 LMF .             Drill Floor:  LOG MEASURED FROM
 TVDS.m                  43.16:  TVDSS CORRECTN
 LATI.deg                40.17:  LATITUDE
 LONG.deg                51.17:  LONGITUDE
 WHNS.m                  -0.12:  WELL HEAD N/S
 WHEW.m                  -5.41:  WELL HEAD E/W
 UTMX.m              514337.95:  UTM X
 UTMY.m             4448627.46:  UTM Y
 DFWL.m                   0.00:  DISTANCE FWL
 DFSL.m                   0.00:  DISTANCE FSL
 SDEP.m                   0.00:  START DEPTH
 TDD .m                   0.00:  TOTAL DEPTH (DRILLER)
 VSDR.deg               235.12:  VERT SEC DIRECT
 GVFD.g                   1.00:  GRAVITY FIELD
 MFLD.nT              50294.00:  MAGNETIC FIELD
 MDIP.deg                59.61:  MAGNETIC DIP
 MDEC.deg                 6.58:  MAGNETIC DECL
 GRDC.deg                 0.09:  GRID CORRECTION
 AZTC.deg                 6.49:  AZM TOTAL CORR
 EPD .m                   0.00:  ELEVATION
 EGL .m                   0.00:  GROUND ELEVATION
 WDMS.m                 176.20:  WD ELEV
 APD .m                  43.16:  DEPTH ABOVE PD
 DEP .m                3172.61:  DEPTH
 AGAP.m                  43.16:  AIR GAP
 VSEW.m                  -5.41:  VERT SEC E/W
 VSNS.m                  -0.12:  VERT SEC N/S
 EKB .m                  43.16:  KB ELEVATION
 EDF .m                  43.16:  DF ELEVATION
 TDL .m                 295.00:  TOTAL DEPTH (LOGGER)
 VSC .                       0:  VS TO CLOSURE
 MAGU.                 1852276:  MAGUTM CHECKSUM
~Parameter Information Block
#MNEM.UNIT       Value        Description
#---------     -----------    ---------------------------
 AV  .mps                 1.60:  Ann Velocity 
 AVMX.mps                 2.10:  Max Ann Veloc 
 AZIF.deg               290.59:  Azm, Final 
 BHAT.        Rotary Steerable:  BHA Type 
 BROT.°/30m               1.00:  Build Rotating 
 BS  .in                  6.50:  Bit Size 
 BSZ .in                  6.50:  Bit Size 
 BTPL.psig              120.00:  Bit Press Loss 
 CABU.                     Yes:  Customer Abuse 
 CGEO.          Eldar Huseynov:  Customer Geo 
 COMM.                     Œòk:  Run Comments 1 
 TCS .hr                 87.00:  Time Ciculation Ended 
 CV  .mps                 4.01:  Crit Velocity 
 CVMX.mps                 5.06:  Max Crit Veloc 
 DD1 .             Aziz Aliyev:  Direct Drillr 1 
 DD2 .            Sanan Aliyev:  Direct Drillr 2 
 DDSV.               Geo-Pilot:  DD Service 
 DEFF.%                  95.00:  % Det Eff 
 DLRX.°/30m               0.75:  Dogleg Rot Max 
 DLSO.°/30m               0.65:  Dogleg Oriented 
 DLSX.°/30m               1.39:  Dogleg Str Max 
 DRET.      18.25.00 19-Jan-20:  Drill End Time 
 DRST.      11.56.48 17-Jan-20:  Drill Start Tim 
 DTIM.hr                 27.16:  Time Drilling 
 EDEP.m                5161.01:  End Depth 
 ENG1.          Rasim Hashimov:  Engineer 1 
 ENG2.      Bakhtiyar Jabbarli:  Engineer 2 
 ETIM.      11.56.48 21-Jan-20:  End Time 
 FLOI.gpm               350.00:  Flow In 
 FLON.gpm               300.00:  Flow In Min 
 FLOS.cptm                0.00:  Fluid Loss 
 FLOX.gpm               400.00:  Flow In Max 
 HFLO.                      No:  High Flow 
 HPRE.                      No:  High Pressure 
 HTEM.                      No:  High Temp 
 HYDO.m                   1.85:  Hydro Offset 
 IFIN.deg                71.58:  Inc, Final 
 IMAX.deg                71.83:  Inc Max 
 IMIN.deg                71.12:  Inc Min 
 IMND.m                5099.48:  Inc Min Depth 
 IMXD.m                5071.08:  Inc Max Depth 
 JARR.                      No:  Jarring 
 LETM.      18.25.00 19-Jan-20:  Log End Time 
 LOST.hr                     0:  Lost Rig Time 
 LSTM.      11.56.48 17-Jan-20:  Log Start Time 
 MDCL.ppm             37000.00:  Mud Chlorides 
 MDES.     Inversion Oil/Synthetic:  Mud Desc 
 DFD .sg                  1.34:  Mud Density 
 MDMN.sg                  1.34:  Dens Mud Min 
 MDMX.sg                  1.34:  Dens Mud Max 
 MOIL.                      69:  Run Mud Oil % 
 MOWR.                   69:31:  Run Mud OWR 
 MSND.                     0.1:  Run Mud Sand % 
 MSOL.                    17.6:  Run Mud Solids% 
 DFV .spqt               79.00:  Mud Viscosity 
 MWOD.in                  4.75:  MWD Tool OD 
 MWSI.                      No:  Serv Intrp, MWD 
 OTIM.hr                126.10:  Time Operating 
 PMAX.psia             6000.00:  Press Op, Max 
 PV  .cP                 29.00:  Mud PV 
 RUN .                     400:  Run Number 
 ROPA.m/hr               11.00:  ROP Avg 
 ROPN.m/hr                5.00:  ROP Min 
 ROPX.m/hr               18.00:  ROP Max 
 RPMA.rpm               139.00:  RPM Surface Avg 
 RPMN.rpm               100.00:  RPM Surface Min 
 RPMX.rpm               140.00:  RPM Surface Max 
 RRUN.                     400:  Rig Run Number 
 SAZI.deg               290.22:  Azm, Start 
 SDEP.m                4868.01:  Start Depth 
 SIDD.                      No:  Serv Intrp, DD 
 SINC.deg                71.77:  Inc, Start 
 SPPA.psig             5550.00:  SPP Avg 
 SPPN.psig             4300.00:  SPP Min 
 SPPX.psig             5600.00:  SPP Max 
 STIM.      23.45.48 15-Jan-20:  Start Time 
 SVCS.                 DD, MWD:  Services 
 SVER.                    9.20:  Sperry Version 
 TDAT.m                5161.01:  Tot Depth Attmp 
 TDDF.                      No:  Trip for DD 
 TDLG.m                 295.00:  Tot Depth Loggd 
 TFF .                      No:  Trip for Fail 
 TQAA.f-kp               13.00:  Torque Abs Avg 
 TQAN.f-kp               13.00:  Torque Abs Min 
 TQAX.f-kp               16.00:  Torque Abs Max 
 TRRT.°/30m               0.25:  Turn Rotating 
 MRT .                     ADR:  Maximum Recorded Temperature 
 TTMX.degC               88.00:  Max Tool Temp 
 VS01.                90577859:  Virtual Str1 SN 
 VS02.                90521879:  Virtual Str2 SN 
 VS03.                90580299:  Virtual Str3 SN 
 VS04.                90515982:  Virtual Str4 SN 
 VS05.                90547765:  Virtual Str5 SN 
 WBMN.klb                 2.00:  WOB Min 
 WITN.           Adil Mammadov:  Customer Rep 
 WITN.        Elmaddin Rahimov:  Customer Rep 2 
 WOBA.klb                 3.00:  WOB Avg 
 WOBX.klb                 5.00:  WOB Max 
 YP  .lhf2               30.00:  Yield Point 
~Curve Information Block
#MNEM.UNIT                 API CODE     Curve Description
#---------               -----------    ---------------------------
 TIME.HHMMSS            00 000 000 000:  GT Time & Date
 GTDEPTH.m              00 000 000 000:  GT Depth
 GTPQH.psia             00 000 000 000:  GT HR Quartz Pressure
 GTTQ.degC              00 000 000 000:  GT Quartz Temperature
 GTTN.NONE              00 000 000 000:  GT Test Number
 GTET.sec               00 000 000 000:  GT Elapsed Test Time
 GTTVD.m                00 000 000 000:  GT True Vertical Depth
#Other Information
#
#WARRANTY: Halliburton will use its best efforts to furnish customers with 
#accurate information and interpretations that are part of, and incident to, the services 
#provided.  However, Halliburton cannot and does not warrant the accuracy 
#or correctness of such information and interpretations.  Under no circumstances should any 
#such information or interpretation be relied upon as the sole basis for any drilling, 
#completion, production, or financial decision or any procedure involving any risk to the 
#safety of any drilling venture, drilling rig or its crew or any other third party.  The 
#Customer has full responsibility for all drilling, completion and production operation.  
#Halliburton makes no representations or warranties, either expressed or 
#implied, including, but not limited to, the implied warranties of merchantability or fitness 
#for a particular purpose, with respect to the services rendered.  In no event will 
#Halliburton be liable for failure to obtain any particular results or for 
#any damages, including, but not limited to, indirect, special or consequential damages, 
#resulting from the use of any information or interpretation provided by Halliburton.
#
~A           TIME           GTDEPTH  GTPQH  GTTQ  GTTN  GTET   GTTVD  
# ...
   10:09:51.828.19-Jan-2020 5081.51 4213.99 81.56 5.00 368.05 2869.15
   10:09:52.029.19-Jan-2020 5081.51 4213.99 81.56 5.00 368.25 2869.15
   10:09:52.229.19-Jan-2020 5081.51 4213.98 81.56 5.00 368.45 2869.15
   10:09:52.429.19-Jan-2020 5081.51 4213.92 81.56 5.00 368.65 2869.15
   10:09:52.629.19-Jan-2020 5081.51 4213.98 81.56 5.00 368.85 2869.15
   10:09:52.829.19-Jan-2020 5081.51 4214.02 81.56 5.00 369.05 2869.15
   10:09:53.029.19-Jan-2020 5081.51 4214.02 81.56 5.00 369.25 2869.15
   10:09:53.229.19-Jan-2020 5081.51 4214.06 81.56 5.00 369.45 2869.15
   10:09:53.429.19-Jan-2020 5081.51 4213.98 81.56 5.00 369.65 2869.15
   10:09:53.629.19-Jan-2020 5081.51 4213.89 81.56 5.00 369.85 2869.15
   10:09:53.829.19-Jan-2020 5081.51 4214.04 81.56 5.00 370.05 2869.15
   10:09:54.029.19-Jan-2020 5081.51 4214.04 81.56 5.00 370.25 2869.15
   10:09:54.229.19-Jan-2020 5081.51 4214.05 81.56 5.00 370.45 2869.15
   10:09:54.429.19-Jan-2020 5081.51 4214.01 81.56 5.00 370.65 2869.15
   10:09:54.629.19-Jan-2020 5081.51 4214.01 81.56 5.00 370.85 2869.15
   10:09:54.829.19-Jan-2020 5081.51 4213.98 81.56 5.00 371.05 2869.15
   10:09:55.029.19-Jan-2020 5081.51 4213.98 81.56 5.00 371.25 2869.15
   10:09:55.229.19-Jan-2020 5081.51 4213.98 81.56 5.00 371.45 2869.15
   10:09:55.429.19-Jan-2020 5081.51 4214.01 81.56 5.00 371.65 2869.15
   10:09:55.629.19-Jan-2020 5081.51 4214.01 81.56 5.00 371.85 2869.15
   10:09:55.829.19-Jan-2020 5081.51 4213.99 81.56 5.00 372.05 2869.15
   10:09:56.029.19-Jan-2020 5081.51 4213.99 81.56 5.00 372.25 2869.15
   10:09:56.229.19-Jan-2020 5081.51 4213.99 81.56 5.00 372.45 2869.15
   10:09:56.429.19-Jan-2020 5081.51 4213.98 81.56 5.00 372.65 2869.15
   10:09:56.629.19-Jan-2020 5081.51 4213.98 81.56 5.00 372.85 2869.15
   10:09:56.829.19-Jan-2020 5081.51 4213.91 81.55 5.00 373.05 2869.15
   10:09:57.029.19-Jan-2020 5081.51 4213.91 81.55 5.00 373.25 2869.15
   10:09:57.229.19-Jan-2020 5081.51 4213.97 81.55 5.00 373.45 2869.15
   10:09:57.429.19-Jan-2020 5081.51 4214.06 81.55 5.00 373.65 2869.15
   10:09:57.629.19-Jan-2020 5081.51 4214.04 81.55 5.00 373.85 2869.15
   10:09:57.829.19-Jan-2020 5081.51 4213.99 81.55 5.00 374.05 2869.15
   10:09:58.029.19-Jan-2020 5081.51 4213.99 81.55 5.00 374.25 2869.15
   10:09:58.229.19-Jan-2020 5081.51 4214.00 81.55 5.00 374.45 2869.15
   10:09:58.429.19-Jan-2020 5081.51 4214.00 81.55 5.00 374.65 2869.15
   10:09:58.629.19-Jan-2020 5081.51 4214.01 81.55 5.00 374.85 2869.15
   10:09:58.829.19-Jan-2020 5081.51 4214.00 81.55 5.00 375.05 2869.15
   10:09:59.029.19-Jan-2020 5081.51 4214.00 81.55 5.00 375.25 2869.15
   10:09:59.229.19-Jan-2020 5081.51 4213.99 81.55 5.00 375.45 2869.15
   10:09:59.429.19-Jan-2020 5081.51 4214.00 81.55 5.00 375.65 2869.15
   10:09:59.629.19-Jan-2020 5081.51 4213.99 81.55 5.00 375.85 2869.15
   10:09:59.829.19-Jan-2020 5081.51 4214.01 81.55 5.00 376.05 2869.15
   10:10:00.030.19-Jan-2020 5081.51 4214.01 81.55 5.00 376.25 2869.15
   10:10:00.230.19-Jan-2020 5081.51 4213.92 81.55 5.00 376.45 2869.15
   10:10:00.430.19-Jan-2020 5081.51 4214.04 81.55 5.00 376.65 2869.15
   10:10:00.630.19-Jan-2020 5081.51 4213.98 81.55 5.00 376.85 2869.15
   10:10:00.830.19-Jan-2020 5081.51 4214.06 81.55 5.00 377.05 2869.15
   10:10:01.030.19-Jan-2020 5081.51 4214.06 81.55 5.00 377.25 2869.15
   10:10:01.230.19-Jan-2020 5081.51 4213.92 81.55 5.00 377.45 2869.15
   10:10:01.430.19-Jan-2020 5081.51 4214.07 81.55 5.00 377.65 2869.15
   10:10:01.630.19-Jan-2020 5081.51 4213.99 81.55 5.00 377.85 2869.15
   10:10:01.830.19-Jan-2020 5081.51 4214.08 81.55 5.00 378.05 2869.15
   10:10:02.030.19-Jan-2020 5081.51 4214.08 81.55 5.00 378.25 2869.15
   10:10:02.230.19-Jan-2020 5081.51 4214.01 81.55 5.00 378.45 2869.15
   10:10:02.430.19-Jan-2020 5081.51 4214.06 81.54 5.00 378.65 2869.15
   10:10:02.630.19-Jan-2020 5081.51 4213.95 81.54 5.00 378.85 2869.15
   10:10:02.830.19-Jan-2020 5081.51 4214.03 81.54 5.00 379.05 2869.15
   10:10:03.030.19-Jan-2020 5081.51 4214.03 81.54 5.00 379.25 2869.15
   10:10:03.230.19-Jan-2020 5081.51 4213.98 81.54 5.00 379.45 2869.15
   10:10:03.430.19-Jan-2020 5081.51 4214.10 81.54 5.00 379.65 2869.15
   10:10:03.630.19-Jan-2020 5081.51 4214.05 81.54 5.00 379.85 2869.15
   10:10:03.830.19-Jan-2020 5081.51 4213.92 81.54 5.00 380.05 2869.15
   10:10:04.030.19-Jan-2020 5081.51 4213.92 81.54 5.00 380.25 2869.15
   10:10:04.230.19-Jan-2020 5081.51 4214.02 81.54 5.00 380.45 2869.15
   10:10:04.430.19-Jan-2020 5081.51 4214.10 81.54 5.00 380.65 2869.15
   10:10:04.630.19-Jan-2020 5081.51 4214.07 81.54 5.00 380.85 2869.15
   10:10:04.830.19-Jan-2020 5081.51 4214.03 81.54 5.00 381.05 2869.15
   10:10:05.030.19-Jan-2020 5081.51 4214.03 81.54 5.00 381.25 2869.15
   10:10:05.230.19-Jan-2020 5081.51 4214.05 81.54 5.00 381.45 2869.15
   10:10:05.430.19-Jan-2020 5081.51 4214.05 81.54 5.00 381.65 2869.15
   10:10:05.630.19-Jan-2020 5081.51 4214.03 81.54 5.00 381.85 2869.15
   10:10:05.830.19-Jan-2020 5081.51 4214.05 81.54 5.00 382.05 2869.15
   10:10:06.030.19-Jan-2020 5081.51 4214.05 81.54 5.00 382.25 2869.15
   10:10:06.230.19-Jan-2020 5081.51 4214.03 81.54 5.00 382.45 2869.15
   10:10:06.430.19-Jan-2020 5081.51 4214.05 81.54 5.00 382.65 2869.15
   10:10:06.630.19-Jan-2020 5081.51 4214.03 81.54 5.00 382.85 2869.15
   10:10:06.830.19-Jan-2020 5081.51 4214.03 81.54 5.00 383.05 2869.15
   10:10:07.030.19-Jan-2020 5081.51 4214.03 81.54 5.00 383.25 2869.15
   10:10:07.230.19-Jan-2020 5081.51 4214.08 81.54 5.00 383.45 2869.15
   10:10:07.430.19-Jan-2020 5081.51 4213.99 81.54 5.00 383.65 2869.15
   10:10:07.630.19-Jan-2020 5081.51 4214.11 81.54 5.00 383.85 2869.15
   10:10:07.830.19-Jan-2020 5081.51 4214.08 81.54 5.00 384.05 2869.15
   10:10:08.031.19-Jan-2020 5081.51 4214.08 81.54 5.00 384.25 2869.15
   10:10:08.231.19-Jan-2020 5081.51 4214.05 81.53 5.00 384.45 2869.15
   10:10:08.431.19-Jan-2020 5081.51 4214.05 81.53 5.00 384.65 2869.15
   10:10:08.631.19-Jan-2020 5081.51 4214.05 81.53 5.00 384.85 2869.15
   10:10:08.831.19-Jan-2020 5081.51 4214.05 81.53 5.00 385.05 2869.15
   10:10:09.031.19-Jan-2020 5081.51 4214.05 81.53 5.00 385.25 2869.15
   10:10:09.231.19-Jan-2020 5081.51 4214.02 81.53 5.00 385.45 2869.15
   10:10:09.431.19-Jan-2020 5081.51 4214.07 81.53 5.00 385.65 2869.15
   10:10:09.631.19-Jan-2020 5081.51 4214.02 81.53 5.00 385.85 2869.15
   10:10:09.831.19-Jan-2020 5081.51 4214.05 81.53 5.00 386.05 2869.15
   10:10:10.031.19-Jan-2020 5081.51 4214.05 81.53 5.00 386.25 2869.15
   10:10:10.231.19-Jan-2020 5081.51 4214.04 81.53 5.00 386.45 2869.15
   10:10:10.431.19-Jan-2020 5081.51 4213.96 81.53 5.00 386.65 2869.15
   10:10:10.631.19-Jan-2020 5081.51 4214.09 81.53 5.00 386.85 2869.15
   10:10:10.831.19-Jan-2020 5081.51 4214.02 81.53 5.00 387.05 2869.15
   10:10:11.031.19-Jan-2020 5081.51 4214.02 81.53 5.00 387.25 2869.15
   10:10:11.231.19-Jan-2020 5081.51 4214.07 81.53 5.00 387.45 2869.15
   10:10:11.431.19-Jan-2020 5081.51 4213.84 81.53 5.00 387.65 2869.15
   10:10:11.631.19-Jan-2020 5081.51 4214.22 81.53 5.00 387.85 2869.15
   10:10:11.831.19-Jan-2020 5081.51 4214.09 81.53 5.00 388.05 2869.15
   10:10:12.031.19-Jan-2020 5081.51 4214.09 81.53 5.00 388.25 2869.15
   10:10:12.231.19-Jan-2020 5081.51 4214.10 81.53 5.00 388.45 2869.15
   10:10:12.431.19-Jan-2020 5081.51 4214.10 81.53 5.00 388.65 2869.15
   10:10:12.631.19-Jan-2020 5081.51 4214.06 81.53 5.00 388.85 2869.15
   10:10:12.831.19-Jan-2020 5081.51 4214.03 81.53 5.00 389.05 2869.15
   10:10:13.031.19-Jan-2020 5081.51 4214.03 81.53 5.00 389.25 2869.15
   10:10:13.231.19-Jan-2020 5081.51 4214.11 81.53 5.00 389.45 2869.15
   10:10:13.431.19-Jan-2020 5081.51 4214.02 81.53 5.00 389.65 2869.15
   10:10:13.631.19-Jan-2020 5081.51 4214.14 81.52 5.00 389.85 2869.15
   10:10:13.831.19-Jan-2020 5081.51 4213.84 81.52 5.00 390.05 2869.15
   10:10:14.031.19-Jan-2020 5081.51 4213.84 81.52 5.00 390.25 2869.15
   10:10:14.231.19-Jan-2020 5081.51 4214.14 81.52 5.00 390.45 2869.15
   10:10:14.431.19-Jan-2020 5081.51 4214.06 81.52 5.00 390.65 2869.15
   10:10:14.631.19-Jan-2020 5081.51 4214.14 81.52 5.00 390.85 2869.15
