~Version Information
 VERS.                  2.0:   CWLS log ASCII Standard -VERSION 2.0
 WRAP.                   NO:   One line per depth step
~Well Information Block
#MNEM.UNIT     VALUE/NAME     DESCRIPTION
#---------     -----------    ---------------------------
 STRT.S             10:27:46 18-Jan-20: START TIME 10:27:46 18-Jan-20
 STOP.S             10:35:37 18-Jan-20: STOP TIME  10:35:37 18-Jan-20
 STEP.S                   0.00: STEP TIME
 NULL.                 -999.25: NULL VALUE
 DFWT.                        :  DIST FWL TEXT
 DFST.                        :  DIST FSL TEXT
 DMF .             Drill Floor:  DRILL MEAS FROM
 STIM.      17.57.20 21-Dec-19:  START TIME
 DATE.      17.57.20 21-Dec-19:  END TIME
 SPUD.               21-Dec-19:  SPUD DATE
 NREF.                    Grid:  NORTH REFERENCE
 HPTY.       Minimum Curvature:  HOLE POS TYPE
 DMOD.             Drill Model:  DRILL MOD DESC
 SVYD.                  Survey:  SURVEY DESC
 ILTD.               Lithology:  INTERP LTH DESC
 FTOP.          Formation Tops:  FORM TOPS DESC
 PDAT.          Mean Sea Level:  PERMANENT DATUM
 FLD .                     ACG:  FIELD NAME
 SON .        AZ-XX-0905715376:  JOB NUMBER
 CTRY.              Azerbaijan:  COUNTRY NAME
 WELL.                    E04Y:  WELL NAME
 SRVC.          TURAN DRILLING:  CONTRACTOR
 COMP.     BP Exploration (Caspian Sea) Ltd.:  COMPANY
 WTYP.                Deviated:  WELL TYPE
 UWI .                     N/a:  UNIQUE WELL IDENTIFIER
 API .                     N/a:  API NUMBER
 BASE.              Azerbaijan:  LOGGING EQUIPMENT BASE LOCATION
 REGN.                   EESSA:  REGION
 MWDS.                    Baku:  MWD SHOP
 RIG .                     DWG:  RIG NAME
 DOE .                     N/a:  DOE NUMBER
 CNTY.                    Baku:  COUNTY NAME
 DCON.         Sperry Drilling:  DIRECTNL CONTR
 UNIT.                     N/a:  LOGGING EQUIPMENT ID
 MDS .        Operator Entered:  MAG DATA SOURCE
 PROV.                        :  PROVINCE
 STAT.                        :  STATE
 LOC .                        :  LOCATION
 LMF .             Drill Floor:  LOG MEASURED FROM
 TVDS.m                  43.16:  TVDSS CORRECTN
 LATI.deg                40.17:  LATITUDE
 LONG.deg                51.17:  LONGITUDE
 WHNS.m                  -0.12:  WELL HEAD N/S
 WHEW.m                  -5.41:  WELL HEAD E/W
 UTMX.m              514337.95:  UTM X
 UTMY.m             4448627.46:  UTM Y
 DFWL.m                   0.00:  DISTANCE FWL
 DFSL.m                   0.00:  DISTANCE FSL
 SDEP.m                   0.00:  START DEPTH
 TDD .m                   0.00:  TOTAL DEPTH (DRILLER)
 VSDR.deg               235.12:  VERT SEC DIRECT
 GVFD.g                   1.00:  GRAVITY FIELD
 MFLD.nT              50294.00:  MAGNETIC FIELD
 MDIP.deg                59.61:  MAGNETIC DIP
 MDEC.deg                 6.58:  MAGNETIC DECL
 GRDC.deg                 0.09:  GRID CORRECTION
 AZTC.deg                 6.49:  AZM TOTAL CORR
 EPD .m                   0.00:  ELEVATION
 EGL .m                   0.00:  GROUND ELEVATION
 WDMS.m                 176.20:  WD ELEV
 APD .m                  43.16:  DEPTH ABOVE PD
 DEP .m                3172.61:  DEPTH
 AGAP.m                  43.16:  AIR GAP
 VSEW.m                  -5.41:  VERT SEC E/W
 VSNS.m                  -0.12:  VERT SEC N/S
 EKB .m                  43.16:  KB ELEVATION
 EDF .m                  43.16:  DF ELEVATION
 TDL .m                 295.00:  TOTAL DEPTH (LOGGER)
 VSC .                       0:  VS TO CLOSURE
 MAGU.                 1852276:  MAGUTM CHECKSUM
~Parameter Information Block
#MNEM.UNIT       Value        Description
#---------     -----------    ---------------------------
 AV  .mps                 1.60:  Ann Velocity 
 AVMX.mps                 2.10:  Max Ann Veloc 
 AZIF.deg               290.59:  Azm, Final 
 BHAT.        Rotary Steerable:  BHA Type 
 BROT.°/30m               1.00:  Build Rotating 
 BS  .in                  6.50:  Bit Size 
 BSZ .in                  6.50:  Bit Size 
 BTPL.psig              120.00:  Bit Press Loss 
 CABU.                     Yes:  Customer Abuse 
 CGEO.          Eldar Huseynov:  Customer Geo 
 COMM.                     ¬Øj:  Run Comments 1 
 TCS .hr                 87.00:  Time Ciculation Ended 
 CV  .mps                 4.01:  Crit Velocity 
 CVMX.mps                 5.06:  Max Crit Veloc 
 DD1 .             Aziz Aliyev:  Direct Drillr 1 
 DD2 .            Sanan Aliyev:  Direct Drillr 2 
 DDSV.               Geo-Pilot:  DD Service 
 DEFF.%                  95.00:  % Det Eff 
 DLRX.°/30m               0.75:  Dogleg Rot Max 
 DLSO.°/30m               0.65:  Dogleg Oriented 
 DLSX.°/30m               1.39:  Dogleg Str Max 
 DRET.      18.25.00 19-Jan-20:  Drill End Time 
 DRST.      11.56.48 17-Jan-20:  Drill Start Tim 
 DTIM.hr                 27.16:  Time Drilling 
 EDEP.m                5161.01:  End Depth 
 ENG1.          Rasim Hashimov:  Engineer 1 
 ENG2.      Bakhtiyar Jabbarli:  Engineer 2 
 ETIM.      11.56.48 21-Jan-20:  End Time 
 FLOI.gpm               350.00:  Flow In 
 FLON.gpm               300.00:  Flow In Min 
 FLOS.cptm                0.00:  Fluid Loss 
 FLOX.gpm               400.00:  Flow In Max 
 HFLO.                      No:  High Flow 
 HPRE.                      No:  High Pressure 
 HTEM.                      No:  High Temp 
 HYDO.m                   1.85:  Hydro Offset 
 IFIN.deg                71.58:  Inc, Final 
 IMAX.deg                71.83:  Inc Max 
 IMIN.deg                71.12:  Inc Min 
 IMND.m                5099.48:  Inc Min Depth 
 IMXD.m                5071.08:  Inc Max Depth 
 JARR.                      No:  Jarring 
 LETM.      18.25.00 19-Jan-20:  Log End Time 
 LOST.hr                     0:  Lost Rig Time 
 LSTM.      11.56.48 17-Jan-20:  Log Start Time 
 MDCL.ppm             37000.00:  Mud Chlorides 
 MDES.     Inversion Oil/Synthetic:  Mud Desc 
 DFD .sg                  1.34:  Mud Density 
 MDMN.sg                  1.34:  Dens Mud Min 
 MDMX.sg                  1.34:  Dens Mud Max 
 MOIL.                      69:  Run Mud Oil % 
 MOWR.                   69:31:  Run Mud OWR 
 MSND.                     0.1:  Run Mud Sand % 
 MSOL.                    17.6:  Run Mud Solids% 
 DFV .spqt               79.00:  Mud Viscosity 
 MWOD.in                  4.75:  MWD Tool OD 
 MWSI.                      No:  Serv Intrp, MWD 
 OTIM.hr                126.10:  Time Operating 
 PMAX.psia             6000.00:  Press Op, Max 
 PV  .cP                 29.00:  Mud PV 
 RUN .                     400:  Run Number 
 ROPA.m/hr               11.00:  ROP Avg 
 ROPN.m/hr                5.00:  ROP Min 
 ROPX.m/hr               18.00:  ROP Max 
 RPMA.rpm               139.00:  RPM Surface Avg 
 RPMN.rpm               100.00:  RPM Surface Min 
 RPMX.rpm               140.00:  RPM Surface Max 
 RRUN.                     400:  Rig Run Number 
 SAZI.deg               290.22:  Azm, Start 
 SDEP.m                4868.01:  Start Depth 
 SIDD.                      No:  Serv Intrp, DD 
 SINC.deg                71.77:  Inc, Start 
 SPPA.psig             5550.00:  SPP Avg 
 SPPN.psig             4300.00:  SPP Min 
 SPPX.psig             5600.00:  SPP Max 
 STIM.      23.45.48 15-Jan-20:  Start Time 
 SVCS.                 DD, MWD:  Services 
 SVER.                    9.20:  Sperry Version 
 TDAT.m                5161.01:  Tot Depth Attmp 
 TDDF.                      No:  Trip for DD 
 TDLG.m                 295.00:  Tot Depth Loggd 
 TFF .                      No:  Trip for Fail 
 TQAA.f-kp               13.00:  Torque Abs Avg 
 TQAN.f-kp               13.00:  Torque Abs Min 
 TQAX.f-kp               16.00:  Torque Abs Max 
 TRRT.°/30m               0.25:  Turn Rotating 
 MRT .                     ADR:  Maximum Recorded Temperature 
 TTMX.degC               88.00:  Max Tool Temp 
 VS01.                90577859:  Virtual Str1 SN 
 VS02.                90521879:  Virtual Str2 SN 
 VS03.                90580299:  Virtual Str3 SN 
 VS04.                90515982:  Virtual Str4 SN 
 VS05.                90547765:  Virtual Str5 SN 
 WBMN.klb                 2.00:  WOB Min 
 WITN.           Adil Mammadov:  Customer Rep 
 WITN.        Elmaddin Rahimov:  Customer Rep 2 
 WOBA.klb                 3.00:  WOB Avg 
 WOBX.klb                 5.00:  WOB Max 
 YP  .lhf2               30.00:  Yield Point 
~Curve Information Block
#MNEM.UNIT                 API CODE     Curve Description
#---------               -----------    ---------------------------
 TIME.HHMMSS            00 000 000 000:  GT Time & Date
 GTDEPTH.m              00 000 000 000:  GT Depth
 GTPQH.psia             00 000 000 000:  GT HR Quartz Pressure
 GTTQ.degC              00 000 000 000:  GT Quartz Temperature
 GTTN.NONE              00 000 000 000:  GT Test Number
 GTET.sec               00 000 000 000:  GT Elapsed Test Time
 GTTVD.m                00 000 000 000:  GT True Vertical Depth
#Other Information
#
#WARRANTY: Halliburton will use its best efforts to furnish customers with 
#accurate information and interpretations that are part of, and incident to, the services 
#provided.  However, Halliburton cannot and does not warrant the accuracy 
#or correctness of such information and interpretations.  Under no circumstances should any 
#such information or interpretation be relied upon as the sole basis for any drilling, 
#completion, production, or financial decision or any procedure involving any risk to the 
#safety of any drilling venture, drilling rig or its crew or any other third party.  The 
#Customer has full responsibility for all drilling, completion and production operation.  
#Halliburton makes no representations or warranties, either expressed or 
#implied, including, but not limited to, the implied warranties of merchantability or fitness 
#for a particular purpose, with respect to the services rendered.  In no event will 
#Halliburton be liable for failure to obtain any particular results or for 
#any damages, including, but not limited to, indirect, special or consequential damages, 
#resulting from the use of any information or interpretation provided by Halliburton.
#
~A           TIME           GTDEPTH  GTPQH  GTTQ  GTTN  GTET   GTTVD  
# ...
   10:31:13.317.18-Jan-2020 4898.01 4078.75 73.35 1.00 207.03 2811.04
   10:31:13.517.18-Jan-2020 4898.01 4078.75 73.35 1.00 207.23 2811.04
   10:31:13.717.18-Jan-2020 4898.01 4078.72 73.35 1.00 207.43 2811.04
   10:31:13.917.18-Jan-2020 4898.01 4078.75 73.35 1.00 207.63 2811.04
   10:31:14.117.18-Jan-2020 4898.01 4078.72 73.35 1.00 207.83 2811.04
   10:31:14.317.18-Jan-2020 4898.01 4078.72 73.35 1.00 208.03 2811.04
   10:31:14.517.18-Jan-2020 4898.01 4078.72 73.35 1.00 208.23 2811.04
   10:31:14.717.18-Jan-2020 4898.01 4078.71 73.35 1.00 208.43 2811.04
   10:31:14.917.18-Jan-2020 4898.01 4078.73 73.35 1.00 208.63 2811.04
   10:31:15.117.18-Jan-2020 4898.01 4078.69 73.35 1.00 208.83 2811.04
   10:31:15.317.18-Jan-2020 4898.01 4078.72 73.35 1.00 209.03 2811.04
   10:31:15.517.18-Jan-2020 4898.01 4078.72 73.35 1.00 209.23 2811.04
   10:31:15.717.18-Jan-2020 4898.01 4078.71 73.35 1.00 209.43 2811.04
   10:31:15.917.18-Jan-2020 4898.01 4078.73 73.35 1.00 209.63 2811.04
   10:31:16.117.18-Jan-2020 4898.01 4078.68 73.35 1.00 209.83 2811.04
   10:31:16.317.18-Jan-2020 4898.01 4078.45 73.35 1.00 210.03 2811.04
   10:31:16.517.18-Jan-2020 4898.01 4078.45 73.35 1.00 210.23 2811.04
   10:31:16.717.18-Jan-2020 4898.01 4078.81 73.35 1.00 210.43 2811.04
   10:31:16.917.18-Jan-2020 4898.01 4078.76 73.35 1.00 210.63 2811.04
   10:31:17.117.18-Jan-2020 4898.01 4078.72 73.35 1.00 210.83 2811.04
   10:31:17.317.18-Jan-2020 4898.01 4078.76 73.35 1.00 211.03 2811.04
   10:31:17.517.18-Jan-2020 4898.01 4078.76 73.35 1.00 211.23 2811.04
   10:31:17.717.18-Jan-2020 4898.01 4078.72 73.35 1.00 211.43 2811.04
   10:31:17.917.18-Jan-2020 4898.01 4078.49 73.35 1.00 211.63 2811.04
   10:31:18.117.18-Jan-2020 4898.01 4078.79 73.35 1.00 211.83 2811.04
   10:31:18.317.18-Jan-2020 4898.01 4078.78 73.35 1.00 212.03 2811.04
   10:31:18.517.18-Jan-2020 4898.01 4078.78 73.35 1.00 212.23 2811.04
   10:31:18.717.18-Jan-2020 4898.01 4078.77 73.34 1.00 212.43 2811.04
   10:31:18.917.18-Jan-2020 4898.01 4078.73 73.34 1.00 212.63 2811.04
   10:31:19.117.18-Jan-2020 4898.01 4078.58 73.34 1.00 212.83 2811.04
   10:31:19.317.18-Jan-2020 4898.01 4078.72 73.34 1.00 213.03 2811.04
   10:31:19.517.18-Jan-2020 4898.01 4078.72 73.34 1.00 213.23 2811.04
   10:31:19.717.18-Jan-2020 4898.01 4078.78 73.34 1.00 213.43 2811.04
   10:31:19.917.18-Jan-2020 4898.01 4078.74 73.34 1.00 213.63 2811.04
   10:31:20.117.18-Jan-2020 4898.01 4078.76 73.34 1.00 213.83 2811.04
   10:31:20.317.18-Jan-2020 4898.01 4078.68 73.34 1.00 214.03 2811.04
   10:31:20.517.18-Jan-2020 4898.01 4078.68 73.34 1.00 214.23 2811.04
   10:31:20.717.18-Jan-2020 4898.01 4078.80 73.34 1.00 214.43 2811.04
   10:31:20.917.18-Jan-2020 4898.01 4078.73 73.34 1.00 214.63 2811.04
   10:31:21.117.18-Jan-2020 4898.01 4078.76 73.34 1.00 214.83 2811.04
   10:31:21.317.18-Jan-2020 4898.01 4078.72 73.34 1.00 215.03 2811.04
   10:31:21.518.18-Jan-2020 4898.01 4078.72 73.34 1.00 215.23 2811.04
   10:31:21.718.18-Jan-2020 4898.01 4078.73 73.34 1.00 215.43 2811.04
   10:31:21.918.18-Jan-2020 4898.01 4078.72 73.34 1.00 215.63 2811.04
   10:31:22.118.18-Jan-2020 4898.01 4078.74 73.34 1.00 215.83 2811.04
   10:31:22.318.18-Jan-2020 4898.01 4078.70 73.34 1.00 216.03 2811.04
   10:31:22.518.18-Jan-2020 4898.01 4078.70 73.34 1.00 216.23 2811.04
   10:31:22.718.18-Jan-2020 4898.01 4078.71 73.34 1.00 216.43 2811.04
   10:31:22.918.18-Jan-2020 4898.01 4078.73 73.34 1.00 216.63 2811.04
   10:31:23.118.18-Jan-2020 4898.01 4078.74 73.34 1.00 216.83 2811.04
   10:31:23.318.18-Jan-2020 4898.01 4078.71 73.34 1.00 217.03 2811.04
   10:31:23.518.18-Jan-2020 4898.01 4078.71 73.34 1.00 217.23 2811.04
   10:31:23.718.18-Jan-2020 4898.01 4078.53 73.34 1.00 217.43 2811.04
   10:31:23.918.18-Jan-2020 4898.01 4078.73 73.34 1.00 217.63 2811.04
   10:31:24.118.18-Jan-2020 4898.01 4078.75 73.34 1.00 217.83 2811.04
   10:31:24.318.18-Jan-2020 4898.01 4078.74 73.34 1.00 218.03 2811.04
   10:31:24.518.18-Jan-2020 4898.01 4078.74 73.34 1.00 218.23 2811.04
   10:31:24.718.18-Jan-2020 4898.01 4078.72 73.34 1.00 218.43 2811.04
   10:31:24.918.18-Jan-2020 4898.01 4078.74 73.34 1.00 218.63 2811.04
   10:31:25.118.18-Jan-2020 4898.01 4078.70 73.34 1.00 218.83 2811.04
   10:31:25.318.18-Jan-2020 4898.01 4078.73 73.34 1.00 219.03 2811.04
   10:31:25.518.18-Jan-2020 4898.01 4078.73 73.34 1.00 219.23 2811.04
   10:31:25.718.18-Jan-2020 4898.01 4078.71 73.34 1.00 219.43 2811.04
   10:31:25.918.18-Jan-2020 4898.01 4078.73 73.34 1.00 219.63 2811.04
   10:31:26.118.18-Jan-2020 4898.01 4078.70 73.33 1.00 219.83 2811.04
   10:31:26.318.18-Jan-2020 4898.01 4078.73 73.33 1.00 220.03 2811.04
   10:31:26.518.18-Jan-2020 4898.01 4078.73 73.33 1.00 220.23 2811.04
   10:31:26.718.18-Jan-2020 4898.01 4078.72 73.33 1.00 220.43 2811.04
   10:31:26.918.18-Jan-2020 4898.01 4078.72 73.33 1.00 220.63 2811.04
   10:31:27.118.18-Jan-2020 4898.01 4078.41 73.33 1.00 220.83 2811.04
   10:31:27.318.18-Jan-2020 4898.01 4078.85 73.33 1.00 221.03 2811.04
   10:31:27.518.18-Jan-2020 4898.01 4078.85 73.33 1.00 221.23 2811.04
   10:31:27.718.18-Jan-2020 4898.01 4078.77 73.33 1.00 221.43 2811.04
   10:31:27.918.18-Jan-2020 4898.01 4078.74 73.33 1.00 221.63 2811.04
   10:31:28.118.18-Jan-2020 4898.01 4078.74 73.33 1.00 221.83 2811.04
   10:31:28.318.18-Jan-2020 4898.01 4078.74 73.33 1.00 222.03 2811.04
   10:31:28.518.18-Jan-2020 4898.01 4078.74 73.33 1.00 222.23 2811.04
   10:31:28.718.18-Jan-2020 4898.01 4078.52 73.33 1.00 222.43 2811.04
   10:31:28.918.18-Jan-2020 4898.01 4078.78 73.33 1.00 222.63 2811.04
   10:31:29.118.18-Jan-2020 4898.01 4078.76 73.33 1.00 222.83 2811.04
   10:31:29.318.18-Jan-2020 4898.01 4078.77 73.33 1.00 223.03 2811.04
   10:31:29.518.18-Jan-2020 4898.01 4078.77 73.33 1.00 223.23 2811.04
   10:31:29.719.18-Jan-2020 4898.01 4078.77 73.33 1.00 223.43 2811.04
   10:31:29.919.18-Jan-2020 4898.01 4078.56 73.33 1.00 223.63 2811.04
   10:31:30.119.18-Jan-2020 4898.01 4078.72 73.33 1.00 223.83 2811.04
   10:31:30.319.18-Jan-2020 4898.01 4078.75 73.33 1.00 224.03 2811.04
   10:31:30.519.18-Jan-2020 4898.01 4078.75 73.33 1.00 224.23 2811.04
   10:31:30.719.18-Jan-2020 4898.01 4078.78 73.33 1.00 224.43 2811.04
   10:31:30.919.18-Jan-2020 4898.01 4078.73 73.33 1.00 224.63 2811.04
   10:31:31.119.18-Jan-2020 4898.01 4078.71 73.33 1.00 224.83 2811.04
   10:31:31.319.18-Jan-2020 4898.01 4078.55 73.33 1.00 225.03 2811.04
   10:31:31.519.18-Jan-2020 4898.01 4078.55 73.33 1.00 225.23 2811.04
   10:31:31.719.18-Jan-2020 4898.01 4078.75 73.33 1.00 225.43 2811.04
   10:31:31.919.18-Jan-2020 4898.01 4078.73 73.33 1.00 225.63 2811.04
   10:31:32.119.18-Jan-2020 4898.01 4078.76 73.33 1.00 225.83 2811.04
   10:31:32.319.18-Jan-2020 4898.01 4078.73 73.33 1.00 226.03 2811.04
   10:31:32.519.18-Jan-2020 4898.01 4078.73 73.33 1.00 226.23 2811.04
   10:31:32.719.18-Jan-2020 4898.01 4078.72 73.33 1.00 226.43 2811.04
   10:31:32.919.18-Jan-2020 4898.01 4078.72 73.33 1.00 226.63 2811.04
   10:31:33.119.18-Jan-2020 4898.01 4078.73 73.33 1.00 226.83 2811.04
   10:31:33.319.18-Jan-2020 4898.01 4078.70 73.33 1.00 227.03 2811.04
   10:31:33.519.18-Jan-2020 4898.01 4078.70 73.33 1.00 227.23 2811.04
   10:31:33.719.18-Jan-2020 4898.01 4078.71 73.32 1.00 227.43 2811.04
   10:31:33.919.18-Jan-2020 4898.01 4078.73 73.32 1.00 227.63 2811.04
   10:31:34.119.18-Jan-2020 4898.01 4078.72 73.32 1.00 227.83 2811.04
   10:31:34.319.18-Jan-2020 4898.01 4078.70 73.32 1.00 228.03 2811.04
   10:31:34.519.18-Jan-2020 4898.01 4078.70 73.32 1.00 228.23 2811.04
   10:31:34.719.18-Jan-2020 4898.01 4078.69 73.32 1.00 228.43 2811.04
   10:31:34.919.18-Jan-2020 4898.01 4078.78 73.32 1.00 228.63 2811.04
   10:31:35.119.18-Jan-2020 4898.01 4078.74 73.32 1.00 228.83 2811.04
   10:31:35.319.18-Jan-2020 4898.01 4078.75 73.32 1.00 229.03 2811.04
   10:31:35.519.18-Jan-2020 4898.01 4078.75 73.32 1.00 229.23 2811.04
   10:31:35.719.18-Jan-2020 4898.01 4078.71 73.32 1.00 229.43 2811.04
   10:31:35.919.18-Jan-2020 4898.01 4078.74 73.32 1.00 229.63 2811.04
   10:31:36.119.18-Jan-2020 4898.01 4078.69 73.32 1.00 229.83 2811.04
