~Version Information
 VERS.                  2.0:   CWLS log ASCII Standard -VERSION 2.0
 WRAP.                   NO:   One line per depth step
~Well Information Block
#MNEM.UNIT     VALUE/NAME     DESCRIPTION
#---------     -----------    ---------------------------
 STRT.S             10:03:43 19-Jan-20: START TIME 10:03:43 19-Jan-20
 STOP.S             10:11:36 19-Jan-20: STOP TIME  10:11:36 19-Jan-20
 STEP.S                   0.00: STEP TIME
 NULL.                 -999.25: NULL VALUE
 DFWT.                        :  DIST FWL TEXT
 DFST.                        :  DIST FSL TEXT
 DMF .             Drill Floor:  DRILL MEAS FROM
 STIM.      17.57.20 21-Dec-19:  START TIME
 DATE.      17.57.20 21-Dec-19:  END TIME
 SPUD.               21-Dec-19:  SPUD DATE
 NREF.                    Grid:  NORTH REFERENCE
 HPTY.       Minimum Curvature:  HOLE POS TYPE
 DMOD.             Drill Model:  DRILL MOD DESC
 SVYD.                  Survey:  SURVEY DESC
 ILTD.               Lithology:  INTERP LTH DESC
 FTOP.          Formation Tops:  FORM TOPS DESC
 PDAT.          Mean Sea Level:  PERMANENT DATUM
 FLD .                     ACG:  FIELD NAME
 SON .        AZ-XX-0905715376:  JOB NUMBER
 CTRY.              Azerbaijan:  COUNTRY NAME
 WELL.                    E04Y:  WELL NAME
 SRVC.          TURAN DRILLING:  CONTRACTOR
 COMP.     BP Exploration (Caspian Sea) Ltd.:  COMPANY
 WTYP.                Deviated:  WELL TYPE
 UWI .                     N/a:  UNIQUE WELL IDENTIFIER
 API .                     N/a:  API NUMBER
 BASE.              Azerbaijan:  LOGGING EQUIPMENT BASE LOCATION
 REGN.                   EESSA:  REGION
 MWDS.                    Baku:  MWD SHOP
 RIG .                     DWG:  RIG NAME
 DOE .                     N/a:  DOE NUMBER
 CNTY.                    Baku:  COUNTY NAME
 DCON.         Sperry Drilling:  DIRECTNL CONTR
 UNIT.                     N/a:  LOGGING EQUIPMENT ID
 MDS .        Operator Entered:  MAG DATA SOURCE
 PROV.                        :  PROVINCE
 STAT.                        :  STATE
 LOC .                        :  LOCATION
 LMF .             Drill Floor:  LOG MEASURED FROM
 TVDS.m                  43.16:  TVDSS CORRECTN
 LATI.deg                40.17:  LATITUDE
 LONG.deg                51.17:  LONGITUDE
 WHNS.m                  -0.12:  WELL HEAD N/S
 WHEW.m                  -5.41:  WELL HEAD E/W
 UTMX.m              514337.95:  UTM X
 UTMY.m             4448627.46:  UTM Y
 DFWL.m                   0.00:  DISTANCE FWL
 DFSL.m                   0.00:  DISTANCE FSL
 SDEP.m                   0.00:  START DEPTH
 TDD .m                   0.00:  TOTAL DEPTH (DRILLER)
 VSDR.deg               235.12:  VERT SEC DIRECT
 GVFD.g                   1.00:  GRAVITY FIELD
 MFLD.nT              50294.00:  MAGNETIC FIELD
 MDIP.deg                59.61:  MAGNETIC DIP
 MDEC.deg                 6.58:  MAGNETIC DECL
 GRDC.deg                 0.09:  GRID CORRECTION
 AZTC.deg                 6.49:  AZM TOTAL CORR
 EPD .m                   0.00:  ELEVATION
 EGL .m                   0.00:  GROUND ELEVATION
 WDMS.m                 176.20:  WD ELEV
 APD .m                  43.16:  DEPTH ABOVE PD
 DEP .m                3172.61:  DEPTH
 AGAP.m                  43.16:  AIR GAP
 VSEW.m                  -5.41:  VERT SEC E/W
 VSNS.m                  -0.12:  VERT SEC N/S
 EKB .m                  43.16:  KB ELEVATION
 EDF .m                  43.16:  DF ELEVATION
 TDL .m                 295.00:  TOTAL DEPTH (LOGGER)
 VSC .                       0:  VS TO CLOSURE
 MAGU.                 1852276:  MAGUTM CHECKSUM
~Parameter Information Block
#MNEM.UNIT       Value        Description
#---------     -----------    ---------------------------
 AV  .mps                 1.60:  Ann Velocity 
 AVMX.mps                 2.10:  Max Ann Veloc 
 AZIF.deg               290.59:  Azm, Final 
 BHAT.        Rotary Steerable:  BHA Type 
 BROT.°/30m               1.00:  Build Rotating 
 BS  .in                  6.50:  Bit Size 
 BSZ .in                  6.50:  Bit Size 
 BTPL.psig              120.00:  Bit Press Loss 
 CABU.                     Yes:  Customer Abuse 
 CGEO.          Eldar Huseynov:  Customer Geo 
 COMM.                     Œòk:  Run Comments 1 
 TCS .hr                 87.00:  Time Ciculation Ended 
 CV  .mps                 4.01:  Crit Velocity 
 CVMX.mps                 5.06:  Max Crit Veloc 
 DD1 .             Aziz Aliyev:  Direct Drillr 1 
 DD2 .            Sanan Aliyev:  Direct Drillr 2 
 DDSV.               Geo-Pilot:  DD Service 
 DEFF.%                  95.00:  % Det Eff 
 DLRX.°/30m               0.75:  Dogleg Rot Max 
 DLSO.°/30m               0.65:  Dogleg Oriented 
 DLSX.°/30m               1.39:  Dogleg Str Max 
 DRET.      18.25.00 19-Jan-20:  Drill End Time 
 DRST.      11.56.48 17-Jan-20:  Drill Start Tim 
 DTIM.hr                 27.16:  Time Drilling 
 EDEP.m                5161.01:  End Depth 
 ENG1.          Rasim Hashimov:  Engineer 1 
 ENG2.      Bakhtiyar Jabbarli:  Engineer 2 
 ETIM.      11.56.48 21-Jan-20:  End Time 
 FLOI.gpm               350.00:  Flow In 
 FLON.gpm               300.00:  Flow In Min 
 FLOS.cptm                0.00:  Fluid Loss 
 FLOX.gpm               400.00:  Flow In Max 
 HFLO.                      No:  High Flow 
 HPRE.                      No:  High Pressure 
 HTEM.                      No:  High Temp 
 HYDO.m                   1.85:  Hydro Offset 
 IFIN.deg                71.58:  Inc, Final 
 IMAX.deg                71.83:  Inc Max 
 IMIN.deg                71.12:  Inc Min 
 IMND.m                5099.48:  Inc Min Depth 
 IMXD.m                5071.08:  Inc Max Depth 
 JARR.                      No:  Jarring 
 LETM.      18.25.00 19-Jan-20:  Log End Time 
 LOST.hr                     0:  Lost Rig Time 
 LSTM.      11.56.48 17-Jan-20:  Log Start Time 
 MDCL.ppm             37000.00:  Mud Chlorides 
 MDES.     Inversion Oil/Synthetic:  Mud Desc 
 DFD .sg                  1.34:  Mud Density 
 MDMN.sg                  1.34:  Dens Mud Min 
 MDMX.sg                  1.34:  Dens Mud Max 
 MOIL.                      69:  Run Mud Oil % 
 MOWR.                   69:31:  Run Mud OWR 
 MSND.                     0.1:  Run Mud Sand % 
 MSOL.                    17.6:  Run Mud Solids% 
 DFV .spqt               79.00:  Mud Viscosity 
 MWOD.in                  4.75:  MWD Tool OD 
 MWSI.                      No:  Serv Intrp, MWD 
 OTIM.hr                126.10:  Time Operating 
 PMAX.psia             6000.00:  Press Op, Max 
 PV  .cP                 29.00:  Mud PV 
 RUN .                     400:  Run Number 
 ROPA.m/hr               11.00:  ROP Avg 
 ROPN.m/hr                5.00:  ROP Min 
 ROPX.m/hr               18.00:  ROP Max 
 RPMA.rpm               139.00:  RPM Surface Avg 
 RPMN.rpm               100.00:  RPM Surface Min 
 RPMX.rpm               140.00:  RPM Surface Max 
 RRUN.                     400:  Rig Run Number 
 SAZI.deg               290.22:  Azm, Start 
 SDEP.m                4868.01:  Start Depth 
 SIDD.                      No:  Serv Intrp, DD 
 SINC.deg                71.77:  Inc, Start 
 SPPA.psig             5550.00:  SPP Avg 
 SPPN.psig             4300.00:  SPP Min 
 SPPX.psig             5600.00:  SPP Max 
 STIM.      23.45.48 15-Jan-20:  Start Time 
 SVCS.                 DD, MWD:  Services 
 SVER.                    9.20:  Sperry Version 
 TDAT.m                5161.01:  Tot Depth Attmp 
 TDDF.                      No:  Trip for DD 
 TDLG.m                 295.00:  Tot Depth Loggd 
 TFF .                      No:  Trip for Fail 
 TQAA.f-kp               13.00:  Torque Abs Avg 
 TQAN.f-kp               13.00:  Torque Abs Min 
 TQAX.f-kp               16.00:  Torque Abs Max 
 TRRT.°/30m               0.25:  Turn Rotating 
 MRT .                     ADR:  Maximum Recorded Temperature 
 TTMX.degC               88.00:  Max Tool Temp 
 VS01.                90577859:  Virtual Str1 SN 
 VS02.                90521879:  Virtual Str2 SN 
 VS03.                90580299:  Virtual Str3 SN 
 VS04.                90515982:  Virtual Str4 SN 
 VS05.                90547765:  Virtual Str5 SN 
 WBMN.klb                 2.00:  WOB Min 
 WITN.           Adil Mammadov:  Customer Rep 
 WITN.        Elmaddin Rahimov:  Customer Rep 2 
 WOBA.klb                 3.00:  WOB Avg 
 WOBX.klb                 5.00:  WOB Max 
 YP  .lhf2               30.00:  Yield Point 
~Curve Information Block
#MNEM.UNIT                 API CODE     Curve Description
#---------               -----------    ---------------------------
 TIME.HHMMSS            00 000 000 000:  GT Time & Date
 GTDEPTH.m              00 000 000 000:  GT Depth
 GTPQH.psia             00 000 000 000:  GT HR Quartz Pressure
 GTTQ.degC              00 000 000 000:  GT Quartz Temperature
 GTTN.NONE              00 000 000 000:  GT Test Number
 GTET.sec               00 000 000 000:  GT Elapsed Test Time
 GTTVD.m                00 000 000 000:  GT True Vertical Depth
#Other Information
#
#WARRANTY: Halliburton will use its best efforts to furnish customers with 
#accurate information and interpretations that are part of, and incident to, the services 
#provided.  However, Halliburton cannot and does not warrant the accuracy 
#or correctness of such information and interpretations.  Under no circumstances should any 
#such information or interpretation be relied upon as the sole basis for any drilling, 
#completion, production, or financial decision or any procedure involving any risk to the 
#safety of any drilling venture, drilling rig or its crew or any other third party.  The 
#Customer has full responsibility for all drilling, completion and production operation.  
#Halliburton makes no representations or warranties, either expressed or 
#implied, including, but not limited to, the implied warranties of merchantability or fitness 
#for a particular purpose, with respect to the services rendered.  In no event will 
#Halliburton be liable for failure to obtain any particular results or for 
#any damages, including, but not limited to, indirect, special or consequential damages, 
#resulting from the use of any information or interpretation provided by Halliburton.
#
~A           TIME           GTDEPTH  GTPQH  GTTQ  GTTN  GTET   GTTVD  
# ...
   10:11:23.840.19-Jan-2020 5081.51 6156.09 81.43 5.00 460.06 2869.15
   10:11:24.040.19-Jan-2020 5081.51 6156.09 81.43 5.00 460.26 2869.15
   10:11:24.240.19-Jan-2020 5081.51 6157.97 81.43 5.00 460.46 2869.15
   10:11:24.440.19-Jan-2020 5081.51 6155.92 81.43 5.00 460.66 2869.15
   10:11:24.640.19-Jan-2020 5081.51 6151.63 81.43 5.00 460.86 2869.15
   10:11:24.840.19-Jan-2020 5081.51 6155.95 81.43 5.00 461.06 2869.15
   10:11:25.040.19-Jan-2020 5081.51 6155.95 81.43 5.00 461.26 2869.15
   10:11:25.240.19-Jan-2020 5081.51 6157.89 81.43 5.00 461.46 2869.15
   10:11:25.440.19-Jan-2020 5081.51 6157.73 81.43 5.00 461.66 2869.15
   10:11:25.640.19-Jan-2020 5081.51 6157.77 81.42 5.00 461.86 2869.15
   10:11:25.840.19-Jan-2020 5081.51 6156.98 81.42 5.00 462.06 2869.15
   10:11:26.040.19-Jan-2020 5081.51 6156.98 81.42 5.00 462.26 2869.15
   10:11:26.240.19-Jan-2020 5081.51 6157.34 81.42 5.00 462.46 2869.15
   10:11:26.440.19-Jan-2020 5081.51 6157.92 81.42 5.00 462.66 2869.15
   10:11:26.640.19-Jan-2020 5081.51 6156.44 81.42 5.00 462.86 2869.15
   10:11:26.840.19-Jan-2020 5081.51 6157.20 81.42 5.00 463.06 2869.15
   10:11:27.040.19-Jan-2020 5081.51 6157.20 81.42 5.00 463.26 2869.15
   10:11:27.241.19-Jan-2020 5081.51 6156.07 81.42 5.00 463.46 2869.15
   10:11:27.441.19-Jan-2020 5081.51 6150.07 81.42 5.00 463.66 2869.15
   10:11:27.641.19-Jan-2020 5081.51 6155.06 81.42 5.00 463.86 2869.15
   10:11:27.841.19-Jan-2020 5081.51 6152.34 81.42 5.00 464.06 2869.15
   10:11:28.041.19-Jan-2020 5081.51 6152.34 81.42 5.00 464.26 2869.15
   10:11:28.241.19-Jan-2020 5081.51 6156.94 81.42 5.00 464.46 2869.15
   10:11:28.441.19-Jan-2020 5081.51 6154.71 81.42 5.00 464.66 2869.15
   10:11:28.641.19-Jan-2020 5081.51 6157.13 81.42 5.00 464.86 2869.15
   10:11:28.841.19-Jan-2020 5081.51 6155.75 81.42 5.00 465.06 2869.15
   10:11:29.041.19-Jan-2020 5081.51 6155.75 81.42 5.00 465.26 2869.15
   10:11:29.241.19-Jan-2020 5081.51 6155.41 81.42 5.00 465.46 2869.15
   10:11:29.441.19-Jan-2020 5081.51 6155.81 81.42 5.00 465.66 2869.15
   10:11:29.641.19-Jan-2020 5081.51 6155.11 81.42 5.00 465.86 2869.15
   10:11:29.841.19-Jan-2020 5081.51 6155.58 81.42 5.00 466.06 2869.15
   10:11:30.041.19-Jan-2020 5081.51 6155.58 81.42 5.00 466.26 2869.15
   10:11:30.241.19-Jan-2020 5081.51 6154.88 81.42 5.00 466.46 2869.15
   10:11:30.441.19-Jan-2020 5081.51 6155.36 81.42 5.00 466.66 2869.15
   10:11:30.641.19-Jan-2020 5081.51 6153.75 81.42 5.00 466.86 2869.15
   10:11:30.841.19-Jan-2020 5081.51 6149.53 81.42 5.00 467.06 2869.15
   10:11:31.041.19-Jan-2020 5081.51 6149.53 81.42 5.00 467.26 2869.15
   10:11:31.241.19-Jan-2020 5081.51 6152.35 81.42 5.00 467.46 2869.15
   10:11:31.441.19-Jan-2020 5081.51 6154.88 81.42 5.00 467.66 2869.15
   10:11:31.641.19-Jan-2020 5081.51 6150.34 81.42 5.00 467.86 2869.15
   10:11:31.841.19-Jan-2020 5081.51 6153.36 81.41 5.00 468.06 2869.15
   10:11:32.041.19-Jan-2020 5081.51 6153.36 81.41 5.00 468.26 2869.15
   10:11:32.241.19-Jan-2020 5081.51 6151.23 81.41 5.00 468.46 2869.15
   10:11:32.441.19-Jan-2020 5081.51 6154.44 81.41 5.00 468.66 2869.15
   10:11:32.641.19-Jan-2020 5081.51 6150.08 81.41 5.00 468.86 2869.15
   10:11:32.841.19-Jan-2020 5081.51 6154.00 81.41 5.00 469.06 2869.15
   10:11:33.041.19-Jan-2020 5081.51 6154.00 81.41 5.00 469.26 2869.15
   10:11:33.241.19-Jan-2020 5081.51 6154.97 81.41 5.00 469.46 2869.15
   10:11:33.441.19-Jan-2020 5081.51 6156.24 81.41 5.00 469.66 2869.15
   10:11:33.641.19-Jan-2020 5081.51 6148.54 81.41 5.00 469.86 2869.15
   10:11:33.841.19-Jan-2020 5081.51 6155.75 81.41 5.00 470.06 2869.15
   10:11:34.041.19-Jan-2020 5081.51 6155.75 81.41 5.00 470.26 2869.15
   10:11:34.241.19-Jan-2020 5081.51 6151.85 81.41 5.00 470.46 2869.15
   10:11:34.441.19-Jan-2020 5081.51 6155.64 81.41 5.00 470.66 2869.15
   10:11:34.641.19-Jan-2020 5081.51 6156.42 81.41 5.00 470.86 2869.15
   10:11:34.841.19-Jan-2020 5081.51 6156.31 81.41 5.00 471.06 2869.15
   10:11:35.042.19-Jan-2020 5081.51 6156.31 81.41 5.00 471.26 2869.15
   10:11:35.242.19-Jan-2020 5081.51 6156.89 81.41 5.00 471.46 2869.15
   10:11:35.442.19-Jan-2020 5081.51 6156.07 81.41 5.00 471.66 2869.15
   10:11:35.642.19-Jan-2020 5081.51 6157.03 81.41 5.00 471.86 2869.15
   10:11:35.842.19-Jan-2020 5081.51 6156.52 81.41 5.00 472.06 2869.15
   10:11:36.042.19-Jan-2020 5081.51 6156.52 81.41 5.00 472.26 2869.15
   10:11:36.242.19-Jan-2020 5081.51 6155.49 81.41 5.00 472.46 2869.15
   10:11:36.442.19-Jan-2020 5081.51 6156.79 81.41 5.00 472.66 2869.15
   10:11:36.642.19-Jan-2020 5081.51 6156.31 81.41 5.00 472.86 2869.15
