~Version Information
 VERS.                  2.0:   CWLS log ASCII Standard -VERSION 2.0
 WRAP.                   NO:   One line per depth step
~Well Information Block
#MNEM.UNIT     VALUE/NAME     DESCRIPTION
#---------     -----------    ---------------------------
 STRT.S             16:13:28 18-Jan-20: START TIME 16:13:28 18-Jan-20
 STOP.S             16:21:32 18-Jan-20: STOP TIME  16:21:32 18-Jan-20
 STEP.S                   0.00: STEP TIME
 NULL.                 -999.25: NULL VALUE
 DFWT.                        :  DIST FWL TEXT
 DFST.                        :  DIST FSL TEXT
 DMF .             Drill Floor:  DRILL MEAS FROM
 STIM.      17.57.20 21-Dec-19:  START TIME
 DATE.      17.57.20 21-Dec-19:  END TIME
 SPUD.               21-Dec-19:  SPUD DATE
 NREF.                    Grid:  NORTH REFERENCE
 HPTY.       Minimum Curvature:  HOLE POS TYPE
 DMOD.             Drill Model:  DRILL MOD DESC
 SVYD.                  Survey:  SURVEY DESC
 ILTD.               Lithology:  INTERP LTH DESC
 FTOP.          Formation Tops:  FORM TOPS DESC
 PDAT.          Mean Sea Level:  PERMANENT DATUM
 FLD .                     ACG:  FIELD NAME
 SON .        AZ-XX-0905715376:  JOB NUMBER
 CTRY.              Azerbaijan:  COUNTRY NAME
 WELL.                    E04Y:  WELL NAME
 SRVC.          TURAN DRILLING:  CONTRACTOR
 COMP.     BP Exploration (Caspian Sea) Ltd.:  COMPANY
 WTYP.                Deviated:  WELL TYPE
 UWI .                     N/a:  UNIQUE WELL IDENTIFIER
 API .                     N/a:  API NUMBER
 BASE.              Azerbaijan:  LOGGING EQUIPMENT BASE LOCATION
 REGN.                   EESSA:  REGION
 MWDS.                    Baku:  MWD SHOP
 RIG .                     DWG:  RIG NAME
 DOE .                     N/a:  DOE NUMBER
 CNTY.                    Baku:  COUNTY NAME
 DCON.         Sperry Drilling:  DIRECTNL CONTR
 UNIT.                     N/a:  LOGGING EQUIPMENT ID
 MDS .        Operator Entered:  MAG DATA SOURCE
 PROV.                        :  PROVINCE
 STAT.                        :  STATE
 LOC .                        :  LOCATION
 LMF .             Drill Floor:  LOG MEASURED FROM
 TVDS.m                  43.16:  TVDSS CORRECTN
 LATI.deg                40.17:  LATITUDE
 LONG.deg                51.17:  LONGITUDE
 WHNS.m                  -0.12:  WELL HEAD N/S
 WHEW.m                  -5.41:  WELL HEAD E/W
 UTMX.m              514337.95:  UTM X
 UTMY.m             4448627.46:  UTM Y
 DFWL.m                   0.00:  DISTANCE FWL
 DFSL.m                   0.00:  DISTANCE FSL
 SDEP.m                   0.00:  START DEPTH
 TDD .m                   0.00:  TOTAL DEPTH (DRILLER)
 VSDR.deg               235.12:  VERT SEC DIRECT
 GVFD.g                   1.00:  GRAVITY FIELD
 MFLD.nT              50294.00:  MAGNETIC FIELD
 MDIP.deg                59.61:  MAGNETIC DIP
 MDEC.deg                 6.58:  MAGNETIC DECL
 GRDC.deg                 0.09:  GRID CORRECTION
 AZTC.deg                 6.49:  AZM TOTAL CORR
 EPD .m                   0.00:  ELEVATION
 EGL .m                   0.00:  GROUND ELEVATION
 WDMS.m                 176.20:  WD ELEV
 APD .m                  43.16:  DEPTH ABOVE PD
 DEP .m                3172.61:  DEPTH
 AGAP.m                  43.16:  AIR GAP
 VSEW.m                  -5.41:  VERT SEC E/W
 VSNS.m                  -0.12:  VERT SEC N/S
 EKB .m                  43.16:  KB ELEVATION
 EDF .m                  43.16:  DF ELEVATION
 TDL .m                 295.00:  TOTAL DEPTH (LOGGER)
 VSC .                       0:  VS TO CLOSURE
 MAGU.                 1852276:  MAGUTM CHECKSUM
~Parameter Information Block
#MNEM.UNIT       Value        Description
#---------     -----------    ---------------------------
 AV  .mps                 1.60:  Ann Velocity 
 AVMX.mps                 2.10:  Max Ann Veloc 
 AZIF.deg               290.59:  Azm, Final 
 BHAT.        Rotary Steerable:  BHA Type 
 BROT.°/30m               1.00:  Build Rotating 
 BS  .in                  6.50:  Bit Size 
 BSZ .in                  6.50:  Bit Size 
 BTPL.psig              120.00:  Bit Press Loss 
 CABU.                     Yes:  Customer Abuse 
 CGEO.          Eldar Huseynov:  Customer Geo 
 COMM.                     Ôs:  Run Comments 1 
 TCS .hr                 87.00:  Time Ciculation Ended 
 CV  .mps                 4.01:  Crit Velocity 
 CVMX.mps                 5.06:  Max Crit Veloc 
 DD1 .             Aziz Aliyev:  Direct Drillr 1 
 DD2 .            Sanan Aliyev:  Direct Drillr 2 
 DDSV.               Geo-Pilot:  DD Service 
 DEFF.%                  95.00:  % Det Eff 
 DLRX.°/30m               0.75:  Dogleg Rot Max 
 DLSO.°/30m               0.65:  Dogleg Oriented 
 DLSX.°/30m               1.39:  Dogleg Str Max 
 DRET.      18.25.00 19-Jan-20:  Drill End Time 
 DRST.      11.56.48 17-Jan-20:  Drill Start Tim 
 DTIM.hr                 27.16:  Time Drilling 
 EDEP.m                5161.01:  End Depth 
 ENG1.          Rasim Hashimov:  Engineer 1 
 ENG2.      Bakhtiyar Jabbarli:  Engineer 2 
 ETIM.      11.56.48 21-Jan-20:  End Time 
 FLOI.gpm               350.00:  Flow In 
 FLON.gpm               300.00:  Flow In Min 
 FLOS.cptm                0.00:  Fluid Loss 
 FLOX.gpm               400.00:  Flow In Max 
 HFLO.                      No:  High Flow 
 HPRE.                      No:  High Pressure 
 HTEM.                      No:  High Temp 
 HYDO.m                   1.85:  Hydro Offset 
 IFIN.deg                71.58:  Inc, Final 
 IMAX.deg                71.83:  Inc Max 
 IMIN.deg                71.12:  Inc Min 
 IMND.m                5099.48:  Inc Min Depth 
 IMXD.m                5071.08:  Inc Max Depth 
 JARR.                      No:  Jarring 
 LETM.      18.25.00 19-Jan-20:  Log End Time 
 LOST.hr                     0:  Lost Rig Time 
 LSTM.      11.56.48 17-Jan-20:  Log Start Time 
 MDCL.ppm             37000.00:  Mud Chlorides 
 MDES.     Inversion Oil/Synthetic:  Mud Desc 
 DFD .sg                  1.34:  Mud Density 
 MDMN.sg                  1.34:  Dens Mud Min 
 MDMX.sg                  1.34:  Dens Mud Max 
 MOIL.                      69:  Run Mud Oil % 
 MOWR.                   69:31:  Run Mud OWR 
 MSND.                     0.1:  Run Mud Sand % 
 MSOL.                    17.6:  Run Mud Solids% 
 DFV .spqt               79.00:  Mud Viscosity 
 MWOD.in                  4.75:  MWD Tool OD 
 MWSI.                      No:  Serv Intrp, MWD 
 OTIM.hr                126.10:  Time Operating 
 PMAX.psia             6000.00:  Press Op, Max 
 PV  .cP                 29.00:  Mud PV 
 RUN .                     400:  Run Number 
 ROPA.m/hr               11.00:  ROP Avg 
 ROPN.m/hr                5.00:  ROP Min 
 ROPX.m/hr               18.00:  ROP Max 
 RPMA.rpm               139.00:  RPM Surface Avg 
 RPMN.rpm               100.00:  RPM Surface Min 
 RPMX.rpm               140.00:  RPM Surface Max 
 RRUN.                     400:  Rig Run Number 
 SAZI.deg               290.22:  Azm, Start 
 SDEP.m                4868.01:  Start Depth 
 SIDD.                      No:  Serv Intrp, DD 
 SINC.deg                71.77:  Inc, Start 
 SPPA.psig             5550.00:  SPP Avg 
 SPPN.psig             4300.00:  SPP Min 
 SPPX.psig             5600.00:  SPP Max 
 STIM.      23.45.48 15-Jan-20:  Start Time 
 SVCS.                 DD, MWD:  Services 
 SVER.                    9.20:  Sperry Version 
 TDAT.m                5161.01:  Tot Depth Attmp 
 TDDF.                      No:  Trip for DD 
 TDLG.m                 295.00:  Tot Depth Loggd 
 TFF .                      No:  Trip for Fail 
 TQAA.f-kp               13.00:  Torque Abs Avg 
 TQAN.f-kp               13.00:  Torque Abs Min 
 TQAX.f-kp               16.00:  Torque Abs Max 
 TRRT.°/30m               0.25:  Turn Rotating 
 MRT .                     ADR:  Maximum Recorded Temperature 
 TTMX.degC               88.00:  Max Tool Temp 
 VS01.                90577859:  Virtual Str1 SN 
 VS02.                90521879:  Virtual Str2 SN 
 VS03.                90580299:  Virtual Str3 SN 
 VS04.                90515982:  Virtual Str4 SN 
 VS05.                90547765:  Virtual Str5 SN 
 WBMN.klb                 2.00:  WOB Min 
 WITN.           Adil Mammadov:  Customer Rep 
 WITN.        Elmaddin Rahimov:  Customer Rep 2 
 WOBA.klb                 3.00:  WOB Avg 
 WOBX.klb                 5.00:  WOB Max 
 YP  .lhf2               30.00:  Yield Point 
~Curve Information Block
#MNEM.UNIT                 API CODE     Curve Description
#---------               -----------    ---------------------------
 TIME.HHMMSS            00 000 000 000:  GT Time & Date
 GTDEPTH.m              00 000 000 000:  GT Depth
 GTPQH.psia             00 000 000 000:  GT HR Quartz Pressure
 GTTQ.degC              00 000 000 000:  GT Quartz Temperature
 GTTN.NONE              00 000 000 000:  GT Test Number
 GTET.sec               00 000 000 000:  GT Elapsed Test Time
 GTTVD.m                00 000 000 000:  GT True Vertical Depth
#Other Information
#
#WARRANTY: Halliburton will use its best efforts to furnish customers with 
#accurate information and interpretations that are part of, and incident to, the services 
#provided.  However, Halliburton cannot and does not warrant the accuracy 
#or correctness of such information and interpretations.  Under no circumstances should any 
#such information or interpretation be relied upon as the sole basis for any drilling, 
#completion, production, or financial decision or any procedure involving any risk to the 
#safety of any drilling venture, drilling rig or its crew or any other third party.  The 
#Customer has full responsibility for all drilling, completion and production operation.  
#Halliburton makes no representations or warranties, either expressed or 
#implied, including, but not limited to, the implied warranties of merchantability or fitness 
#for a particular purpose, with respect to the services rendered.  In no event will 
#Halliburton be liable for failure to obtain any particular results or for 
#any damages, including, but not limited to, indirect, special or consequential damages, 
#resulting from the use of any information or interpretation provided by Halliburton.
#
~A           TIME           GTDEPTH  GTPQH  GTTQ  GTTN  GTET   GTTVD  
# ...
   16:19:13.576.18-Jan-2020 4958.01 4406.80 80.02 2.00 345.03 2829.97
   16:19:13.776.18-Jan-2020 4958.01 4406.80 80.02 2.00 345.23 2829.97
   16:19:13.977.18-Jan-2020 4958.01 4406.79 80.02 2.00 345.43 2829.97
   16:19:14.177.18-Jan-2020 4958.01 4406.80 80.02 2.00 345.63 2829.97
   16:19:14.377.18-Jan-2020 4958.01 4406.74 80.02 2.00 345.83 2829.97
   16:19:14.577.18-Jan-2020 4958.01 4406.81 80.02 2.00 346.03 2829.97
   16:19:14.777.18-Jan-2020 4958.01 4406.81 80.02 2.00 346.23 2829.97
   16:19:14.977.18-Jan-2020 4958.01 4406.89 80.02 2.00 346.43 2829.97
   16:19:15.177.18-Jan-2020 4958.01 4406.80 80.02 2.00 346.63 2829.97
   16:19:15.377.18-Jan-2020 4958.01 4406.83 80.02 2.00 346.83 2829.97
   16:19:15.577.18-Jan-2020 4958.01 4406.71 80.02 2.00 347.03 2829.97
   16:19:15.777.18-Jan-2020 4958.01 4406.71 80.02 2.00 347.23 2829.97
   16:19:15.977.18-Jan-2020 4958.01 4406.86 80.01 2.00 347.43 2829.97
   16:19:16.177.18-Jan-2020 4958.01 4406.81 80.01 2.00 347.63 2829.97
   16:19:16.377.18-Jan-2020 4958.01 4406.83 80.01 2.00 347.83 2829.97
   16:19:16.577.18-Jan-2020 4958.01 4406.67 80.01 2.00 348.03 2829.97
   16:19:16.777.18-Jan-2020 4958.01 4406.67 80.01 2.00 348.23 2829.97
   16:19:16.977.18-Jan-2020 4958.01 4406.79 80.01 2.00 348.43 2829.97
   16:19:17.177.18-Jan-2020 4958.01 4406.86 80.01 2.00 348.63 2829.97
   16:19:17.377.18-Jan-2020 4958.01 4406.81 80.01 2.00 348.83 2829.97
   16:19:17.577.18-Jan-2020 4958.01 4406.84 80.01 2.00 349.03 2829.97
   16:19:17.777.18-Jan-2020 4958.01 4406.84 80.01 2.00 349.23 2829.97
   16:19:17.977.18-Jan-2020 4958.01 4406.73 80.01 2.00 349.43 2829.97
   16:19:18.177.18-Jan-2020 4958.01 4406.83 80.01 2.00 349.63 2829.97
   16:19:18.377.18-Jan-2020 4958.01 4406.88 80.01 2.00 349.83 2829.97
   16:19:18.577.18-Jan-2020 4958.01 4406.81 80.01 2.00 350.03 2829.97
   16:19:18.777.18-Jan-2020 4958.01 4406.81 80.01 2.00 350.23 2829.97
   16:19:18.977.18-Jan-2020 4958.01 4406.81 80.01 2.00 350.43 2829.97
   16:19:19.177.18-Jan-2020 4958.01 4406.80 80.01 2.00 350.63 2829.97
   16:19:19.377.18-Jan-2020 4958.01 4406.81 80.01 2.00 350.83 2829.97
   16:19:19.577.18-Jan-2020 4958.01 4406.80 80.01 2.00 351.03 2829.97
   16:19:19.777.18-Jan-2020 4958.01 4406.80 80.01 2.00 351.23 2829.97
   16:19:19.977.18-Jan-2020 4958.01 4406.77 80.00 2.00 351.43 2829.97
   16:19:20.177.18-Jan-2020 4958.01 4406.81 80.00 2.00 351.63 2829.97
   16:19:20.377.18-Jan-2020 4958.01 4406.79 80.00 2.00 351.83 2829.97
   16:19:20.577.18-Jan-2020 4958.01 4406.80 80.00 2.00 352.03 2829.97
   16:19:20.777.18-Jan-2020 4958.01 4406.80 80.00 2.00 352.23 2829.97
   16:19:20.977.18-Jan-2020 4958.01 4406.79 80.00 2.00 352.43 2829.97
   16:19:21.177.18-Jan-2020 4958.01 4406.71 80.00 2.00 352.63 2829.97
   16:19:21.377.18-Jan-2020 4958.01 4406.79 80.00 2.00 352.83 2829.97
   16:19:21.577.18-Jan-2020 4958.01 4406.85 80.00 2.00 353.03 2829.97
   16:19:21.777.18-Jan-2020 4958.01 4406.85 80.00 2.00 353.23 2829.97
   16:19:21.977.18-Jan-2020 4958.01 4406.82 80.00 2.00 353.43 2829.97
   16:19:22.177.18-Jan-2020 4958.01 4406.80 80.00 2.00 353.63 2829.97
   16:19:22.377.18-Jan-2020 4958.01 4406.80 80.00 2.00 353.83 2829.97
   16:19:22.577.18-Jan-2020 4958.01 4406.79 80.00 2.00 354.03 2829.97
   16:19:22.777.18-Jan-2020 4958.01 4406.79 80.00 2.00 354.23 2829.97
   16:19:22.977.18-Jan-2020 4958.01 4406.77 80.00 2.00 354.43 2829.97
   16:19:23.177.18-Jan-2020 4958.01 4406.80 80.00 2.00 354.63 2829.97
   16:19:23.377.18-Jan-2020 4958.01 4406.78 80.00 2.00 354.83 2829.97
   16:19:23.577.18-Jan-2020 4958.01 4406.78 80.00 2.00 355.03 2829.97
   16:19:23.777.18-Jan-2020 4958.01 4406.78 80.00 2.00 355.23 2829.97
   16:19:23.977.18-Jan-2020 4958.01 4406.78 79.99 2.00 355.43 2829.97
   16:19:24.177.18-Jan-2020 4958.01 4406.79 79.99 2.00 355.63 2829.97
   16:19:24.377.18-Jan-2020 4958.01 4406.75 79.99 2.00 355.83 2829.97
   16:19:24.577.18-Jan-2020 4958.01 4406.58 79.99 2.00 356.03 2829.97
   16:19:24.777.18-Jan-2020 4958.01 4406.58 79.99 2.00 356.23 2829.97
   16:19:24.977.18-Jan-2020 4958.01 4406.87 79.99 2.00 356.43 2829.97
   16:19:25.177.18-Jan-2020 4958.01 4406.79 79.99 2.00 356.63 2829.97
   16:19:25.377.18-Jan-2020 4958.01 4406.82 79.99 2.00 356.83 2829.97
   16:19:25.577.18-Jan-2020 4958.01 4406.64 79.99 2.00 357.03 2829.97
   16:19:25.777.18-Jan-2020 4958.01 4406.64 79.99 2.00 357.23 2829.97
   16:19:25.977.18-Jan-2020 4958.01 4406.78 79.99 2.00 357.43 2829.97
   16:19:26.178.18-Jan-2020 4958.01 4406.82 79.99 2.00 357.63 2829.97
   16:19:26.378.18-Jan-2020 4958.01 4406.82 79.99 2.00 357.83 2829.97
   16:19:26.578.18-Jan-2020 4958.01 4406.79 79.99 2.00 358.03 2829.97
   16:19:26.778.18-Jan-2020 4958.01 4406.79 79.99 2.00 358.23 2829.97
   16:19:26.978.18-Jan-2020 4958.01 4406.80 79.99 2.00 358.43 2829.97
   16:19:27.178.18-Jan-2020 4958.01 4406.86 79.99 2.00 358.63 2829.97
   16:19:27.378.18-Jan-2020 4958.01 4406.79 79.99 2.00 358.83 2829.97
   16:19:27.578.18-Jan-2020 4958.01 4406.83 79.99 2.00 359.03 2829.97
   16:19:27.778.18-Jan-2020 4958.01 4406.83 79.99 2.00 359.23 2829.97
   16:19:27.978.18-Jan-2020 4958.01 4406.65 79.98 2.00 359.43 2829.97
   16:19:28.178.18-Jan-2020 4958.01 4406.91 79.98 2.00 359.63 2829.97
   16:19:28.378.18-Jan-2020 4958.01 4406.81 79.98 2.00 359.83 2829.97
   16:19:28.578.18-Jan-2020 4958.01 4406.82 79.98 2.00 360.03 2829.97
   16:19:28.778.18-Jan-2020 4958.01 4406.82 79.98 2.00 360.23 2829.97
   16:19:28.978.18-Jan-2020 4958.01 4406.82 79.98 2.00 360.43 2829.97
   16:19:29.178.18-Jan-2020 4958.01 4406.78 79.98 2.00 360.63 2829.97
   16:19:29.378.18-Jan-2020 4958.01 4406.81 79.98 2.00 360.83 2829.97
   16:19:29.578.18-Jan-2020 4958.01 4406.78 79.98 2.00 361.03 2829.97
   16:19:29.778.18-Jan-2020 4958.01 4406.78 79.98 2.00 361.23 2829.97
   16:19:29.978.18-Jan-2020 4958.01 4406.76 79.98 2.00 361.43 2829.97
   16:19:30.178.18-Jan-2020 4958.01 4406.80 79.98 2.00 361.63 2829.97
   16:19:30.378.18-Jan-2020 4958.01 4406.78 79.98 2.00 361.83 2829.97
   16:19:30.578.18-Jan-2020 4958.01 4406.78 79.98 2.00 362.03 2829.97
   16:19:30.778.18-Jan-2020 4958.01 4406.78 79.98 2.00 362.23 2829.97
   16:19:30.978.18-Jan-2020 4958.01 4406.79 79.98 2.00 362.43 2829.97
   16:19:31.178.18-Jan-2020 4958.01 4406.62 79.98 2.00 362.63 2829.97
   16:19:31.378.18-Jan-2020 4958.01 4406.88 79.98 2.00 362.83 2829.97
   16:19:31.578.18-Jan-2020 4958.01 4406.79 79.97 2.00 363.03 2829.97
   16:19:31.778.18-Jan-2020 4958.01 4406.79 79.97 2.00 363.23 2829.97
   16:19:31.978.18-Jan-2020 4958.01 4406.82 79.97 2.00 363.43 2829.97
   16:19:32.178.18-Jan-2020 4958.01 4406.78 79.97 2.00 363.63 2829.97
   16:19:32.378.18-Jan-2020 4958.01 4406.81 79.97 2.00 363.83 2829.97
   16:19:32.578.18-Jan-2020 4958.01 4406.77 79.97 2.00 364.03 2829.97
   16:19:32.778.18-Jan-2020 4958.01 4406.77 79.97 2.00 364.23 2829.97
   16:19:32.978.18-Jan-2020 4958.01 4406.77 79.97 2.00 364.43 2829.97
   16:19:33.178.18-Jan-2020 4958.01 4406.79 79.97 2.00 364.63 2829.97
   16:19:33.378.18-Jan-2020 4958.01 4406.77 79.97 2.00 364.83 2829.97
   16:19:33.578.18-Jan-2020 4958.01 4406.77 79.97 2.00 365.03 2829.97
   16:19:33.778.18-Jan-2020 4958.01 4406.77 79.97 2.00 365.23 2829.97
   16:19:33.978.18-Jan-2020 4958.01 4406.77 79.97 2.00 365.43 2829.97
   16:19:34.178.18-Jan-2020 4958.01 4406.78 79.97 2.00 365.63 2829.97
   16:19:34.378.18-Jan-2020 4958.01 4406.76 79.97 2.00 365.83 2829.97
   16:19:34.578.18-Jan-2020 4958.01 4406.73 79.97 2.00 366.03 2829.97
   16:19:34.778.18-Jan-2020 4958.01 4406.73 79.97 2.00 366.23 2829.97
   16:19:34.978.18-Jan-2020 4958.01 4406.77 79.97 2.00 366.43 2829.97
   16:19:35.178.18-Jan-2020 4958.01 4406.82 79.97 2.00 366.63 2829.97
   16:19:35.378.18-Jan-2020 4958.01 4406.82 79.97 2.00 366.83 2829.97
   16:19:35.578.18-Jan-2020 4958.01 4406.78 79.96 2.00 367.03 2829.97
   16:19:35.778.18-Jan-2020 4958.01 4406.78 79.96 2.00 367.23 2829.97
   16:19:35.978.18-Jan-2020 4958.01 4406.79 79.96 2.00 367.43 2829.97
   16:19:36.178.18-Jan-2020 4958.01 4406.83 79.96 2.00 367.63 2829.97
   16:19:36.378.18-Jan-2020 4958.01 4406.82 79.96 2.00 367.83 2829.97
