~Version Information
 VERS.                  2.0:   CWLS log ASCII Standard -VERSION 2.0
 WRAP.                   NO:   One line per depth step
~Well Information Block
#MNEM.UNIT     VALUE/NAME     DESCRIPTION
#---------     -----------    ---------------------------
 STRT.S             16:13:28 18-Jan-20: START TIME 16:13:28 18-Jan-20
 STOP.S             16:21:32 18-Jan-20: STOP TIME  16:21:32 18-Jan-20
 STEP.S                   0.00: STEP TIME
 NULL.                 -999.25: NULL VALUE
 DFWT.                        :  DIST FWL TEXT
 DFST.                        :  DIST FSL TEXT
 DMF .             Drill Floor:  DRILL MEAS FROM
 STIM.      17.57.20 21-Dec-19:  START TIME
 DATE.      17.57.20 21-Dec-19:  END TIME
 SPUD.               21-Dec-19:  SPUD DATE
 NREF.                    Grid:  NORTH REFERENCE
 HPTY.       Minimum Curvature:  HOLE POS TYPE
 DMOD.             Drill Model:  DRILL MOD DESC
 SVYD.                  Survey:  SURVEY DESC
 ILTD.               Lithology:  INTERP LTH DESC
 FTOP.          Formation Tops:  FORM TOPS DESC
 PDAT.          Mean Sea Level:  PERMANENT DATUM
 FLD .                     ACG:  FIELD NAME
 SON .        AZ-XX-0905715376:  JOB NUMBER
 CTRY.              Azerbaijan:  COUNTRY NAME
 WELL.                    E04Y:  WELL NAME
 SRVC.          TURAN DRILLING:  CONTRACTOR
 COMP.     BP Exploration (Caspian Sea) Ltd.:  COMPANY
 WTYP.                Deviated:  WELL TYPE
 UWI .                     N/a:  UNIQUE WELL IDENTIFIER
 API .                     N/a:  API NUMBER
 BASE.              Azerbaijan:  LOGGING EQUIPMENT BASE LOCATION
 REGN.                   EESSA:  REGION
 MWDS.                    Baku:  MWD SHOP
 RIG .                     DWG:  RIG NAME
 DOE .                     N/a:  DOE NUMBER
 CNTY.                    Baku:  COUNTY NAME
 DCON.         Sperry Drilling:  DIRECTNL CONTR
 UNIT.                     N/a:  LOGGING EQUIPMENT ID
 MDS .        Operator Entered:  MAG DATA SOURCE
 PROV.                        :  PROVINCE
 STAT.                        :  STATE
 LOC .                        :  LOCATION
 LMF .             Drill Floor:  LOG MEASURED FROM
 TVDS.m                  43.16:  TVDSS CORRECTN
 LATI.deg                40.17:  LATITUDE
 LONG.deg                51.17:  LONGITUDE
 WHNS.m                  -0.12:  WELL HEAD N/S
 WHEW.m                  -5.41:  WELL HEAD E/W
 UTMX.m              514337.95:  UTM X
 UTMY.m             4448627.46:  UTM Y
 DFWL.m                   0.00:  DISTANCE FWL
 DFSL.m                   0.00:  DISTANCE FSL
 SDEP.m                   0.00:  START DEPTH
 TDD .m                   0.00:  TOTAL DEPTH (DRILLER)
 VSDR.deg               235.12:  VERT SEC DIRECT
 GVFD.g                   1.00:  GRAVITY FIELD
 MFLD.nT              50294.00:  MAGNETIC FIELD
 MDIP.deg                59.61:  MAGNETIC DIP
 MDEC.deg                 6.58:  MAGNETIC DECL
 GRDC.deg                 0.09:  GRID CORRECTION
 AZTC.deg                 6.49:  AZM TOTAL CORR
 EPD .m                   0.00:  ELEVATION
 EGL .m                   0.00:  GROUND ELEVATION
 WDMS.m                 176.20:  WD ELEV
 APD .m                  43.16:  DEPTH ABOVE PD
 DEP .m                3172.61:  DEPTH
 AGAP.m                  43.16:  AIR GAP
 VSEW.m                  -5.41:  VERT SEC E/W
 VSNS.m                  -0.12:  VERT SEC N/S
 EKB .m                  43.16:  KB ELEVATION
 EDF .m                  43.16:  DF ELEVATION
 TDL .m                 295.00:  TOTAL DEPTH (LOGGER)
 VSC .                       0:  VS TO CLOSURE
 MAGU.                 1852276:  MAGUTM CHECKSUM
~Parameter Information Block
#MNEM.UNIT       Value        Description
#---------     -----------    ---------------------------
 AV  .mps                 1.60:  Ann Velocity 
 AVMX.mps                 2.10:  Max Ann Veloc 
 AZIF.deg               290.59:  Azm, Final 
 BHAT.        Rotary Steerable:  BHA Type 
 BROT.°/30m               1.00:  Build Rotating 
 BS  .in                  6.50:  Bit Size 
 BSZ .in                  6.50:  Bit Size 
 BTPL.psig              120.00:  Bit Press Loss 
 CABU.                     Yes:  Customer Abuse 
 CGEO.          Eldar Huseynov:  Customer Geo 
 COMM.                     Ôs:  Run Comments 1 
 TCS .hr                 87.00:  Time Ciculation Ended 
 CV  .mps                 4.01:  Crit Velocity 
 CVMX.mps                 5.06:  Max Crit Veloc 
 DD1 .             Aziz Aliyev:  Direct Drillr 1 
 DD2 .            Sanan Aliyev:  Direct Drillr 2 
 DDSV.               Geo-Pilot:  DD Service 
 DEFF.%                  95.00:  % Det Eff 
 DLRX.°/30m               0.75:  Dogleg Rot Max 
 DLSO.°/30m               0.65:  Dogleg Oriented 
 DLSX.°/30m               1.39:  Dogleg Str Max 
 DRET.      18.25.00 19-Jan-20:  Drill End Time 
 DRST.      11.56.48 17-Jan-20:  Drill Start Tim 
 DTIM.hr                 27.16:  Time Drilling 
 EDEP.m                5161.01:  End Depth 
 ENG1.          Rasim Hashimov:  Engineer 1 
 ENG2.      Bakhtiyar Jabbarli:  Engineer 2 
 ETIM.      11.56.48 21-Jan-20:  End Time 
 FLOI.gpm               350.00:  Flow In 
 FLON.gpm               300.00:  Flow In Min 
 FLOS.cptm                0.00:  Fluid Loss 
 FLOX.gpm               400.00:  Flow In Max 
 HFLO.                      No:  High Flow 
 HPRE.                      No:  High Pressure 
 HTEM.                      No:  High Temp 
 HYDO.m                   1.85:  Hydro Offset 
 IFIN.deg                71.58:  Inc, Final 
 IMAX.deg                71.83:  Inc Max 
 IMIN.deg                71.12:  Inc Min 
 IMND.m                5099.48:  Inc Min Depth 
 IMXD.m                5071.08:  Inc Max Depth 
 JARR.                      No:  Jarring 
 LETM.      18.25.00 19-Jan-20:  Log End Time 
 LOST.hr                     0:  Lost Rig Time 
 LSTM.      11.56.48 17-Jan-20:  Log Start Time 
 MDCL.ppm             37000.00:  Mud Chlorides 
 MDES.     Inversion Oil/Synthetic:  Mud Desc 
 DFD .sg                  1.34:  Mud Density 
 MDMN.sg                  1.34:  Dens Mud Min 
 MDMX.sg                  1.34:  Dens Mud Max 
 MOIL.                      69:  Run Mud Oil % 
 MOWR.                   69:31:  Run Mud OWR 
 MSND.                     0.1:  Run Mud Sand % 
 MSOL.                    17.6:  Run Mud Solids% 
 DFV .spqt               79.00:  Mud Viscosity 
 MWOD.in                  4.75:  MWD Tool OD 
 MWSI.                      No:  Serv Intrp, MWD 
 OTIM.hr                126.10:  Time Operating 
 PMAX.psia             6000.00:  Press Op, Max 
 PV  .cP                 29.00:  Mud PV 
 RUN .                     400:  Run Number 
 ROPA.m/hr               11.00:  ROP Avg 
 ROPN.m/hr                5.00:  ROP Min 
 ROPX.m/hr               18.00:  ROP Max 
 RPMA.rpm               139.00:  RPM Surface Avg 
 RPMN.rpm               100.00:  RPM Surface Min 
 RPMX.rpm               140.00:  RPM Surface Max 
 RRUN.                     400:  Rig Run Number 
 SAZI.deg               290.22:  Azm, Start 
 SDEP.m                4868.01:  Start Depth 
 SIDD.                      No:  Serv Intrp, DD 
 SINC.deg                71.77:  Inc, Start 
 SPPA.psig             5550.00:  SPP Avg 
 SPPN.psig             4300.00:  SPP Min 
 SPPX.psig             5600.00:  SPP Max 
 STIM.      23.45.48 15-Jan-20:  Start Time 
 SVCS.                 DD, MWD:  Services 
 SVER.                    9.20:  Sperry Version 
 TDAT.m                5161.01:  Tot Depth Attmp 
 TDDF.                      No:  Trip for DD 
 TDLG.m                 295.00:  Tot Depth Loggd 
 TFF .                      No:  Trip for Fail 
 TQAA.f-kp               13.00:  Torque Abs Avg 
 TQAN.f-kp               13.00:  Torque Abs Min 
 TQAX.f-kp               16.00:  Torque Abs Max 
 TRRT.°/30m               0.25:  Turn Rotating 
 MRT .                     ADR:  Maximum Recorded Temperature 
 TTMX.degC               88.00:  Max Tool Temp 
 VS01.                90577859:  Virtual Str1 SN 
 VS02.                90521879:  Virtual Str2 SN 
 VS03.                90580299:  Virtual Str3 SN 
 VS04.                90515982:  Virtual Str4 SN 
 VS05.                90547765:  Virtual Str5 SN 
 WBMN.klb                 2.00:  WOB Min 
 WITN.           Adil Mammadov:  Customer Rep 
 WITN.        Elmaddin Rahimov:  Customer Rep 2 
 WOBA.klb                 3.00:  WOB Avg 
 WOBX.klb                 5.00:  WOB Max 
 YP  .lhf2               30.00:  Yield Point 
~Curve Information Block
#MNEM.UNIT                 API CODE     Curve Description
#---------               -----------    ---------------------------
 TIME.HHMMSS            00 000 000 000:  GT Time & Date
 GTDEPTH.m              00 000 000 000:  GT Depth
 GTPQH.psia             00 000 000 000:  GT HR Quartz Pressure
 GTTQ.degC              00 000 000 000:  GT Quartz Temperature
 GTTN.NONE              00 000 000 000:  GT Test Number
 GTET.sec               00 000 000 000:  GT Elapsed Test Time
 GTTVD.m                00 000 000 000:  GT True Vertical Depth
#Other Information
#
#WARRANTY: Halliburton will use its best efforts to furnish customers with 
#accurate information and interpretations that are part of, and incident to, the services 
#provided.  However, Halliburton cannot and does not warrant the accuracy 
#or correctness of such information and interpretations.  Under no circumstances should any 
#such information or interpretation be relied upon as the sole basis for any drilling, 
#completion, production, or financial decision or any procedure involving any risk to the 
#safety of any drilling venture, drilling rig or its crew or any other third party.  The 
#Customer has full responsibility for all drilling, completion and production operation.  
#Halliburton makes no representations or warranties, either expressed or 
#implied, including, but not limited to, the implied warranties of merchantability or fitness 
#for a particular purpose, with respect to the services rendered.  In no event will 
#Halliburton be liable for failure to obtain any particular results or for 
#any damages, including, but not limited to, indirect, special or consequential damages, 
#resulting from the use of any information or interpretation provided by Halliburton.
#
~A           TIME           GTDEPTH  GTPQH  GTTQ  GTTN  GTET   GTTVD  
# ...
   16:19:59.580.18-Jan-2020 4958.01 4406.77 79.90 2.00 391.03 2829.97
   16:19:59.780.18-Jan-2020 4958.01 4406.77 79.90 2.00 391.23 2829.97
   16:19:59.980.18-Jan-2020 4958.01 4406.76 79.90 2.00 391.43 2829.97
   16:20:00.180.18-Jan-2020 4958.01 4406.79 79.90 2.00 391.63 2829.97
   16:20:00.380.18-Jan-2020 4958.01 4406.76 79.90 2.00 391.83 2829.97
   16:20:00.580.18-Jan-2020 4958.01 4406.77 79.90 2.00 392.03 2829.97
   16:20:00.780.18-Jan-2020 4958.01 4406.77 79.90 2.00 392.23 2829.97
   16:20:00.980.18-Jan-2020 4958.01 4406.77 79.90 2.00 392.43 2829.97
   16:20:01.180.18-Jan-2020 4958.01 4406.77 79.90 2.00 392.63 2829.97
   16:20:01.380.18-Jan-2020 4958.01 4406.74 79.90 2.00 392.83 2829.97
   16:20:01.580.18-Jan-2020 4958.01 4406.68 79.90 2.00 393.03 2829.97
   16:20:01.780.18-Jan-2020 4958.01 4406.68 79.90 2.00 393.23 2829.97
   16:20:01.980.18-Jan-2020 4958.01 4406.85 79.90 2.00 393.43 2829.97
   16:20:02.180.18-Jan-2020 4958.01 4406.77 79.90 2.00 393.63 2829.97
   16:20:02.380.18-Jan-2020 4958.01 4406.80 79.90 2.00 393.83 2829.97
   16:20:02.580.18-Jan-2020 4958.01 4406.77 79.90 2.00 394.03 2829.97
   16:20:02.781.18-Jan-2020 4958.01 4406.77 79.90 2.00 394.23 2829.97
   16:20:02.981.18-Jan-2020 4958.01 4406.76 79.90 2.00 394.43 2829.97
   16:20:03.181.18-Jan-2020 4958.01 4406.77 79.90 2.00 394.63 2829.97
   16:20:03.381.18-Jan-2020 4958.01 4406.76 79.90 2.00 394.83 2829.97
   16:20:03.581.18-Jan-2020 4958.01 4406.76 79.89 2.00 395.03 2829.97
   16:20:03.781.18-Jan-2020 4958.01 4406.76 79.89 2.00 395.23 2829.97
   16:20:03.981.18-Jan-2020 4958.01 4406.74 79.89 2.00 395.43 2829.97
   16:20:04.181.18-Jan-2020 4958.01 4406.78 79.89 2.00 395.63 2829.97
   16:20:04.381.18-Jan-2020 4958.01 4406.74 79.89 2.00 395.83 2829.97
   16:20:04.581.18-Jan-2020 4958.01 4406.76 79.89 2.00 396.03 2829.97
   16:20:04.781.18-Jan-2020 4958.01 4406.76 79.89 2.00 396.23 2829.97
   16:20:04.981.18-Jan-2020 4958.01 4406.54 79.89 2.00 396.43 2829.97
   16:20:05.181.18-Jan-2020 4958.01 4406.88 79.89 2.00 396.63 2829.97
   16:20:05.381.18-Jan-2020 4958.01 4406.84 79.89 2.00 396.83 2829.97
   16:20:05.581.18-Jan-2020 4958.01 4406.78 79.89 2.00 397.03 2829.97
   16:20:05.781.18-Jan-2020 4958.01 4406.78 79.89 2.00 397.23 2829.97
   16:20:05.981.18-Jan-2020 4958.01 4406.61 79.89 2.00 397.43 2829.97
   16:20:06.181.18-Jan-2020 4958.01 4406.88 79.89 2.00 397.63 2829.97
   16:20:06.381.18-Jan-2020 4958.01 4406.78 79.89 2.00 397.83 2829.97
   16:20:06.581.18-Jan-2020 4958.01 4406.77 79.89 2.00 398.03 2829.97
   16:20:06.781.18-Jan-2020 4958.01 4406.77 79.89 2.00 398.23 2829.97
   16:20:06.981.18-Jan-2020 4958.01 4406.76 79.89 2.00 398.43 2829.97
   16:20:07.181.18-Jan-2020 4958.01 4406.71 79.89 2.00 398.63 2829.97
   16:20:07.381.18-Jan-2020 4958.01 4406.75 79.89 2.00 398.83 2829.97
   16:20:07.581.18-Jan-2020 4958.01 4406.84 79.88 2.00 399.03 2829.97
   16:20:07.781.18-Jan-2020 4958.01 4406.84 79.88 2.00 399.23 2829.97
   16:20:07.981.18-Jan-2020 4958.01 4406.79 79.88 2.00 399.43 2829.97
   16:20:08.181.18-Jan-2020 4958.01 4406.77 79.88 2.00 399.63 2829.97
   16:20:08.381.18-Jan-2020 4958.01 4406.61 79.88 2.00 399.83 2829.97
   16:20:08.581.18-Jan-2020 4958.01 4406.91 79.88 2.00 400.03 2829.97
   16:20:08.781.18-Jan-2020 4958.01 4406.91 79.88 2.00 400.23 2829.97
   16:20:08.981.18-Jan-2020 4958.01 4406.81 79.88 2.00 400.43 2829.97
   16:20:09.181.18-Jan-2020 4958.01 4406.78 79.88 2.00 400.63 2829.97
   16:20:09.381.18-Jan-2020 4958.01 4406.80 79.88 2.00 400.83 2829.97
   16:20:09.581.18-Jan-2020 4958.01 4406.75 79.88 2.00 401.03 2829.97
   16:20:09.781.18-Jan-2020 4958.01 4406.75 79.88 2.00 401.23 2829.97
   16:20:09.981.18-Jan-2020 4958.01 4406.76 79.88 2.00 401.43 2829.97
   16:20:10.181.18-Jan-2020 4958.01 4406.78 79.88 2.00 401.63 2829.97
   16:20:10.381.18-Jan-2020 4958.01 4406.76 79.88 2.00 401.83 2829.97
   16:20:10.581.18-Jan-2020 4958.01 4406.77 79.88 2.00 402.03 2829.97
   16:20:10.781.18-Jan-2020 4958.01 4406.77 79.88 2.00 402.23 2829.97
   16:20:10.981.18-Jan-2020 4958.01 4406.76 79.88 2.00 402.43 2829.97
   16:20:11.181.18-Jan-2020 4958.01 4406.77 79.88 2.00 402.63 2829.97
   16:20:11.381.18-Jan-2020 4958.01 4406.74 79.88 2.00 402.83 2829.97
   16:20:11.581.18-Jan-2020 4958.01 4406.61 79.87 2.00 403.03 2829.97
   16:20:11.781.18-Jan-2020 4958.01 4406.61 79.87 2.00 403.23 2829.97
   16:20:11.981.18-Jan-2020 4958.01 4406.77 79.87 2.00 403.43 2829.97
   16:20:12.181.18-Jan-2020 4958.01 4406.77 79.87 2.00 403.63 2829.97
   16:20:12.381.18-Jan-2020 4958.01 4406.81 79.87 2.00 403.83 2829.97
   16:20:12.581.18-Jan-2020 4958.01 4406.77 79.87 2.00 404.03 2829.97
   16:20:12.781.18-Jan-2020 4958.01 4406.77 79.87 2.00 404.23 2829.97
   16:20:12.981.18-Jan-2020 4958.01 4406.74 79.87 2.00 404.43 2829.97
   16:20:13.181.18-Jan-2020 4958.01 4406.77 79.87 2.00 404.63 2829.97
   16:20:13.381.18-Jan-2020 4958.01 4406.75 79.87 2.00 404.83 2829.97
   16:20:13.581.18-Jan-2020 4958.01 4406.75 79.87 2.00 405.03 2829.97
   16:20:13.781.18-Jan-2020 4958.01 4406.75 79.87 2.00 405.23 2829.97
   16:20:13.981.18-Jan-2020 4958.01 4406.74 79.87 2.00 405.43 2829.97
   16:20:14.181.18-Jan-2020 4958.01 4406.78 79.87 2.00 405.63 2829.97
   16:20:14.381.18-Jan-2020 4958.01 4406.72 79.87 2.00 405.83 2829.97
   16:20:14.581.18-Jan-2020 4958.01 4406.77 79.87 2.00 406.03 2829.97
   16:20:14.781.18-Jan-2020 4958.01 4406.77 79.87 2.00 406.23 2829.97
   16:20:14.982.18-Jan-2020 4958.01 4406.71 79.87 2.00 406.43 2829.97
   16:20:15.182.18-Jan-2020 4958.01 4406.76 79.87 2.00 406.63 2829.97
   16:20:15.382.18-Jan-2020 4958.01 4406.73 79.87 2.00 406.83 2829.97
   16:20:15.582.18-Jan-2020 4958.01 4406.81 79.86 2.00 407.03 2829.97
   16:20:15.782.18-Jan-2020 4958.01 4406.81 79.86 2.00 407.23 2829.97
   16:20:15.982.18-Jan-2020 4958.01 4406.77 79.86 2.00 407.43 2829.97
   16:20:16.182.18-Jan-2020 4958.01 4406.68 79.86 2.00 407.63 2829.97
   16:20:16.382.18-Jan-2020 4958.01 4406.79 79.86 2.00 407.83 2829.97
   16:20:16.582.18-Jan-2020 4958.01 4406.80 79.86 2.00 408.03 2829.97
   16:20:16.782.18-Jan-2020 4958.01 4406.80 79.86 2.00 408.23 2829.97
   16:20:16.982.18-Jan-2020 4958.01 4406.77 79.86 2.00 408.43 2829.97
   16:20:17.182.18-Jan-2020 4958.01 4406.64 79.86 2.00 408.63 2829.97
   16:20:17.382.18-Jan-2020 4958.01 4406.87 79.86 2.00 408.83 2829.97
   16:20:17.582.18-Jan-2020 4958.01 4406.79 79.86 2.00 409.03 2829.97
   16:20:17.782.18-Jan-2020 4958.01 4406.79 79.86 2.00 409.23 2829.97
   16:20:17.982.18-Jan-2020 4958.01 4406.79 79.86 2.00 409.43 2829.97
   16:20:18.182.18-Jan-2020 4958.01 4406.78 79.86 2.00 409.63 2829.97
   16:20:18.382.18-Jan-2020 4958.01 4406.76 79.86 2.00 409.83 2829.97
   16:20:18.582.18-Jan-2020 4958.01 4406.70 79.86 2.00 410.03 2829.97
   16:20:18.782.18-Jan-2020 4958.01 4406.70 79.86 2.00 410.23 2829.97
   16:20:18.982.18-Jan-2020 4958.01 4406.83 79.86 2.00 410.43 2829.97
   16:20:19.182.18-Jan-2020 4958.01 4406.75 79.86 2.00 410.63 2829.97
   16:20:19.382.18-Jan-2020 4958.01 4406.80 79.86 2.00 410.83 2829.97
   16:20:19.582.18-Jan-2020 4958.01 4406.76 79.85 2.00 411.03 2829.97
   16:20:19.782.18-Jan-2020 4958.01 4406.76 79.85 2.00 411.23 2829.97
   16:20:19.982.18-Jan-2020 4958.01 4406.76 79.85 2.00 411.43 2829.97
   16:20:20.182.18-Jan-2020 4958.01 4406.78 79.85 2.00 411.63 2829.97
   16:20:20.382.18-Jan-2020 4958.01 4406.75 79.85 2.00 411.83 2829.97
   16:20:20.582.18-Jan-2020 4958.01 4406.76 79.85 2.00 412.03 2829.97
   16:20:20.782.18-Jan-2020 4958.01 4406.76 79.85 2.00 412.23 2829.97
   16:20:20.982.18-Jan-2020 4958.01 4406.74 79.85 2.00 412.43 2829.97
   16:20:21.182.18-Jan-2020 4958.01 4406.77 79.85 2.00 412.63 2829.97
   16:20:21.382.18-Jan-2020 4958.01 4406.73 79.85 2.00 412.83 2829.97
   16:20:21.582.18-Jan-2020 4958.01 4406.74 79.85 2.00 413.03 2829.97
   16:20:21.782.18-Jan-2020 4958.01 4406.74 79.85 2.00 413.23 2829.97
   16:20:21.982.18-Jan-2020 4958.01 4406.79 79.85 2.00 413.43 2829.97
   16:20:22.182.18-Jan-2020 4958.01 4406.80 79.85 2.00 413.63 2829.97
   16:20:22.382.18-Jan-2020 4958.01 4406.79 79.85 2.00 413.83 2829.97
