~Version Information
 VERS.                  2.0:   CWLS log ASCII Standard -VERSION 2.0
 WRAP.                   NO:   One line per depth step
~Well Information Block
#MNEM.UNIT     VALUE/NAME     DESCRIPTION
#---------     -----------    ---------------------------
 STRT.S             05:36:55 19-Jan-20: START TIME 05:36:55 19-Jan-20
 STOP.S             05:44:47 19-Jan-20: STOP TIME  05:44:47 19-Jan-20
 STEP.S                   0.00: STEP TIME
 NULL.                 -999.25: NULL VALUE
 DFWT.                        :  DIST FWL TEXT
 DFST.                        :  DIST FSL TEXT
 DMF .             Drill Floor:  DRILL MEAS FROM
 STIM.      17.57.20 21-Dec-19:  START TIME
 DATE.      17.57.20 21-Dec-19:  END TIME
 SPUD.               21-Dec-19:  SPUD DATE
 NREF.                    Grid:  NORTH REFERENCE
 HPTY.       Minimum Curvature:  HOLE POS TYPE
 DMOD.             Drill Model:  DRILL MOD DESC
 SVYD.                  Survey:  SURVEY DESC
 ILTD.               Lithology:  INTERP LTH DESC
 FTOP.          Formation Tops:  FORM TOPS DESC
 PDAT.          Mean Sea Level:  PERMANENT DATUM
 FLD .                     ACG:  FIELD NAME
 SON .        AZ-XX-0905715376:  JOB NUMBER
 CTRY.              Azerbaijan:  COUNTRY NAME
 WELL.                    E04Y:  WELL NAME
 SRVC.          TURAN DRILLING:  CONTRACTOR
 COMP.     BP Exploration (Caspian Sea) Ltd.:  COMPANY
 WTYP.                Deviated:  WELL TYPE
 UWI .                     N/a:  UNIQUE WELL IDENTIFIER
 API .                     N/a:  API NUMBER
 BASE.              Azerbaijan:  LOGGING EQUIPMENT BASE LOCATION
 REGN.                   EESSA:  REGION
 MWDS.                    Baku:  MWD SHOP
 RIG .                     DWG:  RIG NAME
 DOE .                     N/a:  DOE NUMBER
 CNTY.                    Baku:  COUNTY NAME
 DCON.         Sperry Drilling:  DIRECTNL CONTR
 UNIT.                     N/a:  LOGGING EQUIPMENT ID
 MDS .        Operator Entered:  MAG DATA SOURCE
 PROV.                        :  PROVINCE
 STAT.                        :  STATE
 LOC .                        :  LOCATION
 LMF .             Drill Floor:  LOG MEASURED FROM
 TVDS.m                  43.16:  TVDSS CORRECTN
 LATI.deg                40.17:  LATITUDE
 LONG.deg                51.17:  LONGITUDE
 WHNS.m                  -0.12:  WELL HEAD N/S
 WHEW.m                  -5.41:  WELL HEAD E/W
 UTMX.m              514337.95:  UTM X
 UTMY.m             4448627.46:  UTM Y
 DFWL.m                   0.00:  DISTANCE FWL
 DFSL.m                   0.00:  DISTANCE FSL
 SDEP.m                   0.00:  START DEPTH
 TDD .m                   0.00:  TOTAL DEPTH (DRILLER)
 VSDR.deg               235.12:  VERT SEC DIRECT
 GVFD.g                   1.00:  GRAVITY FIELD
 MFLD.nT              50294.00:  MAGNETIC FIELD
 MDIP.deg                59.61:  MAGNETIC DIP
 MDEC.deg                 6.58:  MAGNETIC DECL
 GRDC.deg                 0.09:  GRID CORRECTION
 AZTC.deg                 6.49:  AZM TOTAL CORR
 EPD .m                   0.00:  ELEVATION
 EGL .m                   0.00:  GROUND ELEVATION
 WDMS.m                 176.20:  WD ELEV
 APD .m                  43.16:  DEPTH ABOVE PD
 DEP .m                3172.61:  DEPTH
 AGAP.m                  43.16:  AIR GAP
 VSEW.m                  -5.41:  VERT SEC E/W
 VSNS.m                  -0.12:  VERT SEC N/S
 EKB .m                  43.16:  KB ELEVATION
 EDF .m                  43.16:  DF ELEVATION
 TDL .m                 295.00:  TOTAL DEPTH (LOGGER)
 VSC .                       0:  VS TO CLOSURE
 MAGU.                 1852276:  MAGUTM CHECKSUM
~Parameter Information Block
#MNEM.UNIT       Value        Description
#---------     -----------    ---------------------------
 AV  .mps                 1.60:  Ann Velocity 
 AVMX.mps                 2.10:  Max Ann Veloc 
 AZIF.deg               290.59:  Azm, Final 
 BHAT.        Rotary Steerable:  BHA Type 
 BROT.°/30m               1.00:  Build Rotating 
 BS  .in                  6.50:  Bit Size 
 BSZ .in                  6.50:  Bit Size 
 BTPL.psig              120.00:  Bit Press Loss 
 CABU.                     Yes:  Customer Abuse 
 CGEO.          Eldar Huseynov:  Customer Geo 
 COMM.                     Lì_:  Run Comments 1 
 TCS .hr                 87.00:  Time Ciculation Ended 
 CV  .mps                 4.01:  Crit Velocity 
 CVMX.mps                 5.06:  Max Crit Veloc 
 DD1 .             Aziz Aliyev:  Direct Drillr 1 
 DD2 .            Sanan Aliyev:  Direct Drillr 2 
 DDSV.               Geo-Pilot:  DD Service 
 DEFF.%                  95.00:  % Det Eff 
 DLRX.°/30m               0.75:  Dogleg Rot Max 
 DLSO.°/30m               0.65:  Dogleg Oriented 
 DLSX.°/30m               1.39:  Dogleg Str Max 
 DRET.      18.25.00 19-Jan-20:  Drill End Time 
 DRST.      11.56.48 17-Jan-20:  Drill Start Tim 
 DTIM.hr                 27.16:  Time Drilling 
 EDEP.m                5161.01:  End Depth 
 ENG1.          Rasim Hashimov:  Engineer 1 
 ENG2.      Bakhtiyar Jabbarli:  Engineer 2 
 ETIM.      11.56.48 21-Jan-20:  End Time 
 FLOI.gpm               350.00:  Flow In 
 FLON.gpm               300.00:  Flow In Min 
 FLOS.cptm                0.00:  Fluid Loss 
 FLOX.gpm               400.00:  Flow In Max 
 HFLO.                      No:  High Flow 
 HPRE.                      No:  High Pressure 
 HTEM.                      No:  High Temp 
 HYDO.m                   1.85:  Hydro Offset 
 IFIN.deg                71.58:  Inc, Final 
 IMAX.deg                71.83:  Inc Max 
 IMIN.deg                71.12:  Inc Min 
 IMND.m                5099.48:  Inc Min Depth 
 IMXD.m                5071.08:  Inc Max Depth 
 JARR.                      No:  Jarring 
 LETM.      18.25.00 19-Jan-20:  Log End Time 
 LOST.hr                     0:  Lost Rig Time 
 LSTM.      11.56.48 17-Jan-20:  Log Start Time 
 MDCL.ppm             37000.00:  Mud Chlorides 
 MDES.     Inversion Oil/Synthetic:  Mud Desc 
 DFD .sg                  1.34:  Mud Density 
 MDMN.sg                  1.34:  Dens Mud Min 
 MDMX.sg                  1.34:  Dens Mud Max 
 MOIL.                      69:  Run Mud Oil % 
 MOWR.                   69:31:  Run Mud OWR 
 MSND.                     0.1:  Run Mud Sand % 
 MSOL.                    17.6:  Run Mud Solids% 
 DFV .spqt               79.00:  Mud Viscosity 
 MWOD.in                  4.75:  MWD Tool OD 
 MWSI.                      No:  Serv Intrp, MWD 
 OTIM.hr                126.10:  Time Operating 
 PMAX.psia             6000.00:  Press Op, Max 
 PV  .cP                 29.00:  Mud PV 
 RUN .                     400:  Run Number 
 ROPA.m/hr               11.00:  ROP Avg 
 ROPN.m/hr                5.00:  ROP Min 
 ROPX.m/hr               18.00:  ROP Max 
 RPMA.rpm               139.00:  RPM Surface Avg 
 RPMN.rpm               100.00:  RPM Surface Min 
 RPMX.rpm               140.00:  RPM Surface Max 
 RRUN.                     400:  Rig Run Number 
 SAZI.deg               290.22:  Azm, Start 
 SDEP.m                4868.01:  Start Depth 
 SIDD.                      No:  Serv Intrp, DD 
 SINC.deg                71.77:  Inc, Start 
 SPPA.psig             5550.00:  SPP Avg 
 SPPN.psig             4300.00:  SPP Min 
 SPPX.psig             5600.00:  SPP Max 
 STIM.      23.45.48 15-Jan-20:  Start Time 
 SVCS.                 DD, MWD:  Services 
 SVER.                    9.20:  Sperry Version 
 TDAT.m                5161.01:  Tot Depth Attmp 
 TDDF.                      No:  Trip for DD 
 TDLG.m                 295.00:  Tot Depth Loggd 
 TFF .                      No:  Trip for Fail 
 TQAA.f-kp               13.00:  Torque Abs Avg 
 TQAN.f-kp               13.00:  Torque Abs Min 
 TQAX.f-kp               16.00:  Torque Abs Max 
 TRRT.°/30m               0.25:  Turn Rotating 
 MRT .                     ADR:  Maximum Recorded Temperature 
 TTMX.degC               88.00:  Max Tool Temp 
 VS01.                90577859:  Virtual Str1 SN 
 VS02.                90521879:  Virtual Str2 SN 
 VS03.                90580299:  Virtual Str3 SN 
 VS04.                90515982:  Virtual Str4 SN 
 VS05.                90547765:  Virtual Str5 SN 
 WBMN.klb                 2.00:  WOB Min 
 WITN.           Adil Mammadov:  Customer Rep 
 WITN.        Elmaddin Rahimov:  Customer Rep 2 
 WOBA.klb                 3.00:  WOB Avg 
 WOBX.klb                 5.00:  WOB Max 
 YP  .lhf2               30.00:  Yield Point 
~Curve Information Block
#MNEM.UNIT                 API CODE     Curve Description
#---------               -----------    ---------------------------
 TIME.HHMMSS            00 000 000 000:  GT Time & Date
 GTDEPTH.m              00 000 000 000:  GT Depth
 GTPQH.psia             00 000 000 000:  GT HR Quartz Pressure
 GTTQ.degC              00 000 000 000:  GT Quartz Temperature
 GTTN.NONE              00 000 000 000:  GT Test Number
 GTET.sec               00 000 000 000:  GT Elapsed Test Time
 GTTVD.m                00 000 000 000:  GT True Vertical Depth
#Other Information
#
#WARRANTY: Halliburton will use its best efforts to furnish customers with 
#accurate information and interpretations that are part of, and incident to, the services 
#provided.  However, Halliburton cannot and does not warrant the accuracy 
#or correctness of such information and interpretations.  Under no circumstances should any 
#such information or interpretation be relied upon as the sole basis for any drilling, 
#completion, production, or financial decision or any procedure involving any risk to the 
#safety of any drilling venture, drilling rig or its crew or any other third party.  The 
#Customer has full responsibility for all drilling, completion and production operation.  
#Halliburton makes no representations or warranties, either expressed or 
#implied, including, but not limited to, the implied warranties of merchantability or fitness 
#for a particular purpose, with respect to the services rendered.  In no event will 
#Halliburton be liable for failure to obtain any particular results or for 
#any damages, including, but not limited to, indirect, special or consequential damages, 
#resulting from the use of any information or interpretation provided by Halliburton.
#
~A           TIME           GTDEPTH  GTPQH  GTTQ  GTTN  GTET   GTTVD  
# ...
   05:39:36.633.19-Jan-2020 5052.01 4085.80 81.55 4.00 161.03 2859.87
   05:39:36.833.19-Jan-2020 5052.01 4085.80 81.55 4.00 161.23 2859.87
   05:39:37.033.19-Jan-2020 5052.01 4085.79 81.55 4.00 161.43 2859.87
   05:39:37.233.19-Jan-2020 5052.01 4085.80 81.55 4.00 161.63 2859.87
   05:39:37.433.19-Jan-2020 5052.01 4085.78 81.55 4.00 161.83 2859.87
   05:39:37.633.19-Jan-2020 5052.01 4085.79 81.55 4.00 162.03 2859.87
   05:39:37.833.19-Jan-2020 5052.01 4085.79 81.55 4.00 162.23 2859.87
   05:39:38.033.19-Jan-2020 5052.01 4084.30 81.55 4.00 162.43 2859.87
   05:39:38.233.19-Jan-2020 5052.01 4082.91 81.55 4.00 162.63 2859.87
   05:39:38.433.19-Jan-2020 5052.01 4082.94 81.55 4.00 162.83 2859.87
   05:39:38.633.19-Jan-2020 5052.01 4082.88 81.55 4.00 163.03 2859.87
   05:39:38.833.19-Jan-2020 5052.01 4082.88 81.55 4.00 163.23 2859.87
   05:39:39.033.19-Jan-2020 5052.01 4082.91 81.55 4.00 163.43 2859.87
   05:39:39.233.19-Jan-2020 5052.01 4082.87 81.55 4.00 163.63 2859.87
   05:39:39.433.19-Jan-2020 5052.01 4082.88 81.54 4.00 163.83 2859.87
   05:39:39.633.19-Jan-2020 5052.01 4082.86 81.54 4.00 164.03 2859.87
   05:39:39.833.19-Jan-2020 5052.01 4082.86 81.54 4.00 164.23 2859.87
   05:39:40.033.19-Jan-2020 5052.01 4082.85 81.54 4.00 164.44 2859.87
   05:39:40.233.19-Jan-2020 5052.01 4082.89 81.54 4.00 164.64 2859.87
   05:39:40.433.19-Jan-2020 5052.01 4082.84 81.54 4.00 164.84 2859.87
   05:39:40.633.19-Jan-2020 5052.01 4082.92 81.54 4.00 165.04 2859.87
   05:39:40.833.19-Jan-2020 5052.01 4082.92 81.54 4.00 165.24 2859.87
   05:39:41.034.19-Jan-2020 5052.01 4082.87 81.54 4.00 165.44 2859.87
   05:39:41.234.19-Jan-2020 5052.01 4082.84 81.54 4.00 165.64 2859.87
   05:39:41.434.19-Jan-2020 5052.01 4082.73 81.54 4.00 165.84 2859.87
   05:39:41.634.19-Jan-2020 5052.01 4082.93 81.54 4.00 166.04 2859.87
   05:39:41.834.19-Jan-2020 5052.01 4082.93 81.54 4.00 166.24 2859.87
   05:39:42.034.19-Jan-2020 5052.01 4082.81 81.54 4.00 166.44 2859.87
   05:39:42.234.19-Jan-2020 5052.01 4082.85 81.54 4.00 166.64 2859.87
   05:39:42.434.19-Jan-2020 5052.01 4082.87 81.54 4.00 166.84 2859.87
   05:39:42.634.19-Jan-2020 5052.01 4082.84 81.54 4.00 167.04 2859.87
   05:39:42.834.19-Jan-2020 5052.01 4082.84 81.54 4.00 167.24 2859.87
   05:39:43.034.19-Jan-2020 5052.01 4082.85 81.54 4.00 167.44 2859.87
   05:39:43.234.19-Jan-2020 5052.01 4082.82 81.54 4.00 167.64 2859.87
   05:39:43.434.19-Jan-2020 5052.01 4082.82 81.54 4.00 167.84 2859.87
   05:39:43.634.19-Jan-2020 5052.01 4082.87 81.54 4.00 168.04 2859.87
   05:39:43.834.19-Jan-2020 5052.01 4082.87 81.54 4.00 168.24 2859.87
   05:39:44.034.19-Jan-2020 5052.01 4082.79 81.53 4.00 168.44 2859.87
   05:39:44.234.19-Jan-2020 5052.01 4082.80 81.53 4.00 168.64 2859.87
   05:39:44.434.19-Jan-2020 5052.01 4082.64 81.53 4.00 168.84 2859.87
   05:39:44.634.19-Jan-2020 5052.01 4082.92 81.53 4.00 169.04 2859.87
   05:39:44.834.19-Jan-2020 5052.01 4082.92 81.53 4.00 169.24 2859.87
   05:39:45.034.19-Jan-2020 5052.01 4082.79 81.53 4.00 169.44 2859.87
   05:39:45.234.19-Jan-2020 5052.01 4082.80 81.53 4.00 169.64 2859.87
   05:39:45.434.19-Jan-2020 5052.01 4082.81 81.53 4.00 169.84 2859.87
   05:39:45.634.19-Jan-2020 5052.01 4082.77 81.53 4.00 170.04 2859.87
   05:39:45.835.19-Jan-2020 5052.01 4082.77 81.53 4.00 170.24 2859.87
   05:39:46.035.19-Jan-2020 5052.01 4082.66 81.53 4.00 170.44 2859.87
   05:39:46.235.19-Jan-2020 5052.01 4082.86 81.53 4.00 170.64 2859.87
   05:39:46.435.19-Jan-2020 5052.01 4082.71 81.53 4.00 170.84 2859.87
   05:39:46.635.19-Jan-2020 5052.01 4082.76 81.53 4.00 171.04 2859.87
   05:39:46.835.19-Jan-2020 5052.01 4082.76 81.53 4.00 171.24 2859.87
   05:39:47.035.19-Jan-2020 5052.01 4082.71 81.53 4.00 171.44 2859.87
   05:39:47.235.19-Jan-2020 5052.01 4082.76 81.53 4.00 171.64 2859.87
   05:39:47.435.19-Jan-2020 5052.01 4082.71 81.53 4.00 171.84 2859.87
   05:39:47.635.19-Jan-2020 5052.01 4082.68 81.53 4.00 172.04 2859.87
   05:39:47.835.19-Jan-2020 5052.01 4082.68 81.53 4.00 172.24 2859.87
   05:39:48.035.19-Jan-2020 5052.01 4082.75 81.53 4.00 172.44 2859.87
   05:39:48.235.19-Jan-2020 5052.01 4083.84 81.53 4.00 172.64 2859.87
   05:39:48.435.19-Jan-2020 5052.01 4085.55 81.53 4.00 172.84 2859.87
   05:39:48.635.19-Jan-2020 5052.01 4085.57 81.52 4.00 173.04 2859.87
   05:39:48.835.19-Jan-2020 5052.01 4085.57 81.52 4.00 173.24 2859.87
   05:39:49.035.19-Jan-2020 5052.01 4085.63 81.52 4.00 173.44 2859.87
   05:39:49.235.19-Jan-2020 5052.01 4085.55 81.52 4.00 173.64 2859.87
   05:39:49.435.19-Jan-2020 5052.01 4085.74 81.52 4.00 173.84 2859.87
   05:39:49.635.19-Jan-2020 5052.01 4085.73 81.52 4.00 174.04 2859.87
   05:39:49.835.19-Jan-2020 5052.01 4085.73 81.52 4.00 174.24 2859.87
   05:39:50.035.19-Jan-2020 5052.01 4085.73 81.52 4.00 174.44 2859.87
   05:39:50.235.19-Jan-2020 5052.01 4085.74 81.52 4.00 174.64 2859.87
   05:39:50.436.19-Jan-2020 5052.01 4085.72 81.52 4.00 174.84 2859.87
   05:39:50.636.19-Jan-2020 5052.01 4085.75 81.52 4.00 175.04 2859.87
   05:39:50.836.19-Jan-2020 5052.01 4085.75 81.52 4.00 175.24 2859.87
   05:39:51.036.19-Jan-2020 5052.01 4085.74 81.52 4.00 175.44 2859.87
   05:39:51.236.19-Jan-2020 5052.01 4085.73 81.52 4.00 175.64 2859.87
   05:39:51.436.19-Jan-2020 5052.01 4085.73 81.52 4.00 175.84 2859.87
   05:39:51.636.19-Jan-2020 5052.01 4085.73 81.52 4.00 176.04 2859.87
   05:39:51.836.19-Jan-2020 5052.01 4085.73 81.52 4.00 176.24 2859.87
   05:39:52.036.19-Jan-2020 5052.01 4085.73 81.52 4.00 176.44 2859.87
   05:39:52.236.19-Jan-2020 5052.01 4085.72 81.52 4.00 176.64 2859.87
   05:39:52.436.19-Jan-2020 5052.01 4085.74 81.52 4.00 176.84 2859.87
   05:39:52.636.19-Jan-2020 5052.01 4085.60 81.52 4.00 177.04 2859.87
   05:39:52.836.19-Jan-2020 5052.01 4085.60 81.52 4.00 177.24 2859.87
   05:39:53.036.19-Jan-2020 5052.01 4085.80 81.52 4.00 177.44 2859.87
   05:39:53.236.19-Jan-2020 5052.01 4085.74 81.52 4.00 177.64 2859.87
   05:39:53.436.19-Jan-2020 5052.01 4085.76 81.51 4.00 177.84 2859.87
   05:39:53.636.19-Jan-2020 5052.01 4085.75 81.51 4.00 178.04 2859.87
   05:39:53.836.19-Jan-2020 5052.01 4085.75 81.51 4.00 178.24 2859.87
   05:39:54.036.19-Jan-2020 5052.01 4085.65 81.51 4.00 178.44 2859.87
   05:39:54.236.19-Jan-2020 5052.01 4085.78 81.51 4.00 178.64 2859.87
   05:39:54.436.19-Jan-2020 5052.01 4085.78 81.51 4.00 178.84 2859.87
   05:39:54.636.19-Jan-2020 5052.01 4085.74 81.51 4.00 179.04 2859.87
   05:39:54.836.19-Jan-2020 5052.01 4085.74 81.51 4.00 179.24 2859.87
   05:39:55.036.19-Jan-2020 5052.01 4085.76 81.51 4.00 179.44 2859.87
   05:39:55.237.19-Jan-2020 5052.01 4085.75 81.51 4.00 179.64 2859.87
   05:39:55.437.19-Jan-2020 5052.01 4085.68 81.51 4.00 179.84 2859.87
   05:39:55.637.19-Jan-2020 5052.01 4085.78 81.51 4.00 180.04 2859.87
   05:39:55.837.19-Jan-2020 5052.01 4085.78 81.51 4.00 180.24 2859.87
   05:39:56.037.19-Jan-2020 5052.01 4085.73 81.51 4.00 180.44 2859.87
   05:39:56.237.19-Jan-2020 5052.01 4085.78 81.51 4.00 180.64 2859.87
   05:39:56.437.19-Jan-2020 5052.01 4085.75 81.51 4.00 180.84 2859.87
   05:39:56.637.19-Jan-2020 5052.01 4085.76 81.51 4.00 181.04 2859.87
   05:39:56.837.19-Jan-2020 5052.01 4085.76 81.51 4.00 181.24 2859.87
   05:39:57.037.19-Jan-2020 5052.01 4085.74 81.51 4.00 181.44 2859.87
   05:39:57.237.19-Jan-2020 5052.01 4085.78 81.51 4.00 181.64 2859.87
   05:39:57.437.19-Jan-2020 5052.01 4085.74 81.51 4.00 181.84 2859.87
   05:39:57.637.19-Jan-2020 5052.01 4085.78 81.51 4.00 182.04 2859.87
   05:39:57.837.19-Jan-2020 5052.01 4085.78 81.51 4.00 182.24 2859.87
   05:39:58.037.19-Jan-2020 5052.01 4085.76 81.51 4.00 182.44 2859.87
   05:39:58.237.19-Jan-2020 5052.01 4085.75 81.50 4.00 182.64 2859.87
   05:39:58.437.19-Jan-2020 5052.01 4085.76 81.50 4.00 182.84 2859.87
   05:39:58.637.19-Jan-2020 5052.01 4085.74 81.50 4.00 183.04 2859.87
   05:39:58.837.19-Jan-2020 5052.01 4085.74 81.50 4.00 183.24 2859.87
   05:39:59.037.19-Jan-2020 5052.01 4085.73 81.50 4.00 183.44 2859.87
   05:39:59.237.19-Jan-2020 5052.01 4085.74 81.50 4.00 183.64 2859.87
   05:39:59.437.19-Jan-2020 5052.01 4085.74 81.50 4.00 183.84 2859.87
