~Version Information
 VERS.                  2.0:   CWLS log ASCII Standard -VERSION 2.0
 WRAP.                   NO:   One line per depth step
~Well Information Block
#MNEM.UNIT     VALUE/NAME     DESCRIPTION
#---------     -----------    ---------------------------
 STRT.S             10:27:46 18-Jan-20: START TIME 10:27:46 18-Jan-20
 STOP.S             10:35:37 18-Jan-20: STOP TIME  10:35:37 18-Jan-20
 STEP.S                   0.00: STEP TIME
 NULL.                 -999.25: NULL VALUE
 DFWT.                        :  DIST FWL TEXT
 DFST.                        :  DIST FSL TEXT
 DMF .             Drill Floor:  DRILL MEAS FROM
 STIM.      17.57.20 21-Dec-19:  START TIME
 DATE.      17.57.20 21-Dec-19:  END TIME
 SPUD.               21-Dec-19:  SPUD DATE
 NREF.                    Grid:  NORTH REFERENCE
 HPTY.       Minimum Curvature:  HOLE POS TYPE
 DMOD.             Drill Model:  DRILL MOD DESC
 SVYD.                  Survey:  SURVEY DESC
 ILTD.               Lithology:  INTERP LTH DESC
 FTOP.          Formation Tops:  FORM TOPS DESC
 PDAT.          Mean Sea Level:  PERMANENT DATUM
 FLD .                     ACG:  FIELD NAME
 SON .        AZ-XX-0905715376:  JOB NUMBER
 CTRY.              Azerbaijan:  COUNTRY NAME
 WELL.                    E04Y:  WELL NAME
 SRVC.          TURAN DRILLING:  CONTRACTOR
 COMP.     BP Exploration (Caspian Sea) Ltd.:  COMPANY
 WTYP.                Deviated:  WELL TYPE
 UWI .                     N/a:  UNIQUE WELL IDENTIFIER
 API .                     N/a:  API NUMBER
 BASE.              Azerbaijan:  LOGGING EQUIPMENT BASE LOCATION
 REGN.                   EESSA:  REGION
 MWDS.                    Baku:  MWD SHOP
 RIG .                     DWG:  RIG NAME
 DOE .                     N/a:  DOE NUMBER
 CNTY.                    Baku:  COUNTY NAME
 DCON.         Sperry Drilling:  DIRECTNL CONTR
 UNIT.                     N/a:  LOGGING EQUIPMENT ID
 MDS .        Operator Entered:  MAG DATA SOURCE
 PROV.                        :  PROVINCE
 STAT.                        :  STATE
 LOC .                        :  LOCATION
 LMF .             Drill Floor:  LOG MEASURED FROM
 TVDS.m                  43.16:  TVDSS CORRECTN
 LATI.deg                40.17:  LATITUDE
 LONG.deg                51.17:  LONGITUDE
 WHNS.m                  -0.12:  WELL HEAD N/S
 WHEW.m                  -5.41:  WELL HEAD E/W
 UTMX.m              514337.95:  UTM X
 UTMY.m             4448627.46:  UTM Y
 DFWL.m                   0.00:  DISTANCE FWL
 DFSL.m                   0.00:  DISTANCE FSL
 SDEP.m                   0.00:  START DEPTH
 TDD .m                   0.00:  TOTAL DEPTH (DRILLER)
 VSDR.deg               235.12:  VERT SEC DIRECT
 GVFD.g                   1.00:  GRAVITY FIELD
 MFLD.nT              50294.00:  MAGNETIC FIELD
 MDIP.deg                59.61:  MAGNETIC DIP
 MDEC.deg                 6.58:  MAGNETIC DECL
 GRDC.deg                 0.09:  GRID CORRECTION
 AZTC.deg                 6.49:  AZM TOTAL CORR
 EPD .m                   0.00:  ELEVATION
 EGL .m                   0.00:  GROUND ELEVATION
 WDMS.m                 176.20:  WD ELEV
 APD .m                  43.16:  DEPTH ABOVE PD
 DEP .m                3172.61:  DEPTH
 AGAP.m                  43.16:  AIR GAP
 VSEW.m                  -5.41:  VERT SEC E/W
 VSNS.m                  -0.12:  VERT SEC N/S
 EKB .m                  43.16:  KB ELEVATION
 EDF .m                  43.16:  DF ELEVATION
 TDL .m                 295.00:  TOTAL DEPTH (LOGGER)
 VSC .                       0:  VS TO CLOSURE
 MAGU.                 1852276:  MAGUTM CHECKSUM
~Parameter Information Block
#MNEM.UNIT       Value        Description
#---------     -----------    ---------------------------
 AV  .mps                 1.60:  Ann Velocity 
 AVMX.mps                 2.10:  Max Ann Veloc 
 AZIF.deg               290.59:  Azm, Final 
 BHAT.        Rotary Steerable:  BHA Type 
 BROT.°/30m               1.00:  Build Rotating 
 BS  .in                  6.50:  Bit Size 
 BSZ .in                  6.50:  Bit Size 
 BTPL.psig              120.00:  Bit Press Loss 
 CABU.                     Yes:  Customer Abuse 
 CGEO.          Eldar Huseynov:  Customer Geo 
 COMM.                     ¬Øj:  Run Comments 1 
 TCS .hr                 87.00:  Time Ciculation Ended 
 CV  .mps                 4.01:  Crit Velocity 
 CVMX.mps                 5.06:  Max Crit Veloc 
 DD1 .             Aziz Aliyev:  Direct Drillr 1 
 DD2 .            Sanan Aliyev:  Direct Drillr 2 
 DDSV.               Geo-Pilot:  DD Service 
 DEFF.%                  95.00:  % Det Eff 
 DLRX.°/30m               0.75:  Dogleg Rot Max 
 DLSO.°/30m               0.65:  Dogleg Oriented 
 DLSX.°/30m               1.39:  Dogleg Str Max 
 DRET.      18.25.00 19-Jan-20:  Drill End Time 
 DRST.      11.56.48 17-Jan-20:  Drill Start Tim 
 DTIM.hr                 27.16:  Time Drilling 
 EDEP.m                5161.01:  End Depth 
 ENG1.          Rasim Hashimov:  Engineer 1 
 ENG2.      Bakhtiyar Jabbarli:  Engineer 2 
 ETIM.      11.56.48 21-Jan-20:  End Time 
 FLOI.gpm               350.00:  Flow In 
 FLON.gpm               300.00:  Flow In Min 
 FLOS.cptm                0.00:  Fluid Loss 
 FLOX.gpm               400.00:  Flow In Max 
 HFLO.                      No:  High Flow 
 HPRE.                      No:  High Pressure 
 HTEM.                      No:  High Temp 
 HYDO.m                   1.85:  Hydro Offset 
 IFIN.deg                71.58:  Inc, Final 
 IMAX.deg                71.83:  Inc Max 
 IMIN.deg                71.12:  Inc Min 
 IMND.m                5099.48:  Inc Min Depth 
 IMXD.m                5071.08:  Inc Max Depth 
 JARR.                      No:  Jarring 
 LETM.      18.25.00 19-Jan-20:  Log End Time 
 LOST.hr                     0:  Lost Rig Time 
 LSTM.      11.56.48 17-Jan-20:  Log Start Time 
 MDCL.ppm             37000.00:  Mud Chlorides 
 MDES.     Inversion Oil/Synthetic:  Mud Desc 
 DFD .sg                  1.34:  Mud Density 
 MDMN.sg                  1.34:  Dens Mud Min 
 MDMX.sg                  1.34:  Dens Mud Max 
 MOIL.                      69:  Run Mud Oil % 
 MOWR.                   69:31:  Run Mud OWR 
 MSND.                     0.1:  Run Mud Sand % 
 MSOL.                    17.6:  Run Mud Solids% 
 DFV .spqt               79.00:  Mud Viscosity 
 MWOD.in                  4.75:  MWD Tool OD 
 MWSI.                      No:  Serv Intrp, MWD 
 OTIM.hr                126.10:  Time Operating 
 PMAX.psia             6000.00:  Press Op, Max 
 PV  .cP                 29.00:  Mud PV 
 RUN .                     400:  Run Number 
 ROPA.m/hr               11.00:  ROP Avg 
 ROPN.m/hr                5.00:  ROP Min 
 ROPX.m/hr               18.00:  ROP Max 
 RPMA.rpm               139.00:  RPM Surface Avg 
 RPMN.rpm               100.00:  RPM Surface Min 
 RPMX.rpm               140.00:  RPM Surface Max 
 RRUN.                     400:  Rig Run Number 
 SAZI.deg               290.22:  Azm, Start 
 SDEP.m                4868.01:  Start Depth 
 SIDD.                      No:  Serv Intrp, DD 
 SINC.deg                71.77:  Inc, Start 
 SPPA.psig             5550.00:  SPP Avg 
 SPPN.psig             4300.00:  SPP Min 
 SPPX.psig             5600.00:  SPP Max 
 STIM.      23.45.48 15-Jan-20:  Start Time 
 SVCS.                 DD, MWD:  Services 
 SVER.                    9.20:  Sperry Version 
 TDAT.m                5161.01:  Tot Depth Attmp 
 TDDF.                      No:  Trip for DD 
 TDLG.m                 295.00:  Tot Depth Loggd 
 TFF .                      No:  Trip for Fail 
 TQAA.f-kp               13.00:  Torque Abs Avg 
 TQAN.f-kp               13.00:  Torque Abs Min 
 TQAX.f-kp               16.00:  Torque Abs Max 
 TRRT.°/30m               0.25:  Turn Rotating 
 MRT .                     ADR:  Maximum Recorded Temperature 
 TTMX.degC               88.00:  Max Tool Temp 
 VS01.                90577859:  Virtual Str1 SN 
 VS02.                90521879:  Virtual Str2 SN 
 VS03.                90580299:  Virtual Str3 SN 
 VS04.                90515982:  Virtual Str4 SN 
 VS05.                90547765:  Virtual Str5 SN 
 WBMN.klb                 2.00:  WOB Min 
 WITN.           Adil Mammadov:  Customer Rep 
 WITN.        Elmaddin Rahimov:  Customer Rep 2 
 WOBA.klb                 3.00:  WOB Avg 
 WOBX.klb                 5.00:  WOB Max 
 YP  .lhf2               30.00:  Yield Point 
~Curve Information Block
#MNEM.UNIT                 API CODE     Curve Description
#---------               -----------    ---------------------------
 TIME.HHMMSS            00 000 000 000:  GT Time & Date
 GTDEPTH.m              00 000 000 000:  GT Depth
 GTPQH.psia             00 000 000 000:  GT HR Quartz Pressure
 GTTQ.degC              00 000 000 000:  GT Quartz Temperature
 GTTN.NONE              00 000 000 000:  GT Test Number
 GTET.sec               00 000 000 000:  GT Elapsed Test Time
 GTTVD.m                00 000 000 000:  GT True Vertical Depth
#Other Information
#
#WARRANTY: Halliburton will use its best efforts to furnish customers with 
#accurate information and interpretations that are part of, and incident to, the services 
#provided.  However, Halliburton cannot and does not warrant the accuracy 
#or correctness of such information and interpretations.  Under no circumstances should any 
#such information or interpretation be relied upon as the sole basis for any drilling, 
#completion, production, or financial decision or any procedure involving any risk to the 
#safety of any drilling venture, drilling rig or its crew or any other third party.  The 
#Customer has full responsibility for all drilling, completion and production operation.  
#Halliburton makes no representations or warranties, either expressed or 
#implied, including, but not limited to, the implied warranties of merchantability or fitness 
#for a particular purpose, with respect to the services rendered.  In no event will 
#Halliburton be liable for failure to obtain any particular results or for 
#any damages, including, but not limited to, indirect, special or consequential damages, 
#resulting from the use of any information or interpretation provided by Halliburton.
#
~A           TIME           GTDEPTH  GTPQH  GTTQ  GTTN  GTET   GTTVD  
# ...
   10:30:04.308.18-Jan-2020 4898.01 4078.90 73.45 1.00 138.02 2811.04
   10:30:04.508.18-Jan-2020 4898.01 4078.90 73.45 1.00 138.22 2811.04
   10:30:04.708.18-Jan-2020 4898.01 4078.90 73.45 1.00 138.42 2811.04
   10:30:04.908.18-Jan-2020 4898.01 4078.90 73.45 1.00 138.62 2811.04
   10:30:05.108.18-Jan-2020 4898.01 4078.60 73.45 1.00 138.82 2811.04
   10:30:05.308.18-Jan-2020 4898.01 4078.98 73.45 1.00 139.02 2811.04
   10:30:05.508.18-Jan-2020 4898.01 4078.98 73.45 1.00 139.22 2811.04
   10:30:05.708.18-Jan-2020 4898.01 4078.87 73.45 1.00 139.42 2811.04
   10:30:05.908.18-Jan-2020 4898.01 4078.86 73.45 1.00 139.62 2811.04
   10:30:06.108.18-Jan-2020 4898.01 4078.86 73.45 1.00 139.82 2811.04
   10:30:06.308.18-Jan-2020 4898.01 4078.87 73.45 1.00 140.02 2811.04
   10:30:06.508.18-Jan-2020 4898.01 4078.87 73.45 1.00 140.22 2811.04
   10:30:06.708.18-Jan-2020 4898.01 4078.87 73.45 1.00 140.42 2811.04
   10:30:06.908.18-Jan-2020 4898.01 4078.83 73.45 1.00 140.62 2811.04
   10:30:07.108.18-Jan-2020 4898.01 4078.84 73.45 1.00 140.82 2811.04
   10:30:07.308.18-Jan-2020 4898.01 4078.85 73.45 1.00 141.02 2811.04
   10:30:07.509.18-Jan-2020 4898.01 4078.85 73.45 1.00 141.22 2811.04
   10:30:07.709.18-Jan-2020 4898.01 4078.88 73.44 1.00 141.42 2811.04
   10:30:07.909.18-Jan-2020 4898.01 4078.83 73.44 1.00 141.62 2811.04
   10:30:08.109.18-Jan-2020 4898.01 4078.87 73.44 1.00 141.82 2811.04
   10:30:08.309.18-Jan-2020 4898.01 4078.82 73.44 1.00 142.02 2811.04
   10:30:08.509.18-Jan-2020 4898.01 4078.82 73.44 1.00 142.22 2811.04
   10:30:08.709.18-Jan-2020 4898.01 4078.93 73.44 1.00 142.42 2811.04
   10:30:08.909.18-Jan-2020 4898.01 4078.86 73.44 1.00 142.62 2811.04
   10:30:09.109.18-Jan-2020 4898.01 4078.89 73.44 1.00 142.82 2811.04
   10:30:09.309.18-Jan-2020 4898.01 4078.85 73.44 1.00 143.02 2811.04
   10:30:09.509.18-Jan-2020 4898.01 4078.85 73.44 1.00 143.22 2811.04
   10:30:09.709.18-Jan-2020 4898.01 4078.85 73.44 1.00 143.42 2811.04
   10:30:09.909.18-Jan-2020 4898.01 4078.83 73.44 1.00 143.62 2811.04
   10:30:10.109.18-Jan-2020 4898.01 4078.86 73.44 1.00 143.82 2811.04
   10:30:10.309.18-Jan-2020 4898.01 4078.83 73.44 1.00 144.02 2811.04
   10:30:10.509.18-Jan-2020 4898.01 4078.83 73.44 1.00 144.22 2811.04
   10:30:10.709.18-Jan-2020 4898.01 4078.83 73.44 1.00 144.42 2811.04
   10:30:10.909.18-Jan-2020 4898.01 4078.84 73.44 1.00 144.62 2811.04
   10:30:11.109.18-Jan-2020 4898.01 4078.87 73.44 1.00 144.82 2811.04
   10:30:11.309.18-Jan-2020 4898.01 4078.82 73.44 1.00 145.02 2811.04
   10:30:11.509.18-Jan-2020 4898.01 4078.82 73.44 1.00 145.22 2811.04
   10:30:11.709.18-Jan-2020 4898.01 4078.77 73.44 1.00 145.42 2811.04
   10:30:11.909.18-Jan-2020 4898.01 4078.72 73.44 1.00 145.62 2811.04
   10:30:12.109.18-Jan-2020 4898.01 4078.91 73.44 1.00 145.82 2811.04
   10:30:12.309.18-Jan-2020 4898.01 4078.86 73.44 1.00 146.02 2811.04
   10:30:12.509.18-Jan-2020 4898.01 4078.86 73.44 1.00 146.22 2811.04
   10:30:12.709.18-Jan-2020 4898.01 4078.84 73.44 1.00 146.42 2811.04
   10:30:12.909.18-Jan-2020 4898.01 4078.87 73.44 1.00 146.62 2811.04
   10:30:13.109.18-Jan-2020 4898.01 4078.83 73.44 1.00 146.82 2811.04
   10:30:13.309.18-Jan-2020 4898.01 4078.69 73.44 1.00 147.02 2811.04
   10:30:13.509.18-Jan-2020 4898.01 4078.69 73.44 1.00 147.22 2811.04
   10:30:13.709.18-Jan-2020 4898.01 4078.86 73.44 1.00 147.42 2811.04
   10:30:13.909.18-Jan-2020 4898.01 4078.89 73.44 1.00 147.62 2811.04
   10:30:14.109.18-Jan-2020 4898.01 4078.85 73.44 1.00 147.82 2811.04
   10:30:14.309.18-Jan-2020 4898.01 4078.88 73.43 1.00 148.02 2811.04
   10:30:14.509.18-Jan-2020 4898.01 4078.88 73.43 1.00 148.22 2811.04
   10:30:14.709.18-Jan-2020 4898.01 4078.64 73.43 1.00 148.42 2811.04
   10:30:14.909.18-Jan-2020 4898.01 4078.91 73.43 1.00 148.62 2811.04
   10:30:15.109.18-Jan-2020 4898.01 4078.85 73.43 1.00 148.82 2811.04
   10:30:15.309.18-Jan-2020 4898.01 4078.90 73.43 1.00 149.02 2811.04
   10:30:15.509.18-Jan-2020 4898.01 4078.90 73.43 1.00 149.22 2811.04
   10:30:15.710.18-Jan-2020 4898.01 4078.86 73.43 1.00 149.42 2811.04
   10:30:15.910.18-Jan-2020 4898.01 4078.59 73.43 1.00 149.62 2811.04
   10:30:16.110.18-Jan-2020 4898.01 4078.94 73.43 1.00 149.82 2811.04
   10:30:16.310.18-Jan-2020 4898.01 4078.89 73.43 1.00 150.02 2811.04
   10:30:16.510.18-Jan-2020 4898.01 4078.89 73.43 1.00 150.22 2811.04
   10:30:16.710.18-Jan-2020 4898.01 4078.87 73.43 1.00 150.42 2811.04
   10:30:16.910.18-Jan-2020 4898.01 4078.85 73.43 1.00 150.62 2811.04
   10:30:17.110.18-Jan-2020 4898.01 4078.86 73.43 1.00 150.82 2811.04
   10:30:17.310.18-Jan-2020 4898.01 4078.85 73.43 1.00 151.02 2811.04
   10:30:17.510.18-Jan-2020 4898.01 4078.85 73.43 1.00 151.22 2811.04
   10:30:17.710.18-Jan-2020 4898.01 4078.85 73.43 1.00 151.42 2811.04
   10:30:17.910.18-Jan-2020 4898.01 4078.81 73.43 1.00 151.62 2811.04
   10:30:18.110.18-Jan-2020 4898.01 4078.84 73.43 1.00 151.82 2811.04
   10:30:18.310.18-Jan-2020 4898.01 4078.83 73.43 1.00 152.02 2811.04
   10:30:18.510.18-Jan-2020 4898.01 4078.83 73.43 1.00 152.22 2811.04
   10:30:18.710.18-Jan-2020 4898.01 4078.86 73.43 1.00 152.42 2811.04
   10:30:18.910.18-Jan-2020 4898.01 4078.81 73.43 1.00 152.62 2811.04
   10:30:19.110.18-Jan-2020 4898.01 4078.84 73.43 1.00 152.82 2811.04
   10:30:19.310.18-Jan-2020 4898.01 4078.62 73.43 1.00 153.02 2811.04
   10:30:19.510.18-Jan-2020 4898.01 4078.62 73.43 1.00 153.22 2811.04
   10:30:19.710.18-Jan-2020 4898.01 4078.87 73.43 1.00 153.42 2811.04
   10:30:19.910.18-Jan-2020 4898.01 4078.85 73.43 1.00 153.62 2811.04
   10:30:20.110.18-Jan-2020 4898.01 4078.87 73.43 1.00 153.82 2811.04
   10:30:20.310.18-Jan-2020 4898.01 4078.82 73.43 1.00 154.02 2811.04
   10:30:20.510.18-Jan-2020 4898.01 4078.82 73.43 1.00 154.22 2811.04
   10:30:20.710.18-Jan-2020 4898.01 4078.82 73.43 1.00 154.42 2811.04
   10:30:20.910.18-Jan-2020 4898.01 4078.83 73.43 1.00 154.62 2811.04
   10:30:21.110.18-Jan-2020 4898.01 4078.84 73.42 1.00 154.82 2811.04
   10:30:21.310.18-Jan-2020 4898.01 4078.81 73.42 1.00 155.02 2811.04
   10:30:21.510.18-Jan-2020 4898.01 4078.81 73.42 1.00 155.22 2811.04
   10:30:21.710.18-Jan-2020 4898.01 4078.82 73.42 1.00 155.42 2811.04
   10:30:21.910.18-Jan-2020 4898.01 4078.89 73.42 1.00 155.62 2811.04
   10:30:22.110.18-Jan-2020 4898.01 4078.85 73.42 1.00 155.82 2811.04
   10:30:22.310.18-Jan-2020 4898.01 4078.82 73.42 1.00 156.02 2811.04
   10:30:22.510.18-Jan-2020 4898.01 4078.82 73.42 1.00 156.22 2811.04
   10:30:22.710.18-Jan-2020 4898.01 4078.69 73.42 1.00 156.42 2811.04
   10:30:22.910.18-Jan-2020 4898.01 4078.91 73.42 1.00 156.62 2811.04
   10:30:23.110.18-Jan-2020 4898.01 4078.85 73.42 1.00 156.82 2811.04
   10:30:23.310.18-Jan-2020 4898.01 4078.86 73.42 1.00 157.02 2811.04
   10:30:23.510.18-Jan-2020 4898.01 4078.86 73.42 1.00 157.22 2811.04
   10:30:23.710.18-Jan-2020 4898.01 4078.83 73.42 1.00 157.42 2811.04
   10:30:23.911.18-Jan-2020 4898.01 4078.85 73.42 1.00 157.62 2811.04
   10:30:24.111.18-Jan-2020 4898.01 4078.65 73.42 1.00 157.82 2811.04
   10:30:24.311.18-Jan-2020 4898.01 4078.85 73.42 1.00 158.02 2811.04
   10:30:24.511.18-Jan-2020 4898.01 4078.85 73.42 1.00 158.22 2811.04
   10:30:24.711.18-Jan-2020 4898.01 4078.86 73.42 1.00 158.42 2811.04
   10:30:24.911.18-Jan-2020 4898.01 4078.87 73.42 1.00 158.62 2811.04
   10:30:25.111.18-Jan-2020 4898.01 4078.82 73.42 1.00 158.82 2811.04
   10:30:25.311.18-Jan-2020 4898.01 4078.85 73.42 1.00 159.02 2811.04
   10:30:25.511.18-Jan-2020 4898.01 4078.85 73.42 1.00 159.22 2811.04
   10:30:25.711.18-Jan-2020 4898.01 4078.89 73.42 1.00 159.42 2811.04
   10:30:25.911.18-Jan-2020 4898.01 4078.87 73.42 1.00 159.62 2811.04
   10:30:26.111.18-Jan-2020 4898.01 4078.85 73.42 1.00 159.82 2811.04
   10:30:26.311.18-Jan-2020 4898.01 4078.89 73.42 1.00 160.02 2811.04
   10:30:26.511.18-Jan-2020 4898.01 4078.89 73.42 1.00 160.22 2811.04
   10:30:26.711.18-Jan-2020 4898.01 4078.59 73.42 1.00 160.42 2811.04
   10:30:26.911.18-Jan-2020 4898.01 4078.93 73.42 1.00 160.62 2811.04
   10:30:27.111.18-Jan-2020 4898.01 4078.87 73.42 1.00 160.82 2811.04
