~Version Information
 VERS.                  2.0:   CWLS log ASCII Standard -VERSION 2.0
 WRAP.                   NO:   One line per depth step
~Well Information Block
#MNEM.UNIT     VALUE/NAME     DESCRIPTION
#---------     -----------    ---------------------------
 STRT.S             10:03:43 19-Jan-20: START TIME 10:03:43 19-Jan-20
 STOP.S             10:11:36 19-Jan-20: STOP TIME  10:11:36 19-Jan-20
 STEP.S                   0.00: STEP TIME
 NULL.                 -999.25: NULL VALUE
 DFWT.                        :  DIST FWL TEXT
 DFST.                        :  DIST FSL TEXT
 DMF .             Drill Floor:  DRILL MEAS FROM
 STIM.      17.57.20 21-Dec-19:  START TIME
 DATE.      17.57.20 21-Dec-19:  END TIME
 SPUD.               21-Dec-19:  SPUD DATE
 NREF.                    Grid:  NORTH REFERENCE
 HPTY.       Minimum Curvature:  HOLE POS TYPE
 DMOD.             Drill Model:  DRILL MOD DESC
 SVYD.                  Survey:  SURVEY DESC
 ILTD.               Lithology:  INTERP LTH DESC
 FTOP.          Formation Tops:  FORM TOPS DESC
 PDAT.          Mean Sea Level:  PERMANENT DATUM
 FLD .                     ACG:  FIELD NAME
 SON .        AZ-XX-0905715376:  JOB NUMBER
 CTRY.              Azerbaijan:  COUNTRY NAME
 WELL.                    E04Y:  WELL NAME
 SRVC.          TURAN DRILLING:  CONTRACTOR
 COMP.     BP Exploration (Caspian Sea) Ltd.:  COMPANY
 WTYP.                Deviated:  WELL TYPE
 UWI .                     N/a:  UNIQUE WELL IDENTIFIER
 API .                     N/a:  API NUMBER
 BASE.              Azerbaijan:  LOGGING EQUIPMENT BASE LOCATION
 REGN.                   EESSA:  REGION
 MWDS.                    Baku:  MWD SHOP
 RIG .                     DWG:  RIG NAME
 DOE .                     N/a:  DOE NUMBER
 CNTY.                    Baku:  COUNTY NAME
 DCON.         Sperry Drilling:  DIRECTNL CONTR
 UNIT.                     N/a:  LOGGING EQUIPMENT ID
 MDS .        Operator Entered:  MAG DATA SOURCE
 PROV.                        :  PROVINCE
 STAT.                        :  STATE
 LOC .                        :  LOCATION
 LMF .             Drill Floor:  LOG MEASURED FROM
 TVDS.m                  43.16:  TVDSS CORRECTN
 LATI.deg                40.17:  LATITUDE
 LONG.deg                51.17:  LONGITUDE
 WHNS.m                  -0.12:  WELL HEAD N/S
 WHEW.m                  -5.41:  WELL HEAD E/W
 UTMX.m              514337.95:  UTM X
 UTMY.m             4448627.46:  UTM Y
 DFWL.m                   0.00:  DISTANCE FWL
 DFSL.m                   0.00:  DISTANCE FSL
 SDEP.m                   0.00:  START DEPTH
 TDD .m                   0.00:  TOTAL DEPTH (DRILLER)
 VSDR.deg               235.12:  VERT SEC DIRECT
 GVFD.g                   1.00:  GRAVITY FIELD
 MFLD.nT              50294.00:  MAGNETIC FIELD
 MDIP.deg                59.61:  MAGNETIC DIP
 MDEC.deg                 6.58:  MAGNETIC DECL
 GRDC.deg                 0.09:  GRID CORRECTION
 AZTC.deg                 6.49:  AZM TOTAL CORR
 EPD .m                   0.00:  ELEVATION
 EGL .m                   0.00:  GROUND ELEVATION
 WDMS.m                 176.20:  WD ELEV
 APD .m                  43.16:  DEPTH ABOVE PD
 DEP .m                3172.61:  DEPTH
 AGAP.m                  43.16:  AIR GAP
 VSEW.m                  -5.41:  VERT SEC E/W
 VSNS.m                  -0.12:  VERT SEC N/S
 EKB .m                  43.16:  KB ELEVATION
 EDF .m                  43.16:  DF ELEVATION
 TDL .m                 295.00:  TOTAL DEPTH (LOGGER)
 VSC .                       0:  VS TO CLOSURE
 MAGU.                 1852276:  MAGUTM CHECKSUM
~Parameter Information Block
#MNEM.UNIT       Value        Description
#---------     -----------    ---------------------------
 AV  .mps                 1.60:  Ann Velocity 
 AVMX.mps                 2.10:  Max Ann Veloc 
 AZIF.deg               290.59:  Azm, Final 
 BHAT.        Rotary Steerable:  BHA Type 
 BROT.°/30m               1.00:  Build Rotating 
 BS  .in                  6.50:  Bit Size 
 BSZ .in                  6.50:  Bit Size 
 BTPL.psig              120.00:  Bit Press Loss 
 CABU.                     Yes:  Customer Abuse 
 CGEO.          Eldar Huseynov:  Customer Geo 
 COMM.                     Œòk:  Run Comments 1 
 TCS .hr                 87.00:  Time Ciculation Ended 
 CV  .mps                 4.01:  Crit Velocity 
 CVMX.mps                 5.06:  Max Crit Veloc 
 DD1 .             Aziz Aliyev:  Direct Drillr 1 
 DD2 .            Sanan Aliyev:  Direct Drillr 2 
 DDSV.               Geo-Pilot:  DD Service 
 DEFF.%                  95.00:  % Det Eff 
 DLRX.°/30m               0.75:  Dogleg Rot Max 
 DLSO.°/30m               0.65:  Dogleg Oriented 
 DLSX.°/30m               1.39:  Dogleg Str Max 
 DRET.      18.25.00 19-Jan-20:  Drill End Time 
 DRST.      11.56.48 17-Jan-20:  Drill Start Tim 
 DTIM.hr                 27.16:  Time Drilling 
 EDEP.m                5161.01:  End Depth 
 ENG1.          Rasim Hashimov:  Engineer 1 
 ENG2.      Bakhtiyar Jabbarli:  Engineer 2 
 ETIM.      11.56.48 21-Jan-20:  End Time 
 FLOI.gpm               350.00:  Flow In 
 FLON.gpm               300.00:  Flow In Min 
 FLOS.cptm                0.00:  Fluid Loss 
 FLOX.gpm               400.00:  Flow In Max 
 HFLO.                      No:  High Flow 
 HPRE.                      No:  High Pressure 
 HTEM.                      No:  High Temp 
 HYDO.m                   1.85:  Hydro Offset 
 IFIN.deg                71.58:  Inc, Final 
 IMAX.deg                71.83:  Inc Max 
 IMIN.deg                71.12:  Inc Min 
 IMND.m                5099.48:  Inc Min Depth 
 IMXD.m                5071.08:  Inc Max Depth 
 JARR.                      No:  Jarring 
 LETM.      18.25.00 19-Jan-20:  Log End Time 
 LOST.hr                     0:  Lost Rig Time 
 LSTM.      11.56.48 17-Jan-20:  Log Start Time 
 MDCL.ppm             37000.00:  Mud Chlorides 
 MDES.     Inversion Oil/Synthetic:  Mud Desc 
 DFD .sg                  1.34:  Mud Density 
 MDMN.sg                  1.34:  Dens Mud Min 
 MDMX.sg                  1.34:  Dens Mud Max 
 MOIL.                      69:  Run Mud Oil % 
 MOWR.                   69:31:  Run Mud OWR 
 MSND.                     0.1:  Run Mud Sand % 
 MSOL.                    17.6:  Run Mud Solids% 
 DFV .spqt               79.00:  Mud Viscosity 
 MWOD.in                  4.75:  MWD Tool OD 
 MWSI.                      No:  Serv Intrp, MWD 
 OTIM.hr                126.10:  Time Operating 
 PMAX.psia             6000.00:  Press Op, Max 
 PV  .cP                 29.00:  Mud PV 
 RUN .                     400:  Run Number 
 ROPA.m/hr               11.00:  ROP Avg 
 ROPN.m/hr                5.00:  ROP Min 
 ROPX.m/hr               18.00:  ROP Max 
 RPMA.rpm               139.00:  RPM Surface Avg 
 RPMN.rpm               100.00:  RPM Surface Min 
 RPMX.rpm               140.00:  RPM Surface Max 
 RRUN.                     400:  Rig Run Number 
 SAZI.deg               290.22:  Azm, Start 
 SDEP.m                4868.01:  Start Depth 
 SIDD.                      No:  Serv Intrp, DD 
 SINC.deg                71.77:  Inc, Start 
 SPPA.psig             5550.00:  SPP Avg 
 SPPN.psig             4300.00:  SPP Min 
 SPPX.psig             5600.00:  SPP Max 
 STIM.      23.45.48 15-Jan-20:  Start Time 
 SVCS.                 DD, MWD:  Services 
 SVER.                    9.20:  Sperry Version 
 TDAT.m                5161.01:  Tot Depth Attmp 
 TDDF.                      No:  Trip for DD 
 TDLG.m                 295.00:  Tot Depth Loggd 
 TFF .                      No:  Trip for Fail 
 TQAA.f-kp               13.00:  Torque Abs Avg 
 TQAN.f-kp               13.00:  Torque Abs Min 
 TQAX.f-kp               16.00:  Torque Abs Max 
 TRRT.°/30m               0.25:  Turn Rotating 
 MRT .                     ADR:  Maximum Recorded Temperature 
 TTMX.degC               88.00:  Max Tool Temp 
 VS01.                90577859:  Virtual Str1 SN 
 VS02.                90521879:  Virtual Str2 SN 
 VS03.                90580299:  Virtual Str3 SN 
 VS04.                90515982:  Virtual Str4 SN 
 VS05.                90547765:  Virtual Str5 SN 
 WBMN.klb                 2.00:  WOB Min 
 WITN.           Adil Mammadov:  Customer Rep 
 WITN.        Elmaddin Rahimov:  Customer Rep 2 
 WOBA.klb                 3.00:  WOB Avg 
 WOBX.klb                 5.00:  WOB Max 
 YP  .lhf2               30.00:  Yield Point 
~Curve Information Block
#MNEM.UNIT                 API CODE     Curve Description
#---------               -----------    ---------------------------
 TIME.HHMMSS            00 000 000 000:  GT Time & Date
 GTDEPTH.m              00 000 000 000:  GT Depth
 GTPQH.psia             00 000 000 000:  GT HR Quartz Pressure
 GTTQ.degC              00 000 000 000:  GT Quartz Temperature
 GTTN.NONE              00 000 000 000:  GT Test Number
 GTET.sec               00 000 000 000:  GT Elapsed Test Time
 GTTVD.m                00 000 000 000:  GT True Vertical Depth
#Other Information
#
#WARRANTY: Halliburton will use its best efforts to furnish customers with 
#accurate information and interpretations that are part of, and incident to, the services 
#provided.  However, Halliburton cannot and does not warrant the accuracy 
#or correctness of such information and interpretations.  Under no circumstances should any 
#such information or interpretation be relied upon as the sole basis for any drilling, 
#completion, production, or financial decision or any procedure involving any risk to the 
#safety of any drilling venture, drilling rig or its crew or any other third party.  The 
#Customer has full responsibility for all drilling, completion and production operation.  
#Halliburton makes no representations or warranties, either expressed or 
#implied, including, but not limited to, the implied warranties of merchantability or fitness 
#for a particular purpose, with respect to the services rendered.  In no event will 
#Halliburton be liable for failure to obtain any particular results or for 
#any damages, including, but not limited to, indirect, special or consequential damages, 
#resulting from the use of any information or interpretation provided by Halliburton.
#
~A           TIME           GTDEPTH  GTPQH  GTTQ  GTTN  GTET   GTTVD  
# ...
   10:04:06.785.19-Jan-2020 5081.51 7006.28 82.34 5.00  23.00 2869.15
   10:04:06.985.19-Jan-2020 5081.51 7006.28 82.34 5.00  23.20 2869.15
   10:04:07.185.19-Jan-2020 5081.51 6932.61 82.34 5.00  23.40 2869.15
   10:04:07.385.19-Jan-2020 5081.51 6949.69 82.34 5.00  23.60 2869.15
   10:04:07.585.19-Jan-2020 5081.51 6962.12 82.34 5.00  23.80 2869.15
   10:04:07.785.19-Jan-2020 5081.51 6973.81 82.34 5.00  24.00 2869.15
   10:04:07.985.19-Jan-2020 5081.51 6973.81 82.34 5.00  24.20 2869.15
   10:04:08.185.19-Jan-2020 5081.51 6990.55 82.34 5.00  24.40 2869.15
   10:04:08.385.19-Jan-2020 5081.51 6994.92 82.34 5.00  24.60 2869.15
   10:04:08.585.19-Jan-2020 5081.51 7002.04 82.34 5.00  24.80 2869.15
   10:04:08.785.19-Jan-2020 5081.51 7006.26 82.34 5.00  25.00 2869.15
   10:04:08.985.19-Jan-2020 5081.51 7006.26 82.34 5.00  25.20 2869.15
   10:04:09.185.19-Jan-2020 5081.51 7014.27 82.33 5.00  25.40 2869.15
   10:04:09.385.19-Jan-2020 5081.51 7017.02 82.33 5.00  25.60 2869.15
   10:04:09.585.19-Jan-2020 5081.51 7020.25 82.33 5.00  25.80 2869.15
   10:04:09.785.19-Jan-2020 5081.51 6981.21 82.33 5.00  26.00 2869.15
   10:04:09.985.19-Jan-2020 5081.51 6981.21 82.33 5.00  26.20 2869.15
   10:04:10.185.19-Jan-2020 5081.51 5887.03 82.33 5.00  26.40 2869.15
   10:04:10.385.19-Jan-2020 5081.51 5606.07 82.33 5.00  26.60 2869.15
   10:04:10.585.19-Jan-2020 5081.51 5201.90 82.33 5.00  26.80 2869.15
   10:04:10.785.19-Jan-2020 5081.51 4780.83 82.33 5.00  27.00 2869.15
   10:04:10.985.19-Jan-2020 5081.51 4780.83 82.33 5.00  27.20 2869.15
   10:04:11.185.19-Jan-2020 5081.51 4150.67 82.33 5.00  27.40 2869.15
   10:04:11.386.19-Jan-2020 5081.51 4150.13 82.33 5.00  27.60 2869.15
   10:04:11.586.19-Jan-2020 5081.51 4150.17 82.33 5.00  27.80 2869.15
   10:04:11.786.19-Jan-2020 5081.51 4149.90 82.33 5.00  28.00 2869.15
   10:04:11.986.19-Jan-2020 5081.51 4149.90 82.33 5.00  28.20 2869.15
   10:04:12.186.19-Jan-2020 5081.51 4150.41 82.33 5.00  28.40 2869.15
   10:04:12.386.19-Jan-2020 5081.51 4149.79 82.33 5.00  28.60 2869.15
   10:04:12.586.19-Jan-2020 5081.51 4149.94 82.32 5.00  28.80 2869.15
   10:04:12.786.19-Jan-2020 5081.51 4150.57 82.32 5.00  29.00 2869.15
   10:04:12.986.19-Jan-2020 5081.51 4150.57 82.32 5.00  29.20 2869.15
   10:04:13.186.19-Jan-2020 5081.51 4151.94 82.32 5.00  29.40 2869.15
   10:04:13.386.19-Jan-2020 5081.51 4152.38 82.32 5.00  29.60 2869.15
   10:04:13.586.19-Jan-2020 5081.51 4155.28 82.32 5.00  29.80 2869.15
   10:04:13.786.19-Jan-2020 5081.51 4156.57 82.32 5.00  30.00 2869.15
   10:04:13.986.19-Jan-2020 5081.51 4156.57 82.32 5.00  30.20 2869.15
   10:04:14.186.19-Jan-2020 5081.51 4158.79 82.32 5.00  30.40 2869.15
   10:04:14.386.19-Jan-2020 5081.51 4160.10 82.31 5.00  30.60 2869.15
   10:04:14.586.19-Jan-2020 5081.51 4159.85 82.31 5.00  30.80 2869.15
   10:04:14.786.19-Jan-2020 5081.51 4160.79 82.31 5.00  31.00 2869.15
   10:04:14.986.19-Jan-2020 5081.51 4160.79 82.31 5.00  31.20 2869.15
   10:04:15.186.19-Jan-2020 5081.51 4162.67 82.31 5.00  31.40 2869.15
   10:04:15.386.19-Jan-2020 5081.51 4166.02 82.31 5.00  31.60 2869.15
   10:04:15.586.19-Jan-2020 5081.51 4169.12 82.31 5.00  31.80 2869.15
   10:04:15.786.19-Jan-2020 5081.51 4167.91 82.31 5.00  32.00 2869.15
   10:04:15.986.19-Jan-2020 5081.51 4167.91 82.31 5.00  32.20 2869.15
   10:04:16.186.19-Jan-2020 5081.51 4165.82 82.30 5.00  32.40 2869.15
   10:04:16.386.19-Jan-2020 5081.51 4164.54 82.30 5.00  32.60 2869.15
   10:04:16.586.19-Jan-2020 5081.51 4164.39 82.30 5.00  32.80 2869.15
   10:04:16.786.19-Jan-2020 5081.51 4164.63 82.30 5.00  33.00 2869.15
   10:04:16.986.19-Jan-2020 5081.51 4164.63 82.30 5.00  33.20 2869.15
   10:04:17.186.19-Jan-2020 5081.51 4164.84 82.30 5.00  33.40 2869.15
   10:04:17.386.19-Jan-2020 5081.51 4163.94 82.29 5.00  33.60 2869.15
   10:04:17.586.19-Jan-2020 5081.51 4164.01 82.29 5.00  33.80 2869.15
   10:04:17.786.19-Jan-2020 5081.51 4164.65 82.29 5.00  34.00 2869.15
   10:04:17.986.19-Jan-2020 5081.51 4164.65 82.29 5.00  34.20 2869.15
   10:04:18.186.19-Jan-2020 5081.51 4163.78 82.29 5.00  34.40 2869.15
   10:04:18.386.19-Jan-2020 5081.51 4163.45 82.29 5.00  34.60 2869.15
   10:04:18.586.19-Jan-2020 5081.51 4164.86 82.29 5.00  34.80 2869.15
   10:04:18.786.19-Jan-2020 5081.51 4163.79 82.29 5.00  35.00 2869.15
   10:04:18.986.19-Jan-2020 5081.51 4163.79 82.29 5.00  35.20 2869.15
   10:04:19.187.19-Jan-2020 5081.51 4163.54 82.28 5.00  35.40 2869.15
   10:04:19.387.19-Jan-2020 5081.51 4164.05 82.28 5.00  35.60 2869.15
   10:04:19.587.19-Jan-2020 5081.51 4179.66 82.28 5.00  35.80 2869.15
   10:04:19.787.19-Jan-2020 5081.51 4208.48 82.28 5.00  36.00 2869.15
   10:04:19.987.19-Jan-2020 5081.51 4208.48 82.28 5.00  36.20 2869.15
   10:04:20.187.19-Jan-2020 5081.51 4209.95 82.28 5.00  36.40 2869.15
   10:04:20.387.19-Jan-2020 5081.51 4210.24 82.28 5.00  36.60 2869.15
   10:04:20.587.19-Jan-2020 5081.51 4210.42 82.28 5.00  36.80 2869.15
   10:04:20.787.19-Jan-2020 5081.51 4210.61 82.28 5.00  37.00 2869.15
   10:04:20.987.19-Jan-2020 5081.51 4210.61 82.28 5.00  37.20 2869.15
   10:04:21.187.19-Jan-2020 5081.51 4210.90 82.27 5.00  37.40 2869.15
   10:04:21.387.19-Jan-2020 5081.51 4211.01 82.27 5.00  37.60 2869.15
   10:04:21.587.19-Jan-2020 5081.51 4211.10 82.27 5.00  37.80 2869.15
   10:04:21.787.19-Jan-2020 5081.51 4211.22 82.27 5.00  38.00 2869.15
   10:04:21.987.19-Jan-2020 5081.51 4211.22 82.27 5.00  38.20 2869.15
   10:04:22.187.19-Jan-2020 5081.51 4211.47 82.27 5.00  38.40 2869.15
   10:04:22.387.19-Jan-2020 5081.51 4211.49 82.27 5.00  38.60 2869.15
   10:04:22.587.19-Jan-2020 5081.51 4211.64 82.27 5.00  38.80 2869.15
   10:04:22.787.19-Jan-2020 5081.51 4211.66 82.27 5.00  39.00 2869.15
   10:04:22.987.19-Jan-2020 5081.51 4211.66 82.27 5.00  39.20 2869.15
   10:04:23.187.19-Jan-2020 5081.51 4211.74 82.26 5.00  39.40 2869.15
   10:04:23.387.19-Jan-2020 5081.51 4211.63 82.26 5.00  39.60 2869.15
   10:04:23.587.19-Jan-2020 5081.51 4211.79 82.26 5.00  39.81 2869.15
   10:04:23.787.19-Jan-2020 5081.51 4211.75 82.26 5.00  40.01 2869.15
   10:04:23.987.19-Jan-2020 5081.51 4211.75 82.26 5.00  40.21 2869.15
   10:04:24.187.19-Jan-2020 5081.51 4211.87 82.26 5.00  40.41 2869.15
   10:04:24.387.19-Jan-2020 5081.51 4211.91 82.26 5.00  40.61 2869.15
   10:04:24.587.19-Jan-2020 5081.51 4211.82 82.26 5.00  40.81 2869.15
   10:04:24.787.19-Jan-2020 5081.51 4212.04 82.26 5.00  41.01 2869.15
   10:04:24.987.19-Jan-2020 5081.51 4212.04 82.26 5.00  41.21 2869.15
   10:04:25.187.19-Jan-2020 5081.51 4211.95 82.26 5.00  41.41 2869.15
   10:04:25.387.19-Jan-2020 5081.51 4211.89 82.26 5.00  41.61 2869.15
   10:04:25.587.19-Jan-2020 5081.51 4212.13 82.25 5.00  41.81 2869.15
   10:04:25.787.19-Jan-2020 5081.51 4212.05 82.25 5.00  42.01 2869.15
   10:04:25.987.19-Jan-2020 5081.51 4212.05 82.25 5.00  42.21 2869.15
   10:04:26.187.19-Jan-2020 5081.51 4212.11 82.25 5.00  42.41 2869.15
   10:04:26.387.19-Jan-2020 5081.51 4212.13 82.25 5.00  42.61 2869.15
   10:04:26.587.19-Jan-2020 5081.51 4212.14 82.25 5.00  42.81 2869.15
   10:04:26.787.19-Jan-2020 5081.51 4212.19 82.25 5.00  43.01 2869.15
   10:04:26.987.19-Jan-2020 5081.51 4212.19 82.25 5.00  43.21 2869.15
   10:04:27.188.19-Jan-2020 5081.51 4212.23 82.25 5.00  43.41 2869.15
   10:04:27.388.19-Jan-2020 5081.51 4212.26 82.25 5.00  43.61 2869.15
   10:04:27.588.19-Jan-2020 5081.51 4212.26 82.25 5.00  43.81 2869.15
   10:04:27.788.19-Jan-2020 5081.51 4212.28 82.25 5.00  44.01 2869.15
   10:04:27.988.19-Jan-2020 5081.51 4212.28 82.25 5.00  44.21 2869.15
   10:04:28.188.19-Jan-2020 5081.51 4212.30 82.25 5.00  44.41 2869.15
   10:04:28.388.19-Jan-2020 5081.51 4212.33 82.24 5.00  44.61 2869.15
   10:04:28.588.19-Jan-2020 5081.51 4212.39 82.24 5.00  44.81 2869.15
   10:04:28.788.19-Jan-2020 5081.51 4212.37 82.24 5.00  45.01 2869.15
   10:04:28.988.19-Jan-2020 5081.51 4212.37 82.24 5.00  45.21 2869.15
   10:04:29.188.19-Jan-2020 5081.51 4212.33 82.24 5.00  45.41 2869.15
   10:04:29.388.19-Jan-2020 5081.51 4212.34 82.24 5.00  45.61 2869.15
   10:04:29.588.19-Jan-2020 5081.51 4212.29 82.24 5.00  45.81 2869.15
