~Version Information
 VERS.                  2.0:   CWLS log ASCII Standard -VERSION 2.0
 WRAP.                   NO:   One line per depth step
~Well Information Block
#MNEM.UNIT     VALUE/NAME     DESCRIPTION
#---------     -----------    ---------------------------
 STRT.S             05:36:55 19-Jan-20: START TIME 05:36:55 19-Jan-20
 STOP.S             05:44:47 19-Jan-20: STOP TIME  05:44:47 19-Jan-20
 STEP.S                   0.00: STEP TIME
 NULL.                 -999.25: NULL VALUE
 DFWT.                        :  DIST FWL TEXT
 DFST.                        :  DIST FSL TEXT
 DMF .             Drill Floor:  DRILL MEAS FROM
 STIM.      17.57.20 21-Dec-19:  START TIME
 DATE.      17.57.20 21-Dec-19:  END TIME
 SPUD.               21-Dec-19:  SPUD DATE
 NREF.                    Grid:  NORTH REFERENCE
 HPTY.       Minimum Curvature:  HOLE POS TYPE
 DMOD.             Drill Model:  DRILL MOD DESC
 SVYD.                  Survey:  SURVEY DESC
 ILTD.               Lithology:  INTERP LTH DESC
 FTOP.          Formation Tops:  FORM TOPS DESC
 PDAT.          Mean Sea Level:  PERMANENT DATUM
 FLD .                     ACG:  FIELD NAME
 SON .        AZ-XX-0905715376:  JOB NUMBER
 CTRY.              Azerbaijan:  COUNTRY NAME
 WELL.                    E04Y:  WELL NAME
 SRVC.          TURAN DRILLING:  CONTRACTOR
 COMP.     BP Exploration (Caspian Sea) Ltd.:  COMPANY
 WTYP.                Deviated:  WELL TYPE
 UWI .                     N/a:  UNIQUE WELL IDENTIFIER
 API .                     N/a:  API NUMBER
 BASE.              Azerbaijan:  LOGGING EQUIPMENT BASE LOCATION
 REGN.                   EESSA:  REGION
 MWDS.                    Baku:  MWD SHOP
 RIG .                     DWG:  RIG NAME
 DOE .                     N/a:  DOE NUMBER
 CNTY.                    Baku:  COUNTY NAME
 DCON.         Sperry Drilling:  DIRECTNL CONTR
 UNIT.                     N/a:  LOGGING EQUIPMENT ID
 MDS .        Operator Entered:  MAG DATA SOURCE
 PROV.                        :  PROVINCE
 STAT.                        :  STATE
 LOC .                        :  LOCATION
 LMF .             Drill Floor:  LOG MEASURED FROM
 TVDS.m                  43.16:  TVDSS CORRECTN
 LATI.deg                40.17:  LATITUDE
 LONG.deg                51.17:  LONGITUDE
 WHNS.m                  -0.12:  WELL HEAD N/S
 WHEW.m                  -5.41:  WELL HEAD E/W
 UTMX.m              514337.95:  UTM X
 UTMY.m             4448627.46:  UTM Y
 DFWL.m                   0.00:  DISTANCE FWL
 DFSL.m                   0.00:  DISTANCE FSL
 SDEP.m                   0.00:  START DEPTH
 TDD .m                   0.00:  TOTAL DEPTH (DRILLER)
 VSDR.deg               235.12:  VERT SEC DIRECT
 GVFD.g                   1.00:  GRAVITY FIELD
 MFLD.nT              50294.00:  MAGNETIC FIELD
 MDIP.deg                59.61:  MAGNETIC DIP
 MDEC.deg                 6.58:  MAGNETIC DECL
 GRDC.deg                 0.09:  GRID CORRECTION
 AZTC.deg                 6.49:  AZM TOTAL CORR
 EPD .m                   0.00:  ELEVATION
 EGL .m                   0.00:  GROUND ELEVATION
 WDMS.m                 176.20:  WD ELEV
 APD .m                  43.16:  DEPTH ABOVE PD
 DEP .m                3172.61:  DEPTH
 AGAP.m                  43.16:  AIR GAP
 VSEW.m                  -5.41:  VERT SEC E/W
 VSNS.m                  -0.12:  VERT SEC N/S
 EKB .m                  43.16:  KB ELEVATION
 EDF .m                  43.16:  DF ELEVATION
 TDL .m                 295.00:  TOTAL DEPTH (LOGGER)
 VSC .                       0:  VS TO CLOSURE
 MAGU.                 1852276:  MAGUTM CHECKSUM
~Parameter Information Block
#MNEM.UNIT       Value        Description
#---------     -----------    ---------------------------
 AV  .mps                 1.60:  Ann Velocity 
 AVMX.mps                 2.10:  Max Ann Veloc 
 AZIF.deg               290.59:  Azm, Final 
 BHAT.        Rotary Steerable:  BHA Type 
 BROT.°/30m               1.00:  Build Rotating 
 BS  .in                  6.50:  Bit Size 
 BSZ .in                  6.50:  Bit Size 
 BTPL.psig              120.00:  Bit Press Loss 
 CABU.                     Yes:  Customer Abuse 
 CGEO.          Eldar Huseynov:  Customer Geo 
 COMM.                     Lì_:  Run Comments 1 
 TCS .hr                 87.00:  Time Ciculation Ended 
 CV  .mps                 4.01:  Crit Velocity 
 CVMX.mps                 5.06:  Max Crit Veloc 
 DD1 .             Aziz Aliyev:  Direct Drillr 1 
 DD2 .            Sanan Aliyev:  Direct Drillr 2 
 DDSV.               Geo-Pilot:  DD Service 
 DEFF.%                  95.00:  % Det Eff 
 DLRX.°/30m               0.75:  Dogleg Rot Max 
 DLSO.°/30m               0.65:  Dogleg Oriented 
 DLSX.°/30m               1.39:  Dogleg Str Max 
 DRET.      18.25.00 19-Jan-20:  Drill End Time 
 DRST.      11.56.48 17-Jan-20:  Drill Start Tim 
 DTIM.hr                 27.16:  Time Drilling 
 EDEP.m                5161.01:  End Depth 
 ENG1.          Rasim Hashimov:  Engineer 1 
 ENG2.      Bakhtiyar Jabbarli:  Engineer 2 
 ETIM.      11.56.48 21-Jan-20:  End Time 
 FLOI.gpm               350.00:  Flow In 
 FLON.gpm               300.00:  Flow In Min 
 FLOS.cptm                0.00:  Fluid Loss 
 FLOX.gpm               400.00:  Flow In Max 
 HFLO.                      No:  High Flow 
 HPRE.                      No:  High Pressure 
 HTEM.                      No:  High Temp 
 HYDO.m                   1.85:  Hydro Offset 
 IFIN.deg                71.58:  Inc, Final 
 IMAX.deg                71.83:  Inc Max 
 IMIN.deg                71.12:  Inc Min 
 IMND.m                5099.48:  Inc Min Depth 
 IMXD.m                5071.08:  Inc Max Depth 
 JARR.                      No:  Jarring 
 LETM.      18.25.00 19-Jan-20:  Log End Time 
 LOST.hr                     0:  Lost Rig Time 
 LSTM.      11.56.48 17-Jan-20:  Log Start Time 
 MDCL.ppm             37000.00:  Mud Chlorides 
 MDES.     Inversion Oil/Synthetic:  Mud Desc 
 DFD .sg                  1.34:  Mud Density 
 MDMN.sg                  1.34:  Dens Mud Min 
 MDMX.sg                  1.34:  Dens Mud Max 
 MOIL.                      69:  Run Mud Oil % 
 MOWR.                   69:31:  Run Mud OWR 
 MSND.                     0.1:  Run Mud Sand % 
 MSOL.                    17.6:  Run Mud Solids% 
 DFV .spqt               79.00:  Mud Viscosity 
 MWOD.in                  4.75:  MWD Tool OD 
 MWSI.                      No:  Serv Intrp, MWD 
 OTIM.hr                126.10:  Time Operating 
 PMAX.psia             6000.00:  Press Op, Max 
 PV  .cP                 29.00:  Mud PV 
 RUN .                     400:  Run Number 
 ROPA.m/hr               11.00:  ROP Avg 
 ROPN.m/hr                5.00:  ROP Min 
 ROPX.m/hr               18.00:  ROP Max 
 RPMA.rpm               139.00:  RPM Surface Avg 
 RPMN.rpm               100.00:  RPM Surface Min 
 RPMX.rpm               140.00:  RPM Surface Max 
 RRUN.                     400:  Rig Run Number 
 SAZI.deg               290.22:  Azm, Start 
 SDEP.m                4868.01:  Start Depth 
 SIDD.                      No:  Serv Intrp, DD 
 SINC.deg                71.77:  Inc, Start 
 SPPA.psig             5550.00:  SPP Avg 
 SPPN.psig             4300.00:  SPP Min 
 SPPX.psig             5600.00:  SPP Max 
 STIM.      23.45.48 15-Jan-20:  Start Time 
 SVCS.                 DD, MWD:  Services 
 SVER.                    9.20:  Sperry Version 
 TDAT.m                5161.01:  Tot Depth Attmp 
 TDDF.                      No:  Trip for DD 
 TDLG.m                 295.00:  Tot Depth Loggd 
 TFF .                      No:  Trip for Fail 
 TQAA.f-kp               13.00:  Torque Abs Avg 
 TQAN.f-kp               13.00:  Torque Abs Min 
 TQAX.f-kp               16.00:  Torque Abs Max 
 TRRT.°/30m               0.25:  Turn Rotating 
 MRT .                     ADR:  Maximum Recorded Temperature 
 TTMX.degC               88.00:  Max Tool Temp 
 VS01.                90577859:  Virtual Str1 SN 
 VS02.                90521879:  Virtual Str2 SN 
 VS03.                90580299:  Virtual Str3 SN 
 VS04.                90515982:  Virtual Str4 SN 
 VS05.                90547765:  Virtual Str5 SN 
 WBMN.klb                 2.00:  WOB Min 
 WITN.           Adil Mammadov:  Customer Rep 
 WITN.        Elmaddin Rahimov:  Customer Rep 2 
 WOBA.klb                 3.00:  WOB Avg 
 WOBX.klb                 5.00:  WOB Max 
 YP  .lhf2               30.00:  Yield Point 
~Curve Information Block
#MNEM.UNIT                 API CODE     Curve Description
#---------               -----------    ---------------------------
 TIME.HHMMSS            00 000 000 000:  GT Time & Date
 GTDEPTH.m              00 000 000 000:  GT Depth
 GTPQH.psia             00 000 000 000:  GT HR Quartz Pressure
 GTTQ.degC              00 000 000 000:  GT Quartz Temperature
 GTTN.NONE              00 000 000 000:  GT Test Number
 GTET.sec               00 000 000 000:  GT Elapsed Test Time
 GTTVD.m                00 000 000 000:  GT True Vertical Depth
#Other Information
#
#WARRANTY: Halliburton will use its best efforts to furnish customers with 
#accurate information and interpretations that are part of, and incident to, the services 
#provided.  However, Halliburton cannot and does not warrant the accuracy 
#or correctness of such information and interpretations.  Under no circumstances should any 
#such information or interpretation be relied upon as the sole basis for any drilling, 
#completion, production, or financial decision or any procedure involving any risk to the 
#safety of any drilling venture, drilling rig or its crew or any other third party.  The 
#Customer has full responsibility for all drilling, completion and production operation.  
#Halliburton makes no representations or warranties, either expressed or 
#implied, including, but not limited to, the implied warranties of merchantability or fitness 
#for a particular purpose, with respect to the services rendered.  In no event will 
#Halliburton be liable for failure to obtain any particular results or for 
#any damages, including, but not limited to, indirect, special or consequential damages, 
#resulting from the use of any information or interpretation provided by Halliburton.
#
~A           TIME           GTDEPTH  GTPQH  GTTQ  GTTN  GTET   GTTVD  
# ...
   05:38:50.623.19-Jan-2020 5052.01 4086.05 81.65 4.00 115.02 2859.87
   05:38:50.823.19-Jan-2020 5052.01 4086.05 81.65 4.00 115.22 2859.87
   05:38:51.023.19-Jan-2020 5052.01 4086.03 81.65 4.00 115.42 2859.87
   05:38:51.223.19-Jan-2020 5052.01 4086.00 81.65 4.00 115.62 2859.87
   05:38:51.423.19-Jan-2020 5052.01 4086.04 81.65 4.00 115.82 2859.87
   05:38:51.623.19-Jan-2020 5052.01 4086.00 81.65 4.00 116.02 2859.87
   05:38:51.823.19-Jan-2020 5052.01 4086.00 81.65 4.00 116.22 2859.87
   05:38:52.023.19-Jan-2020 5052.01 4086.00 81.65 4.00 116.42 2859.87
   05:38:52.223.19-Jan-2020 5052.01 4086.01 81.65 4.00 116.62 2859.87
   05:38:52.423.19-Jan-2020 5052.01 4086.00 81.65 4.00 116.82 2859.87
   05:38:52.623.19-Jan-2020 5052.01 4085.99 81.65 4.00 117.02 2859.87
   05:38:52.823.19-Jan-2020 5052.01 4085.99 81.65 4.00 117.22 2859.87
   05:38:53.023.19-Jan-2020 5052.01 4085.98 81.65 4.00 117.43 2859.87
   05:38:53.223.19-Jan-2020 5052.01 4086.00 81.65 4.00 117.63 2859.87
   05:38:53.423.19-Jan-2020 5052.01 4085.97 81.65 4.00 117.83 2859.87
   05:38:53.623.19-Jan-2020 5052.01 4085.88 81.65 4.00 118.03 2859.87
   05:38:53.823.19-Jan-2020 5052.01 4085.88 81.65 4.00 118.23 2859.87
   05:38:54.023.19-Jan-2020 5052.01 4086.00 81.65 4.00 118.43 2859.87
   05:38:54.224.19-Jan-2020 5052.01 4085.99 81.65 4.00 118.63 2859.87
   05:38:54.424.19-Jan-2020 5052.01 4086.00 81.65 4.00 118.83 2859.87
   05:38:54.624.19-Jan-2020 5052.01 4086.00 81.65 4.00 119.03 2859.87
   05:38:54.824.19-Jan-2020 5052.01 4086.00 81.65 4.00 119.23 2859.87
   05:38:55.024.19-Jan-2020 5052.01 4085.99 81.64 4.00 119.43 2859.87
   05:38:55.224.19-Jan-2020 5052.01 4085.98 81.64 4.00 119.63 2859.87
   05:38:55.424.19-Jan-2020 5052.01 4085.98 81.64 4.00 119.83 2859.87
   05:38:55.624.19-Jan-2020 5052.01 4085.96 81.64 4.00 120.03 2859.87
   05:38:55.824.19-Jan-2020 5052.01 4085.96 81.64 4.00 120.23 2859.87
   05:38:56.024.19-Jan-2020 5052.01 4085.96 81.64 4.00 120.43 2859.87
   05:38:56.224.19-Jan-2020 5052.01 4085.99 81.64 4.00 120.63 2859.87
   05:38:56.424.19-Jan-2020 5052.01 4085.96 81.64 4.00 120.83 2859.87
   05:38:56.624.19-Jan-2020 5052.01 4085.97 81.64 4.00 121.03 2859.87
   05:38:56.824.19-Jan-2020 5052.01 4085.97 81.64 4.00 121.23 2859.87
   05:38:57.024.19-Jan-2020 5052.01 4085.91 81.64 4.00 121.43 2859.87
   05:38:57.224.19-Jan-2020 5052.01 4086.00 81.64 4.00 121.63 2859.87
   05:38:57.424.19-Jan-2020 5052.01 4085.95 81.64 4.00 121.83 2859.87
   05:38:57.624.19-Jan-2020 5052.01 4086.00 81.64 4.00 122.03 2859.87
   05:38:57.824.19-Jan-2020 5052.01 4086.00 81.64 4.00 122.23 2859.87
   05:38:58.024.19-Jan-2020 5052.01 4085.98 81.64 4.00 122.43 2859.87
   05:38:58.224.19-Jan-2020 5052.01 4085.95 81.64 4.00 122.63 2859.87
   05:38:58.424.19-Jan-2020 5052.01 4085.85 81.64 4.00 122.83 2859.87
   05:38:58.624.19-Jan-2020 5052.01 4086.02 81.64 4.00 123.03 2859.87
   05:38:58.825.19-Jan-2020 5052.01 4086.02 81.64 4.00 123.23 2859.87
   05:38:59.025.19-Jan-2020 5052.01 4085.96 81.64 4.00 123.43 2859.87
   05:38:59.225.19-Jan-2020 5052.01 4085.98 81.63 4.00 123.63 2859.87
   05:38:59.425.19-Jan-2020 5052.01 4085.95 81.63 4.00 123.83 2859.87
   05:38:59.625.19-Jan-2020 5052.01 4085.96 81.63 4.00 124.03 2859.87
   05:38:59.825.19-Jan-2020 5052.01 4085.96 81.63 4.00 124.23 2859.87
   05:39:00.025.19-Jan-2020 5052.01 4085.98 81.63 4.00 124.43 2859.87
   05:39:00.225.19-Jan-2020 5052.01 4085.97 81.63 4.00 124.63 2859.87
   05:39:00.425.19-Jan-2020 5052.01 4085.92 81.63 4.00 124.83 2859.87
   05:39:00.625.19-Jan-2020 5052.01 4085.98 81.63 4.00 125.03 2859.87
   05:39:00.825.19-Jan-2020 5052.01 4085.98 81.63 4.00 125.23 2859.87
   05:39:01.025.19-Jan-2020 5052.01 4085.95 81.63 4.00 125.43 2859.87
   05:39:01.225.19-Jan-2020 5052.01 4085.89 81.63 4.00 125.63 2859.87
   05:39:01.425.19-Jan-2020 5052.01 4085.98 81.63 4.00 125.83 2859.87
   05:39:01.625.19-Jan-2020 5052.01 4085.94 81.63 4.00 126.03 2859.87
   05:39:01.825.19-Jan-2020 5052.01 4085.94 81.63 4.00 126.23 2859.87
   05:39:02.025.19-Jan-2020 5052.01 4085.94 81.63 4.00 126.43 2859.87
   05:39:02.225.19-Jan-2020 5052.01 4085.95 81.63 4.00 126.63 2859.87
   05:39:02.425.19-Jan-2020 5052.01 4085.95 81.63 4.00 126.83 2859.87
   05:39:02.625.19-Jan-2020 5052.01 4085.94 81.63 4.00 127.03 2859.87
   05:39:02.825.19-Jan-2020 5052.01 4085.94 81.63 4.00 127.23 2859.87
   05:39:03.025.19-Jan-2020 5052.01 4085.93 81.63 4.00 127.43 2859.87
   05:39:03.225.19-Jan-2020 5052.01 4085.93 81.63 4.00 127.63 2859.87
   05:39:03.425.19-Jan-2020 5052.01 4085.91 81.63 4.00 127.83 2859.87
   05:39:03.626.19-Jan-2020 5052.01 4085.93 81.62 4.00 128.03 2859.87
   05:39:03.826.19-Jan-2020 5052.01 4085.93 81.62 4.00 128.23 2859.87
   05:39:04.026.19-Jan-2020 5052.01 4085.93 81.62 4.00 128.43 2859.87
   05:39:04.226.19-Jan-2020 5052.01 4085.91 81.62 4.00 128.63 2859.87
   05:39:04.426.19-Jan-2020 5052.01 4085.82 81.62 4.00 128.83 2859.87
   05:39:04.626.19-Jan-2020 5052.01 4085.95 81.62 4.00 129.03 2859.87
   05:39:04.826.19-Jan-2020 5052.01 4085.95 81.62 4.00 129.23 2859.87
   05:39:05.026.19-Jan-2020 5052.01 4085.94 81.62 4.00 129.43 2859.87
   05:39:05.226.19-Jan-2020 5052.01 4085.94 81.62 4.00 129.63 2859.87
   05:39:05.426.19-Jan-2020 5052.01 4085.95 81.62 4.00 129.83 2859.87
   05:39:05.626.19-Jan-2020 5052.01 4085.92 81.62 4.00 130.03 2859.87
   05:39:05.826.19-Jan-2020 5052.01 4085.92 81.62 4.00 130.23 2859.87
   05:39:06.026.19-Jan-2020 5052.01 4085.91 81.62 4.00 130.43 2859.87
   05:39:06.226.19-Jan-2020 5052.01 4085.92 81.62 4.00 130.63 2859.87
   05:39:06.426.19-Jan-2020 5052.01 4085.90 81.62 4.00 130.83 2859.87
   05:39:06.626.19-Jan-2020 5052.01 4085.92 81.62 4.00 131.03 2859.87
   05:39:06.826.19-Jan-2020 5052.01 4085.92 81.62 4.00 131.23 2859.87
   05:39:07.026.19-Jan-2020 5052.01 4085.91 81.62 4.00 131.43 2859.87
   05:39:07.226.19-Jan-2020 5052.01 4085.90 81.62 4.00 131.63 2859.87
   05:39:07.426.19-Jan-2020 5052.01 4085.90 81.62 4.00 131.83 2859.87
   05:39:07.626.19-Jan-2020 5052.01 4085.90 81.62 4.00 132.03 2859.87
   05:39:07.826.19-Jan-2020 5052.01 4085.90 81.62 4.00 132.23 2859.87
   05:39:08.026.19-Jan-2020 5052.01 4085.96 81.61 4.00 132.43 2859.87
   05:39:08.227.19-Jan-2020 5052.01 4085.90 81.61 4.00 132.63 2859.87
   05:39:08.427.19-Jan-2020 5052.01 4085.91 81.61 4.00 132.83 2859.87
   05:39:08.627.19-Jan-2020 5052.01 4085.91 81.61 4.00 133.03 2859.87
   05:39:08.827.19-Jan-2020 5052.01 4085.91 81.61 4.00 133.23 2859.87
   05:39:09.027.19-Jan-2020 5052.01 4085.91 81.61 4.00 133.43 2859.87
   05:39:09.227.19-Jan-2020 5052.01 4085.78 81.61 4.00 133.63 2859.87
   05:39:09.427.19-Jan-2020 5052.01 4085.94 81.61 4.00 133.83 2859.87
   05:39:09.627.19-Jan-2020 5052.01 4085.93 81.61 4.00 134.03 2859.87
   05:39:09.827.19-Jan-2020 5052.01 4085.93 81.61 4.00 134.23 2859.87
   05:39:10.027.19-Jan-2020 5052.01 4085.91 81.61 4.00 134.43 2859.87
   05:39:10.227.19-Jan-2020 5052.01 4085.90 81.61 4.00 134.63 2859.87
   05:39:10.427.19-Jan-2020 5052.01 4085.90 81.61 4.00 134.83 2859.87
   05:39:10.627.19-Jan-2020 5052.01 4085.91 81.61 4.00 135.03 2859.87
   05:39:10.827.19-Jan-2020 5052.01 4085.91 81.61 4.00 135.23 2859.87
   05:39:11.027.19-Jan-2020 5052.01 4085.97 81.61 4.00 135.43 2859.87
   05:39:11.227.19-Jan-2020 5052.01 4085.87 81.61 4.00 135.63 2859.87
   05:39:11.427.19-Jan-2020 5052.01 4085.92 81.61 4.00 135.83 2859.87
   05:39:11.627.19-Jan-2020 5052.01 4085.89 81.61 4.00 136.03 2859.87
   05:39:11.827.19-Jan-2020 5052.01 4085.89 81.61 4.00 136.23 2859.87
   05:39:12.027.19-Jan-2020 5052.01 4085.90 81.61 4.00 136.43 2859.87
   05:39:12.227.19-Jan-2020 5052.01 4085.86 81.60 4.00 136.63 2859.87
   05:39:12.427.19-Jan-2020 5052.01 4085.84 81.60 4.00 136.83 2859.87
   05:39:12.627.19-Jan-2020 5052.01 4085.91 81.60 4.00 137.03 2859.87
   05:39:12.827.19-Jan-2020 5052.01 4085.91 81.60 4.00 137.23 2859.87
   05:39:13.028.19-Jan-2020 5052.01 4085.88 81.60 4.00 137.43 2859.87
   05:39:13.228.19-Jan-2020 5052.01 4085.91 81.60 4.00 137.63 2859.87
   05:39:13.428.19-Jan-2020 5052.01 4085.87 81.60 4.00 137.83 2859.87
