~Version Information
 VERS.                  2.0:   CWLS log ASCII Standard -VERSION 2.0
 WRAP.                   NO:   One line per depth step
~Well Information Block
#MNEM.UNIT     VALUE/NAME     DESCRIPTION
#---------     -----------    ---------------------------
 STRT.S             14:05:37 19-Jan-20: START TIME 14:05:37 19-Jan-20
 STOP.S             14:13:29 19-Jan-20: STOP TIME  14:13:29 19-Jan-20
 STEP.S                   0.00: STEP TIME
 NULL.                 -999.25: NULL VALUE
 DFWT.                        :  DIST FWL TEXT
 DFST.                        :  DIST FSL TEXT
 DMF .             Drill Floor:  DRILL MEAS FROM
 STIM.      17.57.20 21-Dec-19:  START TIME
 DATE.      17.57.20 21-Dec-19:  END TIME
 SPUD.               21-Dec-19:  SPUD DATE
 NREF.                    Grid:  NORTH REFERENCE
 HPTY.       Minimum Curvature:  HOLE POS TYPE
 DMOD.             Drill Model:  DRILL MOD DESC
 SVYD.                  Survey:  SURVEY DESC
 ILTD.               Lithology:  INTERP LTH DESC
 FTOP.          Formation Tops:  FORM TOPS DESC
 PDAT.          Mean Sea Level:  PERMANENT DATUM
 FLD .                     ACG:  FIELD NAME
 SON .        AZ-XX-0905715376:  JOB NUMBER
 CTRY.              Azerbaijan:  COUNTRY NAME
 WELL.                    E04Y:  WELL NAME
 SRVC.          TURAN DRILLING:  CONTRACTOR
 COMP.     BP Exploration (Caspian Sea) Ltd.:  COMPANY
 WTYP.                Deviated:  WELL TYPE
 UWI .                     N/a:  UNIQUE WELL IDENTIFIER
 API .                     N/a:  API NUMBER
 BASE.              Azerbaijan:  LOGGING EQUIPMENT BASE LOCATION
 REGN.                   EESSA:  REGION
 MWDS.                    Baku:  MWD SHOP
 RIG .                     DWG:  RIG NAME
 DOE .                     N/a:  DOE NUMBER
 CNTY.                    Baku:  COUNTY NAME
 DCON.         Sperry Drilling:  DIRECTNL CONTR
 UNIT.                     N/a:  LOGGING EQUIPMENT ID
 MDS .        Operator Entered:  MAG DATA SOURCE
 PROV.                        :  PROVINCE
 STAT.                        :  STATE
 LOC .                        :  LOCATION
 LMF .             Drill Floor:  LOG MEASURED FROM
 TVDS.m                  43.16:  TVDSS CORRECTN
 LATI.deg                40.17:  LATITUDE
 LONG.deg                51.17:  LONGITUDE
 WHNS.m                  -0.12:  WELL HEAD N/S
 WHEW.m                  -5.41:  WELL HEAD E/W
 UTMX.m              514337.95:  UTM X
 UTMY.m             4448627.46:  UTM Y
 DFWL.m                   0.00:  DISTANCE FWL
 DFSL.m                   0.00:  DISTANCE FSL
 SDEP.m                   0.00:  START DEPTH
 TDD .m                   0.00:  TOTAL DEPTH (DRILLER)
 VSDR.deg               235.12:  VERT SEC DIRECT
 GVFD.g                   1.00:  GRAVITY FIELD
 MFLD.nT              50294.00:  MAGNETIC FIELD
 MDIP.deg                59.61:  MAGNETIC DIP
 MDEC.deg                 6.58:  MAGNETIC DECL
 GRDC.deg                 0.09:  GRID CORRECTION
 AZTC.deg                 6.49:  AZM TOTAL CORR
 EPD .m                   0.00:  ELEVATION
 EGL .m                   0.00:  GROUND ELEVATION
 WDMS.m                 176.20:  WD ELEV
 APD .m                  43.16:  DEPTH ABOVE PD
 DEP .m                3172.61:  DEPTH
 AGAP.m                  43.16:  AIR GAP
 VSEW.m                  -5.41:  VERT SEC E/W
 VSNS.m                  -0.12:  VERT SEC N/S
 EKB .m                  43.16:  KB ELEVATION
 EDF .m                  43.16:  DF ELEVATION
 TDL .m                 295.00:  TOTAL DEPTH (LOGGER)
 VSC .                       0:  VS TO CLOSURE
 MAGU.                 1852276:  MAGUTM CHECKSUM
~Parameter Information Block
#MNEM.UNIT       Value        Description
#---------     -----------    ---------------------------
 AV  .mps                 1.60:  Ann Velocity 
 AVMX.mps                 2.10:  Max Ann Veloc 
 AZIF.deg               290.59:  Azm, Final 
 BHAT.        Rotary Steerable:  BHA Type 
 BROT.°/30m               1.00:  Build Rotating 
 BS  .in                  6.50:  Bit Size 
 BSZ .in                  6.50:  Bit Size 
 BTPL.psig              120.00:  Bit Press Loss 
 CABU.                     Yes:  Customer Abuse 
 CGEO.          Eldar Huseynov:  Customer Geo 
 COMM.                     Tì‚:  Run Comments 1 
 TCS .hr                 87.00:  Time Ciculation Ended 
 CV  .mps                 4.01:  Crit Velocity 
 CVMX.mps                 5.06:  Max Crit Veloc 
 DD1 .             Aziz Aliyev:  Direct Drillr 1 
 DD2 .            Sanan Aliyev:  Direct Drillr 2 
 DDSV.               Geo-Pilot:  DD Service 
 DEFF.%                  95.00:  % Det Eff 
 DLRX.°/30m               0.75:  Dogleg Rot Max 
 DLSO.°/30m               0.65:  Dogleg Oriented 
 DLSX.°/30m               1.39:  Dogleg Str Max 
 DRET.      18.25.00 19-Jan-20:  Drill End Time 
 DRST.      11.56.48 17-Jan-20:  Drill Start Tim 
 DTIM.hr                 27.16:  Time Drilling 
 EDEP.m                5161.01:  End Depth 
 ENG1.          Rasim Hashimov:  Engineer 1 
 ENG2.      Bakhtiyar Jabbarli:  Engineer 2 
 ETIM.      11.56.48 21-Jan-20:  End Time 
 FLOI.gpm               350.00:  Flow In 
 FLON.gpm               300.00:  Flow In Min 
 FLOS.cptm                0.00:  Fluid Loss 
 FLOX.gpm               400.00:  Flow In Max 
 HFLO.                      No:  High Flow 
 HPRE.                      No:  High Pressure 
 HTEM.                      No:  High Temp 
 HYDO.m                   1.85:  Hydro Offset 
 IFIN.deg                71.58:  Inc, Final 
 IMAX.deg                71.83:  Inc Max 
 IMIN.deg                71.12:  Inc Min 
 IMND.m                5099.48:  Inc Min Depth 
 IMXD.m                5071.08:  Inc Max Depth 
 JARR.                      No:  Jarring 
 LETM.      18.25.00 19-Jan-20:  Log End Time 
 LOST.hr                     0:  Lost Rig Time 
 LSTM.      11.56.48 17-Jan-20:  Log Start Time 
 MDCL.ppm             37000.00:  Mud Chlorides 
 MDES.     Inversion Oil/Synthetic:  Mud Desc 
 DFD .sg                  1.34:  Mud Density 
 MDMN.sg                  1.34:  Dens Mud Min 
 MDMX.sg                  1.34:  Dens Mud Max 
 MOIL.                      69:  Run Mud Oil % 
 MOWR.                   69:31:  Run Mud OWR 
 MSND.                     0.1:  Run Mud Sand % 
 MSOL.                    17.6:  Run Mud Solids% 
 DFV .spqt               79.00:  Mud Viscosity 
 MWOD.in                  4.75:  MWD Tool OD 
 MWSI.                      No:  Serv Intrp, MWD 
 OTIM.hr                126.10:  Time Operating 
 PMAX.psia             6000.00:  Press Op, Max 
 PV  .cP                 29.00:  Mud PV 
 RUN .                     400:  Run Number 
 ROPA.m/hr               11.00:  ROP Avg 
 ROPN.m/hr                5.00:  ROP Min 
 ROPX.m/hr               18.00:  ROP Max 
 RPMA.rpm               139.00:  RPM Surface Avg 
 RPMN.rpm               100.00:  RPM Surface Min 
 RPMX.rpm               140.00:  RPM Surface Max 
 RRUN.                     400:  Rig Run Number 
 SAZI.deg               290.22:  Azm, Start 
 SDEP.m                4868.01:  Start Depth 
 SIDD.                      No:  Serv Intrp, DD 
 SINC.deg                71.77:  Inc, Start 
 SPPA.psig             5550.00:  SPP Avg 
 SPPN.psig             4300.00:  SPP Min 
 SPPX.psig             5600.00:  SPP Max 
 STIM.      23.45.48 15-Jan-20:  Start Time 
 SVCS.                 DD, MWD:  Services 
 SVER.                    9.20:  Sperry Version 
 TDAT.m                5161.01:  Tot Depth Attmp 
 TDDF.                      No:  Trip for DD 
 TDLG.m                 295.00:  Tot Depth Loggd 
 TFF .                      No:  Trip for Fail 
 TQAA.f-kp               13.00:  Torque Abs Avg 
 TQAN.f-kp               13.00:  Torque Abs Min 
 TQAX.f-kp               16.00:  Torque Abs Max 
 TRRT.°/30m               0.25:  Turn Rotating 
 MRT .                     ADR:  Maximum Recorded Temperature 
 TTMX.degC               88.00:  Max Tool Temp 
 VS01.                90577859:  Virtual Str1 SN 
 VS02.                90521879:  Virtual Str2 SN 
 VS03.                90580299:  Virtual Str3 SN 
 VS04.                90515982:  Virtual Str4 SN 
 VS05.                90547765:  Virtual Str5 SN 
 WBMN.klb                 2.00:  WOB Min 
 WITN.           Adil Mammadov:  Customer Rep 
 WITN.        Elmaddin Rahimov:  Customer Rep 2 
 WOBA.klb                 3.00:  WOB Avg 
 WOBX.klb                 5.00:  WOB Max 
 YP  .lhf2               30.00:  Yield Point 
~Curve Information Block
#MNEM.UNIT                 API CODE     Curve Description
#---------               -----------    ---------------------------
 TIME.HHMMSS            00 000 000 000:  GT Time & Date
 GTDEPTH.m              00 000 000 000:  GT Depth
 GTPQH.psia             00 000 000 000:  GT HR Quartz Pressure
 GTTQ.degC              00 000 000 000:  GT Quartz Temperature
 GTTN.NONE              00 000 000 000:  GT Test Number
 GTET.sec               00 000 000 000:  GT Elapsed Test Time
 GTTVD.m                00 000 000 000:  GT True Vertical Depth
#Other Information
#
#WARRANTY: Halliburton will use its best efforts to furnish customers with 
#accurate information and interpretations that are part of, and incident to, the services 
#provided.  However, Halliburton cannot and does not warrant the accuracy 
#or correctness of such information and interpretations.  Under no circumstances should any 
#such information or interpretation be relied upon as the sole basis for any drilling, 
#completion, production, or financial decision or any procedure involving any risk to the 
#safety of any drilling venture, drilling rig or its crew or any other third party.  The 
#Customer has full responsibility for all drilling, completion and production operation.  
#Halliburton makes no representations or warranties, either expressed or 
#implied, including, but not limited to, the implied warranties of merchantability or fitness 
#for a particular purpose, with respect to the services rendered.  In no event will 
#Halliburton be liable for failure to obtain any particular results or for 
#any damages, including, but not limited to, indirect, special or consequential damages, 
#resulting from the use of any information or interpretation provided by Halliburton.
#
~A           TIME           GTDEPTH  GTPQH  GTTQ  GTTN  GTET   GTTVD  
# ...
   14:13:17.722.19-Jan-2020 5113.51 6186.56 81.36 6.00 460.09 2879.41
   14:13:17.922.19-Jan-2020 5113.51 6186.56 81.36 6.00 460.29 2879.41
   14:13:18.122.19-Jan-2020 5113.51 6186.70 81.36 6.00 460.49 2879.41
   14:13:18.322.19-Jan-2020 5113.51 6187.22 81.36 6.00 460.69 2879.41
   14:13:18.522.19-Jan-2020 5113.51 6187.66 81.36 6.00 460.89 2879.41
   14:13:18.722.19-Jan-2020 5113.51 6187.76 81.36 6.00 461.09 2879.41
   14:13:18.922.19-Jan-2020 5113.51 6187.76 81.36 6.00 461.29 2879.41
   14:13:19.122.19-Jan-2020 5113.51 6180.11 81.36 6.00 461.49 2879.41
   14:13:19.322.19-Jan-2020 5113.51 6187.80 81.36 6.00 461.69 2879.41
   14:13:19.522.19-Jan-2020 5113.51 6185.58 81.36 6.00 461.89 2879.41
   14:13:19.722.19-Jan-2020 5113.51 6184.83 81.36 6.00 462.09 2879.41
   14:13:19.922.19-Jan-2020 5113.51 6184.83 81.36 6.00 462.29 2879.41
   14:13:20.122.19-Jan-2020 5113.51 6187.60 81.36 6.00 462.50 2879.41
   14:13:20.322.19-Jan-2020 5113.51 6176.28 81.36 6.00 462.70 2879.41
   14:13:20.522.19-Jan-2020 5113.51 6190.90 81.36 6.00 462.90 2879.41
   14:13:20.722.19-Jan-2020 5113.51 6186.91 81.36 6.00 463.10 2879.41
   14:13:20.922.19-Jan-2020 5113.51 6186.91 81.36 6.00 463.30 2879.41
   14:13:21.123.19-Jan-2020 5113.51 6178.96 81.36 6.00 463.50 2879.41
   14:13:21.323.19-Jan-2020 5113.51 6188.47 81.36 6.00 463.70 2879.41
   14:13:21.523.19-Jan-2020 5113.51 6184.83 81.36 6.00 463.90 2879.41
   14:13:21.723.19-Jan-2020 5113.51 6185.29 81.35 6.00 464.10 2879.41
   14:13:21.923.19-Jan-2020 5113.51 6185.29 81.35 6.00 464.30 2879.41
   14:13:22.123.19-Jan-2020 5113.51 6187.35 81.35 6.00 464.50 2879.41
   14:13:22.323.19-Jan-2020 5113.51 6177.89 81.35 6.00 464.70 2879.41
   14:13:22.523.19-Jan-2020 5113.51 6188.00 81.35 6.00 464.90 2879.41
   14:13:22.723.19-Jan-2020 5113.51 6188.10 81.35 6.00 465.10 2879.41
   14:13:22.923.19-Jan-2020 5113.51 6188.10 81.35 6.00 465.30 2879.41
   14:13:23.123.19-Jan-2020 5113.51 6188.22 81.35 6.00 465.50 2879.41
   14:13:23.323.19-Jan-2020 5113.51 6188.16 81.35 6.00 465.70 2879.41
   14:13:23.523.19-Jan-2020 5113.51 6187.90 81.35 6.00 465.90 2879.41
   14:13:23.723.19-Jan-2020 5113.51 6187.77 81.35 6.00 466.10 2879.41
   14:13:23.923.19-Jan-2020 5113.51 6187.77 81.35 6.00 466.30 2879.41
   14:13:24.123.19-Jan-2020 5113.51 6186.69 81.35 6.00 466.50 2879.41
   14:13:24.323.19-Jan-2020 5113.51 6188.02 81.35 6.00 466.70 2879.41
   14:13:24.523.19-Jan-2020 5113.51 6188.29 81.35 6.00 466.90 2879.41
   14:13:24.723.19-Jan-2020 5113.51 6187.51 81.35 6.00 467.10 2879.41
   14:13:24.923.19-Jan-2020 5113.51 6187.51 81.35 6.00 467.30 2879.41
   14:13:25.123.19-Jan-2020 5113.51 6187.50 81.35 6.00 467.50 2879.41
   14:13:25.323.19-Jan-2020 5113.51 6188.31 81.35 6.00 467.70 2879.41
   14:13:25.523.19-Jan-2020 5113.51 6179.75 81.35 6.00 467.90 2879.41
   14:13:25.723.19-Jan-2020 5113.51 6188.51 81.35 6.00 468.10 2879.41
   14:13:25.924.19-Jan-2020 5113.51 6188.51 81.35 6.00 468.30 2879.41
   14:13:26.124.19-Jan-2020 5113.51 6184.82 81.35 6.00 468.50 2879.41
   14:13:26.324.19-Jan-2020 5113.51 6186.06 81.35 6.00 468.70 2879.41
   14:13:26.524.19-Jan-2020 5113.51 6187.91 81.35 6.00 468.90 2879.41
   14:13:26.724.19-Jan-2020 5113.51 6187.13 81.35 6.00 469.10 2879.41
   14:13:26.924.19-Jan-2020 5113.51 6187.13 81.35 6.00 469.30 2879.41
   14:13:27.124.19-Jan-2020 5113.51 6187.80 81.35 6.00 469.50 2879.41
   14:13:27.324.19-Jan-2020 5113.51 6187.30 81.35 6.00 469.70 2879.41
   14:13:27.524.19-Jan-2020 5113.51 6186.65 81.35 6.00 469.90 2879.41
   14:13:27.724.19-Jan-2020 5113.51 6186.84 81.35 6.00 470.10 2879.41
   14:13:27.924.19-Jan-2020 5113.51 6186.84 81.35 6.00 470.30 2879.41
   14:13:28.124.19-Jan-2020 5113.51 6186.47 81.35 6.00 470.50 2879.41
   14:13:28.324.19-Jan-2020 5113.51 6187.04 81.35 6.00 470.70 2879.41
   14:13:28.524.19-Jan-2020 5113.51 6186.32 81.35 6.00 470.90 2879.41
   14:13:28.724.19-Jan-2020 5113.51 6186.79 81.35 6.00 471.10 2879.41
   14:13:28.924.19-Jan-2020 5113.51 6186.79 81.35 6.00 471.30 2879.41
   14:13:29.124.19-Jan-2020 5113.51 6187.80 81.35 6.00 471.50 2879.41
   14:13:29.324.19-Jan-2020 5113.51 6184.14 81.35 6.00 471.70 2879.41
   14:13:29.524.19-Jan-2020 5113.51 6184.32 81.35 6.00 471.90 2879.41
