~Version Information
 VERS.                  2.0:   CWLS log ASCII Standard -VERSION 2.0
 WRAP.                   NO:   One line per depth step
~Well Information Block
#MNEM.UNIT     VALUE/NAME     DESCRIPTION
#---------     -----------    ---------------------------
 STRT.S             19:23:23 18-Jan-20: START TIME 19:23:23 18-Jan-20
 STOP.S             19:31:15 18-Jan-20: STOP TIME  19:31:15 18-Jan-20
 STEP.S                   0.00: STEP TIME
 NULL.                 -999.25: NULL VALUE
 DFWT.                        :  DIST FWL TEXT
 DFST.                        :  DIST FSL TEXT
 DMF .             Drill Floor:  DRILL MEAS FROM
 STIM.      17.57.20 21-Dec-19:  START TIME
 DATE.      17.57.20 21-Dec-19:  END TIME
 SPUD.               21-Dec-19:  SPUD DATE
 NREF.                    Grid:  NORTH REFERENCE
 HPTY.       Minimum Curvature:  HOLE POS TYPE
 DMOD.             Drill Model:  DRILL MOD DESC
 SVYD.                  Survey:  SURVEY DESC
 ILTD.               Lithology:  INTERP LTH DESC
 FTOP.          Formation Tops:  FORM TOPS DESC
 PDAT.          Mean Sea Level:  PERMANENT DATUM
 FLD .                     ACG:  FIELD NAME
 SON .        AZ-XX-0905715376:  JOB NUMBER
 CTRY.              Azerbaijan:  COUNTRY NAME
 WELL.                    E04Y:  WELL NAME
 SRVC.          TURAN DRILLING:  CONTRACTOR
 COMP.     BP Exploration (Caspian Sea) Ltd.:  COMPANY
 WTYP.                Deviated:  WELL TYPE
 UWI .                     N/a:  UNIQUE WELL IDENTIFIER
 API .                     N/a:  API NUMBER
 BASE.              Azerbaijan:  LOGGING EQUIPMENT BASE LOCATION
 REGN.                   EESSA:  REGION
 MWDS.                    Baku:  MWD SHOP
 RIG .                     DWG:  RIG NAME
 DOE .                     N/a:  DOE NUMBER
 CNTY.                    Baku:  COUNTY NAME
 DCON.         Sperry Drilling:  DIRECTNL CONTR
 UNIT.                     N/a:  LOGGING EQUIPMENT ID
 MDS .        Operator Entered:  MAG DATA SOURCE
 PROV.                        :  PROVINCE
 STAT.                        :  STATE
 LOC .                        :  LOCATION
 LMF .             Drill Floor:  LOG MEASURED FROM
 TVDS.m                  43.16:  TVDSS CORRECTN
 LATI.deg                40.17:  LATITUDE
 LONG.deg                51.17:  LONGITUDE
 WHNS.m                  -0.12:  WELL HEAD N/S
 WHEW.m                  -5.41:  WELL HEAD E/W
 UTMX.m              514337.95:  UTM X
 UTMY.m             4448627.46:  UTM Y
 DFWL.m                   0.00:  DISTANCE FWL
 DFSL.m                   0.00:  DISTANCE FSL
 SDEP.m                   0.00:  START DEPTH
 TDD .m                   0.00:  TOTAL DEPTH (DRILLER)
 VSDR.deg               235.12:  VERT SEC DIRECT
 GVFD.g                   1.00:  GRAVITY FIELD
 MFLD.nT              50294.00:  MAGNETIC FIELD
 MDIP.deg                59.61:  MAGNETIC DIP
 MDEC.deg                 6.58:  MAGNETIC DECL
 GRDC.deg                 0.09:  GRID CORRECTION
 AZTC.deg                 6.49:  AZM TOTAL CORR
 EPD .m                   0.00:  ELEVATION
 EGL .m                   0.00:  GROUND ELEVATION
 WDMS.m                 176.20:  WD ELEV
 APD .m                  43.16:  DEPTH ABOVE PD
 DEP .m                3172.61:  DEPTH
 AGAP.m                  43.16:  AIR GAP
 VSEW.m                  -5.41:  VERT SEC E/W
 VSNS.m                  -0.12:  VERT SEC N/S
 EKB .m                  43.16:  KB ELEVATION
 EDF .m                  43.16:  DF ELEVATION
 TDL .m                 295.00:  TOTAL DEPTH (LOGGER)
 VSC .                       0:  VS TO CLOSURE
 MAGU.                 1852276:  MAGUTM CHECKSUM
~Parameter Information Block
#MNEM.UNIT       Value        Description
#---------     -----------    ---------------------------
 AV  .mps                 1.60:  Ann Velocity 
 AVMX.mps                 2.10:  Max Ann Veloc 
 AZIF.deg               290.59:  Azm, Final 
 BHAT.        Rotary Steerable:  BHA Type 
 BROT.°/30m               1.00:  Build Rotating 
 BS  .in                  6.50:  Bit Size 
 BSZ .in                  6.50:  Bit Size 
 BTPL.psig              120.00:  Bit Press Loss 
 CABU.                     Yes:  Customer Abuse 
 CGEO.          Eldar Huseynov:  Customer Geo 
 COMM.                     ”%\:  Run Comments 1 
 TCS .hr                 87.00:  Time Ciculation Ended 
 CV  .mps                 4.01:  Crit Velocity 
 CVMX.mps                 5.06:  Max Crit Veloc 
 DD1 .             Aziz Aliyev:  Direct Drillr 1 
 DD2 .            Sanan Aliyev:  Direct Drillr 2 
 DDSV.               Geo-Pilot:  DD Service 
 DEFF.%                  95.00:  % Det Eff 
 DLRX.°/30m               0.75:  Dogleg Rot Max 
 DLSO.°/30m               0.65:  Dogleg Oriented 
 DLSX.°/30m               1.39:  Dogleg Str Max 
 DRET.      18.25.00 19-Jan-20:  Drill End Time 
 DRST.      11.56.48 17-Jan-20:  Drill Start Tim 
 DTIM.hr                 27.16:  Time Drilling 
 EDEP.m                5161.01:  End Depth 
 ENG1.          Rasim Hashimov:  Engineer 1 
 ENG2.      Bakhtiyar Jabbarli:  Engineer 2 
 ETIM.      11.56.48 21-Jan-20:  End Time 
 FLOI.gpm               350.00:  Flow In 
 FLON.gpm               300.00:  Flow In Min 
 FLOS.cptm                0.00:  Fluid Loss 
 FLOX.gpm               400.00:  Flow In Max 
 HFLO.                      No:  High Flow 
 HPRE.                      No:  High Pressure 
 HTEM.                      No:  High Temp 
 HYDO.m                   1.85:  Hydro Offset 
 IFIN.deg                71.58:  Inc, Final 
 IMAX.deg                71.83:  Inc Max 
 IMIN.deg                71.12:  Inc Min 
 IMND.m                5099.48:  Inc Min Depth 
 IMXD.m                5071.08:  Inc Max Depth 
 JARR.                      No:  Jarring 
 LETM.      18.25.00 19-Jan-20:  Log End Time 
 LOST.hr                     0:  Lost Rig Time 
 LSTM.      11.56.48 17-Jan-20:  Log Start Time 
 MDCL.ppm             37000.00:  Mud Chlorides 
 MDES.     Inversion Oil/Synthetic:  Mud Desc 
 DFD .sg                  1.34:  Mud Density 
 MDMN.sg                  1.34:  Dens Mud Min 
 MDMX.sg                  1.34:  Dens Mud Max 
 MOIL.                      69:  Run Mud Oil % 
 MOWR.                   69:31:  Run Mud OWR 
 MSND.                     0.1:  Run Mud Sand % 
 MSOL.                    17.6:  Run Mud Solids% 
 DFV .spqt               79.00:  Mud Viscosity 
 MWOD.in                  4.75:  MWD Tool OD 
 MWSI.                      No:  Serv Intrp, MWD 
 OTIM.hr                126.10:  Time Operating 
 PMAX.psia             6000.00:  Press Op, Max 
 PV  .cP                 29.00:  Mud PV 
 RUN .                     400:  Run Number 
 ROPA.m/hr               11.00:  ROP Avg 
 ROPN.m/hr                5.00:  ROP Min 
 ROPX.m/hr               18.00:  ROP Max 
 RPMA.rpm               139.00:  RPM Surface Avg 
 RPMN.rpm               100.00:  RPM Surface Min 
 RPMX.rpm               140.00:  RPM Surface Max 
 RRUN.                     400:  Rig Run Number 
 SAZI.deg               290.22:  Azm, Start 
 SDEP.m                4868.01:  Start Depth 
 SIDD.                      No:  Serv Intrp, DD 
 SINC.deg                71.77:  Inc, Start 
 SPPA.psig             5550.00:  SPP Avg 
 SPPN.psig             4300.00:  SPP Min 
 SPPX.psig             5600.00:  SPP Max 
 STIM.      23.45.48 15-Jan-20:  Start Time 
 SVCS.                 DD, MWD:  Services 
 SVER.                    9.20:  Sperry Version 
 TDAT.m                5161.01:  Tot Depth Attmp 
 TDDF.                      No:  Trip for DD 
 TDLG.m                 295.00:  Tot Depth Loggd 
 TFF .                      No:  Trip for Fail 
 TQAA.f-kp               13.00:  Torque Abs Avg 
 TQAN.f-kp               13.00:  Torque Abs Min 
 TQAX.f-kp               16.00:  Torque Abs Max 
 TRRT.°/30m               0.25:  Turn Rotating 
 MRT .                     ADR:  Maximum Recorded Temperature 
 TTMX.degC               88.00:  Max Tool Temp 
 VS01.                90577859:  Virtual Str1 SN 
 VS02.                90521879:  Virtual Str2 SN 
 VS03.                90580299:  Virtual Str3 SN 
 VS04.                90515982:  Virtual Str4 SN 
 VS05.                90547765:  Virtual Str5 SN 
 WBMN.klb                 2.00:  WOB Min 
 WITN.           Adil Mammadov:  Customer Rep 
 WITN.        Elmaddin Rahimov:  Customer Rep 2 
 WOBA.klb                 3.00:  WOB Avg 
 WOBX.klb                 5.00:  WOB Max 
 YP  .lhf2               30.00:  Yield Point 
~Curve Information Block
#MNEM.UNIT                 API CODE     Curve Description
#---------               -----------    ---------------------------
 TIME.HHMMSS            00 000 000 000:  GT Time & Date
 GTDEPTH.m              00 000 000 000:  GT Depth
 GTPQH.psia             00 000 000 000:  GT HR Quartz Pressure
 GTTQ.degC              00 000 000 000:  GT Quartz Temperature
 GTTN.NONE              00 000 000 000:  GT Test Number
 GTET.sec               00 000 000 000:  GT Elapsed Test Time
 GTTVD.m                00 000 000 000:  GT True Vertical Depth
#Other Information
#
#WARRANTY: Halliburton will use its best efforts to furnish customers with 
#accurate information and interpretations that are part of, and incident to, the services 
#provided.  However, Halliburton cannot and does not warrant the accuracy 
#or correctness of such information and interpretations.  Under no circumstances should any 
#such information or interpretation be relied upon as the sole basis for any drilling, 
#completion, production, or financial decision or any procedure involving any risk to the 
#safety of any drilling venture, drilling rig or its crew or any other third party.  The 
#Customer has full responsibility for all drilling, completion and production operation.  
#Halliburton makes no representations or warranties, either expressed or 
#implied, including, but not limited to, the implied warranties of merchantability or fitness 
#for a particular purpose, with respect to the services rendered.  In no event will 
#Halliburton be liable for failure to obtain any particular results or for 
#any damages, including, but not limited to, indirect, special or consequential damages, 
#resulting from the use of any information or interpretation provided by Halliburton.
#
~A           TIME           GTDEPTH  GTPQH  GTTQ  GTTN  GTET   GTTVD  
# ...
   19:25:18.162.18-Jan-2020 4980.01 4428.48 81.46 3.00 115.02 2836.95
   19:25:18.362.18-Jan-2020 4980.01 4428.48 81.46 3.00 115.22 2836.95
   19:25:18.562.18-Jan-2020 4980.01 4428.57 81.46 3.00 115.42 2836.95
   19:25:18.762.18-Jan-2020 4980.01 4428.45 81.46 3.00 115.62 2836.95
   19:25:18.962.18-Jan-2020 4980.01 4428.52 81.46 3.00 115.82 2836.95
   19:25:19.162.18-Jan-2020 4980.01 4428.48 81.45 3.00 116.02 2836.95
   19:25:19.362.18-Jan-2020 4980.01 4428.48 81.45 3.00 116.22 2836.95
   19:25:19.562.18-Jan-2020 4980.01 4428.45 81.45 3.00 116.42 2836.95
   19:25:19.762.18-Jan-2020 4980.01 4428.43 81.45 3.00 116.62 2836.95
   19:25:19.962.18-Jan-2020 4980.01 4428.47 81.45 3.00 116.82 2836.95
   19:25:20.162.18-Jan-2020 4980.01 4428.53 81.45 3.00 117.02 2836.95
   19:25:20.362.18-Jan-2020 4980.01 4428.53 81.45 3.00 117.22 2836.95
   19:25:20.562.18-Jan-2020 4980.01 4428.50 81.45 3.00 117.42 2836.95
   19:25:20.762.18-Jan-2020 4980.01 4428.47 81.45 3.00 117.62 2836.95
   19:25:20.962.18-Jan-2020 4980.01 4428.48 81.45 3.00 117.82 2836.95
   19:25:21.162.18-Jan-2020 4980.01 4428.36 81.45 3.00 118.02 2836.95
   19:25:21.362.18-Jan-2020 4980.01 4428.36 81.45 3.00 118.22 2836.95
   19:25:21.562.18-Jan-2020 4980.01 4428.44 81.45 3.00 118.42 2836.95
   19:25:21.762.18-Jan-2020 4980.01 4428.50 81.45 3.00 118.62 2836.95
   19:25:21.962.18-Jan-2020 4980.01 4428.48 81.45 3.00 118.82 2836.95
   19:25:22.162.18-Jan-2020 4980.01 4428.46 81.44 3.00 119.02 2836.95
   19:25:22.362.18-Jan-2020 4980.01 4428.46 81.44 3.00 119.22 2836.95
   19:25:22.562.18-Jan-2020 4980.01 4428.46 81.44 3.00 119.42 2836.95
   19:25:22.762.18-Jan-2020 4980.01 4428.48 81.44 3.00 119.62 2836.95
   19:25:22.962.18-Jan-2020 4980.01 4428.45 81.44 3.00 119.82 2836.95
   19:25:23.162.18-Jan-2020 4980.01 4428.47 81.44 3.00 120.02 2836.95
   19:25:23.363.18-Jan-2020 4980.01 4428.47 81.44 3.00 120.22 2836.95
   19:25:23.563.18-Jan-2020 4980.01 4428.47 81.44 3.00 120.42 2836.95
   19:25:23.763.18-Jan-2020 4980.01 4428.46 81.44 3.00 120.62 2836.95
   19:25:23.963.18-Jan-2020 4980.01 4428.45 81.44 3.00 120.82 2836.95
   19:25:24.163.18-Jan-2020 4980.01 4428.47 81.44 3.00 121.02 2836.95
   19:25:24.363.18-Jan-2020 4980.01 4428.47 81.44 3.00 121.22 2836.95
   19:25:24.563.18-Jan-2020 4980.01 4428.55 81.44 3.00 121.42 2836.95
   19:25:24.763.18-Jan-2020 4980.01 4428.41 81.44 3.00 121.62 2836.95
   19:25:24.963.18-Jan-2020 4980.01 4428.52 81.44 3.00 121.82 2836.95
   19:25:25.163.18-Jan-2020 4980.01 4428.45 81.44 3.00 122.02 2836.95
   19:25:25.363.18-Jan-2020 4980.01 4428.45 81.44 3.00 122.22 2836.95
   19:25:25.563.18-Jan-2020 4980.01 4428.45 81.43 3.00 122.42 2836.95
   19:25:25.763.18-Jan-2020 4980.01 4428.46 81.43 3.00 122.62 2836.95
   19:25:25.963.18-Jan-2020 4980.01 4428.44 81.43 3.00 122.82 2836.95
   19:25:26.163.18-Jan-2020 4980.01 4428.45 81.43 3.00 123.02 2836.95
   19:25:26.363.18-Jan-2020 4980.01 4428.45 81.43 3.00 123.22 2836.95
   19:25:26.563.18-Jan-2020 4980.01 4428.44 81.43 3.00 123.42 2836.95
   19:25:26.763.18-Jan-2020 4980.01 4428.45 81.43 3.00 123.62 2836.95
   19:25:26.963.18-Jan-2020 4980.01 4428.44 81.43 3.00 123.82 2836.95
   19:25:27.163.18-Jan-2020 4980.01 4428.46 81.43 3.00 124.02 2836.95
   19:25:27.363.18-Jan-2020 4980.01 4428.46 81.43 3.00 124.22 2836.95
   19:25:27.563.18-Jan-2020 4980.01 4428.45 81.43 3.00 124.42 2836.95
   19:25:27.763.18-Jan-2020 4980.01 4428.35 81.43 3.00 124.62 2836.95
   19:25:27.963.18-Jan-2020 4980.01 4428.48 81.43 3.00 124.82 2836.95
   19:25:28.163.18-Jan-2020 4980.01 4428.41 81.43 3.00 125.02 2836.95
   19:25:28.363.18-Jan-2020 4980.01 4428.41 81.43 3.00 125.22 2836.95
   19:25:28.564.18-Jan-2020 4980.01 4428.44 81.42 3.00 125.42 2836.95
   19:25:28.764.18-Jan-2020 4980.01 4428.30 81.42 3.00 125.62 2836.95
   19:25:28.964.18-Jan-2020 4980.01 4428.56 81.42 3.00 125.82 2836.95
   19:25:29.164.18-Jan-2020 4980.01 4428.44 81.42 3.00 126.02 2836.95
   19:25:29.364.18-Jan-2020 4980.01 4428.44 81.42 3.00 126.22 2836.95
   19:25:29.564.18-Jan-2020 4980.01 4428.44 81.42 3.00 126.42 2836.95
   19:25:29.764.18-Jan-2020 4980.01 4428.47 81.42 3.00 126.62 2836.95
   19:25:29.964.18-Jan-2020 4980.01 4428.37 81.42 3.00 126.82 2836.95
   19:25:30.164.18-Jan-2020 4980.01 4428.47 81.42 3.00 127.02 2836.95
   19:25:30.364.18-Jan-2020 4980.01 4428.47 81.42 3.00 127.22 2836.95
   19:25:30.564.18-Jan-2020 4980.01 4428.48 81.42 3.00 127.42 2836.95
   19:25:30.764.18-Jan-2020 4980.01 4428.43 81.42 3.00 127.62 2836.95
   19:25:30.964.18-Jan-2020 4980.01 4428.46 81.42 3.00 127.82 2836.95
   19:25:31.164.18-Jan-2020 4980.01 4428.44 81.42 3.00 128.02 2836.95
   19:25:31.364.18-Jan-2020 4980.01 4428.44 81.42 3.00 128.22 2836.95
   19:25:31.564.18-Jan-2020 4980.01 4428.29 81.42 3.00 128.42 2836.95
   19:25:31.764.18-Jan-2020 4980.01 4428.55 81.42 3.00 128.62 2836.95
   19:25:31.964.18-Jan-2020 4980.01 4428.45 81.41 3.00 128.82 2836.95
   19:25:32.164.18-Jan-2020 4980.01 4428.43 81.41 3.00 129.03 2836.95
   19:25:32.364.18-Jan-2020 4980.01 4428.43 81.41 3.00 129.23 2836.95
   19:25:32.564.18-Jan-2020 4980.01 4428.44 81.41 3.00 129.43 2836.95
   19:25:32.764.18-Jan-2020 4980.01 4428.44 81.41 3.00 129.63 2836.95
   19:25:32.964.18-Jan-2020 4980.01 4428.43 81.41 3.00 129.83 2836.95
   19:25:33.164.18-Jan-2020 4980.01 4428.43 81.41 3.00 130.03 2836.95
   19:25:33.364.18-Jan-2020 4980.01 4428.43 81.41 3.00 130.23 2836.95
   19:25:33.564.18-Jan-2020 4980.01 4428.42 81.41 3.00 130.43 2836.95
   19:25:33.765.18-Jan-2020 4980.01 4428.43 81.41 3.00 130.63 2836.95
   19:25:33.965.18-Jan-2020 4980.01 4428.42 81.41 3.00 130.83 2836.95
   19:25:34.165.18-Jan-2020 4980.01 4428.43 81.41 3.00 131.03 2836.95
   19:25:34.365.18-Jan-2020 4980.01 4428.43 81.41 3.00 131.23 2836.95
   19:25:34.565.18-Jan-2020 4980.01 4428.42 81.41 3.00 131.43 2836.95
   19:25:34.765.18-Jan-2020 4980.01 4428.24 81.41 3.00 131.63 2836.95
   19:25:34.965.18-Jan-2020 4980.01 4428.55 81.41 3.00 131.83 2836.95
   19:25:35.165.18-Jan-2020 4980.01 4428.42 81.40 3.00 132.03 2836.95
   19:25:35.365.18-Jan-2020 4980.01 4428.42 81.40 3.00 132.23 2836.95
   19:25:35.565.18-Jan-2020 4980.01 4428.43 81.40 3.00 132.43 2836.95
   19:25:35.765.18-Jan-2020 4980.01 4428.43 81.40 3.00 132.63 2836.95
   19:25:35.965.18-Jan-2020 4980.01 4428.42 81.40 3.00 132.83 2836.95
   19:25:36.165.18-Jan-2020 4980.01 4428.43 81.40 3.00 133.03 2836.95
   19:25:36.365.18-Jan-2020 4980.01 4428.43 81.40 3.00 133.23 2836.95
   19:25:36.565.18-Jan-2020 4980.01 4428.41 81.40 3.00 133.43 2836.95
   19:25:36.765.18-Jan-2020 4980.01 4428.42 81.40 3.00 133.63 2836.95
   19:25:36.965.18-Jan-2020 4980.01 4428.40 81.40 3.00 133.83 2836.95
   19:25:37.165.18-Jan-2020 4980.01 4428.42 81.40 3.00 134.03 2836.95
   19:25:37.365.18-Jan-2020 4980.01 4428.42 81.40 3.00 134.23 2836.95
   19:25:37.565.18-Jan-2020 4980.01 4428.43 81.40 3.00 134.43 2836.95
   19:25:37.765.18-Jan-2020 4980.01 4428.39 81.40 3.00 134.63 2836.95
   19:25:37.965.18-Jan-2020 4980.01 4428.42 81.40 3.00 134.83 2836.95
   19:25:38.165.18-Jan-2020 4980.01 4428.27 81.40 3.00 135.03 2836.95
   19:25:38.365.18-Jan-2020 4980.01 4428.27 81.40 3.00 135.23 2836.95
   19:25:38.565.18-Jan-2020 4980.01 4428.38 81.39 3.00 135.43 2836.95
   19:25:38.765.18-Jan-2020 4980.01 4428.45 81.39 3.00 135.63 2836.95
   19:25:38.966.18-Jan-2020 4980.01 4428.42 81.39 3.00 135.83 2836.95
   19:25:39.166.18-Jan-2020 4980.01 4428.34 81.39 3.00 136.03 2836.95
   19:25:39.366.18-Jan-2020 4980.01 4428.34 81.39 3.00 136.23 2836.95
   19:25:39.566.18-Jan-2020 4980.01 4428.43 81.39 3.00 136.43 2836.95
   19:25:39.766.18-Jan-2020 4980.01 4428.43 81.39 3.00 136.63 2836.95
   19:25:39.966.18-Jan-2020 4980.01 4428.41 81.39 3.00 136.83 2836.95
   19:25:40.166.18-Jan-2020 4980.01 4428.42 81.39 3.00 137.03 2836.95
   19:25:40.366.18-Jan-2020 4980.01 4428.42 81.39 3.00 137.23 2836.95
   19:25:40.566.18-Jan-2020 4980.01 4428.51 81.39 3.00 137.43 2836.95
   19:25:40.766.18-Jan-2020 4980.01 4428.37 81.39 3.00 137.63 2836.95
   19:25:40.966.18-Jan-2020 4980.01 4428.46 81.39 3.00 137.83 2836.95
