~Version Information
 VERS.                  2.0:   CWLS log ASCII Standard -VERSION 2.0
 WRAP.                   NO:   One line per depth step
~Well Information Block
#MNEM.UNIT     VALUE/NAME     DESCRIPTION
#---------     -----------    ---------------------------
 STRT.S             05:36:55 19-Jan-20: START TIME 05:36:55 19-Jan-20
 STOP.S             05:44:47 19-Jan-20: STOP TIME  05:44:47 19-Jan-20
 STEP.S                   0.00: STEP TIME
 NULL.                 -999.25: NULL VALUE
 DFWT.                        :  DIST FWL TEXT
 DFST.                        :  DIST FSL TEXT
 DMF .             Drill Floor:  DRILL MEAS FROM
 STIM.      17.57.20 21-Dec-19:  START TIME
 DATE.      17.57.20 21-Dec-19:  END TIME
 SPUD.               21-Dec-19:  SPUD DATE
 NREF.                    Grid:  NORTH REFERENCE
 HPTY.       Minimum Curvature:  HOLE POS TYPE
 DMOD.             Drill Model:  DRILL MOD DESC
 SVYD.                  Survey:  SURVEY DESC
 ILTD.               Lithology:  INTERP LTH DESC
 FTOP.          Formation Tops:  FORM TOPS DESC
 PDAT.          Mean Sea Level:  PERMANENT DATUM
 FLD .                     ACG:  FIELD NAME
 SON .        AZ-XX-0905715376:  JOB NUMBER
 CTRY.              Azerbaijan:  COUNTRY NAME
 WELL.                    E04Y:  WELL NAME
 SRVC.          TURAN DRILLING:  CONTRACTOR
 COMP.     BP Exploration (Caspian Sea) Ltd.:  COMPANY
 WTYP.                Deviated:  WELL TYPE
 UWI .                     N/a:  UNIQUE WELL IDENTIFIER
 API .                     N/a:  API NUMBER
 BASE.              Azerbaijan:  LOGGING EQUIPMENT BASE LOCATION
 REGN.                   EESSA:  REGION
 MWDS.                    Baku:  MWD SHOP
 RIG .                     DWG:  RIG NAME
 DOE .                     N/a:  DOE NUMBER
 CNTY.                    Baku:  COUNTY NAME
 DCON.         Sperry Drilling:  DIRECTNL CONTR
 UNIT.                     N/a:  LOGGING EQUIPMENT ID
 MDS .        Operator Entered:  MAG DATA SOURCE
 PROV.                        :  PROVINCE
 STAT.                        :  STATE
 LOC .                        :  LOCATION
 LMF .             Drill Floor:  LOG MEASURED FROM
 TVDS.m                  43.16:  TVDSS CORRECTN
 LATI.deg                40.17:  LATITUDE
 LONG.deg                51.17:  LONGITUDE
 WHNS.m                  -0.12:  WELL HEAD N/S
 WHEW.m                  -5.41:  WELL HEAD E/W
 UTMX.m              514337.95:  UTM X
 UTMY.m             4448627.46:  UTM Y
 DFWL.m                   0.00:  DISTANCE FWL
 DFSL.m                   0.00:  DISTANCE FSL
 SDEP.m                   0.00:  START DEPTH
 TDD .m                   0.00:  TOTAL DEPTH (DRILLER)
 VSDR.deg               235.12:  VERT SEC DIRECT
 GVFD.g                   1.00:  GRAVITY FIELD
 MFLD.nT              50294.00:  MAGNETIC FIELD
 MDIP.deg                59.61:  MAGNETIC DIP
 MDEC.deg                 6.58:  MAGNETIC DECL
 GRDC.deg                 0.09:  GRID CORRECTION
 AZTC.deg                 6.49:  AZM TOTAL CORR
 EPD .m                   0.00:  ELEVATION
 EGL .m                   0.00:  GROUND ELEVATION
 WDMS.m                 176.20:  WD ELEV
 APD .m                  43.16:  DEPTH ABOVE PD
 DEP .m                3172.61:  DEPTH
 AGAP.m                  43.16:  AIR GAP
 VSEW.m                  -5.41:  VERT SEC E/W
 VSNS.m                  -0.12:  VERT SEC N/S
 EKB .m                  43.16:  KB ELEVATION
 EDF .m                  43.16:  DF ELEVATION
 TDL .m                 295.00:  TOTAL DEPTH (LOGGER)
 VSC .                       0:  VS TO CLOSURE
 MAGU.                 1852276:  MAGUTM CHECKSUM
~Parameter Information Block
#MNEM.UNIT       Value        Description
#---------     -----------    ---------------------------
 AV  .mps                 1.60:  Ann Velocity 
 AVMX.mps                 2.10:  Max Ann Veloc 
 AZIF.deg               290.59:  Azm, Final 
 BHAT.        Rotary Steerable:  BHA Type 
 BROT.°/30m               1.00:  Build Rotating 
 BS  .in                  6.50:  Bit Size 
 BSZ .in                  6.50:  Bit Size 
 BTPL.psig              120.00:  Bit Press Loss 
 CABU.                     Yes:  Customer Abuse 
 CGEO.          Eldar Huseynov:  Customer Geo 
 COMM.                     Lì_:  Run Comments 1 
 TCS .hr                 87.00:  Time Ciculation Ended 
 CV  .mps                 4.01:  Crit Velocity 
 CVMX.mps                 5.06:  Max Crit Veloc 
 DD1 .             Aziz Aliyev:  Direct Drillr 1 
 DD2 .            Sanan Aliyev:  Direct Drillr 2 
 DDSV.               Geo-Pilot:  DD Service 
 DEFF.%                  95.00:  % Det Eff 
 DLRX.°/30m               0.75:  Dogleg Rot Max 
 DLSO.°/30m               0.65:  Dogleg Oriented 
 DLSX.°/30m               1.39:  Dogleg Str Max 
 DRET.      18.25.00 19-Jan-20:  Drill End Time 
 DRST.      11.56.48 17-Jan-20:  Drill Start Tim 
 DTIM.hr                 27.16:  Time Drilling 
 EDEP.m                5161.01:  End Depth 
 ENG1.          Rasim Hashimov:  Engineer 1 
 ENG2.      Bakhtiyar Jabbarli:  Engineer 2 
 ETIM.      11.56.48 21-Jan-20:  End Time 
 FLOI.gpm               350.00:  Flow In 
 FLON.gpm               300.00:  Flow In Min 
 FLOS.cptm                0.00:  Fluid Loss 
 FLOX.gpm               400.00:  Flow In Max 
 HFLO.                      No:  High Flow 
 HPRE.                      No:  High Pressure 
 HTEM.                      No:  High Temp 
 HYDO.m                   1.85:  Hydro Offset 
 IFIN.deg                71.58:  Inc, Final 
 IMAX.deg                71.83:  Inc Max 
 IMIN.deg                71.12:  Inc Min 
 IMND.m                5099.48:  Inc Min Depth 
 IMXD.m                5071.08:  Inc Max Depth 
 JARR.                      No:  Jarring 
 LETM.      18.25.00 19-Jan-20:  Log End Time 
 LOST.hr                     0:  Lost Rig Time 
 LSTM.      11.56.48 17-Jan-20:  Log Start Time 
 MDCL.ppm             37000.00:  Mud Chlorides 
 MDES.     Inversion Oil/Synthetic:  Mud Desc 
 DFD .sg                  1.34:  Mud Density 
 MDMN.sg                  1.34:  Dens Mud Min 
 MDMX.sg                  1.34:  Dens Mud Max 
 MOIL.                      69:  Run Mud Oil % 
 MOWR.                   69:31:  Run Mud OWR 
 MSND.                     0.1:  Run Mud Sand % 
 MSOL.                    17.6:  Run Mud Solids% 
 DFV .spqt               79.00:  Mud Viscosity 
 MWOD.in                  4.75:  MWD Tool OD 
 MWSI.                      No:  Serv Intrp, MWD 
 OTIM.hr                126.10:  Time Operating 
 PMAX.psia             6000.00:  Press Op, Max 
 PV  .cP                 29.00:  Mud PV 
 RUN .                     400:  Run Number 
 ROPA.m/hr               11.00:  ROP Avg 
 ROPN.m/hr                5.00:  ROP Min 
 ROPX.m/hr               18.00:  ROP Max 
 RPMA.rpm               139.00:  RPM Surface Avg 
 RPMN.rpm               100.00:  RPM Surface Min 
 RPMX.rpm               140.00:  RPM Surface Max 
 RRUN.                     400:  Rig Run Number 
 SAZI.deg               290.22:  Azm, Start 
 SDEP.m                4868.01:  Start Depth 
 SIDD.                      No:  Serv Intrp, DD 
 SINC.deg                71.77:  Inc, Start 
 SPPA.psig             5550.00:  SPP Avg 
 SPPN.psig             4300.00:  SPP Min 
 SPPX.psig             5600.00:  SPP Max 
 STIM.      23.45.48 15-Jan-20:  Start Time 
 SVCS.                 DD, MWD:  Services 
 SVER.                    9.20:  Sperry Version 
 TDAT.m                5161.01:  Tot Depth Attmp 
 TDDF.                      No:  Trip for DD 
 TDLG.m                 295.00:  Tot Depth Loggd 
 TFF .                      No:  Trip for Fail 
 TQAA.f-kp               13.00:  Torque Abs Avg 
 TQAN.f-kp               13.00:  Torque Abs Min 
 TQAX.f-kp               16.00:  Torque Abs Max 
 TRRT.°/30m               0.25:  Turn Rotating 
 MRT .                     ADR:  Maximum Recorded Temperature 
 TTMX.degC               88.00:  Max Tool Temp 
 VS01.                90577859:  Virtual Str1 SN 
 VS02.                90521879:  Virtual Str2 SN 
 VS03.                90580299:  Virtual Str3 SN 
 VS04.                90515982:  Virtual Str4 SN 
 VS05.                90547765:  Virtual Str5 SN 
 WBMN.klb                 2.00:  WOB Min 
 WITN.           Adil Mammadov:  Customer Rep 
 WITN.        Elmaddin Rahimov:  Customer Rep 2 
 WOBA.klb                 3.00:  WOB Avg 
 WOBX.klb                 5.00:  WOB Max 
 YP  .lhf2               30.00:  Yield Point 
~Curve Information Block
#MNEM.UNIT                 API CODE     Curve Description
#---------               -----------    ---------------------------
 TIME.HHMMSS            00 000 000 000:  GT Time & Date
 GTDEPTH.m              00 000 000 000:  GT Depth
 GTPQH.psia             00 000 000 000:  GT HR Quartz Pressure
 GTTQ.degC              00 000 000 000:  GT Quartz Temperature
 GTTN.NONE              00 000 000 000:  GT Test Number
 GTET.sec               00 000 000 000:  GT Elapsed Test Time
 GTTVD.m                00 000 000 000:  GT True Vertical Depth
#Other Information
#
#WARRANTY: Halliburton will use its best efforts to furnish customers with 
#accurate information and interpretations that are part of, and incident to, the services 
#provided.  However, Halliburton cannot and does not warrant the accuracy 
#or correctness of such information and interpretations.  Under no circumstances should any 
#such information or interpretation be relied upon as the sole basis for any drilling, 
#completion, production, or financial decision or any procedure involving any risk to the 
#safety of any drilling venture, drilling rig or its crew or any other third party.  The 
#Customer has full responsibility for all drilling, completion and production operation.  
#Halliburton makes no representations or warranties, either expressed or 
#implied, including, but not limited to, the implied warranties of merchantability or fitness 
#for a particular purpose, with respect to the services rendered.  In no event will 
#Halliburton be liable for failure to obtain any particular results or for 
#any damages, including, but not limited to, indirect, special or consequential damages, 
#resulting from the use of any information or interpretation provided by Halliburton.
#
~A           TIME           GTDEPTH  GTPQH  GTTQ  GTTN  GTET   GTTVD  
# ...
   05:41:54.662.19-Jan-2020 5052.01 4085.60 81.27 4.00 299.06 2859.87
   05:41:54.862.19-Jan-2020 5052.01 4085.60 81.27 4.00 299.26 2859.87
   05:41:55.062.19-Jan-2020 5052.01 4085.60 81.27 4.00 299.46 2859.87
   05:41:55.262.19-Jan-2020 5052.01 4085.58 81.27 4.00 299.66 2859.87
   05:41:55.462.19-Jan-2020 5052.01 4085.59 81.27 4.00 299.86 2859.87
   05:41:55.662.19-Jan-2020 5052.01 4085.45 81.27 4.00 300.06 2859.87
   05:41:55.862.19-Jan-2020 5052.01 4085.45 81.27 4.00 300.26 2859.87
   05:41:56.062.19-Jan-2020 5052.01 4083.99 81.27 4.00 300.46 2859.87
   05:41:56.262.19-Jan-2020 5052.01 4082.76 81.27 4.00 300.66 2859.87
   05:41:56.462.19-Jan-2020 5052.01 4082.87 81.27 4.00 300.86 2859.87
   05:41:56.662.19-Jan-2020 5052.01 4082.83 81.27 4.00 301.06 2859.87
   05:41:56.862.19-Jan-2020 5052.01 4082.83 81.27 4.00 301.26 2859.87
   05:41:57.062.19-Jan-2020 5052.01 4082.62 81.27 4.00 301.46 2859.87
   05:41:57.263.19-Jan-2020 5052.01 4082.76 81.27 4.00 301.66 2859.87
   05:41:57.463.19-Jan-2020 5052.01 4082.77 81.27 4.00 301.86 2859.87
   05:41:57.663.19-Jan-2020 5052.01 4082.75 81.27 4.00 302.06 2859.87
   05:41:57.863.19-Jan-2020 5052.01 4082.75 81.27 4.00 302.26 2859.87
   05:41:58.063.19-Jan-2020 5052.01 4082.67 81.27 4.00 302.46 2859.87
   05:41:58.263.19-Jan-2020 5052.01 4082.72 81.27 4.00 302.66 2859.87
   05:41:58.463.19-Jan-2020 5052.01 4082.73 81.27 4.00 302.86 2859.87
   05:41:58.663.19-Jan-2020 5052.01 4082.53 81.27 4.00 303.06 2859.87
   05:41:58.863.19-Jan-2020 5052.01 4082.53 81.27 4.00 303.26 2859.87
   05:41:59.063.19-Jan-2020 5052.01 4082.66 81.26 4.00 303.46 2859.87
   05:41:59.263.19-Jan-2020 5052.01 4082.69 81.26 4.00 303.66 2859.87
   05:41:59.463.19-Jan-2020 5052.01 4082.70 81.26 4.00 303.86 2859.87
   05:41:59.663.19-Jan-2020 5052.01 4082.69 81.26 4.00 304.06 2859.87
   05:41:59.863.19-Jan-2020 5052.01 4082.69 81.26 4.00 304.26 2859.87
   05:42:00.063.19-Jan-2020 5052.01 4082.58 81.26 4.00 304.46 2859.87
   05:42:00.263.19-Jan-2020 5052.01 4082.56 81.26 4.00 304.66 2859.87
   05:42:00.463.19-Jan-2020 5052.01 4082.74 81.26 4.00 304.86 2859.87
   05:42:00.663.19-Jan-2020 5052.01 4082.66 81.26 4.00 305.06 2859.87
   05:42:00.863.19-Jan-2020 5052.01 4082.66 81.26 4.00 305.27 2859.87
   05:42:01.063.19-Jan-2020 5052.01 4082.67 81.26 4.00 305.47 2859.87
   05:42:01.263.19-Jan-2020 5052.01 4082.64 81.26 4.00 305.67 2859.87
   05:42:01.463.19-Jan-2020 5052.01 4082.67 81.26 4.00 305.87 2859.87
   05:42:01.663.19-Jan-2020 5052.01 4082.63 81.26 4.00 306.07 2859.87
   05:42:01.864.19-Jan-2020 5052.01 4082.63 81.26 4.00 306.27 2859.87
   05:42:02.064.19-Jan-2020 5052.01 4082.61 81.26 4.00 306.47 2859.87
   05:42:02.264.19-Jan-2020 5052.01 4082.60 81.26 4.00 306.67 2859.87
   05:42:02.464.19-Jan-2020 5052.01 4082.62 81.26 4.00 306.87 2859.87
   05:42:02.664.19-Jan-2020 5052.01 4082.64 81.26 4.00 307.07 2859.87
   05:42:02.864.19-Jan-2020 5052.01 4082.64 81.26 4.00 307.27 2859.87
   05:42:03.064.19-Jan-2020 5052.01 4082.62 81.26 4.00 307.47 2859.87
   05:42:03.264.19-Jan-2020 5052.01 4082.64 81.26 4.00 307.67 2859.87
   05:42:03.464.19-Jan-2020 5052.01 4082.52 81.26 4.00 307.87 2859.87
   05:42:03.664.19-Jan-2020 5052.01 4082.62 81.26 4.00 308.07 2859.87
   05:42:03.864.19-Jan-2020 5052.01 4082.62 81.26 4.00 308.27 2859.87
   05:42:04.064.19-Jan-2020 5052.01 4082.57 81.25 4.00 308.47 2859.87
   05:42:04.264.19-Jan-2020 5052.01 4082.70 81.25 4.00 308.67 2859.87
   05:42:04.464.19-Jan-2020 5052.01 4082.59 81.25 4.00 308.87 2859.87
   05:42:04.664.19-Jan-2020 5052.01 4082.63 81.25 4.00 309.07 2859.87
   05:42:04.864.19-Jan-2020 5052.01 4082.63 81.25 4.00 309.27 2859.87
   05:42:05.064.19-Jan-2020 5052.01 4082.56 81.25 4.00 309.47 2859.87
   05:42:05.264.19-Jan-2020 5052.01 4082.60 81.25 4.00 309.67 2859.87
   05:42:05.464.19-Jan-2020 5052.01 4082.64 81.25 4.00 309.87 2859.87
   05:42:05.664.19-Jan-2020 5052.01 4082.56 81.25 4.00 310.07 2859.87
   05:42:05.864.19-Jan-2020 5052.01 4082.56 81.25 4.00 310.27 2859.87
   05:42:06.064.19-Jan-2020 5052.01 4082.60 81.25 4.00 310.47 2859.87
   05:42:06.264.19-Jan-2020 5052.01 4083.05 81.25 4.00 310.67 2859.87
   05:42:06.464.19-Jan-2020 5052.01 4085.30 81.25 4.00 310.87 2859.87
   05:42:06.665.19-Jan-2020 5052.01 4085.39 81.25 4.00 311.07 2859.87
   05:42:06.865.19-Jan-2020 5052.01 4085.39 81.25 4.00 311.27 2859.87
   05:42:07.065.19-Jan-2020 5052.01 4085.59 81.25 4.00 311.47 2859.87
   05:42:07.265.19-Jan-2020 5052.01 4085.57 81.25 4.00 311.67 2859.87
   05:42:07.465.19-Jan-2020 5052.01 4085.53 81.25 4.00 311.87 2859.87
   05:42:07.665.19-Jan-2020 5052.01 4085.58 81.25 4.00 312.07 2859.87
   05:42:07.865.19-Jan-2020 5052.01 4085.58 81.25 4.00 312.27 2859.87
   05:42:08.065.19-Jan-2020 5052.01 4085.57 81.25 4.00 312.47 2859.87
   05:42:08.265.19-Jan-2020 5052.01 4085.43 81.25 4.00 312.67 2859.87
   05:42:08.465.19-Jan-2020 5052.01 4085.64 81.25 4.00 312.87 2859.87
   05:42:08.665.19-Jan-2020 5052.01 4085.60 81.25 4.00 313.07 2859.87
   05:42:08.865.19-Jan-2020 5052.01 4085.60 81.25 4.00 313.27 2859.87
   05:42:09.065.19-Jan-2020 5052.01 4085.60 81.25 4.00 313.47 2859.87
   05:42:09.265.19-Jan-2020 5052.01 4085.59 81.24 4.00 313.67 2859.87
   05:42:09.465.19-Jan-2020 5052.01 4085.61 81.24 4.00 313.87 2859.87
   05:42:09.665.19-Jan-2020 5052.01 4085.57 81.24 4.00 314.07 2859.87
   05:42:09.865.19-Jan-2020 5052.01 4085.57 81.24 4.00 314.27 2859.87
   05:42:10.065.19-Jan-2020 5052.01 4085.66 81.24 4.00 314.47 2859.87
   05:42:10.265.19-Jan-2020 5052.01 4085.61 81.24 4.00 314.67 2859.87
   05:42:10.465.19-Jan-2020 5052.01 4085.60 81.24 4.00 314.87 2859.87
   05:42:10.665.19-Jan-2020 5052.01 4085.62 81.24 4.00 315.07 2859.87
   05:42:10.865.19-Jan-2020 5052.01 4085.62 81.24 4.00 315.27 2859.87
   05:42:11.065.19-Jan-2020 5052.01 4085.60 81.24 4.00 315.47 2859.87
   05:42:11.266.19-Jan-2020 5052.01 4085.57 81.24 4.00 315.67 2859.87
   05:42:11.466.19-Jan-2020 5052.01 4085.54 81.24 4.00 315.87 2859.87
   05:42:11.666.19-Jan-2020 5052.01 4085.64 81.24 4.00 316.07 2859.87
   05:42:11.866.19-Jan-2020 5052.01 4085.64 81.24 4.00 316.27 2859.87
   05:42:12.066.19-Jan-2020 5052.01 4085.63 81.24 4.00 316.47 2859.87
   05:42:12.266.19-Jan-2020 5052.01 4085.60 81.24 4.00 316.67 2859.87
   05:42:12.466.19-Jan-2020 5052.01 4085.61 81.24 4.00 316.87 2859.87
   05:42:12.666.19-Jan-2020 5052.01 4085.60 81.24 4.00 317.07 2859.87
   05:42:12.866.19-Jan-2020 5052.01 4085.60 81.24 4.00 317.27 2859.87
   05:42:13.066.19-Jan-2020 5052.01 4085.59 81.24 4.00 317.47 2859.87
   05:42:13.266.19-Jan-2020 5052.01 4085.61 81.24 4.00 317.67 2859.87
   05:42:13.466.19-Jan-2020 5052.01 4085.59 81.24 4.00 317.87 2859.87
   05:42:13.666.19-Jan-2020 5052.01 4085.58 81.24 4.00 318.07 2859.87
   05:42:13.866.19-Jan-2020 5052.01 4085.58 81.24 4.00 318.27 2859.87
   05:42:14.066.19-Jan-2020 5052.01 4085.58 81.24 4.00 318.47 2859.87
   05:42:14.266.19-Jan-2020 5052.01 4085.59 81.24 4.00 318.67 2859.87
   05:42:14.466.19-Jan-2020 5052.01 4085.57 81.23 4.00 318.87 2859.87
   05:42:14.666.19-Jan-2020 5052.01 4085.49 81.23 4.00 319.07 2859.87
   05:42:14.866.19-Jan-2020 5052.01 4085.49 81.23 4.00 319.27 2859.87
   05:42:15.066.19-Jan-2020 5052.01 4085.63 81.23 4.00 319.47 2859.87
   05:42:15.266.19-Jan-2020 5052.01 4085.58 81.23 4.00 319.67 2859.87
   05:42:15.466.19-Jan-2020 5052.01 4085.63 81.23 4.00 319.87 2859.87
   05:42:15.666.19-Jan-2020 5052.01 4085.60 81.23 4.00 320.07 2859.87
   05:42:15.866.19-Jan-2020 5052.01 4085.60 81.23 4.00 320.27 2859.87
   05:42:16.067.19-Jan-2020 5052.01 4085.60 81.23 4.00 320.47 2859.87
   05:42:16.267.19-Jan-2020 5052.01 4085.59 81.23 4.00 320.67 2859.87
   05:42:16.467.19-Jan-2020 5052.01 4085.59 81.23 4.00 320.87 2859.87
   05:42:16.667.19-Jan-2020 5052.01 4085.58 81.23 4.00 321.07 2859.87
   05:42:16.867.19-Jan-2020 5052.01 4085.58 81.23 4.00 321.27 2859.87
   05:42:17.067.19-Jan-2020 5052.01 4085.58 81.23 4.00 321.47 2859.87
   05:42:17.267.19-Jan-2020 5052.01 4085.59 81.23 4.00 321.67 2859.87
   05:42:17.467.19-Jan-2020 5052.01 4085.57 81.23 4.00 321.87 2859.87
