~Version Information
 VERS.                  2.0:   CWLS log ASCII Standard -VERSION 2.0
 WRAP.                   NO:   One line per depth step
~Well Information Block
#MNEM.UNIT     VALUE/NAME     DESCRIPTION
#---------     -----------    ---------------------------
 STRT.S             10:03:43 19-Jan-20: START TIME 10:03:43 19-Jan-20
 STOP.S             10:11:36 19-Jan-20: STOP TIME  10:11:36 19-Jan-20
 STEP.S                   0.00: STEP TIME
 NULL.                 -999.25: NULL VALUE
 DFWT.                        :  DIST FWL TEXT
 DFST.                        :  DIST FSL TEXT
 DMF .             Drill Floor:  DRILL MEAS FROM
 STIM.      17.57.20 21-Dec-19:  START TIME
 DATE.      17.57.20 21-Dec-19:  END TIME
 SPUD.               21-Dec-19:  SPUD DATE
 NREF.                    Grid:  NORTH REFERENCE
 HPTY.       Minimum Curvature:  HOLE POS TYPE
 DMOD.             Drill Model:  DRILL MOD DESC
 SVYD.                  Survey:  SURVEY DESC
 ILTD.               Lithology:  INTERP LTH DESC
 FTOP.          Formation Tops:  FORM TOPS DESC
 PDAT.          Mean Sea Level:  PERMANENT DATUM
 FLD .                     ACG:  FIELD NAME
 SON .        AZ-XX-0905715376:  JOB NUMBER
 CTRY.              Azerbaijan:  COUNTRY NAME
 WELL.                    E04Y:  WELL NAME
 SRVC.          TURAN DRILLING:  CONTRACTOR
 COMP.     BP Exploration (Caspian Sea) Ltd.:  COMPANY
 WTYP.                Deviated:  WELL TYPE
 UWI .                     N/a:  UNIQUE WELL IDENTIFIER
 API .                     N/a:  API NUMBER
 BASE.              Azerbaijan:  LOGGING EQUIPMENT BASE LOCATION
 REGN.                   EESSA:  REGION
 MWDS.                    Baku:  MWD SHOP
 RIG .                     DWG:  RIG NAME
 DOE .                     N/a:  DOE NUMBER
 CNTY.                    Baku:  COUNTY NAME
 DCON.         Sperry Drilling:  DIRECTNL CONTR
 UNIT.                     N/a:  LOGGING EQUIPMENT ID
 MDS .        Operator Entered:  MAG DATA SOURCE
 PROV.                        :  PROVINCE
 STAT.                        :  STATE
 LOC .                        :  LOCATION
 LMF .             Drill Floor:  LOG MEASURED FROM
 TVDS.m                  43.16:  TVDSS CORRECTN
 LATI.deg                40.17:  LATITUDE
 LONG.deg                51.17:  LONGITUDE
 WHNS.m                  -0.12:  WELL HEAD N/S
 WHEW.m                  -5.41:  WELL HEAD E/W
 UTMX.m              514337.95:  UTM X
 UTMY.m             4448627.46:  UTM Y
 DFWL.m                   0.00:  DISTANCE FWL
 DFSL.m                   0.00:  DISTANCE FSL
 SDEP.m                   0.00:  START DEPTH
 TDD .m                   0.00:  TOTAL DEPTH (DRILLER)
 VSDR.deg               235.12:  VERT SEC DIRECT
 GVFD.g                   1.00:  GRAVITY FIELD
 MFLD.nT              50294.00:  MAGNETIC FIELD
 MDIP.deg                59.61:  MAGNETIC DIP
 MDEC.deg                 6.58:  MAGNETIC DECL
 GRDC.deg                 0.09:  GRID CORRECTION
 AZTC.deg                 6.49:  AZM TOTAL CORR
 EPD .m                   0.00:  ELEVATION
 EGL .m                   0.00:  GROUND ELEVATION
 WDMS.m                 176.20:  WD ELEV
 APD .m                  43.16:  DEPTH ABOVE PD
 DEP .m                3172.61:  DEPTH
 AGAP.m                  43.16:  AIR GAP
 VSEW.m                  -5.41:  VERT SEC E/W
 VSNS.m                  -0.12:  VERT SEC N/S
 EKB .m                  43.16:  KB ELEVATION
 EDF .m                  43.16:  DF ELEVATION
 TDL .m                 295.00:  TOTAL DEPTH (LOGGER)
 VSC .                       0:  VS TO CLOSURE
 MAGU.                 1852276:  MAGUTM CHECKSUM
~Parameter Information Block
#MNEM.UNIT       Value        Description
#---------     -----------    ---------------------------
 AV  .mps                 1.60:  Ann Velocity 
 AVMX.mps                 2.10:  Max Ann Veloc 
 AZIF.deg               290.59:  Azm, Final 
 BHAT.        Rotary Steerable:  BHA Type 
 BROT.°/30m               1.00:  Build Rotating 
 BS  .in                  6.50:  Bit Size 
 BSZ .in                  6.50:  Bit Size 
 BTPL.psig              120.00:  Bit Press Loss 
 CABU.                     Yes:  Customer Abuse 
 CGEO.          Eldar Huseynov:  Customer Geo 
 COMM.                     Œòk:  Run Comments 1 
 TCS .hr                 87.00:  Time Ciculation Ended 
 CV  .mps                 4.01:  Crit Velocity 
 CVMX.mps                 5.06:  Max Crit Veloc 
 DD1 .             Aziz Aliyev:  Direct Drillr 1 
 DD2 .            Sanan Aliyev:  Direct Drillr 2 
 DDSV.               Geo-Pilot:  DD Service 
 DEFF.%                  95.00:  % Det Eff 
 DLRX.°/30m               0.75:  Dogleg Rot Max 
 DLSO.°/30m               0.65:  Dogleg Oriented 
 DLSX.°/30m               1.39:  Dogleg Str Max 
 DRET.      18.25.00 19-Jan-20:  Drill End Time 
 DRST.      11.56.48 17-Jan-20:  Drill Start Tim 
 DTIM.hr                 27.16:  Time Drilling 
 EDEP.m                5161.01:  End Depth 
 ENG1.          Rasim Hashimov:  Engineer 1 
 ENG2.      Bakhtiyar Jabbarli:  Engineer 2 
 ETIM.      11.56.48 21-Jan-20:  End Time 
 FLOI.gpm               350.00:  Flow In 
 FLON.gpm               300.00:  Flow In Min 
 FLOS.cptm                0.00:  Fluid Loss 
 FLOX.gpm               400.00:  Flow In Max 
 HFLO.                      No:  High Flow 
 HPRE.                      No:  High Pressure 
 HTEM.                      No:  High Temp 
 HYDO.m                   1.85:  Hydro Offset 
 IFIN.deg                71.58:  Inc, Final 
 IMAX.deg                71.83:  Inc Max 
 IMIN.deg                71.12:  Inc Min 
 IMND.m                5099.48:  Inc Min Depth 
 IMXD.m                5071.08:  Inc Max Depth 
 JARR.                      No:  Jarring 
 LETM.      18.25.00 19-Jan-20:  Log End Time 
 LOST.hr                     0:  Lost Rig Time 
 LSTM.      11.56.48 17-Jan-20:  Log Start Time 
 MDCL.ppm             37000.00:  Mud Chlorides 
 MDES.     Inversion Oil/Synthetic:  Mud Desc 
 DFD .sg                  1.34:  Mud Density 
 MDMN.sg                  1.34:  Dens Mud Min 
 MDMX.sg                  1.34:  Dens Mud Max 
 MOIL.                      69:  Run Mud Oil % 
 MOWR.                   69:31:  Run Mud OWR 
 MSND.                     0.1:  Run Mud Sand % 
 MSOL.                    17.6:  Run Mud Solids% 
 DFV .spqt               79.00:  Mud Viscosity 
 MWOD.in                  4.75:  MWD Tool OD 
 MWSI.                      No:  Serv Intrp, MWD 
 OTIM.hr                126.10:  Time Operating 
 PMAX.psia             6000.00:  Press Op, Max 
 PV  .cP                 29.00:  Mud PV 
 RUN .                     400:  Run Number 
 ROPA.m/hr               11.00:  ROP Avg 
 ROPN.m/hr                5.00:  ROP Min 
 ROPX.m/hr               18.00:  ROP Max 
 RPMA.rpm               139.00:  RPM Surface Avg 
 RPMN.rpm               100.00:  RPM Surface Min 
 RPMX.rpm               140.00:  RPM Surface Max 
 RRUN.                     400:  Rig Run Number 
 SAZI.deg               290.22:  Azm, Start 
 SDEP.m                4868.01:  Start Depth 
 SIDD.                      No:  Serv Intrp, DD 
 SINC.deg                71.77:  Inc, Start 
 SPPA.psig             5550.00:  SPP Avg 
 SPPN.psig             4300.00:  SPP Min 
 SPPX.psig             5600.00:  SPP Max 
 STIM.      23.45.48 15-Jan-20:  Start Time 
 SVCS.                 DD, MWD:  Services 
 SVER.                    9.20:  Sperry Version 
 TDAT.m                5161.01:  Tot Depth Attmp 
 TDDF.                      No:  Trip for DD 
 TDLG.m                 295.00:  Tot Depth Loggd 
 TFF .                      No:  Trip for Fail 
 TQAA.f-kp               13.00:  Torque Abs Avg 
 TQAN.f-kp               13.00:  Torque Abs Min 
 TQAX.f-kp               16.00:  Torque Abs Max 
 TRRT.°/30m               0.25:  Turn Rotating 
 MRT .                     ADR:  Maximum Recorded Temperature 
 TTMX.degC               88.00:  Max Tool Temp 
 VS01.                90577859:  Virtual Str1 SN 
 VS02.                90521879:  Virtual Str2 SN 
 VS03.                90580299:  Virtual Str3 SN 
 VS04.                90515982:  Virtual Str4 SN 
 VS05.                90547765:  Virtual Str5 SN 
 WBMN.klb                 2.00:  WOB Min 
 WITN.           Adil Mammadov:  Customer Rep 
 WITN.        Elmaddin Rahimov:  Customer Rep 2 
 WOBA.klb                 3.00:  WOB Avg 
 WOBX.klb                 5.00:  WOB Max 
 YP  .lhf2               30.00:  Yield Point 
~Curve Information Block
#MNEM.UNIT                 API CODE     Curve Description
#---------               -----------    ---------------------------
 TIME.HHMMSS            00 000 000 000:  GT Time & Date
 GTDEPTH.m              00 000 000 000:  GT Depth
 GTPQH.psia             00 000 000 000:  GT HR Quartz Pressure
 GTTQ.degC              00 000 000 000:  GT Quartz Temperature
 GTTN.NONE              00 000 000 000:  GT Test Number
 GTET.sec               00 000 000 000:  GT Elapsed Test Time
 GTTVD.m                00 000 000 000:  GT True Vertical Depth
#Other Information
#
#WARRANTY: Halliburton will use its best efforts to furnish customers with 
#accurate information and interpretations that are part of, and incident to, the services 
#provided.  However, Halliburton cannot and does not warrant the accuracy 
#or correctness of such information and interpretations.  Under no circumstances should any 
#such information or interpretation be relied upon as the sole basis for any drilling, 
#completion, production, or financial decision or any procedure involving any risk to the 
#safety of any drilling venture, drilling rig or its crew or any other third party.  The 
#Customer has full responsibility for all drilling, completion and production operation.  
#Halliburton makes no representations or warranties, either expressed or 
#implied, including, but not limited to, the implied warranties of merchantability or fitness 
#for a particular purpose, with respect to the services rendered.  In no event will 
#Halliburton be liable for failure to obtain any particular results or for 
#any damages, including, but not limited to, indirect, special or consequential damages, 
#resulting from the use of any information or interpretation provided by Halliburton.
#
~A           TIME           GTDEPTH  GTPQH  GTTQ  GTTN  GTET   GTTVD  
# ...
   10:08:42.820.19-Jan-2020 5081.51 4213.75 81.69 5.00 299.04 2869.15
   10:08:43.020.19-Jan-2020 5081.51 4213.75 81.69 5.00 299.24 2869.15
   10:08:43.220.19-Jan-2020 5081.51 4214.05 81.69 5.00 299.44 2869.15
   10:08:43.420.19-Jan-2020 5081.51 4213.96 81.69 5.00 299.64 2869.15
   10:08:43.620.19-Jan-2020 5081.51 4214.03 81.69 5.00 299.84 2869.15
   10:08:43.820.19-Jan-2020 5081.51 4214.00 81.69 5.00 300.04 2869.15
   10:08:44.020.19-Jan-2020 5081.51 4214.00 81.69 5.00 300.24 2869.15
   10:08:44.220.19-Jan-2020 5081.51 4214.01 81.69 5.00 300.44 2869.15
   10:08:44.420.19-Jan-2020 5081.51 4213.99 81.69 5.00 300.64 2869.15
   10:08:44.620.19-Jan-2020 5081.51 4213.98 81.68 5.00 300.84 2869.15
   10:08:44.820.19-Jan-2020 5081.51 4214.00 81.68 5.00 301.04 2869.15
   10:08:45.020.19-Jan-2020 5081.51 4214.00 81.68 5.00 301.24 2869.15
   10:08:45.220.19-Jan-2020 5081.51 4213.95 81.68 5.00 301.44 2869.15
   10:08:45.420.19-Jan-2020 5081.51 4214.01 81.68 5.00 301.64 2869.15
   10:08:45.620.19-Jan-2020 5081.51 4196.15 81.68 5.00 301.84 2869.15
   10:08:45.820.19-Jan-2020 5081.51 4171.75 81.68 5.00 302.04 2869.15
   10:08:46.020.19-Jan-2020 5081.51 4171.75 81.68 5.00 302.24 2869.15
   10:08:46.220.19-Jan-2020 5081.51 4171.15 81.68 5.00 302.44 2869.15
   10:08:46.420.19-Jan-2020 5081.51 4169.72 81.68 5.00 302.64 2869.15
   10:08:46.620.19-Jan-2020 5081.51 4170.38 81.68 5.00 302.84 2869.15
   10:08:46.820.19-Jan-2020 5081.51 4169.94 81.68 5.00 303.04 2869.15
   10:08:47.020.19-Jan-2020 5081.51 4169.94 81.68 5.00 303.24 2869.15
   10:08:47.220.19-Jan-2020 5081.51 4169.27 81.68 5.00 303.44 2869.15
   10:08:47.420.19-Jan-2020 5081.51 4169.53 81.68 5.00 303.64 2869.15
   10:08:47.620.19-Jan-2020 5081.51 4169.44 81.68 5.00 303.84 2869.15
   10:08:47.820.19-Jan-2020 5081.51 4169.27 81.68 5.00 304.04 2869.15
   10:08:48.020.19-Jan-2020 5081.51 4169.27 81.68 5.00 304.24 2869.15
   10:08:48.220.19-Jan-2020 5081.51 4167.98 81.68 5.00 304.44 2869.15
   10:08:48.420.19-Jan-2020 5081.51 4168.33 81.68 5.00 304.64 2869.15
   10:08:48.621.19-Jan-2020 5081.51 4168.84 81.68 5.00 304.84 2869.15
   10:08:48.821.19-Jan-2020 5081.51 4167.80 81.68 5.00 305.04 2869.15
   10:08:49.021.19-Jan-2020 5081.51 4167.80 81.68 5.00 305.24 2869.15
   10:08:49.221.19-Jan-2020 5081.51 4167.35 81.68 5.00 305.44 2869.15
   10:08:49.421.19-Jan-2020 5081.51 4167.00 81.68 5.00 305.64 2869.15
   10:08:49.621.19-Jan-2020 5081.51 4169.39 81.68 5.00 305.84 2869.15
   10:08:49.821.19-Jan-2020 5081.51 4168.64 81.68 5.00 306.04 2869.15
   10:08:50.021.19-Jan-2020 5081.51 4168.64 81.68 5.00 306.24 2869.15
   10:08:50.221.19-Jan-2020 5081.51 4167.70 81.67 5.00 306.44 2869.15
   10:08:50.421.19-Jan-2020 5081.51 4166.66 81.67 5.00 306.64 2869.15
   10:08:50.621.19-Jan-2020 5081.51 4169.02 81.67 5.00 306.84 2869.15
   10:08:50.821.19-Jan-2020 5081.51 4167.71 81.67 5.00 307.04 2869.15
   10:08:51.021.19-Jan-2020 5081.51 4167.71 81.67 5.00 307.24 2869.15
   10:08:51.221.19-Jan-2020 5081.51 4168.21 81.67 5.00 307.44 2869.15
   10:08:51.421.19-Jan-2020 5081.51 4167.46 81.67 5.00 307.64 2869.15
   10:08:51.621.19-Jan-2020 5081.51 4167.36 81.67 5.00 307.84 2869.15
   10:08:51.821.19-Jan-2020 5081.51 4167.84 81.67 5.00 308.04 2869.15
   10:08:52.021.19-Jan-2020 5081.51 4167.84 81.67 5.00 308.24 2869.15
   10:08:52.221.19-Jan-2020 5081.51 4168.70 81.67 5.00 308.44 2869.15
   10:08:52.421.19-Jan-2020 5081.51 4167.91 81.67 5.00 308.64 2869.15
   10:08:52.621.19-Jan-2020 5081.51 4167.36 81.67 5.00 308.84 2869.15
   10:08:52.821.19-Jan-2020 5081.51 4168.09 81.67 5.00 309.04 2869.15
   10:08:53.021.19-Jan-2020 5081.51 4168.09 81.67 5.00 309.24 2869.15
   10:08:53.221.19-Jan-2020 5081.51 4167.97 81.67 5.00 309.44 2869.15
   10:08:53.421.19-Jan-2020 5081.51 4167.90 81.67 5.00 309.64 2869.15
   10:08:53.621.19-Jan-2020 5081.51 4166.64 81.67 5.00 309.84 2869.15
   10:08:53.821.19-Jan-2020 5081.51 4168.13 81.67 5.00 310.04 2869.15
   10:08:54.021.19-Jan-2020 5081.51 4168.13 81.67 5.00 310.24 2869.15
   10:08:54.221.19-Jan-2020 5081.51 4166.87 81.67 5.00 310.44 2869.15
   10:08:54.421.19-Jan-2020 5081.51 4168.03 81.67 5.00 310.64 2869.15
   10:08:54.621.19-Jan-2020 5081.51 4168.19 81.67 5.00 310.84 2869.15
   10:08:54.821.19-Jan-2020 5081.51 4167.86 81.67 5.00 311.04 2869.15
   10:08:55.021.19-Jan-2020 5081.51 4167.86 81.67 5.00 311.24 2869.15
   10:08:55.221.19-Jan-2020 5081.51 4166.81 81.66 5.00 311.44 2869.15
   10:08:55.421.19-Jan-2020 5081.51 4167.30 81.66 5.00 311.64 2869.15
   10:08:55.621.19-Jan-2020 5081.51 4168.18 81.66 5.00 311.84 2869.15
   10:08:55.821.19-Jan-2020 5081.51 4185.69 81.66 5.00 312.04 2869.15
   10:08:56.021.19-Jan-2020 5081.51 4185.69 81.66 5.00 312.24 2869.15
   10:08:56.221.19-Jan-2020 5081.51 4210.55 81.66 5.00 312.44 2869.15
   10:08:56.421.19-Jan-2020 5081.51 4211.28 81.66 5.00 312.64 2869.15
   10:08:56.622.19-Jan-2020 5081.51 4211.40 81.66 5.00 312.84 2869.15
   10:08:56.822.19-Jan-2020 5081.51 4211.52 81.66 5.00 313.04 2869.15
   10:08:57.022.19-Jan-2020 5081.51 4211.52 81.66 5.00 313.24 2869.15
   10:08:57.222.19-Jan-2020 5081.51 4211.83 81.66 5.00 313.44 2869.15
   10:08:57.422.19-Jan-2020 5081.51 4211.90 81.66 5.00 313.64 2869.15
   10:08:57.622.19-Jan-2020 5081.51 4212.02 81.66 5.00 313.84 2869.15
   10:08:57.822.19-Jan-2020 5081.51 4212.11 81.66 5.00 314.04 2869.15
   10:08:58.022.19-Jan-2020 5081.51 4212.11 81.66 5.00 314.24 2869.15
   10:08:58.222.19-Jan-2020 5081.51 4212.25 81.66 5.00 314.44 2869.15
   10:08:58.422.19-Jan-2020 5081.51 4212.34 81.66 5.00 314.64 2869.15
   10:08:58.622.19-Jan-2020 5081.51 4212.37 81.66 5.00 314.84 2869.15
   10:08:58.822.19-Jan-2020 5081.51 4212.44 81.66 5.00 315.04 2869.15
   10:08:59.022.19-Jan-2020 5081.51 4212.44 81.66 5.00 315.24 2869.15
   10:08:59.222.19-Jan-2020 5081.51 4212.53 81.66 5.00 315.44 2869.15
   10:08:59.422.19-Jan-2020 5081.51 4212.58 81.66 5.00 315.64 2869.15
   10:08:59.622.19-Jan-2020 5081.51 4212.48 81.66 5.00 315.84 2869.15
   10:08:59.822.19-Jan-2020 5081.51 4212.91 81.66 5.00 316.04 2869.15
   10:09:00.022.19-Jan-2020 5081.51 4212.91 81.66 5.00 316.24 2869.15
   10:09:00.222.19-Jan-2020 5081.51 4212.84 81.66 5.00 316.44 2869.15
   10:09:00.422.19-Jan-2020 5081.51 4212.81 81.66 5.00 316.64 2869.15
   10:09:00.622.19-Jan-2020 5081.51 4212.93 81.66 5.00 316.84 2869.15
   10:09:00.822.19-Jan-2020 5081.51 4212.96 81.66 5.00 317.04 2869.15
   10:09:01.022.19-Jan-2020 5081.51 4212.96 81.66 5.00 317.24 2869.15
   10:09:01.222.19-Jan-2020 5081.51 4213.03 81.65 5.00 317.44 2869.15
   10:09:01.422.19-Jan-2020 5081.51 4213.01 81.65 5.00 317.64 2869.15
   10:09:01.622.19-Jan-2020 5081.51 4212.95 81.65 5.00 317.84 2869.15
   10:09:01.822.19-Jan-2020 5081.51 4213.08 81.65 5.00 318.04 2869.15
   10:09:02.022.19-Jan-2020 5081.51 4213.08 81.65 5.00 318.24 2869.15
   10:09:02.222.19-Jan-2020 5081.51 4213.02 81.65 5.00 318.44 2869.15
   10:09:02.422.19-Jan-2020 5081.51 4213.19 81.65 5.00 318.64 2869.15
   10:09:02.622.19-Jan-2020 5081.51 4212.93 81.65 5.00 318.84 2869.15
   10:09:02.822.19-Jan-2020 5081.51 4213.29 81.65 5.00 319.04 2869.15
   10:09:03.022.19-Jan-2020 5081.51 4213.29 81.65 5.00 319.24 2869.15
   10:09:03.222.19-Jan-2020 5081.51 4213.17 81.65 5.00 319.44 2869.15
   10:09:03.422.19-Jan-2020 5081.51 4213.20 81.65 5.00 319.64 2869.15
   10:09:03.622.19-Jan-2020 5081.51 4213.24 81.65 5.00 319.84 2869.15
   10:09:03.822.19-Jan-2020 5081.51 4213.23 81.65 5.00 320.04 2869.15
   10:09:04.022.19-Jan-2020 5081.51 4213.23 81.65 5.00 320.24 2869.15
   10:09:04.222.19-Jan-2020 5081.51 4213.23 81.65 5.00 320.44 2869.15
   10:09:04.422.19-Jan-2020 5081.51 4213.24 81.65 5.00 320.64 2869.15
   10:09:04.623.19-Jan-2020 5081.51 4213.28 81.65 5.00 320.84 2869.15
   10:09:04.823.19-Jan-2020 5081.51 4213.24 81.65 5.00 321.04 2869.15
   10:09:05.023.19-Jan-2020 5081.51 4213.24 81.65 5.00 321.24 2869.15
   10:09:05.223.19-Jan-2020 5081.51 4213.26 81.65 5.00 321.44 2869.15
   10:09:05.423.19-Jan-2020 5081.51 4213.28 81.65 5.00 321.64 2869.15
   10:09:05.623.19-Jan-2020 5081.51 4213.28 81.65 5.00 321.84 2869.15
