~Version Information
 VERS.                  2.0:   CWLS log ASCII Standard -VERSION 2.0
 WRAP.                   NO:   One line per depth step
~Well Information Block
#MNEM.UNIT     VALUE/NAME     DESCRIPTION
#---------     -----------    ---------------------------
 STRT.S             06:39:47 08-Aug-20: START TIME 06:39:47 08-Aug-20
 STOP.S             06:48:06 08-Aug-20: STOP TIME  06:48:06 08-Aug-20
 STEP.S                   0.00: STEP TIME
 NULL.                 -999.25: NULL VALUE
 DFWT.                        :  DIST FWL TEXT
 DFST.                        :  DIST FSL TEXT
 DMF .             Drill Floor:  DRILL MEAS FROM
 STIM.      13.47.44 07-Jun-20:  START TIME
 DATE.      13.47.44 27-Jul-20:  END TIME
 SPUD.               07-Jun-20:  SPUD DATE
 NREF.                    Grid:  NORTH REFERENCE
 HPTY.       Minimum Curvature:  HOLE POS TYPE
 DMOD.             Drill Model:  DRILL MOD DESC
 SVYD.                  Survey:  SURVEY DESC
 ILTD.               Lithology:  INTERP LTH DESC
 FTOP.          Formation Tops:  FORM TOPS DESC
 RIG .             West Chirag:  RIG NAME
 PDAT.          Mean Sea Level:  PERMANENT DATUM
 FLD .                     ACG:  FIELD NAME
 SON .        AZ-XX-0906363612:  JOB NUMBER
 CTRY.              Azerbaijan:  COUNTRY NAME
 WELL.           J25 (Slot 35):  WELL NAME
 SRVC.          Turan Drilling:  CONTRACTOR
 COMP.     BP Exploration (Caspian Sea) Ltd:  COMPANY
 UWI .                     N/A:  UNIQUE WELL IDENTIFIER
 API .                     N/A:  API NUMBER
 BASE.              Azerbaijan:  LOGGING EQUIPMENT BASE LOCATION
 REGN.                   EESSA:  REGION
 PROV.                    Baku:  PROVINCE
 STAT.                    Baku:  STATE NAME
 MWDS.                     N/A:  MWD SHOP
 DOE .                     N/A:  DOE NUMBER
 DCON.         Sperry Drilling:  DIRECTNL CONTR
 UNIT.                     N/A:  LOGGING EQUIPMENT ID
 MDS .        Operator Entered:  MAG DATA SOURCE
 JOBN.        AZ-XX-0906363612:  JOB TICKET NUMB
 WTYP.                Deviated:  WELL TYPE
 CNTY.                        :  COUNTY
 LOC .                        :  LOCATION
 LMF .             Drill Floor:  LOG MEASURED FROM
 TVDS.m                  43.00:  TVDSS CORRECTN
 LATI.deg                40.13:  LATITUDE
 LONG.deg                51.22:  LONGITUDE
 WHNS.m                  -7.90:  WELL HEAD N/S
 WHEW.m                  -3.35:  WELL HEAD E/W
 UTMX.m              519005.06:  UTM X
 UTMY.m             4443793.85:  UTM Y
 DFWL.m                   0.00:  DISTANCE FWL
 DFSL.m                   0.00:  DISTANCE FSL
 SDEP.m                   0.00:  START DEPTH
 TDD .m                   0.00:  TOTAL DEPTH (DRILLER)
 VSDR.deg               308.97:  VERT SEC DIRECT
 GVFD.g                   1.00:  GRAVITY FIELD
 MFLD.nT              50350.00:  MAGNETIC FIELD
 MDIP.deg                59.62:  MAGNETIC DIP
 MDEC.deg                 6.44:  MAGNETIC DECL
 GRDC.deg                 0.13:  GRID CORRECTION
 AZTC.deg                 6.32:  AZM TOTAL CORR
 EPD .m                   0.00:  ELEVATION
 EGL .m                   0.00:  GROUND ELEVATION
 WDMS.m                 169.80:  WD ELEV
 APD .m                  43.00:  DEPTH ABOVE PD
 DEP .m                 356.43:  DEPTH
 AGAP.m                  43.00:  AIR GAP
 VSEW.m                  -3.35:  VERT SEC E/W
 VSNS.m                  -7.90:  VERT SEC N/S
 EKB .m                  43.00:  KB ELEVATION
 EDF .m                  43.00:  DF ELEVATION
 TDL .m                 934.00:  TOTAL DEPTH (LOGGER)
 VSC .                       0:  VS TO CLOSURE
 MAGU.                 1852825:  MAGUTM CHECKSUM
~Parameter Information Block
#MNEM.UNIT       Value        Description
#---------     -----------    ---------------------------
 AV  .mps                 0.80:  Ann Velocity 
 AVMX.mps                 1.70:  Max Ann Veloc 
 AZIF.deg               311.41:  Azm, Final 
 BHAT.        Rotary Steerable:  BHA Type 
 BROT.°/30m               0.09:  Build Rotating 
 BS  .in                 12.25:  Bit Size 
 BSZ .in                 12.25:  Bit Size 
 BTPL.psig              800.00:  Bit Press Loss 
 CABU.                      No:  Customer Abuse 
 COMM.                     ´
n:  Run Comments 1 
 TCS .hr                 96.00:  Time Ciculation Ended 
 CV  .mps                 2.03:  Crit Velocity 
 CVMX.mps                 2.42:  Max Crit Veloc 
 DD1 .          Taghi Taghiyev:  Direct Drillr 1 
 DD2 .      Tariel Pirmammadov:  Direct Drillr 2 
 DD3 .          Teymur Aghayev:  Direct Drillr 3 
 DDSV.                 iCruise:  DD Service 
 DEFF.%                  98.70:  % Det Eff 
 DLRX.°/30m               1.00:  Dogleg Rot Max 
 DLSO.°/30m               1.80:  Dogleg Oriented 
 DLSX.°/30m               3.16:  Dogleg Str Max 
 DRET.      15.00.00 07-Aug-20:  Drill End Time 
 DRST.      17.00.00 02-Aug-20:  Drill Start Tim 
 DTIM.hr                 45.90:  Time Drilling 
 EDEP.m                5298.01:  End Depth 
 ENG1.       Seymur Iskandarov:  Engineer 1 
 ENG2.         Yevgeniy Ulikov:  Engineer 2 
 ENG3.      Artemiy Matviyanov:  Engineer 3 
 ENG4.         Bahruz Mehdiyev:  Engineer 4 
 ETIM.      05.00.00 10-Aug-20:  End Time 
 FLOI.gpm              1150.00:  Flow In 
 FLON.gpm               900.00:  Flow In Min 
 FLOS.cptm                0.00:  Fluid Loss 
 FLOX.gpm              1200.00:  Flow In Max 
 FTRO.     Connectivity, Formation Presure:  FTWD Run Obj 
 HFLO.                      No:  High Flow 
 HPRE.                     Yes:  High Pressure 
 HTEM.                      No:  High Temp 
 HYDO.m                   1.80:  Hydro Offset 
 IFIN.deg                 9.71:  Inc, Final 
 IMAX.deg                63.81:  Inc Max 
 IMIN.deg                 9.53:  Inc Min 
 IMND.m                5075.52:  Inc Min Depth 
 IMXD.m                4367.08:  Inc Max Depth 
 JARR.                      No:  Jarring 
 LETM.      15.00.00 07-Aug-20:  Log End Time 
 LOST.hr                     2:  Lost Rig Time 
 LSTM.      17.00.00 02-Aug-20:  Log Start Time 
 MDCL.ppm             42500.00:  Mud Chlorides 
 MDES.     Inversion Oil/Synthetic:  Mud Desc 
 DFD .sg                  1.46:  Mud Density 
 MDMN.sg                  1.46:  Dens Mud Min 
 MDMX.sg                  1.46:  Dens Mud Max 
 MOIL.                      56:  Run Mud Oil % 
 MOWR.                   70:30:  Run Mud OWR 
 MSND.                     0.1:  Run Mud Sand % 
 MSOL.                      19:  Run Mud Solids% 
 DFV .spqt               83.00:  Mud Viscosity 
 MWOD.in                  8.00:  MWD Tool OD 
 MWSI.                     Yes:  Serv Intrp, MWD 
 OTIM.hr                196.57:  Time Operating 
 PCON.           Look Like New:  Pad Condition 
 PMAX.psia             7400.00:  Press Op, Max 
 PV  .cP                 36.00:  Mud PV 
 RUN .                    1000:  Run Number 
 ROPA.m/hr               25.00:  ROP Avg 
 ROPN.m/hr               10.00:  ROP Min 
 ROPX.m/hr               32.00:  ROP Max 
 RPMA.rpm               120.00:  RPM Surface Avg 
 RPMN.rpm               100.00:  RPM Surface Min 
 RPMX.rpm               140.00:  RPM Surface Max 
 RRUN.                    L504:  Rig Run Number 
 SAZI.deg               308.25:  Azm, Start 
 SDEP.m                4364.01:  Start Depth 
 SIDD.                      No:  Serv Intrp, DD 
 SINC.deg                63.81:  Inc, Start 
 SPPA.psig             5800.00:  SPP Avg 
 SPPN.psig             4200.00:  SPP Min 
 SPPX.psig             5950.00:  SPP Max 
 STIM.      18.00.00 01-Aug-20:  Start Time 
 SVCS.                 DD, MWD:  Services 
 SVER.                    9.20:  Sperry Version 
 TDAT.m                 934.00:  Tot Depth Attmp 
 TDDF.                      No:  Trip for DD 
 TDLG.m                 934.00:  Tot Depth Loggd 
 TFF .                      No:  Trip for Fail 
 TQAA.f-kp               31.00:  Torque Abs Avg 
 TQAN.f-kp               25.00:  Torque Abs Min 
 TQAX.f-kp               35.00:  Torque Abs Max 
 TRRT.°/30m              -0.75:  Turn Rotating 
 MRT .                  EWR-M5:  Maximum Recorded Temperature 
 TTMX.degC               95.00:  Max Tool Temp 
 VS01.                90516060:  Virtual Str1 SN 
 VS02.                90528488:  Virtual Str2 SN 
 VS03.                90577970:  Virtual Str3 SN 
 VS04.                12385033:  Virtual Str4 SN 
 VS05.                90522069:  Virtual Str5 SN 
 VS06.                13124134:  Virtual Str6 SN 
 WBMN.klb                20.00:  WOB Min 
 WITN.         Alistair Sprott:  Customer Rep 
 WITN.     Ronal van der Kraan:  Customer Rep 2 
 WOBA.klb                25.00:  WOB Avg 
 WOBX.klb                31.00:  WOB Max 
 YP  .lhf2               32.00:  Yield Point 
~Curve Information Block
#MNEM.UNIT                 API CODE     Curve Description
#---------               -----------    ---------------------------
 TIME.HHMMSS            00 000 000 000:  GT Time & Date
 GTDEPTH.m              00 000 000 000:  GT Depth
 GTPQH.psia             00 000 000 000:  GT HR Quartz Pressure
 GTTQ.degC              00 000 000 000:  GT Quartz Temperature
 GTTN.NONE              00 000 000 000:  GT Test Number
 GTET.sec               00 000 000 000:  GT Elapsed Test Time
 GTTVD.m                00 000 000 000:  GT True Vertical Depth
#Other Information
#
#WARRANTY: Halliburton will use its best efforts to furnish customers with 
#accurate information and interpretations that are part of, and incident to, the services 
#provided.  However, Halliburton cannot and does not warrant the accuracy 
#or correctness of such information and interpretations.  Under no circumstances should any 
#such information or interpretation be relied upon as the sole basis for any drilling, 
#completion, production, or financial decision or any procedure involving any risk to the 
#safety of any drilling venture, drilling rig or its crew or any other third party.  The 
#Customer has full responsibility for all drilling, completion and production operation.  
#Halliburton makes no representations or warranties, either expressed or 
#implied, including, but not limited to, the implied warranties of merchantability or fitness 
#for a particular purpose, with respect to the services rendered.  In no event will 
#Halliburton be liable for failure to obtain any particular results or for 
#any damages, including, but not limited to, indirect, special or consequential damages, 
#resulting from the use of any information or interpretation provided by Halliburton.
#
~A           TIME           GTDEPTH  GTPQH  GTTQ  GTTN  GTET   GTTVD  
# ...
   06:47:27.000.08-Aug-2020 5176.51 1562.41 80.12 4.00 460.00 3362.10
   06:47:27.200.08-Aug-2020 5176.51 1562.41 80.12 4.00 460.20 3362.10
   06:47:27.400.08-Aug-2020 5176.51 1563.05 80.12 4.00 460.40 3362.10
   06:47:27.600.08-Aug-2020 5176.51 1563.28 80.12 4.00 460.60 3362.10
   06:47:27.800.08-Aug-2020 5176.51 1563.61 80.12 4.00 460.80 3362.10
   06:47:28.000.08-Aug-2020 5176.51 1563.85 80.12 4.00 461.00 3362.10
   06:47:28.200.08-Aug-2020 5176.51 1563.85 80.12 4.00 461.20 3362.10
   06:47:28.400.08-Aug-2020 5176.51 1565.38 80.12 4.00 461.40 3362.10
   06:47:28.600.08-Aug-2020 5176.51 1565.51 80.12 4.00 461.60 3362.10
   06:47:28.800.08-Aug-2020 5176.51 1566.46 80.12 4.00 461.80 3362.10
   06:47:29.000.08-Aug-2020 5176.51 1567.10 80.12 4.00 462.00 3362.10
   06:47:29.200.08-Aug-2020 5176.51 1567.10 80.12 4.00 462.20 3362.10
   06:47:29.400.08-Aug-2020 5176.51 1568.17 80.12 4.00 462.40 3362.10
   06:47:29.600.08-Aug-2020 5176.51 1569.18 80.12 4.00 462.60 3362.10
   06:47:29.800.08-Aug-2020 5176.51 1569.49 80.12 4.00 462.80 3362.10
   06:47:30.000.08-Aug-2020 5176.51 1570.07 80.12 4.00 463.00 3362.10
   06:47:30.200.08-Aug-2020 5176.51 1570.07 80.12 4.00 463.20 3362.10
   06:47:30.400.08-Aug-2020 5176.51 1571.32 80.12 4.00 463.40 3362.10
   06:47:30.600.08-Aug-2020 5176.51 1571.77 80.12 4.00 463.60 3362.10
   06:47:30.800.08-Aug-2020 5176.51 1572.06 80.12 4.00 463.80 3362.10
   06:47:31.000.08-Aug-2020 5176.51 1573.12 80.12 4.00 464.00 3362.10
   06:47:31.200.08-Aug-2020 5176.51 1573.12 80.12 4.00 464.20 3362.10
   06:47:31.400.08-Aug-2020 5176.51 1573.98 80.11 4.00 464.40 3362.10
   06:47:31.600.08-Aug-2020 5176.51 1574.45 80.11 4.00 464.60 3362.10
   06:47:31.800.08-Aug-2020 5176.51 1574.82 80.11 4.00 464.80 3362.10
   06:47:32.000.08-Aug-2020 5176.51 1575.06 80.11 4.00 465.00 3362.10
   06:47:32.200.08-Aug-2020 5176.51 1575.06 80.11 4.00 465.20 3362.10
   06:47:32.400.08-Aug-2020 5176.51 1575.73 80.11 4.00 465.40 3362.10
   06:47:32.600.08-Aug-2020 5176.51 1576.01 80.11 4.00 465.60 3362.10
   06:47:32.800.08-Aug-2020 5176.51 1576.34 80.11 4.00 465.80 3362.10
   06:47:33.000.08-Aug-2020 5176.51 1576.70 80.11 4.00 466.00 3362.10
   06:47:33.200.08-Aug-2020 5176.51 1576.70 80.11 4.00 466.20 3362.10
   06:47:33.400.08-Aug-2020 5176.51 1577.29 80.11 4.00 466.40 3362.10
   06:47:33.600.08-Aug-2020 5176.51 1577.53 80.11 4.00 466.60 3362.10
   06:47:33.800.08-Aug-2020 5176.51 1577.77 80.11 4.00 466.80 3362.10
   06:47:34.000.08-Aug-2020 5176.51 1578.07 80.11 4.00 467.00 3362.10
   06:47:34.200.08-Aug-2020 5176.51 1578.07 80.11 4.00 467.20 3362.10
   06:47:34.400.08-Aug-2020 5176.51 1578.28 80.11 4.00 467.40 3362.10
   06:47:34.600.08-Aug-2020 5176.51 1579.67 80.11 4.00 467.60 3362.10
   06:47:34.800.08-Aug-2020 5176.51 1579.94 80.11 4.00 467.80 3362.10
   06:47:35.000.08-Aug-2020 5176.51 1580.35 80.11 4.00 468.00 3362.10
   06:47:35.200.08-Aug-2020 5176.51 1580.35 80.11 4.00 468.20 3362.10
   06:47:35.400.08-Aug-2020 5176.51 1580.90 80.11 4.00 468.40 3362.10
   06:47:35.600.08-Aug-2020 5176.51 1581.21 80.11 4.00 468.60 3362.10
   06:47:35.800.08-Aug-2020 5176.51 1581.45 80.11 4.00 468.80 3362.10
   06:47:36.000.08-Aug-2020 5176.51 1581.63 80.11 4.00 469.00 3362.10
   06:47:36.200.08-Aug-2020 5176.51 1581.63 80.11 4.00 469.20 3362.10
   06:47:36.400.08-Aug-2020 5176.51 1582.13 80.11 4.00 469.40 3362.10
   06:47:36.600.08-Aug-2020 5176.51 1582.33 80.11 4.00 469.60 3362.10
   06:47:36.800.08-Aug-2020 5176.51 1582.58 80.11 4.00 469.80 3362.10
   06:47:37.000.08-Aug-2020 5176.51 1582.79 80.11 4.00 470.00 3362.10
   06:47:37.200.08-Aug-2020 5176.51 1582.79 80.11 4.00 470.20 3362.10
   06:47:37.400.08-Aug-2020 5176.51 1583.14 80.11 4.00 470.40 3362.10
   06:47:37.600.08-Aug-2020 5176.51 1583.89 80.11 4.00 470.60 3362.10
   06:47:37.800.08-Aug-2020 5176.51 1584.23 80.11 4.00 470.80 3362.10
   06:47:38.000.08-Aug-2020 5176.51 1584.63 80.11 4.00 471.00 3362.10
   06:47:38.200.08-Aug-2020 5176.51 1584.63 80.11 4.00 471.20 3362.10
   06:47:38.400.08-Aug-2020 5176.51 1586.40 80.11 4.00 471.40 3362.10
   06:47:38.600.08-Aug-2020 5176.51 1586.64 80.11 4.00 471.60 3362.10
   06:47:38.800.08-Aug-2020 5176.51 1588.34 80.11 4.00 471.80 3362.10
   06:47:39.000.08-Aug-2020 5176.51 1748.45 80.11 4.00 472.00 3362.10
   06:47:39.200.08-Aug-2020 5176.51 1748.45 80.11 4.00 472.20 3362.10
   06:47:39.400.08-Aug-2020 5176.51 6501.95 80.11 4.00 472.40 3362.10
   06:47:39.600.08-Aug-2020 5176.51 7061.79 80.11 4.00 472.60 3362.10
   06:47:39.800.08-Aug-2020 5176.51 7166.72 80.11 4.00 472.80 3362.10
   06:47:40.000.08-Aug-2020 5176.51 7164.48 80.11 4.00 473.00 3362.10
   06:47:40.200.08-Aug-2020 5176.51 7164.48 80.11 4.00 473.20 3362.10
   06:47:40.400.08-Aug-2020 5176.51 7168.71 80.11 4.00 473.40 3362.10
   06:47:40.600.08-Aug-2020 5176.51 7166.98 80.11 4.00 473.60 3362.10
   06:47:40.800.08-Aug-2020 5176.51 7168.81 80.11 4.00 473.80 3362.10
   06:47:41.000.08-Aug-2020 5176.51 7170.21 80.11 4.00 474.00 3362.10
   06:47:41.200.08-Aug-2020 5176.51 7170.21 80.11 4.00 474.20 3362.10
   06:47:41.400.08-Aug-2020 5176.51 7171.37 80.11 4.00 474.40 3362.10
   06:47:41.600.08-Aug-2020 5176.51 7172.80 80.12 4.00 474.60 3362.10
   06:47:41.800.08-Aug-2020 5176.51 7173.38 80.12 4.00 474.80 3362.10
   06:47:42.000.08-Aug-2020 5176.51 7173.98 80.12 4.00 475.00 3362.10
   06:47:42.200.08-Aug-2020 5176.51 7173.98 80.12 4.00 475.20 3362.10
   06:47:42.400.08-Aug-2020 5176.51 7175.55 80.13 4.00 475.40 3362.10
   06:47:42.600.08-Aug-2020 5176.51 7176.10 80.13 4.00 475.60 3362.10
   06:47:42.800.08-Aug-2020 5176.51 7176.41 80.13 4.00 475.80 3362.10
   06:47:43.000.08-Aug-2020 5176.51 7176.60 80.14 4.00 476.00 3362.10
   06:47:43.200.08-Aug-2020 5176.51 7176.60 80.14 4.00 476.20 3362.10
   06:47:43.400.08-Aug-2020 5176.51 7177.73 80.14 4.00 476.40 3362.10
   06:47:43.600.08-Aug-2020 5176.51 7183.98 80.15 4.00 476.60 3362.10
   06:47:43.800.08-Aug-2020 5176.51 7177.84 80.15 4.00 476.80 3362.10
   06:47:44.000.08-Aug-2020 5176.51 7180.43 80.15 4.00 477.00 3362.10
   06:47:44.200.08-Aug-2020 5176.51 7180.43 80.15 4.00 477.20 3362.10
   06:47:44.400.08-Aug-2020 5176.51 7179.87 80.16 4.00 477.40 3362.10
   06:47:44.600.08-Aug-2020 5176.51 7180.11 80.16 4.00 477.60 3362.10
   06:47:44.800.08-Aug-2020 5176.51 7180.09 80.17 4.00 477.80 3362.10
   06:47:45.000.08-Aug-2020 5176.51 7179.78 80.17 4.00 478.00 3362.10
   06:47:45.200.08-Aug-2020 5176.51 7179.78 80.17 4.00 478.20 3362.10
   06:47:45.400.08-Aug-2020 5176.51 7179.16 80.18 4.00 478.40 3362.10
   06:47:45.600.08-Aug-2020 5176.51 7179.20 80.18 4.00 478.60 3362.10
   06:47:45.800.08-Aug-2020 5176.51 7179.87 80.18 4.00 478.80 3362.10
   06:47:46.000.08-Aug-2020 5176.51 7179.64 80.19 4.00 479.00 3362.10
   06:47:46.200.08-Aug-2020 5176.51 7179.64 80.19 4.00 479.20 3362.10
   06:47:46.400.08-Aug-2020 5176.51 7179.55 80.19 4.00 479.40 3362.10
   06:47:46.600.08-Aug-2020 5176.51 7179.75 80.19 4.00 479.60 3362.10
   06:47:46.800.08-Aug-2020 5176.51 7183.53 80.20 4.00 479.80 3362.10
   06:47:47.000.08-Aug-2020 5176.51 7182.62 80.20 4.00 480.00 3362.10
   06:47:47.200.08-Aug-2020 5176.51 7182.62 80.20 4.00 480.20 3362.10
   06:47:47.400.08-Aug-2020 5176.51 7184.08 80.20 4.00 480.40 3362.10
   06:47:47.600.08-Aug-2020 5176.51 7183.85 80.21 4.00 480.60 3362.10
   06:47:47.800.08-Aug-2020 5176.51 7181.17 80.21 4.00 480.80 3362.10
   06:47:48.000.08-Aug-2020 5176.51 7181.18 80.21 4.00 481.00 3362.10
   06:47:48.200.08-Aug-2020 5176.51 7181.18 80.21 4.00 481.20 3362.10
   06:47:48.400.08-Aug-2020 5176.51 7178.88 80.22 4.00 481.40 3362.10
   06:47:48.600.08-Aug-2020 5176.51 7182.37 80.22 4.00 481.60 3362.10
   06:47:48.800.08-Aug-2020 5176.51 7180.83 80.22 4.00 481.80 3362.10
   06:47:49.000.08-Aug-2020 5176.51 7183.42 80.22 4.00 482.00 3362.10
   06:47:49.200.08-Aug-2020 5176.51 7183.42 80.22 4.00 482.20 3362.10
   06:47:49.400.08-Aug-2020 5176.51 7180.86 80.23 4.00 482.40 3362.10
   06:47:49.600.08-Aug-2020 5176.51 7180.68 80.23 4.00 482.60 3362.10
   06:47:49.800.08-Aug-2020 5176.51 7181.24 80.23 4.00 482.80 3362.10
