~Version Information
 VERS.                  2.0:   CWLS log ASCII Standard -VERSION 2.0
 WRAP.                   NO:   One line per depth step
~Well Information Block
#MNEM.UNIT     VALUE/NAME     DESCRIPTION
#---------     -----------    ---------------------------
 STRT.S             06:39:47 08-Aug-20: START TIME 06:39:47 08-Aug-20
 STOP.S             06:48:06 08-Aug-20: STOP TIME  06:48:06 08-Aug-20
 STEP.S                   0.00: STEP TIME
 NULL.                 -999.25: NULL VALUE
 DFWT.                        :  DIST FWL TEXT
 DFST.                        :  DIST FSL TEXT
 DMF .             Drill Floor:  DRILL MEAS FROM
 STIM.      13.47.44 07-Jun-20:  START TIME
 DATE.      13.47.44 27-Jul-20:  END TIME
 SPUD.               07-Jun-20:  SPUD DATE
 NREF.                    Grid:  NORTH REFERENCE
 HPTY.       Minimum Curvature:  HOLE POS TYPE
 DMOD.             Drill Model:  DRILL MOD DESC
 SVYD.                  Survey:  SURVEY DESC
 ILTD.               Lithology:  INTERP LTH DESC
 FTOP.          Formation Tops:  FORM TOPS DESC
 RIG .             West Chirag:  RIG NAME
 PDAT.          Mean Sea Level:  PERMANENT DATUM
 FLD .                     ACG:  FIELD NAME
 SON .        AZ-XX-0906363612:  JOB NUMBER
 CTRY.              Azerbaijan:  COUNTRY NAME
 WELL.           J25 (Slot 35):  WELL NAME
 SRVC.          Turan Drilling:  CONTRACTOR
 COMP.     BP Exploration (Caspian Sea) Ltd:  COMPANY
 UWI .                     N/A:  UNIQUE WELL IDENTIFIER
 API .                     N/A:  API NUMBER
 BASE.              Azerbaijan:  LOGGING EQUIPMENT BASE LOCATION
 REGN.                   EESSA:  REGION
 PROV.                    Baku:  PROVINCE
 STAT.                    Baku:  STATE NAME
 MWDS.                     N/A:  MWD SHOP
 DOE .                     N/A:  DOE NUMBER
 DCON.         Sperry Drilling:  DIRECTNL CONTR
 UNIT.                     N/A:  LOGGING EQUIPMENT ID
 MDS .        Operator Entered:  MAG DATA SOURCE
 JOBN.        AZ-XX-0906363612:  JOB TICKET NUMB
 WTYP.                Deviated:  WELL TYPE
 CNTY.                        :  COUNTY
 LOC .                        :  LOCATION
 LMF .             Drill Floor:  LOG MEASURED FROM
 TVDS.m                  43.00:  TVDSS CORRECTN
 LATI.deg                40.13:  LATITUDE
 LONG.deg                51.22:  LONGITUDE
 WHNS.m                  -7.90:  WELL HEAD N/S
 WHEW.m                  -3.35:  WELL HEAD E/W
 UTMX.m              519005.06:  UTM X
 UTMY.m             4443793.85:  UTM Y
 DFWL.m                   0.00:  DISTANCE FWL
 DFSL.m                   0.00:  DISTANCE FSL
 SDEP.m                   0.00:  START DEPTH
 TDD .m                   0.00:  TOTAL DEPTH (DRILLER)
 VSDR.deg               308.97:  VERT SEC DIRECT
 GVFD.g                   1.00:  GRAVITY FIELD
 MFLD.nT              50350.00:  MAGNETIC FIELD
 MDIP.deg                59.62:  MAGNETIC DIP
 MDEC.deg                 6.44:  MAGNETIC DECL
 GRDC.deg                 0.13:  GRID CORRECTION
 AZTC.deg                 6.32:  AZM TOTAL CORR
 EPD .m                   0.00:  ELEVATION
 EGL .m                   0.00:  GROUND ELEVATION
 WDMS.m                 169.80:  WD ELEV
 APD .m                  43.00:  DEPTH ABOVE PD
 DEP .m                 356.43:  DEPTH
 AGAP.m                  43.00:  AIR GAP
 VSEW.m                  -3.35:  VERT SEC E/W
 VSNS.m                  -7.90:  VERT SEC N/S
 EKB .m                  43.00:  KB ELEVATION
 EDF .m                  43.00:  DF ELEVATION
 TDL .m                 934.00:  TOTAL DEPTH (LOGGER)
 VSC .                       0:  VS TO CLOSURE
 MAGU.                 1852825:  MAGUTM CHECKSUM
~Parameter Information Block
#MNEM.UNIT       Value        Description
#---------     -----------    ---------------------------
 AV  .mps                 0.80:  Ann Velocity 
 AVMX.mps                 1.70:  Max Ann Veloc 
 AZIF.deg               311.41:  Azm, Final 
 BHAT.        Rotary Steerable:  BHA Type 
 BROT.°/30m               0.09:  Build Rotating 
 BS  .in                 12.25:  Bit Size 
 BSZ .in                 12.25:  Bit Size 
 BTPL.psig              800.00:  Bit Press Loss 
 CABU.                      No:  Customer Abuse 
 COMM.                     ´
n:  Run Comments 1 
 TCS .hr                 96.00:  Time Ciculation Ended 
 CV  .mps                 2.03:  Crit Velocity 
 CVMX.mps                 2.42:  Max Crit Veloc 
 DD1 .          Taghi Taghiyev:  Direct Drillr 1 
 DD2 .      Tariel Pirmammadov:  Direct Drillr 2 
 DD3 .          Teymur Aghayev:  Direct Drillr 3 
 DDSV.                 iCruise:  DD Service 
 DEFF.%                  98.70:  % Det Eff 
 DLRX.°/30m               1.00:  Dogleg Rot Max 
 DLSO.°/30m               1.80:  Dogleg Oriented 
 DLSX.°/30m               3.16:  Dogleg Str Max 
 DRET.      15.00.00 07-Aug-20:  Drill End Time 
 DRST.      17.00.00 02-Aug-20:  Drill Start Tim 
 DTIM.hr                 45.90:  Time Drilling 
 EDEP.m                5298.01:  End Depth 
 ENG1.       Seymur Iskandarov:  Engineer 1 
 ENG2.         Yevgeniy Ulikov:  Engineer 2 
 ENG3.      Artemiy Matviyanov:  Engineer 3 
 ENG4.         Bahruz Mehdiyev:  Engineer 4 
 ETIM.      05.00.00 10-Aug-20:  End Time 
 FLOI.gpm              1150.00:  Flow In 
 FLON.gpm               900.00:  Flow In Min 
 FLOS.cptm                0.00:  Fluid Loss 
 FLOX.gpm              1200.00:  Flow In Max 
 FTRO.     Connectivity, Formation Presure:  FTWD Run Obj 
 HFLO.                      No:  High Flow 
 HPRE.                     Yes:  High Pressure 
 HTEM.                      No:  High Temp 
 HYDO.m                   1.80:  Hydro Offset 
 IFIN.deg                 9.71:  Inc, Final 
 IMAX.deg                63.81:  Inc Max 
 IMIN.deg                 9.53:  Inc Min 
 IMND.m                5075.52:  Inc Min Depth 
 IMXD.m                4367.08:  Inc Max Depth 
 JARR.                      No:  Jarring 
 LETM.      15.00.00 07-Aug-20:  Log End Time 
 LOST.hr                     2:  Lost Rig Time 
 LSTM.      17.00.00 02-Aug-20:  Log Start Time 
 MDCL.ppm             42500.00:  Mud Chlorides 
 MDES.     Inversion Oil/Synthetic:  Mud Desc 
 DFD .sg                  1.46:  Mud Density 
 MDMN.sg                  1.46:  Dens Mud Min 
 MDMX.sg                  1.46:  Dens Mud Max 
 MOIL.                      56:  Run Mud Oil % 
 MOWR.                   70:30:  Run Mud OWR 
 MSND.                     0.1:  Run Mud Sand % 
 MSOL.                      19:  Run Mud Solids% 
 DFV .spqt               83.00:  Mud Viscosity 
 MWOD.in                  8.00:  MWD Tool OD 
 MWSI.                     Yes:  Serv Intrp, MWD 
 OTIM.hr                196.57:  Time Operating 
 PCON.           Look Like New:  Pad Condition 
 PMAX.psia             7400.00:  Press Op, Max 
 PV  .cP                 36.00:  Mud PV 
 RUN .                    1000:  Run Number 
 ROPA.m/hr               25.00:  ROP Avg 
 ROPN.m/hr               10.00:  ROP Min 
 ROPX.m/hr               32.00:  ROP Max 
 RPMA.rpm               120.00:  RPM Surface Avg 
 RPMN.rpm               100.00:  RPM Surface Min 
 RPMX.rpm               140.00:  RPM Surface Max 
 RRUN.                    L504:  Rig Run Number 
 SAZI.deg               308.25:  Azm, Start 
 SDEP.m                4364.01:  Start Depth 
 SIDD.                      No:  Serv Intrp, DD 
 SINC.deg                63.81:  Inc, Start 
 SPPA.psig             5800.00:  SPP Avg 
 SPPN.psig             4200.00:  SPP Min 
 SPPX.psig             5950.00:  SPP Max 
 STIM.      18.00.00 01-Aug-20:  Start Time 
 SVCS.                 DD, MWD:  Services 
 SVER.                    9.20:  Sperry Version 
 TDAT.m                 934.00:  Tot Depth Attmp 
 TDDF.                      No:  Trip for DD 
 TDLG.m                 934.00:  Tot Depth Loggd 
 TFF .                      No:  Trip for Fail 
 TQAA.f-kp               31.00:  Torque Abs Avg 
 TQAN.f-kp               25.00:  Torque Abs Min 
 TQAX.f-kp               35.00:  Torque Abs Max 
 TRRT.°/30m              -0.75:  Turn Rotating 
 MRT .                  EWR-M5:  Maximum Recorded Temperature 
 TTMX.degC               95.00:  Max Tool Temp 
 VS01.                90516060:  Virtual Str1 SN 
 VS02.                90528488:  Virtual Str2 SN 
 VS03.                90577970:  Virtual Str3 SN 
 VS04.                12385033:  Virtual Str4 SN 
 VS05.                90522069:  Virtual Str5 SN 
 VS06.                13124134:  Virtual Str6 SN 
 WBMN.klb                20.00:  WOB Min 
 WITN.         Alistair Sprott:  Customer Rep 
 WITN.     Ronal van der Kraan:  Customer Rep 2 
 WOBA.klb                25.00:  WOB Avg 
 WOBX.klb                31.00:  WOB Max 
 YP  .lhf2               32.00:  Yield Point 
~Curve Information Block
#MNEM.UNIT                 API CODE     Curve Description
#---------               -----------    ---------------------------
 TIME.HHMMSS            00 000 000 000:  GT Time & Date
 GTDEPTH.m              00 000 000 000:  GT Depth
 GTPQH.psia             00 000 000 000:  GT HR Quartz Pressure
 GTTQ.degC              00 000 000 000:  GT Quartz Temperature
 GTTN.NONE              00 000 000 000:  GT Test Number
 GTET.sec               00 000 000 000:  GT Elapsed Test Time
 GTTVD.m                00 000 000 000:  GT True Vertical Depth
#Other Information
#
#WARRANTY: Halliburton will use its best efforts to furnish customers with 
#accurate information and interpretations that are part of, and incident to, the services 
#provided.  However, Halliburton cannot and does not warrant the accuracy 
#or correctness of such information and interpretations.  Under no circumstances should any 
#such information or interpretation be relied upon as the sole basis for any drilling, 
#completion, production, or financial decision or any procedure involving any risk to the 
#safety of any drilling venture, drilling rig or its crew or any other third party.  The 
#Customer has full responsibility for all drilling, completion and production operation.  
#Halliburton makes no representations or warranties, either expressed or 
#implied, including, but not limited to, the implied warranties of merchantability or fitness 
#for a particular purpose, with respect to the services rendered.  In no event will 
#Halliburton be liable for failure to obtain any particular results or for 
#any damages, including, but not limited to, indirect, special or consequential damages, 
#resulting from the use of any information or interpretation provided by Halliburton.
#
~A           TIME           GTDEPTH  GTPQH  GTTQ  GTTN  GTET   GTTVD  
   06:39:47.000.08-Aug-2020 5176.51 7177.57 80.67 4.00   0.00 3362.10
   06:39:47.200.08-Aug-2020 5176.51 7177.57 80.67 4.00   0.20 3362.10
   06:39:47.400.08-Aug-2020 5176.51 7174.67 80.67 4.00   0.40 3362.10
   06:39:47.600.08-Aug-2020 5176.51 7173.91 80.67 4.00   0.60 3362.10
   06:39:47.800.08-Aug-2020 5176.51 7178.84 80.67 4.00   0.80 3362.10
   06:39:48.000.08-Aug-2020 5176.51 7171.23 80.67 4.00   1.00 3362.10
   06:39:48.200.08-Aug-2020 5176.51 7171.23 80.67 4.00   1.20 3362.10
   06:39:48.400.08-Aug-2020 5176.51 7170.79 80.67 4.00   1.40 3362.10
   06:39:48.600.08-Aug-2020 5176.51 7173.60 80.67 4.00   1.60 3362.10
   06:39:48.800.08-Aug-2020 5176.51 7168.54 80.67 4.00   1.80 3362.10
   06:39:49.000.08-Aug-2020 5176.51 7169.90 80.67 4.00   2.00 3362.10
   06:39:49.200.08-Aug-2020 5176.51 7169.90 80.67 4.00   2.20 3362.10
   06:39:49.400.08-Aug-2020 5176.51 7168.03 80.67 4.00   2.40 3362.10
   06:39:49.600.08-Aug-2020 5176.51 7169.98 80.67 4.00   2.60 3362.10
   06:39:49.800.08-Aug-2020 5176.51 7168.22 80.67 4.00   2.80 3362.10
   06:39:50.000.08-Aug-2020 5176.51 7171.00 80.67 4.00   3.00 3362.10
   06:39:50.200.08-Aug-2020 5176.51 7172.07 80.67 4.00   3.20 3362.10
   06:39:50.400.08-Aug-2020 5176.51 7172.05 80.67 4.00   3.40 3362.10
   06:39:50.600.08-Aug-2020 5176.51 7174.68 80.67 4.00   3.60 3362.10
   06:39:50.800.08-Aug-2020 5176.51 7177.33 80.67 4.00   3.80 3362.10
   06:39:51.000.08-Aug-2020 5176.51 7178.40 80.67 4.00   4.00 3362.10
   06:39:51.200.08-Aug-2020 5176.51 7178.40 80.67 4.00   4.20 3362.10
   06:39:51.400.08-Aug-2020 5176.51 7182.42 80.67 4.00   4.40 3362.10
   06:39:51.600.08-Aug-2020 5176.51 7183.94 80.67 4.00   4.60 3362.10
   06:39:51.800.08-Aug-2020 5176.51 7184.86 80.67 4.00   4.80 3362.10
   06:39:52.000.08-Aug-2020 5176.51 7185.33 80.67 4.00   5.00 3362.10
   06:39:52.200.08-Aug-2020 5176.51 7185.33 80.67 4.00   5.20 3362.10
   06:39:52.400.08-Aug-2020 5176.51 7185.71 80.67 4.00   5.40 3362.10
   06:39:52.600.08-Aug-2020 5176.51 7189.22 80.67 4.00   5.60 3362.10
   06:39:52.800.08-Aug-2020 5176.51 7184.50 80.67 4.00   5.80 3362.10
   06:39:53.000.08-Aug-2020 5176.51 7186.34 80.67 4.00   6.00 3362.10
   06:39:53.200.08-Aug-2020 5176.51 7186.34 80.67 4.00   6.20 3362.10
   06:39:53.400.08-Aug-2020 5176.51 7184.30 80.66 4.00   6.40 3362.10
   06:39:53.600.08-Aug-2020 5176.51 7184.21 80.66 4.00   6.60 3362.10
   06:39:53.800.08-Aug-2020 5176.51 7183.80 80.66 4.00   6.80 3362.10
   06:39:54.000.08-Aug-2020 5176.51 7184.01 80.66 4.00   7.00 3362.10
   06:39:54.200.08-Aug-2020 5176.51 7184.01 80.66 4.00   7.20 3362.10
   06:39:54.400.08-Aug-2020 5176.51 7183.86 80.66 4.00   7.40 3362.10
   06:39:54.600.08-Aug-2020 5176.51 7184.35 80.66 4.00   7.60 3362.10
   06:39:54.800.08-Aug-2020 5176.51 7184.65 80.66 4.00   7.80 3362.10
   06:39:55.000.08-Aug-2020 5176.51 7184.49 80.66 4.00   8.00 3362.10
   06:39:55.200.08-Aug-2020 5176.51 7184.49 80.66 4.00   8.20 3362.10
   06:39:55.400.08-Aug-2020 5176.51 7183.73 80.66 4.00   8.40 3362.10
   06:39:55.600.08-Aug-2020 5176.51 7183.39 80.66 4.00   8.60 3362.10
   06:39:55.800.08-Aug-2020 5176.51 7182.84 80.66 4.00   8.80 3362.10
   06:39:56.000.08-Aug-2020 5176.51 7186.06 80.66 4.00   9.00 3362.10
   06:39:56.200.08-Aug-2020 5176.51 7186.06 80.66 4.00   9.20 3362.10
   06:39:56.400.08-Aug-2020 5176.51 7182.54 80.66 4.00   9.40 3362.10
   06:39:56.600.08-Aug-2020 5176.51 7182.63 80.66 4.00   9.60 3362.10
   06:39:56.800.08-Aug-2020 5176.51 7183.16 80.66 4.00   9.80 3362.10
   06:39:57.000.08-Aug-2020 5176.51 7187.30 80.66 4.00  10.00 3362.10
   06:39:57.200.08-Aug-2020 5176.51 7187.30 80.66 4.00  10.20 3362.10
   06:39:57.400.08-Aug-2020 5176.51 7184.76 80.66 4.00  10.40 3362.10
   06:39:57.600.08-Aug-2020 5176.51 7182.50 80.66 4.00  10.60 3362.10
   06:39:57.800.08-Aug-2020 5176.51 7183.03 80.66 4.00  10.80 3362.10
   06:39:58.000.08-Aug-2020 5176.51 7182.60 80.66 4.00  11.00 3362.10
   06:39:58.200.08-Aug-2020 5176.51 7182.60 80.66 4.00  11.20 3362.10
   06:39:58.400.08-Aug-2020 5176.51 7183.99 80.66 4.00  11.40 3362.10
   06:39:58.600.08-Aug-2020 5176.51 7182.42 80.66 4.00  11.60 3362.10
   06:39:58.800.08-Aug-2020 5176.51 7180.86 80.66 4.00  11.80 3362.10
   06:39:59.000.08-Aug-2020 5176.51 7182.43 80.66 4.00  12.00 3362.10
   06:39:59.200.08-Aug-2020 5176.51 7182.43 80.66 4.00  12.20 3362.10
   06:39:59.400.08-Aug-2020 5176.51 7182.43 80.66 4.00  12.40 3362.10
   06:39:59.600.08-Aug-2020 5176.51 7183.49 80.66 4.00  12.60 3362.10
   06:39:59.800.08-Aug-2020 5176.51 7185.61 80.66 4.00  12.80 3362.10
   06:40:00.000.08-Aug-2020 5176.51 7186.82 80.66 4.00  13.00 3362.10
   06:40:00.200.08-Aug-2020 5176.51 7186.82 80.66 4.00  13.20 3362.10
   06:40:00.400.08-Aug-2020 5176.51 7184.33 80.66 4.00  13.40 3362.10
   06:40:00.600.08-Aug-2020 5176.51 7185.48 80.66 4.00  13.60 3362.10
   06:40:00.800.08-Aug-2020 5176.51 7184.91 80.66 4.00  13.80 3362.10
   06:40:01.000.08-Aug-2020 5176.51 7189.64 80.66 4.00  14.00 3362.10
   06:40:01.200.08-Aug-2020 5176.51 7189.64 80.66 4.00  14.20 3362.10
   06:40:01.400.08-Aug-2020 5176.51 7188.13 80.66 4.00  14.40 3362.10
   06:40:01.600.08-Aug-2020 5176.51 7186.77 80.65 4.00  14.60 3362.10
   06:40:01.800.08-Aug-2020 5176.51 7186.75 80.65 4.00  14.80 3362.10
   06:40:02.000.08-Aug-2020 5176.51 7187.02 80.65 4.00  15.00 3362.10
   06:40:02.200.08-Aug-2020 5176.51 7187.02 80.65 4.00  15.20 3362.10
   06:40:02.400.08-Aug-2020 5176.51 7185.39 80.65 4.00  15.40 3362.10
   06:40:02.600.08-Aug-2020 5176.51 7184.77 80.65 4.00  15.60 3362.10
   06:40:02.800.08-Aug-2020 5176.51 7183.34 80.65 4.00  15.80 3362.10
   06:40:03.000.08-Aug-2020 5176.51 7183.26 80.65 4.00  16.00 3362.10
   06:40:03.200.08-Aug-2020 5176.51 7183.26 80.65 4.00  16.20 3362.10
   06:40:03.400.08-Aug-2020 5176.51 7182.46 80.65 4.00  16.40 3362.10
   06:40:03.600.08-Aug-2020 5176.51 7181.71 80.65 4.00  16.60 3362.10
   06:40:03.800.08-Aug-2020 5176.51 7180.87 80.65 4.00  16.80 3362.10
   06:40:04.000.08-Aug-2020 5176.51 7180.23 80.65 4.00  17.00 3362.10
   06:40:04.200.08-Aug-2020 5176.51 7180.23 80.65 4.00  17.20 3362.10
   06:40:04.400.08-Aug-2020 5176.51 7179.59 80.65 4.00  17.40 3362.10
   06:40:04.600.08-Aug-2020 5176.51 7182.56 80.65 4.00  17.60 3362.10
   06:40:04.800.08-Aug-2020 5176.51 7181.84 80.65 4.00  17.80 3362.10
   06:40:05.000.08-Aug-2020 5176.51 7179.07 80.65 4.00  18.00 3362.10
   06:40:05.200.08-Aug-2020 5176.51 7179.07 80.65 4.00  18.20 3362.10
   06:40:05.400.08-Aug-2020 5176.51 7179.19 80.65 4.00  18.40 3362.10
   06:40:05.600.08-Aug-2020 5176.51 7179.14 80.65 4.00  18.60 3362.10
   06:40:05.800.08-Aug-2020 5176.51 7178.98 80.65 4.00  18.80 3362.10
   06:40:06.000.08-Aug-2020 5176.51 7179.15 80.65 4.00  19.00 3362.10
   06:40:06.200.08-Aug-2020 5176.51 7178.96 80.65 4.00  19.20 3362.10
   06:40:06.400.08-Aug-2020 5176.51 7178.99 80.65 4.00  19.40 3362.10
   06:40:06.600.08-Aug-2020 5176.51 7178.72 80.65 4.00  19.60 3362.10
   06:40:06.800.08-Aug-2020 5176.51 7179.37 80.65 4.00  19.80 3362.10
   06:40:07.000.08-Aug-2020 5176.51 7179.29 80.65 4.00  20.00 3362.10
   06:40:07.200.08-Aug-2020 5176.51 7179.29 80.65 4.00  20.20 3362.10
   06:40:07.400.08-Aug-2020 5176.51 7178.63 80.65 4.00  20.40 3362.10
   06:40:07.600.08-Aug-2020 5176.51 7178.23 80.65 4.00  20.60 3362.10
   06:40:07.800.08-Aug-2020 5176.51 7182.27 80.65 4.00  20.80 3362.10
   06:40:08.000.08-Aug-2020 5176.51 7177.88 80.65 4.00  21.00 3362.10
   06:40:08.200.08-Aug-2020 5176.51 7177.88 80.65 4.00  21.20 3362.10
   06:40:08.400.08-Aug-2020 5176.51 7182.25 80.65 4.00  21.40 3362.10
   06:40:08.600.08-Aug-2020 5176.51 7177.78 80.65 4.00  21.60 3362.10
   06:40:08.800.08-Aug-2020 5176.51 7180.09 80.65 4.00  21.80 3362.10
   06:40:09.000.08-Aug-2020 5176.51 7177.90 80.65 4.00  22.00 3362.10
   06:40:09.200.08-Aug-2020 5176.51 7177.90 80.65 4.00  22.20 3362.10
   06:40:09.400.08-Aug-2020 5176.51 7177.62 80.64 4.00  22.40 3362.10
   06:40:09.600.08-Aug-2020 5176.51 7178.51 80.64 4.00  22.60 3362.10
   06:40:09.800.08-Aug-2020 5176.51 7178.13 80.64 4.00  22.80 3362.10
