~Version Information
 VERS.                  2.0:   CWLS log ASCII Standard -VERSION 2.0
 WRAP.                   NO:   One line per depth step
~Well Information Block
#MNEM.UNIT     VALUE/NAME     DESCRIPTION
#---------     -----------    ---------------------------
 STRT.S             08:45:48 08-Aug-20: START TIME 08:45:48 08-Aug-20
 STOP.S             08:54:16 08-Aug-20: STOP TIME  08:54:16 08-Aug-20
 STEP.S                   0.00: STEP TIME
 NULL.                 -999.25: NULL VALUE
 DFWT.                        :  DIST FWL TEXT
 DFST.                        :  DIST FSL TEXT
 DMF .             Drill Floor:  DRILL MEAS FROM
 STIM.      13.47.44 07-Jun-20:  START TIME
 DATE.      13.47.44 27-Jul-20:  END TIME
 SPUD.               07-Jun-20:  SPUD DATE
 NREF.                    Grid:  NORTH REFERENCE
 HPTY.       Minimum Curvature:  HOLE POS TYPE
 DMOD.             Drill Model:  DRILL MOD DESC
 SVYD.                  Survey:  SURVEY DESC
 ILTD.               Lithology:  INTERP LTH DESC
 FTOP.          Formation Tops:  FORM TOPS DESC
 RIG .             West Chirag:  RIG NAME
 PDAT.          Mean Sea Level:  PERMANENT DATUM
 FLD .                     ACG:  FIELD NAME
 SON .        AZ-XX-0906363612:  JOB NUMBER
 CTRY.              Azerbaijan:  COUNTRY NAME
 WELL.           J25 (Slot 35):  WELL NAME
 SRVC.          Turan Drilling:  CONTRACTOR
 COMP.     BP Exploration (Caspian Sea) Ltd:  COMPANY
 UWI .                     N/A:  UNIQUE WELL IDENTIFIER
 API .                     N/A:  API NUMBER
 BASE.              Azerbaijan:  LOGGING EQUIPMENT BASE LOCATION
 REGN.                   EESSA:  REGION
 PROV.                    Baku:  PROVINCE
 STAT.                    Baku:  STATE NAME
 MWDS.                     N/A:  MWD SHOP
 DOE .                     N/A:  DOE NUMBER
 DCON.         Sperry Drilling:  DIRECTNL CONTR
 UNIT.                     N/A:  LOGGING EQUIPMENT ID
 MDS .        Operator Entered:  MAG DATA SOURCE
 JOBN.        AZ-XX-0906363612:  JOB TICKET NUMB
 WTYP.                Deviated:  WELL TYPE
 CNTY.                        :  COUNTY
 LOC .                        :  LOCATION
 LMF .             Drill Floor:  LOG MEASURED FROM
 TVDS.m                  43.00:  TVDSS CORRECTN
 LATI.deg                40.13:  LATITUDE
 LONG.deg                51.22:  LONGITUDE
 WHNS.m                  -7.90:  WELL HEAD N/S
 WHEW.m                  -3.35:  WELL HEAD E/W
 UTMX.m              519005.06:  UTM X
 UTMY.m             4443793.85:  UTM Y
 DFWL.m                   0.00:  DISTANCE FWL
 DFSL.m                   0.00:  DISTANCE FSL
 SDEP.m                   0.00:  START DEPTH
 TDD .m                   0.00:  TOTAL DEPTH (DRILLER)
 VSDR.deg               308.97:  VERT SEC DIRECT
 GVFD.g                   1.00:  GRAVITY FIELD
 MFLD.nT              50350.00:  MAGNETIC FIELD
 MDIP.deg                59.62:  MAGNETIC DIP
 MDEC.deg                 6.44:  MAGNETIC DECL
 GRDC.deg                 0.13:  GRID CORRECTION
 AZTC.deg                 6.32:  AZM TOTAL CORR
 EPD .m                   0.00:  ELEVATION
 EGL .m                   0.00:  GROUND ELEVATION
 WDMS.m                 169.80:  WD ELEV
 APD .m                  43.00:  DEPTH ABOVE PD
 DEP .m                 356.43:  DEPTH
 AGAP.m                  43.00:  AIR GAP
 VSEW.m                  -3.35:  VERT SEC E/W
 VSNS.m                  -7.90:  VERT SEC N/S
 EKB .m                  43.00:  KB ELEVATION
 EDF .m                  43.00:  DF ELEVATION
 TDL .m                 934.00:  TOTAL DEPTH (LOGGER)
 VSC .                       0:  VS TO CLOSURE
 MAGU.                 1852825:  MAGUTM CHECKSUM
~Parameter Information Block
#MNEM.UNIT       Value        Description
#---------     -----------    ---------------------------
 AV  .mps                 0.80:  Ann Velocity 
 AVMX.mps                 1.70:  Max Ann Veloc 
 AZIF.deg               311.41:  Azm, Final 
 BHAT.        Rotary Steerable:  BHA Type 
 BROT.°/30m               0.09:  Build Rotating 
 BS  .in                 12.25:  Bit Size 
 BSZ .in                 12.25:  Bit Size 
 BTPL.psig              800.00:  Bit Press Loss 
 CABU.                      No:  Customer Abuse 
 COMM.                     ôS:  Run Comments 1 
 TCS .hr                 96.00:  Time Ciculation Ended 
 CV  .mps                 2.03:  Crit Velocity 
 CVMX.mps                 2.42:  Max Crit Veloc 
 DD1 .          Taghi Taghiyev:  Direct Drillr 1 
 DD2 .      Tariel Pirmammadov:  Direct Drillr 2 
 DD3 .          Teymur Aghayev:  Direct Drillr 3 
 DDSV.                 iCruise:  DD Service 
 DEFF.%                  98.70:  % Det Eff 
 DLRX.°/30m               1.00:  Dogleg Rot Max 
 DLSO.°/30m               1.80:  Dogleg Oriented 
 DLSX.°/30m               3.16:  Dogleg Str Max 
 DRET.      15.00.00 07-Aug-20:  Drill End Time 
 DRST.      17.00.00 02-Aug-20:  Drill Start Tim 
 DTIM.hr                 45.90:  Time Drilling 
 EDEP.m                5298.01:  End Depth 
 ENG1.       Seymur Iskandarov:  Engineer 1 
 ENG2.         Yevgeniy Ulikov:  Engineer 2 
 ENG3.      Artemiy Matviyanov:  Engineer 3 
 ENG4.         Bahruz Mehdiyev:  Engineer 4 
 ETIM.      05.00.00 10-Aug-20:  End Time 
 FLOI.gpm              1150.00:  Flow In 
 FLON.gpm               900.00:  Flow In Min 
 FLOS.cptm                0.00:  Fluid Loss 
 FLOX.gpm              1200.00:  Flow In Max 
 FTRO.     Connectivity, Formation Presure:  FTWD Run Obj 
 HFLO.                      No:  High Flow 
 HPRE.                     Yes:  High Pressure 
 HTEM.                      No:  High Temp 
 HYDO.m                   1.80:  Hydro Offset 
 IFIN.deg                 9.71:  Inc, Final 
 IMAX.deg                63.81:  Inc Max 
 IMIN.deg                 9.53:  Inc Min 
 IMND.m                5075.52:  Inc Min Depth 
 IMXD.m                4367.08:  Inc Max Depth 
 JARR.                      No:  Jarring 
 LETM.      15.00.00 07-Aug-20:  Log End Time 
 LOST.hr                     2:  Lost Rig Time 
 LSTM.      17.00.00 02-Aug-20:  Log Start Time 
 MDCL.ppm             42500.00:  Mud Chlorides 
 MDES.     Inversion Oil/Synthetic:  Mud Desc 
 DFD .sg                  1.46:  Mud Density 
 MDMN.sg                  1.46:  Dens Mud Min 
 MDMX.sg                  1.46:  Dens Mud Max 
 MOIL.                      56:  Run Mud Oil % 
 MOWR.                   70:30:  Run Mud OWR 
 MSND.                     0.1:  Run Mud Sand % 
 MSOL.                      19:  Run Mud Solids% 
 DFV .spqt               83.00:  Mud Viscosity 
 MWOD.in                  8.00:  MWD Tool OD 
 MWSI.                     Yes:  Serv Intrp, MWD 
 OTIM.hr                196.57:  Time Operating 
 PCON.           Look Like New:  Pad Condition 
 PMAX.psia             7400.00:  Press Op, Max 
 PV  .cP                 36.00:  Mud PV 
 RUN .                    1000:  Run Number 
 ROPA.m/hr               25.00:  ROP Avg 
 ROPN.m/hr               10.00:  ROP Min 
 ROPX.m/hr               32.00:  ROP Max 
 RPMA.rpm               120.00:  RPM Surface Avg 
 RPMN.rpm               100.00:  RPM Surface Min 
 RPMX.rpm               140.00:  RPM Surface Max 
 RRUN.                    L504:  Rig Run Number 
 SAZI.deg               308.25:  Azm, Start 
 SDEP.m                4364.01:  Start Depth 
 SIDD.                      No:  Serv Intrp, DD 
 SINC.deg                63.81:  Inc, Start 
 SPPA.psig             5800.00:  SPP Avg 
 SPPN.psig             4200.00:  SPP Min 
 SPPX.psig             5950.00:  SPP Max 
 STIM.      18.00.00 01-Aug-20:  Start Time 
 SVCS.                 DD, MWD:  Services 
 SVER.                    9.20:  Sperry Version 
 TDAT.m                 934.00:  Tot Depth Attmp 
 TDDF.                      No:  Trip for DD 
 TDLG.m                 934.00:  Tot Depth Loggd 
 TFF .                      No:  Trip for Fail 
 TQAA.f-kp               31.00:  Torque Abs Avg 
 TQAN.f-kp               25.00:  Torque Abs Min 
 TQAX.f-kp               35.00:  Torque Abs Max 
 TRRT.°/30m              -0.75:  Turn Rotating 
 MRT .                  EWR-M5:  Maximum Recorded Temperature 
 TTMX.degC               95.00:  Max Tool Temp 
 VS01.                90516060:  Virtual Str1 SN 
 VS02.                90528488:  Virtual Str2 SN 
 VS03.                90577970:  Virtual Str3 SN 
 VS04.                12385033:  Virtual Str4 SN 
 VS05.                90522069:  Virtual Str5 SN 
 VS06.                13124134:  Virtual Str6 SN 
 WBMN.klb                20.00:  WOB Min 
 WITN.         Alistair Sprott:  Customer Rep 
 WITN.     Ronal van der Kraan:  Customer Rep 2 
 WOBA.klb                25.00:  WOB Avg 
 WOBX.klb                31.00:  WOB Max 
 YP  .lhf2               32.00:  Yield Point 
~Curve Information Block
#MNEM.UNIT                 API CODE     Curve Description
#---------               -----------    ---------------------------
 TIME.HHMMSS            00 000 000 000:  GT Time & Date
 GTDEPTH.m              00 000 000 000:  GT Depth
 GTPQH.psia             00 000 000 000:  GT HR Quartz Pressure
 GTTQ.degC              00 000 000 000:  GT Quartz Temperature
 GTTN.NONE              00 000 000 000:  GT Test Number
 GTET.sec               00 000 000 000:  GT Elapsed Test Time
 GTTVD.m                00 000 000 000:  GT True Vertical Depth
#Other Information
#
#WARRANTY: Halliburton will use its best efforts to furnish customers with 
#accurate information and interpretations that are part of, and incident to, the services 
#provided.  However, Halliburton cannot and does not warrant the accuracy 
#or correctness of such information and interpretations.  Under no circumstances should any 
#such information or interpretation be relied upon as the sole basis for any drilling, 
#completion, production, or financial decision or any procedure involving any risk to the 
#safety of any drilling venture, drilling rig or its crew or any other third party.  The 
#Customer has full responsibility for all drilling, completion and production operation.  
#Halliburton makes no representations or warranties, either expressed or 
#implied, including, but not limited to, the implied warranties of merchantability or fitness 
#for a particular purpose, with respect to the services rendered.  In no event will 
#Halliburton be liable for failure to obtain any particular results or for 
#any damages, including, but not limited to, indirect, special or consequential damages, 
#resulting from the use of any information or interpretation provided by Halliburton.
#
~A           TIME           GTDEPTH  GTPQH  GTTQ  GTTN  GTET   GTTVD  
# ...
   08:50:01.941.08-Aug-2020 5134.01 1784.46 76.06 7.00 253.13 3320.21
   08:50:02.141.08-Aug-2020 5134.01 1786.52 76.06 7.00 253.33 3320.21
   08:50:02.341.08-Aug-2020 5134.01 1788.38 76.06 7.00 253.53 3320.21
   08:50:02.541.08-Aug-2020 5134.01 1790.45 76.06 7.00 253.73 3320.21
   08:50:02.742.08-Aug-2020 5134.01 1792.52 76.06 7.00 253.93 3320.21
   08:50:02.942.08-Aug-2020 5134.01 1794.53 76.06 7.00 254.13 3320.21
   08:50:03.142.08-Aug-2020 5134.01 1794.53 76.06 7.00 254.33 3320.21
   08:50:03.342.08-Aug-2020 5134.01 1798.37 76.06 7.00 254.53 3320.21
   08:50:03.542.08-Aug-2020 5134.01 1800.35 76.06 7.00 254.73 3320.21
   08:50:03.742.08-Aug-2020 5134.01 1802.21 76.06 7.00 254.93 3320.21
   08:50:03.942.08-Aug-2020 5134.01 1804.39 76.06 7.00 255.13 3320.21
   08:50:04.142.08-Aug-2020 5134.01 1804.39 76.06 7.00 255.34 3320.21
   08:50:04.342.08-Aug-2020 5134.01 1808.27 76.06 7.00 255.54 3320.21
   08:50:04.542.08-Aug-2020 5134.01 1810.05 76.06 7.00 255.74 3320.21
   08:50:04.743.08-Aug-2020 5134.01 1812.07 76.06 7.00 255.94 3320.21
   08:50:04.943.08-Aug-2020 5134.01 1813.99 76.06 7.00 256.14 3320.21
   08:50:05.143.08-Aug-2020 5134.01 1816.05 76.06 7.00 256.34 3320.21
   08:50:05.343.08-Aug-2020 5134.01 1818.04 76.06 7.00 256.54 3320.21
   08:50:05.543.08-Aug-2020 5134.01 1820.00 76.06 7.00 256.74 3320.21
   08:50:05.743.08-Aug-2020 5134.01 1821.93 76.06 7.00 256.94 3320.21
   08:50:05.943.08-Aug-2020 5134.01 1823.76 76.06 7.00 257.14 3320.21
   08:50:06.143.08-Aug-2020 5134.01 1825.75 76.06 7.00 257.34 3320.21
   08:50:06.343.08-Aug-2020 5134.01 1827.65 76.06 7.00 257.54 3320.21
   08:50:06.544.08-Aug-2020 5134.01 1829.61 76.06 7.00 257.74 3320.21
   08:50:06.744.08-Aug-2020 5134.01 1831.47 76.06 7.00 257.94 3320.21
   08:50:06.944.08-Aug-2020 5134.01 1833.47 76.06 7.00 258.14 3320.21
   08:50:07.144.08-Aug-2020 5134.01 1833.47 76.06 7.00 258.34 3320.21
   08:50:07.344.08-Aug-2020 5134.01 1836.83 76.06 7.00 258.54 3320.21
   08:50:07.544.08-Aug-2020 5134.01 1837.66 76.06 7.00 258.74 3320.21
   08:50:07.744.08-Aug-2020 5134.01 1839.43 76.06 7.00 258.94 3320.21
   08:50:07.944.08-Aug-2020 5134.01 1841.33 76.06 7.00 259.14 3320.21
   08:50:08.144.08-Aug-2020 5134.01 1841.33 76.06 7.00 259.34 3320.21
   08:50:08.344.08-Aug-2020 5134.01 1845.13 76.06 7.00 259.54 3320.21
   08:50:08.545.08-Aug-2020 5134.01 1847.10 76.06 7.00 259.74 3320.21
   08:50:08.745.08-Aug-2020 5134.01 1849.01 76.06 7.00 259.94 3320.21
   08:50:08.945.08-Aug-2020 5134.01 1850.89 76.06 7.00 260.14 3320.21
   08:50:09.145.08-Aug-2020 5134.01 1850.89 76.06 7.00 260.34 3320.21
   08:50:09.345.08-Aug-2020 5134.01 1854.50 76.06 7.00 260.54 3320.21
   08:50:09.545.08-Aug-2020 5134.01 1856.35 76.06 7.00 260.74 3320.21
   08:50:09.745.08-Aug-2020 5134.01 1858.21 76.06 7.00 260.94 3320.21
   08:50:09.945.08-Aug-2020 5134.01 1860.10 76.06 7.00 261.14 3320.21
   08:50:10.145.08-Aug-2020 5134.01 1860.10 76.06 7.00 261.34 3320.21
   08:50:10.346.08-Aug-2020 5134.01 1863.87 76.06 7.00 261.54 3320.21
   08:50:10.546.08-Aug-2020 5134.01 1865.70 76.06 7.00 261.74 3320.21
   08:50:10.746.08-Aug-2020 5134.01 1867.65 76.06 7.00 261.94 3320.21
   08:50:10.946.08-Aug-2020 5134.01 1869.51 76.06 7.00 262.14 3320.21
   08:50:11.146.08-Aug-2020 5134.01 1869.51 76.06 7.00 262.34 3320.21
   08:50:11.346.08-Aug-2020 5134.01 1873.19 76.06 7.00 262.54 3320.21
   08:50:11.546.08-Aug-2020 5134.01 1875.04 76.06 7.00 262.74 3320.21
   08:50:11.746.08-Aug-2020 5134.01 1876.96 76.06 7.00 262.94 3320.21
   08:50:11.946.08-Aug-2020 5134.01 1878.88 76.06 7.00 263.14 3320.21
   08:50:12.147.08-Aug-2020 5134.01 1878.88 76.06 7.00 263.34 3320.21
   08:50:12.347.08-Aug-2020 5134.01 1882.51 76.06 7.00 263.54 3320.21
   08:50:12.547.08-Aug-2020 5134.01 1884.49 76.06 7.00 263.74 3320.21
   08:50:12.747.08-Aug-2020 5134.01 1886.23 76.06 7.00 263.94 3320.21
   08:50:12.947.08-Aug-2020 5134.01 1888.01 76.06 7.00 264.14 3320.21
   08:50:13.147.08-Aug-2020 5134.01 1889.82 76.06 7.00 264.34 3320.21
   08:50:13.347.08-Aug-2020 5134.01 1891.61 76.06 7.00 264.54 3320.21
   08:50:13.547.08-Aug-2020 5134.01 1893.62 76.06 7.00 264.74 3320.21
   08:50:13.747.08-Aug-2020 5134.01 1895.42 76.06 7.00 264.94 3320.21
   08:50:13.947.08-Aug-2020 5134.01 1897.26 76.06 7.00 265.14 3320.21
   08:50:14.148.08-Aug-2020 5134.01 1897.26 76.06 7.00 265.34 3320.21
   08:50:14.348.08-Aug-2020 5134.01 1900.89 76.06 7.00 265.54 3320.21
   08:50:14.548.08-Aug-2020 5134.01 1902.70 76.06 7.00 265.74 3320.21
   08:50:14.748.08-Aug-2020 5134.01 1904.56 76.06 7.00 265.94 3320.21
   08:50:14.948.08-Aug-2020 5134.01 1905.46 76.06 7.00 266.14 3320.21
   08:50:15.148.08-Aug-2020 5134.01 1905.46 76.06 7.00 266.34 3320.21
   08:50:15.348.08-Aug-2020 5134.01 1908.95 76.06 7.00 266.54 3320.21
   08:50:15.548.08-Aug-2020 5134.01 1910.89 76.06 7.00 266.74 3320.21
   08:50:15.748.08-Aug-2020 5134.01 1912.58 76.06 7.00 266.94 3320.21
   08:50:15.949.08-Aug-2020 5134.01 1914.44 76.06 7.00 267.14 3320.21
   08:50:16.149.08-Aug-2020 5134.01 1914.44 76.06 7.00 267.34 3320.21
   08:50:16.349.08-Aug-2020 5134.01 1918.02 76.06 7.00 267.54 3320.21
   08:50:16.549.08-Aug-2020 5134.01 1919.84 76.06 7.00 267.74 3320.21
   08:50:16.749.08-Aug-2020 5134.01 1921.73 76.06 7.00 267.94 3320.21
   08:50:16.949.08-Aug-2020 5134.01 1923.50 76.06 7.00 268.14 3320.21
   08:50:17.149.08-Aug-2020 5134.01 1925.33 76.06 7.00 268.34 3320.21
   08:50:17.349.08-Aug-2020 5134.01 1927.19 76.06 7.00 268.54 3320.21
   08:50:17.549.08-Aug-2020 5134.01 1928.99 76.06 7.00 268.74 3320.21
   08:50:17.749.08-Aug-2020 5134.01 1930.77 76.06 7.00 268.94 3320.21
   08:50:17.950.08-Aug-2020 5134.01 1932.57 76.06 7.00 269.14 3320.21
   08:50:18.150.08-Aug-2020 5134.01 1932.57 76.06 7.00 269.34 3320.21
   08:50:18.350.08-Aug-2020 5134.01 1936.17 76.06 7.00 269.54 3320.21
   08:50:18.550.08-Aug-2020 5134.01 1937.95 76.06 7.00 269.74 3320.21
   08:50:18.750.08-Aug-2020 5134.01 1939.84 76.06 7.00 269.94 3320.21
   08:50:18.950.08-Aug-2020 5134.01 1941.70 76.06 7.00 270.14 3320.21
   08:50:19.150.08-Aug-2020 5134.01 1941.70 76.06 7.00 270.34 3320.21
   08:50:19.350.08-Aug-2020 5134.01 1945.09 76.06 7.00 270.54 3320.21
   08:50:19.550.08-Aug-2020 5134.01 1946.83 76.06 7.00 270.74 3320.21
   08:50:19.751.08-Aug-2020 5134.01 1948.65 76.06 7.00 270.94 3320.21
   08:50:19.951.08-Aug-2020 5134.01 1950.38 76.06 7.00 271.14 3320.21
   08:50:20.151.08-Aug-2020 5134.01 1950.38 76.06 7.00 271.34 3320.21
   08:50:20.351.08-Aug-2020 5134.01 1953.89 76.06 7.00 271.54 3320.21
   08:50:20.551.08-Aug-2020 5134.01 1955.73 76.06 7.00 271.74 3320.21
   08:50:20.751.08-Aug-2020 5134.01 1957.54 76.06 7.00 271.94 3320.21
   08:50:20.951.08-Aug-2020 5134.01 1959.31 76.06 7.00 272.14 3320.21
   08:50:21.151.08-Aug-2020 5134.01 1961.10 76.06 7.00 272.34 3320.21
   08:50:21.351.08-Aug-2020 5134.01 1962.69 76.06 7.00 272.54 3320.21
   08:50:21.551.08-Aug-2020 5134.01 1963.57 76.06 7.00 272.74 3320.21
   08:50:21.752.08-Aug-2020 5134.01 1965.25 76.06 7.00 272.94 3320.21
   08:50:21.952.08-Aug-2020 5134.01 1967.19 76.06 7.00 273.14 3320.21
   08:50:22.152.08-Aug-2020 5134.01 1969.01 76.06 7.00 273.34 3320.21
   08:50:22.352.08-Aug-2020 5134.01 1970.56 76.06 7.00 273.54 3320.21
   08:50:22.552.08-Aug-2020 5134.01 1972.47 76.06 7.00 273.74 3320.21
   08:50:22.752.08-Aug-2020 5134.01 1974.31 76.06 7.00 273.94 3320.21
   08:50:22.952.08-Aug-2020 5134.01 1975.88 76.06 7.00 274.15 3320.21
   08:50:23.152.08-Aug-2020 5134.01 1975.88 76.06 7.00 274.35 3320.21
   08:50:23.352.08-Aug-2020 5134.01 1979.76 76.06 7.00 274.55 3320.21
   08:50:23.553.08-Aug-2020 5134.01 1981.36 76.06 7.00 274.75 3320.21
   08:50:23.753.08-Aug-2020 5134.01 1983.13 76.06 7.00 274.95 3320.21
   08:50:23.953.08-Aug-2020 5134.01 1984.95 76.06 7.00 275.15 3320.21
   08:50:24.153.08-Aug-2020 5134.01 1984.95 76.06 7.00 275.35 3320.21
   08:50:24.353.08-Aug-2020 5134.01 1988.57 76.06 7.00 275.55 3320.21
   08:50:24.553.08-Aug-2020 5134.01 1990.46 76.06 7.00 275.75 3320.21
   08:50:24.753.08-Aug-2020 5134.01 1992.08 76.06 7.00 275.95 3320.21
