~Version Information
 VERS.                  2.0:   CWLS log ASCII Standard -VERSION 2.0
 WRAP.                   NO:   One line per depth step
~Well Information Block
#MNEM.UNIT     VALUE/NAME     DESCRIPTION
#---------     -----------    ---------------------------
 STRT.S             06:39:47 08-Aug-20: START TIME 06:39:47 08-Aug-20
 STOP.S             06:48:06 08-Aug-20: STOP TIME  06:48:06 08-Aug-20
 STEP.S                   0.00: STEP TIME
 NULL.                 -999.25: NULL VALUE
 DFWT.                        :  DIST FWL TEXT
 DFST.                        :  DIST FSL TEXT
 DMF .             Drill Floor:  DRILL MEAS FROM
 STIM.      13.47.44 07-Jun-20:  START TIME
 DATE.      13.47.44 27-Jul-20:  END TIME
 SPUD.               07-Jun-20:  SPUD DATE
 NREF.                    Grid:  NORTH REFERENCE
 HPTY.       Minimum Curvature:  HOLE POS TYPE
 DMOD.             Drill Model:  DRILL MOD DESC
 SVYD.                  Survey:  SURVEY DESC
 ILTD.               Lithology:  INTERP LTH DESC
 FTOP.          Formation Tops:  FORM TOPS DESC
 RIG .             West Chirag:  RIG NAME
 PDAT.          Mean Sea Level:  PERMANENT DATUM
 FLD .                     ACG:  FIELD NAME
 SON .        AZ-XX-0906363612:  JOB NUMBER
 CTRY.              Azerbaijan:  COUNTRY NAME
 WELL.           J25 (Slot 35):  WELL NAME
 SRVC.          Turan Drilling:  CONTRACTOR
 COMP.     BP Exploration (Caspian Sea) Ltd:  COMPANY
 UWI .                     N/A:  UNIQUE WELL IDENTIFIER
 API .                     N/A:  API NUMBER
 BASE.              Azerbaijan:  LOGGING EQUIPMENT BASE LOCATION
 REGN.                   EESSA:  REGION
 PROV.                    Baku:  PROVINCE
 STAT.                    Baku:  STATE NAME
 MWDS.                     N/A:  MWD SHOP
 DOE .                     N/A:  DOE NUMBER
 DCON.         Sperry Drilling:  DIRECTNL CONTR
 UNIT.                     N/A:  LOGGING EQUIPMENT ID
 MDS .        Operator Entered:  MAG DATA SOURCE
 JOBN.        AZ-XX-0906363612:  JOB TICKET NUMB
 WTYP.                Deviated:  WELL TYPE
 CNTY.                        :  COUNTY
 LOC .                        :  LOCATION
 LMF .             Drill Floor:  LOG MEASURED FROM
 TVDS.m                  43.00:  TVDSS CORRECTN
 LATI.deg                40.13:  LATITUDE
 LONG.deg                51.22:  LONGITUDE
 WHNS.m                  -7.90:  WELL HEAD N/S
 WHEW.m                  -3.35:  WELL HEAD E/W
 UTMX.m              519005.06:  UTM X
 UTMY.m             4443793.85:  UTM Y
 DFWL.m                   0.00:  DISTANCE FWL
 DFSL.m                   0.00:  DISTANCE FSL
 SDEP.m                   0.00:  START DEPTH
 TDD .m                   0.00:  TOTAL DEPTH (DRILLER)
 VSDR.deg               308.97:  VERT SEC DIRECT
 GVFD.g                   1.00:  GRAVITY FIELD
 MFLD.nT              50350.00:  MAGNETIC FIELD
 MDIP.deg                59.62:  MAGNETIC DIP
 MDEC.deg                 6.44:  MAGNETIC DECL
 GRDC.deg                 0.13:  GRID CORRECTION
 AZTC.deg                 6.32:  AZM TOTAL CORR
 EPD .m                   0.00:  ELEVATION
 EGL .m                   0.00:  GROUND ELEVATION
 WDMS.m                 169.80:  WD ELEV
 APD .m                  43.00:  DEPTH ABOVE PD
 DEP .m                 356.43:  DEPTH
 AGAP.m                  43.00:  AIR GAP
 VSEW.m                  -3.35:  VERT SEC E/W
 VSNS.m                  -7.90:  VERT SEC N/S
 EKB .m                  43.00:  KB ELEVATION
 EDF .m                  43.00:  DF ELEVATION
 TDL .m                 934.00:  TOTAL DEPTH (LOGGER)
 VSC .                       0:  VS TO CLOSURE
 MAGU.                 1852825:  MAGUTM CHECKSUM
~Parameter Information Block
#MNEM.UNIT       Value        Description
#---------     -----------    ---------------------------
 AV  .mps                 0.80:  Ann Velocity 
 AVMX.mps                 1.70:  Max Ann Veloc 
 AZIF.deg               311.41:  Azm, Final 
 BHAT.        Rotary Steerable:  BHA Type 
 BROT.°/30m               0.09:  Build Rotating 
 BS  .in                 12.25:  Bit Size 
 BSZ .in                 12.25:  Bit Size 
 BTPL.psig              800.00:  Bit Press Loss 
 CABU.                      No:  Customer Abuse 
 COMM.                     ´
n:  Run Comments 1 
 TCS .hr                 96.00:  Time Ciculation Ended 
 CV  .mps                 2.03:  Crit Velocity 
 CVMX.mps                 2.42:  Max Crit Veloc 
 DD1 .          Taghi Taghiyev:  Direct Drillr 1 
 DD2 .      Tariel Pirmammadov:  Direct Drillr 2 
 DD3 .          Teymur Aghayev:  Direct Drillr 3 
 DDSV.                 iCruise:  DD Service 
 DEFF.%                  98.70:  % Det Eff 
 DLRX.°/30m               1.00:  Dogleg Rot Max 
 DLSO.°/30m               1.80:  Dogleg Oriented 
 DLSX.°/30m               3.16:  Dogleg Str Max 
 DRET.      15.00.00 07-Aug-20:  Drill End Time 
 DRST.      17.00.00 02-Aug-20:  Drill Start Tim 
 DTIM.hr                 45.90:  Time Drilling 
 EDEP.m                5298.01:  End Depth 
 ENG1.       Seymur Iskandarov:  Engineer 1 
 ENG2.         Yevgeniy Ulikov:  Engineer 2 
 ENG3.      Artemiy Matviyanov:  Engineer 3 
 ENG4.         Bahruz Mehdiyev:  Engineer 4 
 ETIM.      05.00.00 10-Aug-20:  End Time 
 FLOI.gpm              1150.00:  Flow In 
 FLON.gpm               900.00:  Flow In Min 
 FLOS.cptm                0.00:  Fluid Loss 
 FLOX.gpm              1200.00:  Flow In Max 
 FTRO.     Connectivity, Formation Presure:  FTWD Run Obj 
 HFLO.                      No:  High Flow 
 HPRE.                     Yes:  High Pressure 
 HTEM.                      No:  High Temp 
 HYDO.m                   1.80:  Hydro Offset 
 IFIN.deg                 9.71:  Inc, Final 
 IMAX.deg                63.81:  Inc Max 
 IMIN.deg                 9.53:  Inc Min 
 IMND.m                5075.52:  Inc Min Depth 
 IMXD.m                4367.08:  Inc Max Depth 
 JARR.                      No:  Jarring 
 LETM.      15.00.00 07-Aug-20:  Log End Time 
 LOST.hr                     2:  Lost Rig Time 
 LSTM.      17.00.00 02-Aug-20:  Log Start Time 
 MDCL.ppm             42500.00:  Mud Chlorides 
 MDES.     Inversion Oil/Synthetic:  Mud Desc 
 DFD .sg                  1.46:  Mud Density 
 MDMN.sg                  1.46:  Dens Mud Min 
 MDMX.sg                  1.46:  Dens Mud Max 
 MOIL.                      56:  Run Mud Oil % 
 MOWR.                   70:30:  Run Mud OWR 
 MSND.                     0.1:  Run Mud Sand % 
 MSOL.                      19:  Run Mud Solids% 
 DFV .spqt               83.00:  Mud Viscosity 
 MWOD.in                  8.00:  MWD Tool OD 
 MWSI.                     Yes:  Serv Intrp, MWD 
 OTIM.hr                196.57:  Time Operating 
 PCON.           Look Like New:  Pad Condition 
 PMAX.psia             7400.00:  Press Op, Max 
 PV  .cP                 36.00:  Mud PV 
 RUN .                    1000:  Run Number 
 ROPA.m/hr               25.00:  ROP Avg 
 ROPN.m/hr               10.00:  ROP Min 
 ROPX.m/hr               32.00:  ROP Max 
 RPMA.rpm               120.00:  RPM Surface Avg 
 RPMN.rpm               100.00:  RPM Surface Min 
 RPMX.rpm               140.00:  RPM Surface Max 
 RRUN.                    L504:  Rig Run Number 
 SAZI.deg               308.25:  Azm, Start 
 SDEP.m                4364.01:  Start Depth 
 SIDD.                      No:  Serv Intrp, DD 
 SINC.deg                63.81:  Inc, Start 
 SPPA.psig             5800.00:  SPP Avg 
 SPPN.psig             4200.00:  SPP Min 
 SPPX.psig             5950.00:  SPP Max 
 STIM.      18.00.00 01-Aug-20:  Start Time 
 SVCS.                 DD, MWD:  Services 
 SVER.                    9.20:  Sperry Version 
 TDAT.m                 934.00:  Tot Depth Attmp 
 TDDF.                      No:  Trip for DD 
 TDLG.m                 934.00:  Tot Depth Loggd 
 TFF .                      No:  Trip for Fail 
 TQAA.f-kp               31.00:  Torque Abs Avg 
 TQAN.f-kp               25.00:  Torque Abs Min 
 TQAX.f-kp               35.00:  Torque Abs Max 
 TRRT.°/30m              -0.75:  Turn Rotating 
 MRT .                  EWR-M5:  Maximum Recorded Temperature 
 TTMX.degC               95.00:  Max Tool Temp 
 VS01.                90516060:  Virtual Str1 SN 
 VS02.                90528488:  Virtual Str2 SN 
 VS03.                90577970:  Virtual Str3 SN 
 VS04.                12385033:  Virtual Str4 SN 
 VS05.                90522069:  Virtual Str5 SN 
 VS06.                13124134:  Virtual Str6 SN 
 WBMN.klb                20.00:  WOB Min 
 WITN.         Alistair Sprott:  Customer Rep 
 WITN.     Ronal van der Kraan:  Customer Rep 2 
 WOBA.klb                25.00:  WOB Avg 
 WOBX.klb                31.00:  WOB Max 
 YP  .lhf2               32.00:  Yield Point 
~Curve Information Block
#MNEM.UNIT                 API CODE     Curve Description
#---------               -----------    ---------------------------
 TIME.HHMMSS            00 000 000 000:  GT Time & Date
 GTDEPTH.m              00 000 000 000:  GT Depth
 GTPQH.psia             00 000 000 000:  GT HR Quartz Pressure
 GTTQ.degC              00 000 000 000:  GT Quartz Temperature
 GTTN.NONE              00 000 000 000:  GT Test Number
 GTET.sec               00 000 000 000:  GT Elapsed Test Time
 GTTVD.m                00 000 000 000:  GT True Vertical Depth
#Other Information
#
#WARRANTY: Halliburton will use its best efforts to furnish customers with 
#accurate information and interpretations that are part of, and incident to, the services 
#provided.  However, Halliburton cannot and does not warrant the accuracy 
#or correctness of such information and interpretations.  Under no circumstances should any 
#such information or interpretation be relied upon as the sole basis for any drilling, 
#completion, production, or financial decision or any procedure involving any risk to the 
#safety of any drilling venture, drilling rig or its crew or any other third party.  The 
#Customer has full responsibility for all drilling, completion and production operation.  
#Halliburton makes no representations or warranties, either expressed or 
#implied, including, but not limited to, the implied warranties of merchantability or fitness 
#for a particular purpose, with respect to the services rendered.  In no event will 
#Halliburton be liable for failure to obtain any particular results or for 
#any damages, including, but not limited to, indirect, special or consequential damages, 
#resulting from the use of any information or interpretation provided by Halliburton.
#
~A           TIME           GTDEPTH  GTPQH  GTTQ  GTTN  GTET   GTTVD  
# ...
   06:44:46.000.08-Aug-2020 5176.51 1608.65 80.30 4.00 299.00 3362.10
   06:44:46.200.08-Aug-2020 5176.51 1608.65 80.30 4.00 299.20 3362.10
   06:44:46.400.08-Aug-2020 5176.51 1609.35 80.30 4.00 299.40 3362.10
   06:44:46.600.08-Aug-2020 5176.51 1609.74 80.30 4.00 299.60 3362.10
   06:44:46.800.08-Aug-2020 5176.51 1610.14 80.30 4.00 299.80 3362.10
   06:44:47.000.08-Aug-2020 5176.51 1612.16 80.30 4.00 300.00 3362.10
   06:44:47.200.08-Aug-2020 5176.51 1612.16 80.30 4.00 300.20 3362.10
   06:44:47.400.08-Aug-2020 5176.51 1612.88 80.30 4.00 300.40 3362.10
   06:44:47.600.08-Aug-2020 5176.51 1613.15 80.30 4.00 300.60 3362.10
   06:44:47.800.08-Aug-2020 5176.51 1613.62 80.30 4.00 300.80 3362.10
   06:44:48.000.08-Aug-2020 5176.51 1614.53 80.30 4.00 301.00 3362.10
   06:44:48.200.08-Aug-2020 5176.51 1614.53 80.30 4.00 301.20 3362.10
   06:44:48.400.08-Aug-2020 5176.51 1615.20 80.30 4.00 301.40 3362.10
   06:44:48.600.08-Aug-2020 5176.51 1615.52 80.30 4.00 301.60 3362.10
   06:44:48.800.08-Aug-2020 5176.51 1615.85 80.30 4.00 301.80 3362.10
   06:44:49.000.08-Aug-2020 5176.51 1616.15 80.30 4.00 302.00 3362.10
   06:44:49.200.08-Aug-2020 5176.51 1616.15 80.30 4.00 302.20 3362.10
   06:44:49.400.08-Aug-2020 5176.51 1616.74 80.30 4.00 302.40 3362.10
   06:44:49.600.08-Aug-2020 5176.51 1617.08 80.30 4.00 302.60 3362.10
   06:44:49.800.08-Aug-2020 5176.51 1617.39 80.30 4.00 302.80 3362.10
   06:44:50.000.08-Aug-2020 5176.51 1617.74 80.30 4.00 303.00 3362.10
   06:44:50.200.08-Aug-2020 5176.51 1617.74 80.30 4.00 303.20 3362.10
   06:44:50.400.08-Aug-2020 5176.51 1618.41 80.30 4.00 303.40 3362.10
   06:44:50.600.08-Aug-2020 5176.51 1618.71 80.30 4.00 303.60 3362.10
   06:44:50.800.08-Aug-2020 5176.51 1619.02 80.30 4.00 303.80 3362.10
   06:44:51.000.08-Aug-2020 5176.51 1619.95 80.30 4.00 304.00 3362.10
   06:44:51.200.08-Aug-2020 5176.51 1619.95 80.30 4.00 304.20 3362.10
   06:44:51.400.08-Aug-2020 5176.51 1620.84 80.30 4.00 304.40 3362.10
   06:44:51.600.08-Aug-2020 5176.51 1622.03 80.30 4.00 304.60 3362.10
   06:44:51.800.08-Aug-2020 5176.51 1622.56 80.30 4.00 304.80 3362.10
   06:44:52.000.08-Aug-2020 5176.51 1622.88 80.30 4.00 305.00 3362.10
   06:44:52.200.08-Aug-2020 5176.51 1622.88 80.30 4.00 305.20 3362.10
   06:44:52.400.08-Aug-2020 5176.51 1623.77 80.30 4.00 305.40 3362.10
   06:44:52.600.08-Aug-2020 5176.51 1624.62 80.29 4.00 305.60 3362.10
   06:44:52.800.08-Aug-2020 5176.51 1624.92 80.29 4.00 305.80 3362.10
   06:44:53.000.08-Aug-2020 5176.51 1625.30 80.29 4.00 306.00 3362.10
   06:44:53.200.08-Aug-2020 5176.51 1625.30 80.29 4.00 306.20 3362.10
   06:44:53.400.08-Aug-2020 5176.51 1626.43 80.29 4.00 306.40 3362.10
   06:44:53.600.08-Aug-2020 5176.51 1626.74 80.29 4.00 306.60 3362.10
   06:44:53.800.08-Aug-2020 5176.51 1627.01 80.29 4.00 306.80 3362.10
   06:44:54.000.08-Aug-2020 5176.51 1627.85 80.29 4.00 307.00 3362.10
   06:44:54.200.08-Aug-2020 5176.51 1627.85 80.29 4.00 307.20 3362.10
   06:44:54.400.08-Aug-2020 5176.51 1628.63 80.29 4.00 307.40 3362.10
   06:44:54.600.08-Aug-2020 5176.51 1629.03 80.29 4.00 307.60 3362.10
   06:44:54.800.08-Aug-2020 5176.51 1629.35 80.29 4.00 307.80 3362.10
   06:44:55.000.08-Aug-2020 5176.51 1629.65 80.29 4.00 308.00 3362.10
   06:44:55.200.08-Aug-2020 5176.51 1629.65 80.29 4.00 308.20 3362.10
   06:44:55.400.08-Aug-2020 5176.51 1630.28 80.29 4.00 308.40 3362.10
   06:44:55.600.08-Aug-2020 5176.51 1630.52 80.29 4.00 308.60 3362.10
   06:44:55.800.08-Aug-2020 5176.51 1630.81 80.29 4.00 308.80 3362.10
   06:44:56.000.08-Aug-2020 5176.51 1631.14 80.29 4.00 309.00 3362.10
   06:44:56.200.08-Aug-2020 5176.51 1631.14 80.29 4.00 309.20 3362.10
   06:44:56.400.08-Aug-2020 5176.51 1631.67 80.29 4.00 309.40 3362.10
   06:44:56.600.08-Aug-2020 5176.51 1631.92 80.29 4.00 309.60 3362.10
   06:44:56.800.08-Aug-2020 5176.51 1632.18 80.29 4.00 309.80 3362.10
   06:44:57.000.08-Aug-2020 5176.51 1632.51 80.29 4.00 310.00 3362.10
   06:44:57.200.08-Aug-2020 5176.51 1632.51 80.29 4.00 310.20 3362.10
   06:44:57.400.08-Aug-2020 5176.51 1632.72 80.29 4.00 310.40 3362.10
   06:44:57.600.08-Aug-2020 5176.51 1633.74 80.29 4.00 310.60 3362.10
   06:44:57.800.08-Aug-2020 5176.51 1633.95 80.29 4.00 310.80 3362.10
   06:44:58.000.08-Aug-2020 5176.51 1634.30 80.29 4.00 311.00 3362.10
   06:44:58.200.08-Aug-2020 5176.51 1634.57 80.29 4.00 311.20 3362.10
   06:44:58.400.08-Aug-2020 5176.51 1634.87 80.29 4.00 311.40 3362.10
   06:44:58.600.08-Aug-2020 5176.51 1635.18 80.29 4.00 311.60 3362.10
   06:44:58.800.08-Aug-2020 5176.51 1635.49 80.29 4.00 311.80 3362.10
   06:44:59.000.08-Aug-2020 5176.51 1635.73 80.29 4.00 312.00 3362.10
   06:44:59.200.08-Aug-2020 5176.51 1635.73 80.29 4.00 312.20 3362.10
   06:44:59.400.08-Aug-2020 5176.51 1636.35 80.29 4.00 312.40 3362.10
   06:44:59.600.08-Aug-2020 5176.51 1636.68 80.29 4.00 312.60 3362.10
   06:44:59.800.08-Aug-2020 5176.51 1637.00 80.29 4.00 312.80 3362.10
   06:45:00.000.08-Aug-2020 5176.51 1637.29 80.29 4.00 313.00 3362.10
   06:45:00.200.08-Aug-2020 5176.51 1637.29 80.29 4.00 313.20 3362.10
   06:45:00.400.08-Aug-2020 5176.51 1637.84 80.29 4.00 313.40 3362.10
   06:45:00.600.08-Aug-2020 5176.51 1638.63 80.29 4.00 313.60 3362.10
   06:45:00.800.08-Aug-2020 5176.51 1638.87 80.29 4.00 313.80 3362.10
   06:45:01.000.08-Aug-2020 5176.51 1639.22 80.29 4.00 314.00 3362.10
   06:45:01.200.08-Aug-2020 5176.51 1639.22 80.29 4.00 314.20 3362.10
   06:45:01.400.08-Aug-2020 5176.51 1640.83 80.29 4.00 314.40 3362.10
   06:45:01.600.08-Aug-2020 5176.51 1641.18 80.29 4.00 314.60 3362.10
   06:45:01.800.08-Aug-2020 5176.51 1641.76 80.29 4.00 314.80 3362.10
   06:45:02.000.08-Aug-2020 5176.51 1642.83 80.29 4.00 315.00 3362.10
   06:45:02.200.08-Aug-2020 5176.51 1642.83 80.29 4.00 315.20 3362.10
   06:45:02.400.08-Aug-2020 5176.51 1643.62 80.29 4.00 315.40 3362.10
   06:45:02.600.08-Aug-2020 5176.51 1644.10 80.29 4.00 315.60 3362.10
   06:45:02.800.08-Aug-2020 5176.51 1644.42 80.29 4.00 315.80 3362.10
   06:45:03.000.08-Aug-2020 5176.51 1645.23 80.29 4.00 316.00 3362.10
   06:45:03.200.08-Aug-2020 5176.51 1645.23 80.29 4.00 316.20 3362.10
   06:45:03.400.08-Aug-2020 5176.51 1646.20 80.28 4.00 316.40 3362.10
   06:45:03.600.08-Aug-2020 5176.51 1646.63 80.28 4.00 316.60 3362.10
   06:45:03.800.08-Aug-2020 5176.51 1647.07 80.28 4.00 316.80 3362.10
   06:45:04.000.08-Aug-2020 5176.51 1647.59 80.28 4.00 317.00 3362.10
   06:45:04.200.08-Aug-2020 5176.51 1647.59 80.28 4.00 317.20 3362.10
   06:45:04.400.08-Aug-2020 5176.51 1648.93 80.28 4.00 317.40 3362.10
   06:45:04.600.08-Aug-2020 5176.51 1649.10 80.28 4.00 317.60 3362.10
   06:45:04.800.08-Aug-2020 5176.51 1649.85 80.28 4.00 317.80 3362.10
   06:45:05.000.08-Aug-2020 5176.51 1650.11 80.28 4.00 318.00 3362.10
   06:45:05.200.08-Aug-2020 5176.51 1650.11 80.28 4.00 318.20 3362.10
   06:45:05.400.08-Aug-2020 5176.51 1650.85 80.28 4.00 318.40 3362.10
   06:45:05.600.08-Aug-2020 5176.51 1651.20 80.28 4.00 318.60 3362.10
   06:45:05.800.08-Aug-2020 5176.51 1651.58 80.28 4.00 318.80 3362.10
   06:45:06.000.08-Aug-2020 5176.51 1651.92 80.28 4.00 319.00 3362.10
   06:45:06.200.08-Aug-2020 5176.51 1651.92 80.28 4.00 319.20 3362.10
   06:45:06.400.08-Aug-2020 5176.51 1652.70 80.28 4.00 319.40 3362.10
   06:45:06.600.08-Aug-2020 5176.51 1653.03 80.28 4.00 319.60 3362.10
   06:45:06.800.08-Aug-2020 5176.51 1653.33 80.28 4.00 319.80 3362.10
   06:45:07.000.08-Aug-2020 5176.51 1653.62 80.28 4.00 320.00 3362.10
   06:45:07.200.08-Aug-2020 5176.51 1653.62 80.28 4.00 320.20 3362.10
   06:45:07.400.08-Aug-2020 5176.51 1654.37 80.28 4.00 320.40 3362.10
   06:45:07.600.08-Aug-2020 5176.51 1655.52 80.28 4.00 320.60 3362.10
   06:45:07.800.08-Aug-2020 5176.51 1655.84 80.28 4.00 320.80 3362.10
   06:45:08.000.08-Aug-2020 5176.51 1656.16 80.28 4.00 321.00 3362.10
   06:45:08.200.08-Aug-2020 5176.51 1656.16 80.28 4.00 321.20 3362.10
   06:45:08.400.08-Aug-2020 5176.51 1656.78 80.28 4.00 321.40 3362.10
   06:45:08.600.08-Aug-2020 5176.51 1657.07 80.28 4.00 321.60 3362.10
   06:45:08.800.08-Aug-2020 5176.51 1657.37 80.28 4.00 321.80 3362.10
