~Version Information
 VERS.                  2.0:   CWLS log ASCII Standard -VERSION 2.0
 WRAP.                   NO:   One line per depth step
~Well Information Block
#MNEM.UNIT     VALUE/NAME     DESCRIPTION
#---------     -----------    ---------------------------
 STRT.S             07:09:07 08-Aug-20: START TIME 07:09:07 08-Aug-20
 STOP.S             07:17:38 08-Aug-20: STOP TIME  07:17:38 08-Aug-20
 STEP.S                   0.00: STEP TIME
 NULL.                 -999.25: NULL VALUE
 DFWT.                        :  DIST FWL TEXT
 DFST.                        :  DIST FSL TEXT
 DMF .             Drill Floor:  DRILL MEAS FROM
 STIM.      13.47.44 07-Jun-20:  START TIME
 DATE.      13.47.44 27-Jul-20:  END TIME
 SPUD.               07-Jun-20:  SPUD DATE
 NREF.                    Grid:  NORTH REFERENCE
 HPTY.       Minimum Curvature:  HOLE POS TYPE
 DMOD.             Drill Model:  DRILL MOD DESC
 SVYD.                  Survey:  SURVEY DESC
 ILTD.               Lithology:  INTERP LTH DESC
 FTOP.          Formation Tops:  FORM TOPS DESC
 RIG .             West Chirag:  RIG NAME
 PDAT.          Mean Sea Level:  PERMANENT DATUM
 FLD .                     ACG:  FIELD NAME
 SON .        AZ-XX-0906363612:  JOB NUMBER
 CTRY.              Azerbaijan:  COUNTRY NAME
 WELL.           J25 (Slot 35):  WELL NAME
 SRVC.          Turan Drilling:  CONTRACTOR
 COMP.     BP Exploration (Caspian Sea) Ltd:  COMPANY
 UWI .                     N/A:  UNIQUE WELL IDENTIFIER
 API .                     N/A:  API NUMBER
 BASE.              Azerbaijan:  LOGGING EQUIPMENT BASE LOCATION
 REGN.                   EESSA:  REGION
 PROV.                    Baku:  PROVINCE
 STAT.                    Baku:  STATE NAME
 MWDS.                     N/A:  MWD SHOP
 DOE .                     N/A:  DOE NUMBER
 DCON.         Sperry Drilling:  DIRECTNL CONTR
 UNIT.                     N/A:  LOGGING EQUIPMENT ID
 MDS .        Operator Entered:  MAG DATA SOURCE
 JOBN.        AZ-XX-0906363612:  JOB TICKET NUMB
 WTYP.                Deviated:  WELL TYPE
 CNTY.                        :  COUNTY
 LOC .                        :  LOCATION
 LMF .             Drill Floor:  LOG MEASURED FROM
 TVDS.m                  43.00:  TVDSS CORRECTN
 LATI.deg                40.13:  LATITUDE
 LONG.deg                51.22:  LONGITUDE
 WHNS.m                  -7.90:  WELL HEAD N/S
 WHEW.m                  -3.35:  WELL HEAD E/W
 UTMX.m              519005.06:  UTM X
 UTMY.m             4443793.85:  UTM Y
 DFWL.m                   0.00:  DISTANCE FWL
 DFSL.m                   0.00:  DISTANCE FSL
 SDEP.m                   0.00:  START DEPTH
 TDD .m                   0.00:  TOTAL DEPTH (DRILLER)
 VSDR.deg               308.97:  VERT SEC DIRECT
 GVFD.g                   1.00:  GRAVITY FIELD
 MFLD.nT              50350.00:  MAGNETIC FIELD
 MDIP.deg                59.62:  MAGNETIC DIP
 MDEC.deg                 6.44:  MAGNETIC DECL
 GRDC.deg                 0.13:  GRID CORRECTION
 AZTC.deg                 6.32:  AZM TOTAL CORR
 EPD .m                   0.00:  ELEVATION
 EGL .m                   0.00:  GROUND ELEVATION
 WDMS.m                 169.80:  WD ELEV
 APD .m                  43.00:  DEPTH ABOVE PD
 DEP .m                 356.43:  DEPTH
 AGAP.m                  43.00:  AIR GAP
 VSEW.m                  -3.35:  VERT SEC E/W
 VSNS.m                  -7.90:  VERT SEC N/S
 EKB .m                  43.00:  KB ELEVATION
 EDF .m                  43.00:  DF ELEVATION
 TDL .m                 934.00:  TOTAL DEPTH (LOGGER)
 VSC .                       0:  VS TO CLOSURE
 MAGU.                 1852825:  MAGUTM CHECKSUM
~Parameter Information Block
#MNEM.UNIT       Value        Description
#---------     -----------    ---------------------------
 AV  .mps                 0.80:  Ann Velocity 
 AVMX.mps                 1.70:  Max Ann Veloc 
 AZIF.deg               311.41:  Azm, Final 
 BHAT.        Rotary Steerable:  BHA Type 
 BROT.°/30m               0.09:  Build Rotating 
 BS  .in                 12.25:  Bit Size 
 BSZ .in                 12.25:  Bit Size 
 BTPL.psig              800.00:  Bit Press Loss 
 CABU.                      No:  Customer Abuse 
 COMM.                     „Òs:  Run Comments 1 
 TCS .hr                 96.00:  Time Ciculation Ended 
 CV  .mps                 2.03:  Crit Velocity 
 CVMX.mps                 2.42:  Max Crit Veloc 
 DD1 .          Taghi Taghiyev:  Direct Drillr 1 
 DD2 .      Tariel Pirmammadov:  Direct Drillr 2 
 DD3 .          Teymur Aghayev:  Direct Drillr 3 
 DDSV.                 iCruise:  DD Service 
 DEFF.%                  98.70:  % Det Eff 
 DLRX.°/30m               1.00:  Dogleg Rot Max 
 DLSO.°/30m               1.80:  Dogleg Oriented 
 DLSX.°/30m               3.16:  Dogleg Str Max 
 DRET.      15.00.00 07-Aug-20:  Drill End Time 
 DRST.      17.00.00 02-Aug-20:  Drill Start Tim 
 DTIM.hr                 45.90:  Time Drilling 
 EDEP.m                5298.01:  End Depth 
 ENG1.       Seymur Iskandarov:  Engineer 1 
 ENG2.         Yevgeniy Ulikov:  Engineer 2 
 ENG3.      Artemiy Matviyanov:  Engineer 3 
 ENG4.         Bahruz Mehdiyev:  Engineer 4 
 ETIM.      05.00.00 10-Aug-20:  End Time 
 FLOI.gpm              1150.00:  Flow In 
 FLON.gpm               900.00:  Flow In Min 
 FLOS.cptm                0.00:  Fluid Loss 
 FLOX.gpm              1200.00:  Flow In Max 
 FTRO.     Connectivity, Formation Presure:  FTWD Run Obj 
 HFLO.                      No:  High Flow 
 HPRE.                     Yes:  High Pressure 
 HTEM.                      No:  High Temp 
 HYDO.m                   1.80:  Hydro Offset 
 IFIN.deg                 9.71:  Inc, Final 
 IMAX.deg                63.81:  Inc Max 
 IMIN.deg                 9.53:  Inc Min 
 IMND.m                5075.52:  Inc Min Depth 
 IMXD.m                4367.08:  Inc Max Depth 
 JARR.                      No:  Jarring 
 LETM.      15.00.00 07-Aug-20:  Log End Time 
 LOST.hr                     2:  Lost Rig Time 
 LSTM.      17.00.00 02-Aug-20:  Log Start Time 
 MDCL.ppm             42500.00:  Mud Chlorides 
 MDES.     Inversion Oil/Synthetic:  Mud Desc 
 DFD .sg                  1.46:  Mud Density 
 MDMN.sg                  1.46:  Dens Mud Min 
 MDMX.sg                  1.46:  Dens Mud Max 
 MOIL.                      56:  Run Mud Oil % 
 MOWR.                   70:30:  Run Mud OWR 
 MSND.                     0.1:  Run Mud Sand % 
 MSOL.                      19:  Run Mud Solids% 
 DFV .spqt               83.00:  Mud Viscosity 
 MWOD.in                  8.00:  MWD Tool OD 
 MWSI.                     Yes:  Serv Intrp, MWD 
 OTIM.hr                196.57:  Time Operating 
 PCON.           Look Like New:  Pad Condition 
 PMAX.psia             7400.00:  Press Op, Max 
 PV  .cP                 36.00:  Mud PV 
 RUN .                    1000:  Run Number 
 ROPA.m/hr               25.00:  ROP Avg 
 ROPN.m/hr               10.00:  ROP Min 
 ROPX.m/hr               32.00:  ROP Max 
 RPMA.rpm               120.00:  RPM Surface Avg 
 RPMN.rpm               100.00:  RPM Surface Min 
 RPMX.rpm               140.00:  RPM Surface Max 
 RRUN.                    L504:  Rig Run Number 
 SAZI.deg               308.25:  Azm, Start 
 SDEP.m                4364.01:  Start Depth 
 SIDD.                      No:  Serv Intrp, DD 
 SINC.deg                63.81:  Inc, Start 
 SPPA.psig             5800.00:  SPP Avg 
 SPPN.psig             4200.00:  SPP Min 
 SPPX.psig             5950.00:  SPP Max 
 STIM.      18.00.00 01-Aug-20:  Start Time 
 SVCS.                 DD, MWD:  Services 
 SVER.                    9.20:  Sperry Version 
 TDAT.m                 934.00:  Tot Depth Attmp 
 TDDF.                      No:  Trip for DD 
 TDLG.m                 934.00:  Tot Depth Loggd 
 TFF .                      No:  Trip for Fail 
 TQAA.f-kp               31.00:  Torque Abs Avg 
 TQAN.f-kp               25.00:  Torque Abs Min 
 TQAX.f-kp               35.00:  Torque Abs Max 
 TRRT.°/30m              -0.75:  Turn Rotating 
 MRT .                  EWR-M5:  Maximum Recorded Temperature 
 TTMX.degC               95.00:  Max Tool Temp 
 VS01.                90516060:  Virtual Str1 SN 
 VS02.                90528488:  Virtual Str2 SN 
 VS03.                90577970:  Virtual Str3 SN 
 VS04.                12385033:  Virtual Str4 SN 
 VS05.                90522069:  Virtual Str5 SN 
 VS06.                13124134:  Virtual Str6 SN 
 WBMN.klb                20.00:  WOB Min 
 WITN.         Alistair Sprott:  Customer Rep 
 WITN.     Ronal van der Kraan:  Customer Rep 2 
 WOBA.klb                25.00:  WOB Avg 
 WOBX.klb                31.00:  WOB Max 
 YP  .lhf2               32.00:  Yield Point 
~Curve Information Block
#MNEM.UNIT                 API CODE     Curve Description
#---------               -----------    ---------------------------
 TIME.HHMMSS            00 000 000 000:  GT Time & Date
 GTDEPTH.m              00 000 000 000:  GT Depth
 GTPQH.psia             00 000 000 000:  GT HR Quartz Pressure
 GTTQ.degC              00 000 000 000:  GT Quartz Temperature
 GTTN.NONE              00 000 000 000:  GT Test Number
 GTET.sec               00 000 000 000:  GT Elapsed Test Time
 GTTVD.m                00 000 000 000:  GT True Vertical Depth
#Other Information
#
#WARRANTY: Halliburton will use its best efforts to furnish customers with 
#accurate information and interpretations that are part of, and incident to, the services 
#provided.  However, Halliburton cannot and does not warrant the accuracy 
#or correctness of such information and interpretations.  Under no circumstances should any 
#such information or interpretation be relied upon as the sole basis for any drilling, 
#completion, production, or financial decision or any procedure involving any risk to the 
#safety of any drilling venture, drilling rig or its crew or any other third party.  The 
#Customer has full responsibility for all drilling, completion and production operation.  
#Halliburton makes no representations or warranties, either expressed or 
#implied, including, but not limited to, the implied warranties of merchantability or fitness 
#for a particular purpose, with respect to the services rendered.  In no event will 
#Halliburton be liable for failure to obtain any particular results or for 
#any damages, including, but not limited to, indirect, special or consequential damages, 
#resulting from the use of any information or interpretation provided by Halliburton.
#
~A           TIME           GTDEPTH  GTPQH  GTTQ  GTTN  GTET   GTTVD  
# ...
   07:15:38.000.08-Aug-2020 5163.51 4259.34 78.08 5.00 391.00 3349.29
   07:15:38.200.08-Aug-2020 5163.51 4259.34 78.08 5.00 391.20 3349.29
   07:15:38.400.08-Aug-2020 5163.51 4259.40 78.07 5.00 391.40 3349.29
   07:15:38.600.08-Aug-2020 5163.51 4259.44 78.07 5.00 391.60 3349.29
   07:15:38.800.08-Aug-2020 5163.51 4259.43 78.07 5.00 391.80 3349.29
   07:15:39.000.08-Aug-2020 5163.51 4259.40 78.07 5.00 392.00 3349.29
   07:15:39.200.08-Aug-2020 5163.51 4259.40 78.07 5.00 392.20 3349.29
   07:15:39.400.08-Aug-2020 5163.51 4259.38 78.07 5.00 392.40 3349.29
   07:15:39.600.08-Aug-2020 5163.51 4259.70 78.07 5.00 392.60 3349.29
   07:15:39.800.08-Aug-2020 5163.51 4259.38 78.07 5.00 392.80 3349.29
   07:15:40.000.08-Aug-2020 5163.51 4259.65 78.07 5.00 393.00 3349.29
   07:15:40.200.08-Aug-2020 5163.51 4259.65 78.07 5.00 393.20 3349.29
   07:15:40.400.08-Aug-2020 5163.51 4259.54 78.07 5.00 393.40 3349.29
   07:15:40.600.08-Aug-2020 5163.51 4259.65 78.07 5.00 393.60 3349.29
   07:15:40.800.08-Aug-2020 5163.51 4259.60 78.07 5.00 393.80 3349.29
   07:15:41.000.08-Aug-2020 5163.51 4259.49 78.07 5.00 394.00 3349.29
   07:15:41.200.08-Aug-2020 5163.51 4259.49 78.07 5.00 394.20 3349.29
   07:15:41.400.08-Aug-2020 5163.51 4259.72 78.07 5.00 394.40 3349.29
   07:15:41.600.08-Aug-2020 5163.51 4259.85 78.07 5.00 394.60 3349.29
   07:15:41.800.08-Aug-2020 5163.51 4259.74 78.07 5.00 394.80 3349.29
   07:15:42.000.08-Aug-2020 5163.51 4259.81 78.07 5.00 395.00 3349.29
   07:15:42.200.08-Aug-2020 5163.51 4259.81 78.07 5.00 395.20 3349.29
   07:15:42.400.08-Aug-2020 5163.51 4259.69 78.07 5.00 395.40 3349.29
   07:15:42.600.08-Aug-2020 5163.51 4259.94 78.07 5.00 395.60 3349.29
   07:15:42.800.08-Aug-2020 5163.51 4259.80 78.07 5.00 395.80 3349.29
   07:15:43.000.08-Aug-2020 5163.51 4260.00 78.07 5.00 396.00 3349.29
   07:15:43.200.08-Aug-2020 5163.51 4260.00 78.07 5.00 396.20 3349.29
   07:15:43.400.08-Aug-2020 5163.51 4259.80 78.07 5.00 396.40 3349.29
   07:15:43.600.08-Aug-2020 5163.51 4259.85 78.07 5.00 396.60 3349.29
   07:15:43.800.08-Aug-2020 5163.51 4259.82 78.07 5.00 396.80 3349.29
   07:15:44.000.08-Aug-2020 5163.51 4259.81 78.07 5.00 397.00 3349.29
   07:15:44.200.08-Aug-2020 5163.51 4259.81 78.07 5.00 397.20 3349.29
   07:15:44.400.08-Aug-2020 5163.51 4259.73 78.07 5.00 397.40 3349.29
   07:15:44.600.08-Aug-2020 5163.51 4259.82 78.07 5.00 397.60 3349.29
   07:15:44.800.08-Aug-2020 5163.51 4259.70 78.07 5.00 397.80 3349.29
   07:15:45.000.08-Aug-2020 5163.51 4259.79 78.07 5.00 398.00 3349.29
   07:15:45.200.08-Aug-2020 5163.51 4259.79 78.07 5.00 398.20 3349.29
   07:15:45.400.08-Aug-2020 5163.51 4259.82 78.07 5.00 398.40 3349.29
   07:15:45.600.08-Aug-2020 5163.51 4259.89 78.07 5.00 398.60 3349.29
   07:15:45.800.08-Aug-2020 5163.51 4259.69 78.07 5.00 398.80 3349.29
   07:15:46.000.08-Aug-2020 5163.51 4260.13 78.07 5.00 399.00 3349.29
   07:15:46.200.08-Aug-2020 5163.51 4260.13 78.07 5.00 399.20 3349.29
   07:15:46.400.08-Aug-2020 5163.51 4260.02 78.07 5.00 399.40 3349.29
   07:15:46.600.08-Aug-2020 5163.51 4259.83 78.07 5.00 399.60 3349.29
   07:15:46.800.08-Aug-2020 5163.51 4260.03 78.07 5.00 399.80 3349.29
   07:15:47.000.08-Aug-2020 5163.51 4259.85 78.07 5.00 400.00 3349.29
   07:15:47.200.08-Aug-2020 5163.51 4259.85 78.07 5.00 400.20 3349.29
   07:15:47.400.08-Aug-2020 5163.51 4259.92 78.07 5.00 400.40 3349.29
   07:15:47.600.08-Aug-2020 5163.51 4260.02 78.07 5.00 400.60 3349.29
   07:15:47.800.08-Aug-2020 5163.51 4259.96 78.07 5.00 400.80 3349.29
   07:15:48.000.08-Aug-2020 5163.51 4260.03 78.07 5.00 401.00 3349.29
   07:15:48.200.08-Aug-2020 5163.51 4260.03 78.07 5.00 401.20 3349.29
   07:15:48.400.08-Aug-2020 5163.51 4259.96 78.07 5.00 401.40 3349.29
   07:15:48.600.08-Aug-2020 5163.51 4259.88 78.07 5.00 401.60 3349.29
   07:15:48.800.08-Aug-2020 5163.51 4259.92 78.07 5.00 401.80 3349.29
   07:15:49.000.08-Aug-2020 5163.51 4259.79 78.07 5.00 402.00 3349.29
   07:15:49.200.08-Aug-2020 5163.51 4259.79 78.07 5.00 402.20 3349.29
   07:15:49.400.08-Aug-2020 5163.51 4260.24 78.07 5.00 402.40 3349.29
   07:15:49.600.08-Aug-2020 5163.51 4260.25 78.07 5.00 402.60 3349.29
   07:15:49.800.08-Aug-2020 5163.51 4260.28 78.07 5.00 402.80 3349.29
   07:15:50.000.08-Aug-2020 5163.51 4260.35 78.07 5.00 403.00 3349.29
   07:15:50.200.08-Aug-2020 5163.51 4260.35 78.07 5.00 403.20 3349.29
   07:15:50.400.08-Aug-2020 5163.51 4260.03 78.07 5.00 403.40 3349.29
   07:15:50.600.08-Aug-2020 5163.51 4260.09 78.07 5.00 403.60 3349.29
   07:15:50.800.08-Aug-2020 5163.51 4259.83 78.07 5.00 403.80 3349.29
   07:15:51.000.08-Aug-2020 5163.51 4260.26 78.07 5.00 404.00 3349.29
   07:15:51.200.08-Aug-2020 5163.51 4260.26 78.07 5.00 404.20 3349.29
   07:15:51.400.08-Aug-2020 5163.51 4260.19 78.06 5.00 404.40 3349.29
   07:15:51.600.08-Aug-2020 5163.51 4260.20 78.06 5.00 404.60 3349.29
   07:15:51.800.08-Aug-2020 5163.51 4260.51 78.06 5.00 404.80 3349.29
   07:15:52.000.08-Aug-2020 5163.51 4260.16 78.06 5.00 405.00 3349.29
   07:15:52.200.08-Aug-2020 5163.51 4259.96 78.06 5.00 405.20 3349.29
   07:15:52.400.08-Aug-2020 5163.51 4260.49 78.06 5.00 405.40 3349.29
   07:15:52.600.08-Aug-2020 5163.51 4260.40 78.06 5.00 405.60 3349.29
   07:15:52.800.08-Aug-2020 5163.51 4260.29 78.06 5.00 405.80 3349.29
   07:15:53.000.08-Aug-2020 5163.51 4260.32 78.06 5.00 406.00 3349.29
   07:15:53.200.08-Aug-2020 5163.51 4260.32 78.06 5.00 406.20 3349.29
   07:15:53.400.08-Aug-2020 5163.51 4260.20 78.06 5.00 406.40 3349.29
   07:15:53.600.08-Aug-2020 5163.51 4260.13 78.06 5.00 406.60 3349.29
   07:15:53.800.08-Aug-2020 5163.51 4260.12 78.06 5.00 406.80 3349.29
   07:15:54.000.08-Aug-2020 5163.51 4260.19 78.06 5.00 407.00 3349.29
   07:15:54.200.08-Aug-2020 5163.51 4260.19 78.06 5.00 407.20 3349.29
   07:15:54.400.08-Aug-2020 5163.51 4260.28 78.06 5.00 407.40 3349.29
   07:15:54.600.08-Aug-2020 5163.51 4260.27 78.06 5.00 407.60 3349.29
   07:15:54.800.08-Aug-2020 5163.51 4260.26 78.06 5.00 407.80 3349.29
   07:15:55.000.08-Aug-2020 5163.51 4260.23 78.06 5.00 408.00 3349.29
   07:15:55.200.08-Aug-2020 5163.51 4260.23 78.06 5.00 408.20 3349.29
   07:15:55.400.08-Aug-2020 5163.51 4260.24 78.06 5.00 408.40 3349.29
   07:15:55.600.08-Aug-2020 5163.51 4260.00 78.06 5.00 408.60 3349.29
   07:15:55.800.08-Aug-2020 5163.51 4260.61 78.06 5.00 408.80 3349.29
   07:15:56.000.08-Aug-2020 5163.51 4260.52 78.06 5.00 409.00 3349.29
   07:15:56.200.08-Aug-2020 5163.51 4260.52 78.06 5.00 409.20 3349.29
   07:15:56.400.08-Aug-2020 5163.51 4260.35 78.06 5.00 409.40 3349.29
   07:15:56.600.08-Aug-2020 5163.51 4260.34 78.06 5.00 409.60 3349.29
   07:15:56.800.08-Aug-2020 5163.51 4260.33 78.06 5.00 409.80 3349.29
   07:15:57.000.08-Aug-2020 5163.51 4260.32 78.06 5.00 410.00 3349.29
   07:15:57.200.08-Aug-2020 5163.51 4260.32 78.06 5.00 410.20 3349.29
   07:15:57.400.08-Aug-2020 5163.51 4260.22 78.06 5.00 410.40 3349.29
   07:15:57.600.08-Aug-2020 5163.51 4260.21 78.06 5.00 410.60 3349.29
   07:15:57.800.08-Aug-2020 5163.51 4260.27 78.06 5.00 410.80 3349.29
   07:15:58.000.08-Aug-2020 5163.51 4260.30 78.06 5.00 411.00 3349.29
   07:15:58.200.08-Aug-2020 5163.51 4260.30 78.06 5.00 411.20 3349.29
   07:15:58.400.08-Aug-2020 5163.51 4260.38 78.06 5.00 411.40 3349.29
   07:15:58.600.08-Aug-2020 5163.51 4260.39 78.06 5.00 411.60 3349.29
   07:15:58.800.08-Aug-2020 5163.51 4260.08 78.06 5.00 411.80 3349.29
   07:15:59.000.08-Aug-2020 5163.51 4260.58 78.06 5.00 412.00 3349.29
   07:15:59.200.08-Aug-2020 5163.51 4260.58 78.06 5.00 412.20 3349.29
   07:15:59.400.08-Aug-2020 5163.51 4260.06 78.06 5.00 412.40 3349.29
   07:15:59.600.08-Aug-2020 5163.51 4260.72 78.06 5.00 412.60 3349.29
   07:15:59.800.08-Aug-2020 5163.51 4260.66 78.06 5.00 412.80 3349.29
   07:16:00.000.08-Aug-2020 5163.51 4260.50 78.06 5.00 413.00 3349.29
   07:16:00.200.08-Aug-2020 5163.51 4260.50 78.06 5.00 413.20 3349.29
   07:16:00.400.08-Aug-2020 5163.51 4260.50 78.06 5.00 413.40 3349.29
   07:16:00.600.08-Aug-2020 5163.51 4260.29 78.06 5.00 413.60 3349.29
   07:16:00.800.08-Aug-2020 5163.51 4260.37 78.06 5.00 413.80 3349.29
