~Version Information
 VERS.                  2.0:   CWLS log ASCII Standard -VERSION 2.0
 WRAP.                   NO:   One line per depth step
~Well Information Block
#MNEM.UNIT     VALUE/NAME     DESCRIPTION
#---------     -----------    ---------------------------
 STRT.S             08:45:48 08-Aug-20: START TIME 08:45:48 08-Aug-20
 STOP.S             08:54:16 08-Aug-20: STOP TIME  08:54:16 08-Aug-20
 STEP.S                   0.00: STEP TIME
 NULL.                 -999.25: NULL VALUE
 DFWT.                        :  DIST FWL TEXT
 DFST.                        :  DIST FSL TEXT
 DMF .             Drill Floor:  DRILL MEAS FROM
 STIM.      13.47.44 07-Jun-20:  START TIME
 DATE.      13.47.44 27-Jul-20:  END TIME
 SPUD.               07-Jun-20:  SPUD DATE
 NREF.                    Grid:  NORTH REFERENCE
 HPTY.       Minimum Curvature:  HOLE POS TYPE
 DMOD.             Drill Model:  DRILL MOD DESC
 SVYD.                  Survey:  SURVEY DESC
 ILTD.               Lithology:  INTERP LTH DESC
 FTOP.          Formation Tops:  FORM TOPS DESC
 RIG .             West Chirag:  RIG NAME
 PDAT.          Mean Sea Level:  PERMANENT DATUM
 FLD .                     ACG:  FIELD NAME
 SON .        AZ-XX-0906363612:  JOB NUMBER
 CTRY.              Azerbaijan:  COUNTRY NAME
 WELL.           J25 (Slot 35):  WELL NAME
 SRVC.          Turan Drilling:  CONTRACTOR
 COMP.     BP Exploration (Caspian Sea) Ltd:  COMPANY
 UWI .                     N/A:  UNIQUE WELL IDENTIFIER
 API .                     N/A:  API NUMBER
 BASE.              Azerbaijan:  LOGGING EQUIPMENT BASE LOCATION
 REGN.                   EESSA:  REGION
 PROV.                    Baku:  PROVINCE
 STAT.                    Baku:  STATE NAME
 MWDS.                     N/A:  MWD SHOP
 DOE .                     N/A:  DOE NUMBER
 DCON.         Sperry Drilling:  DIRECTNL CONTR
 UNIT.                     N/A:  LOGGING EQUIPMENT ID
 MDS .        Operator Entered:  MAG DATA SOURCE
 JOBN.        AZ-XX-0906363612:  JOB TICKET NUMB
 WTYP.                Deviated:  WELL TYPE
 CNTY.                        :  COUNTY
 LOC .                        :  LOCATION
 LMF .             Drill Floor:  LOG MEASURED FROM
 TVDS.m                  43.00:  TVDSS CORRECTN
 LATI.deg                40.13:  LATITUDE
 LONG.deg                51.22:  LONGITUDE
 WHNS.m                  -7.90:  WELL HEAD N/S
 WHEW.m                  -3.35:  WELL HEAD E/W
 UTMX.m              519005.06:  UTM X
 UTMY.m             4443793.85:  UTM Y
 DFWL.m                   0.00:  DISTANCE FWL
 DFSL.m                   0.00:  DISTANCE FSL
 SDEP.m                   0.00:  START DEPTH
 TDD .m                   0.00:  TOTAL DEPTH (DRILLER)
 VSDR.deg               308.97:  VERT SEC DIRECT
 GVFD.g                   1.00:  GRAVITY FIELD
 MFLD.nT              50350.00:  MAGNETIC FIELD
 MDIP.deg                59.62:  MAGNETIC DIP
 MDEC.deg                 6.44:  MAGNETIC DECL
 GRDC.deg                 0.13:  GRID CORRECTION
 AZTC.deg                 6.32:  AZM TOTAL CORR
 EPD .m                   0.00:  ELEVATION
 EGL .m                   0.00:  GROUND ELEVATION
 WDMS.m                 169.80:  WD ELEV
 APD .m                  43.00:  DEPTH ABOVE PD
 DEP .m                 356.43:  DEPTH
 AGAP.m                  43.00:  AIR GAP
 VSEW.m                  -3.35:  VERT SEC E/W
 VSNS.m                  -7.90:  VERT SEC N/S
 EKB .m                  43.00:  KB ELEVATION
 EDF .m                  43.00:  DF ELEVATION
 TDL .m                 934.00:  TOTAL DEPTH (LOGGER)
 VSC .                       0:  VS TO CLOSURE
 MAGU.                 1852825:  MAGUTM CHECKSUM
~Parameter Information Block
#MNEM.UNIT       Value        Description
#---------     -----------    ---------------------------
 AV  .mps                 0.80:  Ann Velocity 
 AVMX.mps                 1.70:  Max Ann Veloc 
 AZIF.deg               311.41:  Azm, Final 
 BHAT.        Rotary Steerable:  BHA Type 
 BROT.°/30m               0.09:  Build Rotating 
 BS  .in                 12.25:  Bit Size 
 BSZ .in                 12.25:  Bit Size 
 BTPL.psig              800.00:  Bit Press Loss 
 CABU.                      No:  Customer Abuse 
 COMM.                     ôS:  Run Comments 1 
 TCS .hr                 96.00:  Time Ciculation Ended 
 CV  .mps                 2.03:  Crit Velocity 
 CVMX.mps                 2.42:  Max Crit Veloc 
 DD1 .          Taghi Taghiyev:  Direct Drillr 1 
 DD2 .      Tariel Pirmammadov:  Direct Drillr 2 
 DD3 .          Teymur Aghayev:  Direct Drillr 3 
 DDSV.                 iCruise:  DD Service 
 DEFF.%                  98.70:  % Det Eff 
 DLRX.°/30m               1.00:  Dogleg Rot Max 
 DLSO.°/30m               1.80:  Dogleg Oriented 
 DLSX.°/30m               3.16:  Dogleg Str Max 
 DRET.      15.00.00 07-Aug-20:  Drill End Time 
 DRST.      17.00.00 02-Aug-20:  Drill Start Tim 
 DTIM.hr                 45.90:  Time Drilling 
 EDEP.m                5298.01:  End Depth 
 ENG1.       Seymur Iskandarov:  Engineer 1 
 ENG2.         Yevgeniy Ulikov:  Engineer 2 
 ENG3.      Artemiy Matviyanov:  Engineer 3 
 ENG4.         Bahruz Mehdiyev:  Engineer 4 
 ETIM.      05.00.00 10-Aug-20:  End Time 
 FLOI.gpm              1150.00:  Flow In 
 FLON.gpm               900.00:  Flow In Min 
 FLOS.cptm                0.00:  Fluid Loss 
 FLOX.gpm              1200.00:  Flow In Max 
 FTRO.     Connectivity, Formation Presure:  FTWD Run Obj 
 HFLO.                      No:  High Flow 
 HPRE.                     Yes:  High Pressure 
 HTEM.                      No:  High Temp 
 HYDO.m                   1.80:  Hydro Offset 
 IFIN.deg                 9.71:  Inc, Final 
 IMAX.deg                63.81:  Inc Max 
 IMIN.deg                 9.53:  Inc Min 
 IMND.m                5075.52:  Inc Min Depth 
 IMXD.m                4367.08:  Inc Max Depth 
 JARR.                      No:  Jarring 
 LETM.      15.00.00 07-Aug-20:  Log End Time 
 LOST.hr                     2:  Lost Rig Time 
 LSTM.      17.00.00 02-Aug-20:  Log Start Time 
 MDCL.ppm             42500.00:  Mud Chlorides 
 MDES.     Inversion Oil/Synthetic:  Mud Desc 
 DFD .sg                  1.46:  Mud Density 
 MDMN.sg                  1.46:  Dens Mud Min 
 MDMX.sg                  1.46:  Dens Mud Max 
 MOIL.                      56:  Run Mud Oil % 
 MOWR.                   70:30:  Run Mud OWR 
 MSND.                     0.1:  Run Mud Sand % 
 MSOL.                      19:  Run Mud Solids% 
 DFV .spqt               83.00:  Mud Viscosity 
 MWOD.in                  8.00:  MWD Tool OD 
 MWSI.                     Yes:  Serv Intrp, MWD 
 OTIM.hr                196.57:  Time Operating 
 PCON.           Look Like New:  Pad Condition 
 PMAX.psia             7400.00:  Press Op, Max 
 PV  .cP                 36.00:  Mud PV 
 RUN .                    1000:  Run Number 
 ROPA.m/hr               25.00:  ROP Avg 
 ROPN.m/hr               10.00:  ROP Min 
 ROPX.m/hr               32.00:  ROP Max 
 RPMA.rpm               120.00:  RPM Surface Avg 
 RPMN.rpm               100.00:  RPM Surface Min 
 RPMX.rpm               140.00:  RPM Surface Max 
 RRUN.                    L504:  Rig Run Number 
 SAZI.deg               308.25:  Azm, Start 
 SDEP.m                4364.01:  Start Depth 
 SIDD.                      No:  Serv Intrp, DD 
 SINC.deg                63.81:  Inc, Start 
 SPPA.psig             5800.00:  SPP Avg 
 SPPN.psig             4200.00:  SPP Min 
 SPPX.psig             5950.00:  SPP Max 
 STIM.      18.00.00 01-Aug-20:  Start Time 
 SVCS.                 DD, MWD:  Services 
 SVER.                    9.20:  Sperry Version 
 TDAT.m                 934.00:  Tot Depth Attmp 
 TDDF.                      No:  Trip for DD 
 TDLG.m                 934.00:  Tot Depth Loggd 
 TFF .                      No:  Trip for Fail 
 TQAA.f-kp               31.00:  Torque Abs Avg 
 TQAN.f-kp               25.00:  Torque Abs Min 
 TQAX.f-kp               35.00:  Torque Abs Max 
 TRRT.°/30m              -0.75:  Turn Rotating 
 MRT .                  EWR-M5:  Maximum Recorded Temperature 
 TTMX.degC               95.00:  Max Tool Temp 
 VS01.                90516060:  Virtual Str1 SN 
 VS02.                90528488:  Virtual Str2 SN 
 VS03.                90577970:  Virtual Str3 SN 
 VS04.                12385033:  Virtual Str4 SN 
 VS05.                90522069:  Virtual Str5 SN 
 VS06.                13124134:  Virtual Str6 SN 
 WBMN.klb                20.00:  WOB Min 
 WITN.         Alistair Sprott:  Customer Rep 
 WITN.     Ronal van der Kraan:  Customer Rep 2 
 WOBA.klb                25.00:  WOB Avg 
 WOBX.klb                31.00:  WOB Max 
 YP  .lhf2               32.00:  Yield Point 
~Curve Information Block
#MNEM.UNIT                 API CODE     Curve Description
#---------               -----------    ---------------------------
 TIME.HHMMSS            00 000 000 000:  GT Time & Date
 GTDEPTH.m              00 000 000 000:  GT Depth
 GTPQH.psia             00 000 000 000:  GT HR Quartz Pressure
 GTTQ.degC              00 000 000 000:  GT Quartz Temperature
 GTTN.NONE              00 000 000 000:  GT Test Number
 GTET.sec               00 000 000 000:  GT Elapsed Test Time
 GTTVD.m                00 000 000 000:  GT True Vertical Depth
#Other Information
#
#WARRANTY: Halliburton will use its best efforts to furnish customers with 
#accurate information and interpretations that are part of, and incident to, the services 
#provided.  However, Halliburton cannot and does not warrant the accuracy 
#or correctness of such information and interpretations.  Under no circumstances should any 
#such information or interpretation be relied upon as the sole basis for any drilling, 
#completion, production, or financial decision or any procedure involving any risk to the 
#safety of any drilling venture, drilling rig or its crew or any other third party.  The 
#Customer has full responsibility for all drilling, completion and production operation.  
#Halliburton makes no representations or warranties, either expressed or 
#implied, including, but not limited to, the implied warranties of merchantability or fitness 
#for a particular purpose, with respect to the services rendered.  In no event will 
#Halliburton be liable for failure to obtain any particular results or for 
#any damages, including, but not limited to, indirect, special or consequential damages, 
#resulting from the use of any information or interpretation provided by Halliburton.
#
~A           TIME           GTDEPTH  GTPQH  GTTQ  GTTN  GTET   GTTVD  
# ...
   08:51:10.978.08-Aug-2020 5134.01 2351.07 76.03 7.00 322.17 3320.21
   08:51:11.178.08-Aug-2020 5134.01 2351.07 76.03 7.00 322.37 3320.21
   08:51:11.378.08-Aug-2020 5134.01 2354.03 76.03 7.00 322.57 3320.21
   08:51:11.578.08-Aug-2020 5134.01 2355.58 76.03 7.00 322.77 3320.21
   08:51:11.778.08-Aug-2020 5134.01 2357.03 76.03 7.00 322.97 3320.21
   08:51:11.978.08-Aug-2020 5134.01 2358.51 76.03 7.00 323.17 3320.21
   08:51:12.178.08-Aug-2020 5134.01 2358.51 76.03 7.00 323.37 3320.21
   08:51:12.378.08-Aug-2020 5134.01 2361.51 76.03 7.00 323.57 3320.21
   08:51:12.578.08-Aug-2020 5134.01 2363.02 76.03 7.00 323.77 3320.21
   08:51:12.779.08-Aug-2020 5134.01 2364.45 76.03 7.00 323.97 3320.21
   08:51:12.979.08-Aug-2020 5134.01 2365.85 76.03 7.00 324.17 3320.21
   08:51:13.179.08-Aug-2020 5134.01 2367.38 76.03 7.00 324.37 3320.21
   08:51:13.379.08-Aug-2020 5134.01 2368.88 76.03 7.00 324.57 3320.21
   08:51:13.579.08-Aug-2020 5134.01 2370.20 76.03 7.00 324.77 3320.21
   08:51:13.779.08-Aug-2020 5134.01 2371.64 76.03 7.00 324.97 3320.21
   08:51:13.979.08-Aug-2020 5134.01 2373.07 76.03 7.00 325.17 3320.21
   08:51:14.179.08-Aug-2020 5134.01 2373.07 76.03 7.00 325.37 3320.21
   08:51:14.379.08-Aug-2020 5134.01 2376.13 76.03 7.00 325.57 3320.21
   08:51:14.580.08-Aug-2020 5134.01 2377.71 76.03 7.00 325.77 3320.21
   08:51:14.780.08-Aug-2020 5134.01 2378.97 76.03 7.00 325.97 3320.21
   08:51:14.980.08-Aug-2020 5134.01 2380.35 76.03 7.00 326.17 3320.21
   08:51:15.180.08-Aug-2020 5134.01 2380.35 76.03 7.00 326.37 3320.21
   08:51:15.380.08-Aug-2020 5134.01 2383.38 76.03 7.00 326.57 3320.21
   08:51:15.580.08-Aug-2020 5134.01 2384.79 76.03 7.00 326.77 3320.21
   08:51:15.780.08-Aug-2020 5134.01 2386.27 76.03 7.00 326.97 3320.21
   08:51:15.980.08-Aug-2020 5134.01 2387.61 76.03 7.00 327.17 3320.21
   08:51:16.180.08-Aug-2020 5134.01 2389.14 76.03 7.00 327.37 3320.21
   08:51:16.380.08-Aug-2020 5134.01 2390.70 76.03 7.00 327.57 3320.21
   08:51:16.581.08-Aug-2020 5134.01 2392.13 76.03 7.00 327.77 3320.21
   08:51:16.781.08-Aug-2020 5134.01 2393.47 76.03 7.00 327.97 3320.21
   08:51:16.981.08-Aug-2020 5134.01 2394.84 76.03 7.00 328.17 3320.21
   08:51:17.181.08-Aug-2020 5134.01 2394.84 76.03 7.00 328.37 3320.21
   08:51:17.381.08-Aug-2020 5134.01 2397.74 76.03 7.00 328.57 3320.21
   08:51:17.581.08-Aug-2020 5134.01 2399.25 76.03 7.00 328.77 3320.21
   08:51:17.781.08-Aug-2020 5134.01 2400.64 76.03 7.00 328.97 3320.21
   08:51:17.981.08-Aug-2020 5134.01 2401.76 76.03 7.00 329.17 3320.21
   08:51:18.181.08-Aug-2020 5134.01 2402.30 76.03 7.00 329.37 3320.21
   08:51:18.382.08-Aug-2020 5134.01 2403.72 76.03 7.00 329.57 3320.21
   08:51:18.582.08-Aug-2020 5134.01 2405.15 76.03 7.00 329.77 3320.21
   08:51:18.782.08-Aug-2020 5134.01 2406.58 76.03 7.00 329.97 3320.21
   08:51:18.982.08-Aug-2020 5134.01 2408.03 76.03 7.00 330.17 3320.21
   08:51:19.182.08-Aug-2020 5134.01 2408.03 76.03 7.00 330.37 3320.21
   08:51:19.382.08-Aug-2020 5134.01 2410.90 76.03 7.00 330.57 3320.21
   08:51:19.582.08-Aug-2020 5134.01 2412.33 76.03 7.00 330.77 3320.21
   08:51:19.782.08-Aug-2020 5134.01 2413.95 76.03 7.00 330.98 3320.21
   08:51:19.982.08-Aug-2020 5134.01 2415.40 76.03 7.00 331.18 3320.21
   08:51:20.182.08-Aug-2020 5134.01 2415.40 76.03 7.00 331.38 3320.21
   08:51:20.383.08-Aug-2020 5134.01 2418.05 76.03 7.00 331.58 3320.21
   08:51:20.583.08-Aug-2020 5134.01 2419.43 76.03 7.00 331.78 3320.21
   08:51:20.783.08-Aug-2020 5134.01 2420.87 76.03 7.00 331.98 3320.21
   08:51:20.983.08-Aug-2020 5134.01 2422.30 76.03 7.00 332.18 3320.21
   08:51:21.183.08-Aug-2020 5134.01 2422.30 76.03 7.00 332.38 3320.21
   08:51:21.383.08-Aug-2020 5134.01 2425.17 76.03 7.00 332.58 3320.21
   08:51:21.583.08-Aug-2020 5134.01 2426.62 76.03 7.00 332.78 3320.21
   08:51:21.783.08-Aug-2020 5134.01 2428.08 76.03 7.00 332.98 3320.21
   08:51:21.983.08-Aug-2020 5134.01 2429.51 76.03 7.00 333.18 3320.21
   08:51:22.184.08-Aug-2020 5134.01 2430.93 76.03 7.00 333.38 3320.21
   08:51:22.384.08-Aug-2020 5134.01 2432.36 76.03 7.00 333.58 3320.21
   08:51:22.584.08-Aug-2020 5134.01 2433.78 76.03 7.00 333.78 3320.21
   08:51:22.784.08-Aug-2020 5134.01 2435.25 76.03 7.00 333.98 3320.21
   08:51:22.984.08-Aug-2020 5134.01 2436.71 76.03 7.00 334.18 3320.21
   08:51:23.184.08-Aug-2020 5134.01 2436.71 76.03 7.00 334.38 3320.21
   08:51:23.384.08-Aug-2020 5134.01 2439.41 76.03 7.00 334.58 3320.21
   08:51:23.584.08-Aug-2020 5134.01 2440.88 76.03 7.00 334.78 3320.21
   08:51:23.784.08-Aug-2020 5134.01 2442.21 76.03 7.00 334.98 3320.21
   08:51:23.985.08-Aug-2020 5134.01 2443.55 76.03 7.00 335.18 3320.21
   08:51:24.185.08-Aug-2020 5134.01 2443.55 76.03 7.00 335.38 3320.21
   08:51:24.385.08-Aug-2020 5134.01 2446.49 76.03 7.00 335.58 3320.21
   08:51:24.585.08-Aug-2020 5134.01 2448.05 76.03 7.00 335.78 3320.21
   08:51:24.785.08-Aug-2020 5134.01 2449.31 76.03 7.00 335.98 3320.21
   08:51:24.985.08-Aug-2020 5134.01 2450.75 76.03 7.00 336.18 3320.21
   08:51:25.185.08-Aug-2020 5134.01 2452.39 76.03 7.00 336.38 3320.21
   08:51:25.385.08-Aug-2020 5134.01 2453.87 76.03 7.00 336.58 3320.21
   08:51:25.585.08-Aug-2020 5134.01 2455.18 76.03 7.00 336.78 3320.21
   08:51:25.785.08-Aug-2020 5134.01 2456.56 76.03 7.00 336.98 3320.21
   08:51:25.986.08-Aug-2020 5134.01 2457.93 76.03 7.00 337.18 3320.21
   08:51:26.186.08-Aug-2020 5134.01 2459.37 76.02 7.00 337.38 3320.21
   08:51:26.386.08-Aug-2020 5134.01 2460.50 76.02 7.00 337.58 3320.21
   08:51:26.586.08-Aug-2020 5134.01 2460.98 76.02 7.00 337.78 3320.21
   08:51:26.786.08-Aug-2020 5134.01 2462.19 76.02 7.00 337.98 3320.21
   08:51:26.986.08-Aug-2020 5134.01 2463.54 76.02 7.00 338.18 3320.21
   08:51:27.186.08-Aug-2020 5134.01 2465.00 76.02 7.00 338.38 3320.21
   08:51:27.386.08-Aug-2020 5134.01 2466.38 76.02 7.00 338.58 3320.21
   08:51:27.586.08-Aug-2020 5134.01 2467.78 76.02 7.00 338.78 3320.21
   08:51:27.787.08-Aug-2020 5134.01 2469.21 76.02 7.00 338.98 3320.21
   08:51:27.987.08-Aug-2020 5134.01 2470.68 76.02 7.00 339.18 3320.21
   08:51:28.187.08-Aug-2020 5134.01 2470.68 76.02 7.00 339.38 3320.21
   08:51:28.387.08-Aug-2020 5134.01 2473.50 76.02 7.00 339.58 3320.21
   08:51:28.587.08-Aug-2020 5134.01 2474.94 76.02 7.00 339.78 3320.21
   08:51:28.787.08-Aug-2020 5134.01 2476.31 76.02 7.00 339.98 3320.21
   08:51:28.987.08-Aug-2020 5134.01 2477.72 76.02 7.00 340.18 3320.21
   08:51:29.187.08-Aug-2020 5134.01 2477.72 76.02 7.00 340.38 3320.21
   08:51:29.387.08-Aug-2020 5134.01 2375.08 76.02 7.00 340.58 3320.21
   08:51:29.587.08-Aug-2020 5134.01 2173.20 76.02 7.00 340.78 3320.21
   08:51:29.788.08-Aug-2020 5134.01 2043.44 76.02 7.00 340.98 3320.21
   08:51:29.988.08-Aug-2020 5134.01 1946.67 76.02 7.00 341.18 3320.21
   08:51:30.188.08-Aug-2020 5134.01 1946.67 76.02 7.00 341.38 3320.21
   08:51:30.388.08-Aug-2020 5134.01 1779.95 76.02 7.00 341.58 3320.21
   08:51:30.588.08-Aug-2020 5134.01 1700.14 76.02 7.00 341.78 3320.21
   08:51:30.788.08-Aug-2020 5134.01 1614.83 76.02 7.00 341.98 3320.21
   08:51:30.988.08-Aug-2020 5134.01 1527.99 76.02 7.00 342.18 3320.21
   08:51:31.188.08-Aug-2020 5134.01 1442.93 76.02 7.00 342.38 3320.21
   08:51:31.388.08-Aug-2020 5134.01 1356.20 76.02 7.00 342.58 3320.21
   08:51:31.589.08-Aug-2020 5134.01 1291.76 76.02 7.00 342.78 3320.21
   08:51:31.789.08-Aug-2020 5134.01 1292.18 76.02 7.00 342.98 3320.21
   08:51:31.989.08-Aug-2020 5134.01 1296.94 76.02 7.00 343.18 3320.21
   08:51:32.189.08-Aug-2020 5134.01 1301.21 76.02 7.00 343.38 3320.21
   08:51:32.389.08-Aug-2020 5134.01 1305.15 76.02 7.00 343.58 3320.21
   08:51:32.589.08-Aug-2020 5134.01 1308.90 76.02 7.00 343.78 3320.21
   08:51:32.789.08-Aug-2020 5134.01 1312.66 76.02 7.00 343.98 3320.21
   08:51:32.989.08-Aug-2020 5134.01 1316.48 76.02 7.00 344.18 3320.21
   08:51:33.189.08-Aug-2020 5134.01 1320.25 76.02 7.00 344.38 3320.21
   08:51:33.389.08-Aug-2020 5134.01 1323.89 76.02 7.00 344.58 3320.21
   08:51:33.590.08-Aug-2020 5134.01 1327.08 76.01 7.00 344.78 3320.21
   08:51:33.790.08-Aug-2020 5134.01 1330.50 76.01 7.00 344.98 3320.21
