~Version Information
 VERS.                  2.0:   CWLS log ASCII Standard -VERSION 2.0
 WRAP.                   NO:   One line per depth step
~Well Information Block
#MNEM.UNIT     VALUE/NAME     DESCRIPTION
#---------     -----------    ---------------------------
 STRT.S             08:45:48 08-Aug-20: START TIME 08:45:48 08-Aug-20
 STOP.S             08:54:16 08-Aug-20: STOP TIME  08:54:16 08-Aug-20
 STEP.S                   0.00: STEP TIME
 NULL.                 -999.25: NULL VALUE
 DFWT.                        :  DIST FWL TEXT
 DFST.                        :  DIST FSL TEXT
 DMF .             Drill Floor:  DRILL MEAS FROM
 STIM.      13.47.44 07-Jun-20:  START TIME
 DATE.      13.47.44 27-Jul-20:  END TIME
 SPUD.               07-Jun-20:  SPUD DATE
 NREF.                    Grid:  NORTH REFERENCE
 HPTY.       Minimum Curvature:  HOLE POS TYPE
 DMOD.             Drill Model:  DRILL MOD DESC
 SVYD.                  Survey:  SURVEY DESC
 ILTD.               Lithology:  INTERP LTH DESC
 FTOP.          Formation Tops:  FORM TOPS DESC
 RIG .             West Chirag:  RIG NAME
 PDAT.          Mean Sea Level:  PERMANENT DATUM
 FLD .                     ACG:  FIELD NAME
 SON .        AZ-XX-0906363612:  JOB NUMBER
 CTRY.              Azerbaijan:  COUNTRY NAME
 WELL.           J25 (Slot 35):  WELL NAME
 SRVC.          Turan Drilling:  CONTRACTOR
 COMP.     BP Exploration (Caspian Sea) Ltd:  COMPANY
 UWI .                     N/A:  UNIQUE WELL IDENTIFIER
 API .                     N/A:  API NUMBER
 BASE.              Azerbaijan:  LOGGING EQUIPMENT BASE LOCATION
 REGN.                   EESSA:  REGION
 PROV.                    Baku:  PROVINCE
 STAT.                    Baku:  STATE NAME
 MWDS.                     N/A:  MWD SHOP
 DOE .                     N/A:  DOE NUMBER
 DCON.         Sperry Drilling:  DIRECTNL CONTR
 UNIT.                     N/A:  LOGGING EQUIPMENT ID
 MDS .        Operator Entered:  MAG DATA SOURCE
 JOBN.        AZ-XX-0906363612:  JOB TICKET NUMB
 WTYP.                Deviated:  WELL TYPE
 CNTY.                        :  COUNTY
 LOC .                        :  LOCATION
 LMF .             Drill Floor:  LOG MEASURED FROM
 TVDS.m                  43.00:  TVDSS CORRECTN
 LATI.deg                40.13:  LATITUDE
 LONG.deg                51.22:  LONGITUDE
 WHNS.m                  -7.90:  WELL HEAD N/S
 WHEW.m                  -3.35:  WELL HEAD E/W
 UTMX.m              519005.06:  UTM X
 UTMY.m             4443793.85:  UTM Y
 DFWL.m                   0.00:  DISTANCE FWL
 DFSL.m                   0.00:  DISTANCE FSL
 SDEP.m                   0.00:  START DEPTH
 TDD .m                   0.00:  TOTAL DEPTH (DRILLER)
 VSDR.deg               308.97:  VERT SEC DIRECT
 GVFD.g                   1.00:  GRAVITY FIELD
 MFLD.nT              50350.00:  MAGNETIC FIELD
 MDIP.deg                59.62:  MAGNETIC DIP
 MDEC.deg                 6.44:  MAGNETIC DECL
 GRDC.deg                 0.13:  GRID CORRECTION
 AZTC.deg                 6.32:  AZM TOTAL CORR
 EPD .m                   0.00:  ELEVATION
 EGL .m                   0.00:  GROUND ELEVATION
 WDMS.m                 169.80:  WD ELEV
 APD .m                  43.00:  DEPTH ABOVE PD
 DEP .m                 356.43:  DEPTH
 AGAP.m                  43.00:  AIR GAP
 VSEW.m                  -3.35:  VERT SEC E/W
 VSNS.m                  -7.90:  VERT SEC N/S
 EKB .m                  43.00:  KB ELEVATION
 EDF .m                  43.00:  DF ELEVATION
 TDL .m                 934.00:  TOTAL DEPTH (LOGGER)
 VSC .                       0:  VS TO CLOSURE
 MAGU.                 1852825:  MAGUTM CHECKSUM
~Parameter Information Block
#MNEM.UNIT       Value        Description
#---------     -----------    ---------------------------
 AV  .mps                 0.80:  Ann Velocity 
 AVMX.mps                 1.70:  Max Ann Veloc 
 AZIF.deg               311.41:  Azm, Final 
 BHAT.        Rotary Steerable:  BHA Type 
 BROT.°/30m               0.09:  Build Rotating 
 BS  .in                 12.25:  Bit Size 
 BSZ .in                 12.25:  Bit Size 
 BTPL.psig              800.00:  Bit Press Loss 
 CABU.                      No:  Customer Abuse 
 COMM.                     ôS:  Run Comments 1 
 TCS .hr                 96.00:  Time Ciculation Ended 
 CV  .mps                 2.03:  Crit Velocity 
 CVMX.mps                 2.42:  Max Crit Veloc 
 DD1 .          Taghi Taghiyev:  Direct Drillr 1 
 DD2 .      Tariel Pirmammadov:  Direct Drillr 2 
 DD3 .          Teymur Aghayev:  Direct Drillr 3 
 DDSV.                 iCruise:  DD Service 
 DEFF.%                  98.70:  % Det Eff 
 DLRX.°/30m               1.00:  Dogleg Rot Max 
 DLSO.°/30m               1.80:  Dogleg Oriented 
 DLSX.°/30m               3.16:  Dogleg Str Max 
 DRET.      15.00.00 07-Aug-20:  Drill End Time 
 DRST.      17.00.00 02-Aug-20:  Drill Start Tim 
 DTIM.hr                 45.90:  Time Drilling 
 EDEP.m                5298.01:  End Depth 
 ENG1.       Seymur Iskandarov:  Engineer 1 
 ENG2.         Yevgeniy Ulikov:  Engineer 2 
 ENG3.      Artemiy Matviyanov:  Engineer 3 
 ENG4.         Bahruz Mehdiyev:  Engineer 4 
 ETIM.      05.00.00 10-Aug-20:  End Time 
 FLOI.gpm              1150.00:  Flow In 
 FLON.gpm               900.00:  Flow In Min 
 FLOS.cptm                0.00:  Fluid Loss 
 FLOX.gpm              1200.00:  Flow In Max 
 FTRO.     Connectivity, Formation Presure:  FTWD Run Obj 
 HFLO.                      No:  High Flow 
 HPRE.                     Yes:  High Pressure 
 HTEM.                      No:  High Temp 
 HYDO.m                   1.80:  Hydro Offset 
 IFIN.deg                 9.71:  Inc, Final 
 IMAX.deg                63.81:  Inc Max 
 IMIN.deg                 9.53:  Inc Min 
 IMND.m                5075.52:  Inc Min Depth 
 IMXD.m                4367.08:  Inc Max Depth 
 JARR.                      No:  Jarring 
 LETM.      15.00.00 07-Aug-20:  Log End Time 
 LOST.hr                     2:  Lost Rig Time 
 LSTM.      17.00.00 02-Aug-20:  Log Start Time 
 MDCL.ppm             42500.00:  Mud Chlorides 
 MDES.     Inversion Oil/Synthetic:  Mud Desc 
 DFD .sg                  1.46:  Mud Density 
 MDMN.sg                  1.46:  Dens Mud Min 
 MDMX.sg                  1.46:  Dens Mud Max 
 MOIL.                      56:  Run Mud Oil % 
 MOWR.                   70:30:  Run Mud OWR 
 MSND.                     0.1:  Run Mud Sand % 
 MSOL.                      19:  Run Mud Solids% 
 DFV .spqt               83.00:  Mud Viscosity 
 MWOD.in                  8.00:  MWD Tool OD 
 MWSI.                     Yes:  Serv Intrp, MWD 
 OTIM.hr                196.57:  Time Operating 
 PCON.           Look Like New:  Pad Condition 
 PMAX.psia             7400.00:  Press Op, Max 
 PV  .cP                 36.00:  Mud PV 
 RUN .                    1000:  Run Number 
 ROPA.m/hr               25.00:  ROP Avg 
 ROPN.m/hr               10.00:  ROP Min 
 ROPX.m/hr               32.00:  ROP Max 
 RPMA.rpm               120.00:  RPM Surface Avg 
 RPMN.rpm               100.00:  RPM Surface Min 
 RPMX.rpm               140.00:  RPM Surface Max 
 RRUN.                    L504:  Rig Run Number 
 SAZI.deg               308.25:  Azm, Start 
 SDEP.m                4364.01:  Start Depth 
 SIDD.                      No:  Serv Intrp, DD 
 SINC.deg                63.81:  Inc, Start 
 SPPA.psig             5800.00:  SPP Avg 
 SPPN.psig             4200.00:  SPP Min 
 SPPX.psig             5950.00:  SPP Max 
 STIM.      18.00.00 01-Aug-20:  Start Time 
 SVCS.                 DD, MWD:  Services 
 SVER.                    9.20:  Sperry Version 
 TDAT.m                 934.00:  Tot Depth Attmp 
 TDDF.                      No:  Trip for DD 
 TDLG.m                 934.00:  Tot Depth Loggd 
 TFF .                      No:  Trip for Fail 
 TQAA.f-kp               31.00:  Torque Abs Avg 
 TQAN.f-kp               25.00:  Torque Abs Min 
 TQAX.f-kp               35.00:  Torque Abs Max 
 TRRT.°/30m              -0.75:  Turn Rotating 
 MRT .                  EWR-M5:  Maximum Recorded Temperature 
 TTMX.degC               95.00:  Max Tool Temp 
 VS01.                90516060:  Virtual Str1 SN 
 VS02.                90528488:  Virtual Str2 SN 
 VS03.                90577970:  Virtual Str3 SN 
 VS04.                12385033:  Virtual Str4 SN 
 VS05.                90522069:  Virtual Str5 SN 
 VS06.                13124134:  Virtual Str6 SN 
 WBMN.klb                20.00:  WOB Min 
 WITN.         Alistair Sprott:  Customer Rep 
 WITN.     Ronal van der Kraan:  Customer Rep 2 
 WOBA.klb                25.00:  WOB Avg 
 WOBX.klb                31.00:  WOB Max 
 YP  .lhf2               32.00:  Yield Point 
~Curve Information Block
#MNEM.UNIT                 API CODE     Curve Description
#---------               -----------    ---------------------------
 TIME.HHMMSS            00 000 000 000:  GT Time & Date
 GTDEPTH.m              00 000 000 000:  GT Depth
 GTPQH.psia             00 000 000 000:  GT HR Quartz Pressure
 GTTQ.degC              00 000 000 000:  GT Quartz Temperature
 GTTN.NONE              00 000 000 000:  GT Test Number
 GTET.sec               00 000 000 000:  GT Elapsed Test Time
 GTTVD.m                00 000 000 000:  GT True Vertical Depth
#Other Information
#
#WARRANTY: Halliburton will use its best efforts to furnish customers with 
#accurate information and interpretations that are part of, and incident to, the services 
#provided.  However, Halliburton cannot and does not warrant the accuracy 
#or correctness of such information and interpretations.  Under no circumstances should any 
#such information or interpretation be relied upon as the sole basis for any drilling, 
#completion, production, or financial decision or any procedure involving any risk to the 
#safety of any drilling venture, drilling rig or its crew or any other third party.  The 
#Customer has full responsibility for all drilling, completion and production operation.  
#Halliburton makes no representations or warranties, either expressed or 
#implied, including, but not limited to, the implied warranties of merchantability or fitness 
#for a particular purpose, with respect to the services rendered.  In no event will 
#Halliburton be liable for failure to obtain any particular results or for 
#any damages, including, but not limited to, indirect, special or consequential damages, 
#resulting from the use of any information or interpretation provided by Halliburton.
#
~A           TIME           GTDEPTH  GTPQH  GTTQ  GTTN  GTET   GTTVD  
# ...
   08:48:06.880.08-Aug-2020 5134.01 2483.61 76.14 7.00 138.07 3320.21
   08:48:07.080.08-Aug-2020 5134.01 2483.61 76.14 7.00 138.27 3320.21
   08:48:07.280.08-Aug-2020 5134.01 2486.51 76.14 7.00 138.47 3320.21
   08:48:07.481.08-Aug-2020 5134.01 2488.54 76.14 7.00 138.67 3320.21
   08:48:07.681.08-Aug-2020 5134.01 2490.68 76.14 7.00 138.87 3320.21
   08:48:07.881.08-Aug-2020 5134.01 2492.83 76.14 7.00 139.07 3320.21
   08:48:08.081.08-Aug-2020 5134.01 2492.83 76.14 7.00 139.27 3320.21
   08:48:08.281.08-Aug-2020 5134.01 2497.24 76.14 7.00 139.47 3320.21
   08:48:08.481.08-Aug-2020 5134.01 2499.45 76.14 7.00 139.67 3320.21
   08:48:08.681.08-Aug-2020 5134.01 2501.58 76.14 7.00 139.87 3320.21
   08:48:08.881.08-Aug-2020 5134.01 2503.82 76.14 7.00 140.07 3320.21
   08:48:09.081.08-Aug-2020 5134.01 2503.82 76.14 7.00 140.27 3320.21
   08:48:09.282.08-Aug-2020 5134.01 2508.20 76.14 7.00 140.47 3320.21
   08:48:09.482.08-Aug-2020 5134.01 2510.35 76.14 7.00 140.67 3320.21
   08:48:09.682.08-Aug-2020 5134.01 2512.51 76.14 7.00 140.87 3320.21
   08:48:09.882.08-Aug-2020 5134.01 2514.69 76.14 7.00 141.07 3320.21
   08:48:10.082.08-Aug-2020 5134.01 2514.69 76.14 7.00 141.27 3320.21
   08:48:10.282.08-Aug-2020 5134.01 2518.99 76.14 7.00 141.47 3320.21
   08:48:10.482.08-Aug-2020 5134.01 2521.15 76.14 7.00 141.67 3320.21
   08:48:10.682.08-Aug-2020 5134.01 2523.41 76.14 7.00 141.88 3320.21
   08:48:10.882.08-Aug-2020 5134.01 2525.59 76.14 7.00 142.08 3320.21
   08:48:11.082.08-Aug-2020 5134.01 2527.79 76.14 7.00 142.28 3320.21
   08:48:11.283.08-Aug-2020 5134.01 2529.82 76.14 7.00 142.48 3320.21
   08:48:11.483.08-Aug-2020 5134.01 2532.10 76.14 7.00 142.68 3320.21
   08:48:11.683.08-Aug-2020 5134.01 2534.20 76.14 7.00 142.88 3320.21
   08:48:11.883.08-Aug-2020 5134.01 2536.22 76.14 7.00 143.08 3320.21
   08:48:12.083.08-Aug-2020 5134.01 2536.22 76.14 7.00 143.28 3320.21
   08:48:12.283.08-Aug-2020 5134.01 2540.42 76.14 7.00 143.48 3320.21
   08:48:12.483.08-Aug-2020 5134.01 2542.64 76.14 7.00 143.68 3320.21
   08:48:12.683.08-Aug-2020 5134.01 2544.82 76.14 7.00 143.88 3320.21
   08:48:12.883.08-Aug-2020 5134.01 2547.00 76.14 7.00 144.08 3320.21
   08:48:13.084.08-Aug-2020 5134.01 2548.90 76.14 7.00 144.28 3320.21
   08:48:13.284.08-Aug-2020 5134.01 2550.94 76.14 7.00 144.48 3320.21
   08:48:13.484.08-Aug-2020 5134.01 2553.24 76.14 7.00 144.68 3320.21
   08:48:13.684.08-Aug-2020 5134.01 2555.48 76.14 7.00 144.88 3320.21
   08:48:13.884.08-Aug-2020 5134.01 2557.48 76.14 7.00 145.08 3320.21
   08:48:14.084.08-Aug-2020 5134.01 2557.48 76.14 7.00 145.28 3320.21
   08:48:14.284.08-Aug-2020 5134.01 2561.05 76.14 7.00 145.48 3320.21
   08:48:14.484.08-Aug-2020 5134.01 2562.68 76.14 7.00 145.68 3320.21
   08:48:14.684.08-Aug-2020 5134.01 2564.67 76.14 7.00 145.88 3320.21
   08:48:14.884.08-Aug-2020 5134.01 2566.79 76.14 7.00 146.08 3320.21
   08:48:15.085.08-Aug-2020 5134.01 2568.82 76.14 7.00 146.28 3320.21
   08:48:15.285.08-Aug-2020 5134.01 2570.99 76.14 7.00 146.48 3320.21
   08:48:15.485.08-Aug-2020 5134.01 2573.08 76.14 7.00 146.68 3320.21
   08:48:15.685.08-Aug-2020 5134.01 2575.16 76.14 7.00 146.88 3320.21
   08:48:15.885.08-Aug-2020 5134.01 2577.25 76.14 7.00 147.08 3320.21
   08:48:16.085.08-Aug-2020 5134.01 2577.25 76.14 7.00 147.28 3320.21
   08:48:16.285.08-Aug-2020 5134.01 2581.37 76.14 7.00 147.48 3320.21
   08:48:16.485.08-Aug-2020 5134.01 2583.43 76.14 7.00 147.68 3320.21
   08:48:16.685.08-Aug-2020 5134.01 2585.45 76.14 7.00 147.88 3320.21
   08:48:16.886.08-Aug-2020 5134.01 2587.60 76.14 7.00 148.08 3320.21
   08:48:17.086.08-Aug-2020 5134.01 2589.63 76.14 7.00 148.28 3320.21
   08:48:17.286.08-Aug-2020 5134.01 2591.68 76.14 7.00 148.48 3320.21
   08:48:17.486.08-Aug-2020 5134.01 2593.61 76.14 7.00 148.68 3320.21
   08:48:17.686.08-Aug-2020 5134.01 2595.62 76.14 7.00 148.88 3320.21
   08:48:17.886.08-Aug-2020 5134.01 2597.64 76.14 7.00 149.08 3320.21
   08:48:18.086.08-Aug-2020 5134.01 2597.64 76.14 7.00 149.28 3320.21
   08:48:18.286.08-Aug-2020 5134.01 2601.66 76.14 7.00 149.48 3320.21
   08:48:18.486.08-Aug-2020 5134.01 2603.66 76.14 7.00 149.68 3320.21
   08:48:18.686.08-Aug-2020 5134.01 2605.74 76.14 7.00 149.88 3320.21
   08:48:18.887.08-Aug-2020 5134.01 2607.72 76.14 7.00 150.08 3320.21
   08:48:19.087.08-Aug-2020 5134.01 2607.72 76.14 7.00 150.28 3320.21
   08:48:19.287.08-Aug-2020 5134.01 2611.82 76.14 7.00 150.48 3320.21
   08:48:19.487.08-Aug-2020 5134.01 2613.84 76.14 7.00 150.68 3320.21
   08:48:19.687.08-Aug-2020 5134.01 2615.83 76.14 7.00 150.88 3320.21
   08:48:19.887.08-Aug-2020 5134.01 2617.81 76.14 7.00 151.08 3320.21
   08:48:20.087.08-Aug-2020 5134.01 2617.81 76.14 7.00 151.28 3320.21
   08:48:20.287.08-Aug-2020 5134.01 2620.95 76.14 7.00 151.48 3320.21
   08:48:20.487.08-Aug-2020 5134.01 2622.45 76.14 7.00 151.68 3320.21
   08:48:20.688.08-Aug-2020 5134.01 2624.83 76.14 7.00 151.88 3320.21
   08:48:20.888.08-Aug-2020 5134.01 2626.96 76.14 7.00 152.08 3320.21
   08:48:21.088.08-Aug-2020 5134.01 2628.76 76.14 7.00 152.28 3320.21
   08:48:21.288.08-Aug-2020 5134.01 2630.80 76.14 7.00 152.48 3320.21
   08:48:21.488.08-Aug-2020 5134.01 2632.77 76.14 7.00 152.68 3320.21
   08:48:21.688.08-Aug-2020 5134.01 2634.88 76.14 7.00 152.88 3320.21
   08:48:21.888.08-Aug-2020 5134.01 2636.97 76.14 7.00 153.08 3320.21
   08:48:22.088.08-Aug-2020 5134.01 2638.98 76.14 7.00 153.28 3320.21
   08:48:22.288.08-Aug-2020 5134.01 2640.89 76.14 7.00 153.48 3320.21
   08:48:22.488.08-Aug-2020 5134.01 2642.83 76.14 7.00 153.68 3320.21
   08:48:22.689.08-Aug-2020 5134.01 2644.89 76.14 7.00 153.88 3320.21
   08:48:22.889.08-Aug-2020 5134.01 2647.08 76.14 7.00 154.08 3320.21
   08:48:23.089.08-Aug-2020 5134.01 2647.08 76.14 7.00 154.28 3320.21
   08:48:23.289.08-Aug-2020 5134.01 2650.87 76.14 7.00 154.48 3320.21
   08:48:23.489.08-Aug-2020 5134.01 2652.92 76.14 7.00 154.68 3320.21
   08:48:23.689.08-Aug-2020 5134.01 2655.06 76.14 7.00 154.88 3320.21
   08:48:23.889.08-Aug-2020 5134.01 2657.02 76.14 7.00 155.08 3320.21
   08:48:24.089.08-Aug-2020 5134.01 2657.02 76.14 7.00 155.28 3320.21
   08:48:24.289.08-Aug-2020 5134.01 2660.89 76.14 7.00 155.48 3320.21
   08:48:24.490.08-Aug-2020 5134.01 2662.82 76.14 7.00 155.68 3320.21
   08:48:24.690.08-Aug-2020 5134.01 2664.75 76.14 7.00 155.88 3320.21
   08:48:24.890.08-Aug-2020 5134.01 2666.77 76.14 7.00 156.08 3320.21
   08:48:25.090.08-Aug-2020 5134.01 2668.73 76.14 7.00 156.28 3320.21
   08:48:25.290.08-Aug-2020 5134.01 2670.63 76.14 7.00 156.48 3320.21
   08:48:25.490.08-Aug-2020 5134.01 2672.67 76.14 7.00 156.68 3320.21
   08:48:25.690.08-Aug-2020 5134.01 2674.56 76.14 7.00 156.88 3320.21
   08:48:25.890.08-Aug-2020 5134.01 2676.55 76.14 7.00 157.08 3320.21
   08:48:26.090.08-Aug-2020 5134.01 2678.50 76.14 7.00 157.28 3320.21
   08:48:26.291.08-Aug-2020 5134.01 2680.41 76.14 7.00 157.48 3320.21
   08:48:26.491.08-Aug-2020 5134.01 2682.32 76.14 7.00 157.68 3320.21
   08:48:26.691.08-Aug-2020 5134.01 2684.27 76.14 7.00 157.88 3320.21
   08:48:26.891.08-Aug-2020 5134.01 2686.13 76.14 7.00 158.08 3320.21
   08:48:27.091.08-Aug-2020 5134.01 2686.13 76.14 7.00 158.28 3320.21
   08:48:27.291.08-Aug-2020 5134.01 2690.05 76.14 7.00 158.48 3320.21
   08:48:27.491.08-Aug-2020 5134.01 2691.14 76.14 7.00 158.68 3320.21
   08:48:27.691.08-Aug-2020 5134.01 2692.32 76.14 7.00 158.88 3320.21
   08:48:27.891.08-Aug-2020 5134.01 2694.13 76.14 7.00 159.08 3320.21
   08:48:28.091.08-Aug-2020 5134.01 2694.13 76.14 7.00 159.28 3320.21
   08:48:28.292.08-Aug-2020 5134.01 2697.93 76.14 7.00 159.48 3320.21
   08:48:28.492.08-Aug-2020 5134.01 2699.84 76.14 7.00 159.68 3320.21
   08:48:28.692.08-Aug-2020 5134.01 2701.76 76.14 7.00 159.88 3320.21
   08:48:28.892.08-Aug-2020 5134.01 2703.61 76.14 7.00 160.08 3320.21
   08:48:29.092.08-Aug-2020 5134.01 2703.61 76.14 7.00 160.28 3320.21
   08:48:29.292.08-Aug-2020 5134.01 2707.48 76.14 7.00 160.48 3320.21
   08:48:29.492.08-Aug-2020 5134.01 2709.42 76.14 7.00 160.69 3320.21
   08:48:29.692.08-Aug-2020 5134.01 2711.31 76.14 7.00 160.89 3320.21
