~Version Information
 VERS.                  2.0:   CWLS log ASCII Standard -VERSION 2.0
 WRAP.                   NO:   One line per depth step
~Well Information Block
#MNEM.UNIT     VALUE/NAME     DESCRIPTION
#---------     -----------    ---------------------------
 STRT.S             05:51:10 08-Aug-20: START TIME 05:51:10 08-Aug-20
 STOP.S             05:59:38 08-Aug-20: STOP TIME  05:59:38 08-Aug-20
 STEP.S                   0.00: STEP TIME
 NULL.                 -999.25: NULL VALUE
 DFWT.                        :  DIST FWL TEXT
 DFST.                        :  DIST FSL TEXT
 DMF .             Drill Floor:  DRILL MEAS FROM
 STIM.      13.47.44 07-Jun-20:  START TIME
 DATE.      13.47.44 27-Jul-20:  END TIME
 SPUD.               07-Jun-20:  SPUD DATE
 NREF.                    Grid:  NORTH REFERENCE
 HPTY.       Minimum Curvature:  HOLE POS TYPE
 DMOD.             Drill Model:  DRILL MOD DESC
 SVYD.                  Survey:  SURVEY DESC
 ILTD.               Lithology:  INTERP LTH DESC
 FTOP.          Formation Tops:  FORM TOPS DESC
 RIG .             West Chirag:  RIG NAME
 PDAT.          Mean Sea Level:  PERMANENT DATUM
 FLD .                     ACG:  FIELD NAME
 SON .        AZ-XX-0906363612:  JOB NUMBER
 CTRY.              Azerbaijan:  COUNTRY NAME
 WELL.           J25 (Slot 35):  WELL NAME
 SRVC.          Turan Drilling:  CONTRACTOR
 COMP.     BP Exploration (Caspian Sea) Ltd:  COMPANY
 UWI .                     N/A:  UNIQUE WELL IDENTIFIER
 API .                     N/A:  API NUMBER
 BASE.              Azerbaijan:  LOGGING EQUIPMENT BASE LOCATION
 REGN.                   EESSA:  REGION
 PROV.                    Baku:  PROVINCE
 STAT.                    Baku:  STATE NAME
 MWDS.                     N/A:  MWD SHOP
 DOE .                     N/A:  DOE NUMBER
 DCON.         Sperry Drilling:  DIRECTNL CONTR
 UNIT.                     N/A:  LOGGING EQUIPMENT ID
 MDS .        Operator Entered:  MAG DATA SOURCE
 JOBN.        AZ-XX-0906363612:  JOB TICKET NUMB
 WTYP.                Deviated:  WELL TYPE
 CNTY.                        :  COUNTY
 LOC .                        :  LOCATION
 LMF .             Drill Floor:  LOG MEASURED FROM
 TVDS.m                  43.00:  TVDSS CORRECTN
 LATI.deg                40.13:  LATITUDE
 LONG.deg                51.22:  LONGITUDE
 WHNS.m                  -7.90:  WELL HEAD N/S
 WHEW.m                  -3.35:  WELL HEAD E/W
 UTMX.m              519005.06:  UTM X
 UTMY.m             4443793.85:  UTM Y
 DFWL.m                   0.00:  DISTANCE FWL
 DFSL.m                   0.00:  DISTANCE FSL
 SDEP.m                   0.00:  START DEPTH
 TDD .m                   0.00:  TOTAL DEPTH (DRILLER)
 VSDR.deg               308.97:  VERT SEC DIRECT
 GVFD.g                   1.00:  GRAVITY FIELD
 MFLD.nT              50350.00:  MAGNETIC FIELD
 MDIP.deg                59.62:  MAGNETIC DIP
 MDEC.deg                 6.44:  MAGNETIC DECL
 GRDC.deg                 0.13:  GRID CORRECTION
 AZTC.deg                 6.32:  AZM TOTAL CORR
 EPD .m                   0.00:  ELEVATION
 EGL .m                   0.00:  GROUND ELEVATION
 WDMS.m                 169.80:  WD ELEV
 APD .m                  43.00:  DEPTH ABOVE PD
 DEP .m                 356.43:  DEPTH
 AGAP.m                  43.00:  AIR GAP
 VSEW.m                  -3.35:  VERT SEC E/W
 VSNS.m                  -7.90:  VERT SEC N/S
 EKB .m                  43.00:  KB ELEVATION
 EDF .m                  43.00:  DF ELEVATION
 TDL .m                 934.00:  TOTAL DEPTH (LOGGER)
 VSC .                       0:  VS TO CLOSURE
 MAGU.                 1852825:  MAGUTM CHECKSUM
~Parameter Information Block
#MNEM.UNIT       Value        Description
#---------     -----------    ---------------------------
 AV  .mps                 0.80:  Ann Velocity 
 AVMX.mps                 1.70:  Max Ann Veloc 
 AZIF.deg               311.41:  Azm, Final 
 BHAT.        Rotary Steerable:  BHA Type 
 BROT.°/30m               0.09:  Build Rotating 
 BS  .in                 12.25:  Bit Size 
 BSZ .in                 12.25:  Bit Size 
 BTPL.psig              800.00:  Bit Press Loss 
 CABU.                      No:  Customer Abuse 
 COMM.                     ¤'V:  Run Comments 1 
 TCS .hr                 96.00:  Time Ciculation Ended 
 CV  .mps                 2.03:  Crit Velocity 
 CVMX.mps                 2.42:  Max Crit Veloc 
 DD1 .          Taghi Taghiyev:  Direct Drillr 1 
 DD2 .      Tariel Pirmammadov:  Direct Drillr 2 
 DD3 .          Teymur Aghayev:  Direct Drillr 3 
 DDSV.                 iCruise:  DD Service 
 DEFF.%                  98.70:  % Det Eff 
 DLRX.°/30m               1.00:  Dogleg Rot Max 
 DLSO.°/30m               1.80:  Dogleg Oriented 
 DLSX.°/30m               3.16:  Dogleg Str Max 
 DRET.      15.00.00 07-Aug-20:  Drill End Time 
 DRST.      17.00.00 02-Aug-20:  Drill Start Tim 
 DTIM.hr                 45.90:  Time Drilling 
 EDEP.m                5298.01:  End Depth 
 ENG1.       Seymur Iskandarov:  Engineer 1 
 ENG2.         Yevgeniy Ulikov:  Engineer 2 
 ENG3.      Artemiy Matviyanov:  Engineer 3 
 ENG4.         Bahruz Mehdiyev:  Engineer 4 
 ETIM.      05.00.00 10-Aug-20:  End Time 
 FLOI.gpm              1150.00:  Flow In 
 FLON.gpm               900.00:  Flow In Min 
 FLOS.cptm                0.00:  Fluid Loss 
 FLOX.gpm              1200.00:  Flow In Max 
 FTRO.     Connectivity, Formation Presure:  FTWD Run Obj 
 HFLO.                      No:  High Flow 
 HPRE.                     Yes:  High Pressure 
 HTEM.                      No:  High Temp 
 HYDO.m                   1.80:  Hydro Offset 
 IFIN.deg                 9.71:  Inc, Final 
 IMAX.deg                63.81:  Inc Max 
 IMIN.deg                 9.53:  Inc Min 
 IMND.m                5075.52:  Inc Min Depth 
 IMXD.m                4367.08:  Inc Max Depth 
 JARR.                      No:  Jarring 
 LETM.      15.00.00 07-Aug-20:  Log End Time 
 LOST.hr                     2:  Lost Rig Time 
 LSTM.      17.00.00 02-Aug-20:  Log Start Time 
 MDCL.ppm             42500.00:  Mud Chlorides 
 MDES.     Inversion Oil/Synthetic:  Mud Desc 
 DFD .sg                  1.46:  Mud Density 
 MDMN.sg                  1.46:  Dens Mud Min 
 MDMX.sg                  1.46:  Dens Mud Max 
 MOIL.                      56:  Run Mud Oil % 
 MOWR.                   70:30:  Run Mud OWR 
 MSND.                     0.1:  Run Mud Sand % 
 MSOL.                      19:  Run Mud Solids% 
 DFV .spqt               83.00:  Mud Viscosity 
 MWOD.in                  8.00:  MWD Tool OD 
 MWSI.                     Yes:  Serv Intrp, MWD 
 OTIM.hr                196.57:  Time Operating 
 PCON.           Look Like New:  Pad Condition 
 PMAX.psia             7400.00:  Press Op, Max 
 PV  .cP                 36.00:  Mud PV 
 RUN .                    1000:  Run Number 
 ROPA.m/hr               25.00:  ROP Avg 
 ROPN.m/hr               10.00:  ROP Min 
 ROPX.m/hr               32.00:  ROP Max 
 RPMA.rpm               120.00:  RPM Surface Avg 
 RPMN.rpm               100.00:  RPM Surface Min 
 RPMX.rpm               140.00:  RPM Surface Max 
 RRUN.                    L504:  Rig Run Number 
 SAZI.deg               308.25:  Azm, Start 
 SDEP.m                4364.01:  Start Depth 
 SIDD.                      No:  Serv Intrp, DD 
 SINC.deg                63.81:  Inc, Start 
 SPPA.psig             5800.00:  SPP Avg 
 SPPN.psig             4200.00:  SPP Min 
 SPPX.psig             5950.00:  SPP Max 
 STIM.      18.00.00 01-Aug-20:  Start Time 
 SVCS.                 DD, MWD:  Services 
 SVER.                    9.20:  Sperry Version 
 TDAT.m                 934.00:  Tot Depth Attmp 
 TDDF.                      No:  Trip for DD 
 TDLG.m                 934.00:  Tot Depth Loggd 
 TFF .                      No:  Trip for Fail 
 TQAA.f-kp               31.00:  Torque Abs Avg 
 TQAN.f-kp               25.00:  Torque Abs Min 
 TQAX.f-kp               35.00:  Torque Abs Max 
 TRRT.°/30m              -0.75:  Turn Rotating 
 MRT .                  EWR-M5:  Maximum Recorded Temperature 
 TTMX.degC               95.00:  Max Tool Temp 
 VS01.                90516060:  Virtual Str1 SN 
 VS02.                90528488:  Virtual Str2 SN 
 VS03.                90577970:  Virtual Str3 SN 
 VS04.                12385033:  Virtual Str4 SN 
 VS05.                90522069:  Virtual Str5 SN 
 VS06.                13124134:  Virtual Str6 SN 
 WBMN.klb                20.00:  WOB Min 
 WITN.         Alistair Sprott:  Customer Rep 
 WITN.     Ronal van der Kraan:  Customer Rep 2 
 WOBA.klb                25.00:  WOB Avg 
 WOBX.klb                31.00:  WOB Max 
 YP  .lhf2               32.00:  Yield Point 
~Curve Information Block
#MNEM.UNIT                 API CODE     Curve Description
#---------               -----------    ---------------------------
 TIME.HHMMSS            00 000 000 000:  GT Time & Date
 GTDEPTH.m              00 000 000 000:  GT Depth
 GTPQH.psia             00 000 000 000:  GT HR Quartz Pressure
 GTTQ.degC              00 000 000 000:  GT Quartz Temperature
 GTTN.NONE              00 000 000 000:  GT Test Number
 GTET.sec               00 000 000 000:  GT Elapsed Test Time
 GTTVD.m                00 000 000 000:  GT True Vertical Depth
#Other Information
#
#WARRANTY: Halliburton will use its best efforts to furnish customers with 
#accurate information and interpretations that are part of, and incident to, the services 
#provided.  However, Halliburton cannot and does not warrant the accuracy 
#or correctness of such information and interpretations.  Under no circumstances should any 
#such information or interpretation be relied upon as the sole basis for any drilling, 
#completion, production, or financial decision or any procedure involving any risk to the 
#safety of any drilling venture, drilling rig or its crew or any other third party.  The 
#Customer has full responsibility for all drilling, completion and production operation.  
#Halliburton makes no representations or warranties, either expressed or 
#implied, including, but not limited to, the implied warranties of merchantability or fitness 
#for a particular purpose, with respect to the services rendered.  In no event will 
#Halliburton be liable for failure to obtain any particular results or for 
#any damages, including, but not limited to, indirect, special or consequential damages, 
#resulting from the use of any information or interpretation provided by Halliburton.
#
~A           TIME           GTDEPTH  GTPQH  GTTQ  GTTN  GTET   GTTVD  
   05:51:10.894.08-Aug-2020 5190.42 7166.82 83.28 3.00   0.00 3375.81
   05:51:11.094.08-Aug-2020 5190.42 7166.82 83.28 3.00   0.20 3375.81
   05:51:11.294.08-Aug-2020 5190.42 7164.16 83.28 3.00   0.40 3375.81
   05:51:11.494.08-Aug-2020 5190.42 7163.08 83.28 3.00   0.60 3375.81
   05:51:11.694.08-Aug-2020 5190.42 7163.03 83.28 3.00   0.80 3375.81
   05:51:11.894.08-Aug-2020 5190.42 7166.60 83.28 3.00   1.00 3375.81
   05:51:12.093.08-Aug-2020 5190.42 7166.60 83.28 3.00   1.20 3375.81
   05:51:12.293.08-Aug-2020 5190.42 7163.22 83.28 3.00   1.40 3375.81
   05:51:12.493.08-Aug-2020 5190.42 7163.17 83.28 3.00   1.60 3375.81
   05:51:12.693.08-Aug-2020 5190.42 7166.88 83.28 3.00   1.80 3375.81
   05:51:12.893.08-Aug-2020 5190.42 7159.54 83.28 3.00   2.00 3375.81
   05:51:13.093.08-Aug-2020 5190.42 7159.54 83.28 3.00   2.20 3375.81
   05:51:13.293.08-Aug-2020 5190.42 7158.94 83.28 3.00   2.40 3375.81
   05:51:13.493.08-Aug-2020 5190.42 7158.09 83.28 3.00   2.60 3375.81
   05:51:13.693.08-Aug-2020 5190.42 7161.34 83.28 3.00   2.80 3375.81
   05:51:13.893.08-Aug-2020 5190.42 7158.04 83.28 3.00   3.00 3375.81
   05:51:14.092.08-Aug-2020 5190.42 7158.04 83.28 3.00   3.20 3375.81
   05:51:14.292.08-Aug-2020 5190.42 7156.32 83.27 3.00   3.40 3375.81
   05:51:14.492.08-Aug-2020 5190.42 7160.09 83.27 3.00   3.60 3375.81
   05:51:14.692.08-Aug-2020 5190.42 7159.20 83.27 3.00   3.80 3375.81
   05:51:14.892.08-Aug-2020 5190.42 7158.99 83.27 3.00   4.00 3375.81
   05:51:15.092.08-Aug-2020 5190.42 7158.99 83.27 3.00   4.20 3375.81
   05:51:15.292.08-Aug-2020 5190.42 7163.92 83.27 3.00   4.40 3375.81
   05:51:15.492.08-Aug-2020 5190.42 7165.95 83.27 3.00   4.60 3375.81
   05:51:15.692.08-Aug-2020 5190.42 7165.92 83.27 3.00   4.80 3375.81
   05:51:15.892.08-Aug-2020 5190.42 7169.12 83.27 3.00   5.00 3375.81
   05:51:16.091.08-Aug-2020 5190.42 7169.12 83.27 3.00   5.20 3375.81
   05:51:16.291.08-Aug-2020 5190.42 7170.87 83.27 3.00   5.40 3375.81
   05:51:16.491.08-Aug-2020 5190.42 7172.09 83.27 3.00   5.60 3375.81
   05:51:16.691.08-Aug-2020 5190.42 7173.55 83.27 3.00   5.80 3375.81
   05:51:16.891.08-Aug-2020 5190.42 7172.91 83.27 3.00   6.00 3375.81
   05:51:17.091.08-Aug-2020 5190.42 7172.91 83.27 3.00   6.20 3375.81
   05:51:17.291.08-Aug-2020 5190.42 7172.80 83.27 3.00   6.40 3375.81
   05:51:17.491.08-Aug-2020 5190.42 7172.81 83.27 3.00   6.60 3375.81
   05:51:17.691.08-Aug-2020 5190.42 7172.78 83.27 3.00   6.80 3375.81
   05:51:17.891.08-Aug-2020 5190.42 7172.34 83.27 3.00   7.00 3375.81
   05:51:18.090.08-Aug-2020 5190.42 7172.34 83.27 3.00   7.20 3375.81
   05:51:18.290.08-Aug-2020 5190.42 7172.75 83.26 3.00   7.40 3375.81
   05:51:18.490.08-Aug-2020 5190.42 7175.22 83.26 3.00   7.60 3375.81
   05:51:18.690.08-Aug-2020 5190.42 7173.65 83.26 3.00   7.80 3375.81
   05:51:18.890.08-Aug-2020 5190.42 7174.60 83.26 3.00   8.00 3375.81
   05:51:19.090.08-Aug-2020 5190.42 7174.60 83.26 3.00   8.20 3375.81
   05:51:19.290.08-Aug-2020 5190.42 7173.09 83.26 3.00   8.40 3375.81
   05:51:19.490.08-Aug-2020 5190.42 7172.50 83.26 3.00   8.60 3375.81
   05:51:19.690.08-Aug-2020 5190.42 7171.48 83.26 3.00   8.80 3375.81
   05:51:19.890.08-Aug-2020 5190.42 7171.74 83.26 3.00   9.00 3375.81
   05:51:20.089.08-Aug-2020 5190.42 7171.74 83.26 3.00   9.20 3375.81
   05:51:20.289.08-Aug-2020 5190.42 7171.74 83.26 3.00   9.40 3375.81
   05:51:20.489.08-Aug-2020 5190.42 7171.09 83.26 3.00   9.60 3375.81
   05:51:20.689.08-Aug-2020 5190.42 7171.52 83.26 3.00   9.80 3375.81
   05:51:20.889.08-Aug-2020 5190.42 7171.94 83.26 3.00   9.99 3375.81
   05:51:21.089.08-Aug-2020 5190.42 7171.96 83.26 3.00  10.19 3375.81
   05:51:21.289.08-Aug-2020 5190.42 7171.73 83.26 3.00  10.39 3375.81
   05:51:21.489.08-Aug-2020 5190.42 7171.65 83.26 3.00  10.59 3375.81
   05:51:21.689.08-Aug-2020 5190.42 7171.77 83.26 3.00  10.79 3375.81
   05:51:21.888.08-Aug-2020 5190.42 7175.33 83.26 3.00  10.99 3375.81
   05:51:22.088.08-Aug-2020 5190.42 7175.33 83.26 3.00  11.19 3375.81
   05:51:22.288.08-Aug-2020 5190.42 7170.77 83.25 3.00  11.39 3375.81
   05:51:22.488.08-Aug-2020 5190.42 7170.33 83.25 3.00  11.59 3375.81
   05:51:22.688.08-Aug-2020 5190.42 7170.96 83.25 3.00  11.79 3375.81
   05:51:22.888.08-Aug-2020 5190.42 7172.82 83.25 3.00  11.99 3375.81
   05:51:23.088.08-Aug-2020 5190.42 7172.82 83.25 3.00  12.19 3375.81
   05:51:23.288.08-Aug-2020 5190.42 7171.35 83.25 3.00  12.39 3375.81
   05:51:23.488.08-Aug-2020 5190.42 7169.53 83.25 3.00  12.59 3375.81
   05:51:23.688.08-Aug-2020 5190.42 7169.43 83.25 3.00  12.79 3375.81
   05:51:23.887.08-Aug-2020 5190.42 7169.54 83.25 3.00  12.99 3375.81
   05:51:24.087.08-Aug-2020 5190.42 7169.54 83.25 3.00  13.19 3375.81
   05:51:24.287.08-Aug-2020 5190.42 7172.60 83.25 3.00  13.39 3375.81
   05:51:24.487.08-Aug-2020 5190.42 7170.65 83.25 3.00  13.59 3375.81
   05:51:24.687.08-Aug-2020 5190.42 7170.16 83.25 3.00  13.79 3375.81
   05:51:24.887.08-Aug-2020 5190.42 7171.57 83.25 3.00  13.99 3375.81
   05:51:25.087.08-Aug-2020 5190.42 7171.57 83.25 3.00  14.19 3375.81
   05:51:25.287.08-Aug-2020 5190.42 7174.55 83.25 3.00  14.39 3375.81
   05:51:25.487.08-Aug-2020 5190.42 7172.92 83.25 3.00  14.59 3375.81
   05:51:25.687.08-Aug-2020 5190.42 7176.53 83.25 3.00  14.79 3375.81
   05:51:25.886.08-Aug-2020 5190.42 7175.47 83.24 3.00  14.99 3375.81
   05:51:26.086.08-Aug-2020 5190.42 7172.51 83.24 3.00  15.19 3375.81
   05:51:26.286.08-Aug-2020 5190.42 7173.08 83.24 3.00  15.39 3375.81
   05:51:26.486.08-Aug-2020 5190.42 7173.87 83.24 3.00  15.59 3375.81
   05:51:26.686.08-Aug-2020 5190.42 7172.69 83.24 3.00  15.79 3375.81
   05:51:26.886.08-Aug-2020 5190.42 7174.67 83.24 3.00  15.99 3375.81
   05:51:27.086.08-Aug-2020 5190.42 7173.10 83.24 3.00  16.19 3375.81
   05:51:27.286.08-Aug-2020 5190.42 7174.19 83.24 3.00  16.39 3375.81
   05:51:27.486.08-Aug-2020 5190.42 7171.35 83.24 3.00  16.59 3375.81
   05:51:27.686.08-Aug-2020 5190.42 7171.32 83.24 3.00  16.79 3375.81
   05:51:27.885.08-Aug-2020 5190.42 7171.69 83.24 3.00  16.99 3375.81
   05:51:28.085.08-Aug-2020 5190.42 7170.34 83.24 3.00  17.19 3375.81
   05:51:28.285.08-Aug-2020 5190.42 7169.66 83.24 3.00  17.39 3375.81
   05:51:28.485.08-Aug-2020 5190.42 7169.19 83.24 3.00  17.59 3375.81
   05:51:28.685.08-Aug-2020 5190.42 7168.30 83.24 3.00  17.79 3375.81
   05:51:28.885.08-Aug-2020 5190.42 7168.38 83.24 3.00  17.99 3375.81
   05:51:29.085.08-Aug-2020 5190.42 7168.38 83.24 3.00  18.19 3375.81
   05:51:29.285.08-Aug-2020 5190.42 7168.38 83.24 3.00  18.39 3375.81
   05:51:29.485.08-Aug-2020 5190.42 7168.22 83.24 3.00  18.59 3375.81
   05:51:29.685.08-Aug-2020 5190.42 7167.28 83.23 3.00  18.79 3375.81
   05:51:29.884.08-Aug-2020 5190.42 7166.82 83.23 3.00  18.99 3375.81
   05:51:30.084.08-Aug-2020 5190.42 7166.82 83.23 3.00  19.19 3375.81
   05:51:30.284.08-Aug-2020 5190.42 7166.14 83.23 3.00  19.39 3375.81
   05:51:30.484.08-Aug-2020 5190.42 7169.60 83.23 3.00  19.59 3375.81
   05:51:30.684.08-Aug-2020 5190.42 7167.67 83.23 3.00  19.79 3375.81
   05:51:30.884.08-Aug-2020 5190.42 7165.49 83.23 3.00  19.99 3375.81
   05:51:31.084.08-Aug-2020 5190.42 7165.49 83.23 3.00  20.19 3375.81
   05:51:31.284.08-Aug-2020 5190.42 7166.34 83.23 3.00  20.39 3375.81
   05:51:31.484.08-Aug-2020 5190.42 7166.00 83.23 3.00  20.59 3375.81
   05:51:31.683.08-Aug-2020 5190.42 7165.98 83.23 3.00  20.79 3375.81
   05:51:31.883.08-Aug-2020 5190.42 7166.21 83.23 3.00  20.99 3375.81
   05:51:32.083.08-Aug-2020 5190.42 7166.21 83.23 3.00  21.19 3375.81
   05:51:32.283.08-Aug-2020 5190.42 7165.76 83.23 3.00  21.39 3375.81
   05:51:32.483.08-Aug-2020 5190.42 7165.76 83.23 3.00  21.59 3375.81
   05:51:32.683.08-Aug-2020 5190.42 7166.51 83.23 3.00  21.79 3375.81
   05:51:32.883.08-Aug-2020 5190.42 7166.42 83.23 3.00  21.99 3375.81
   05:51:33.083.08-Aug-2020 5190.42 7166.42 83.23 3.00  22.19 3375.81
   05:51:33.283.08-Aug-2020 5190.42 7165.53 83.23 3.00  22.39 3375.81
   05:51:33.483.08-Aug-2020 5190.42 7165.02 83.23 3.00  22.59 3375.81
   05:51:33.682.08-Aug-2020 5190.42 7167.45 83.22 3.00  22.79 3375.81
