~Version Information
 VERS.                  2.0:   CWLS log ASCII Standard -VERSION 2.0
 WRAP.                   NO:   One line per depth step
~Well Information Block
#MNEM.UNIT     VALUE/NAME     DESCRIPTION
#---------     -----------    ---------------------------
 STRT.S             06:39:47 08-Aug-20: START TIME 06:39:47 08-Aug-20
 STOP.S             06:48:06 08-Aug-20: STOP TIME  06:48:06 08-Aug-20
 STEP.S                   0.00: STEP TIME
 NULL.                 -999.25: NULL VALUE
 DFWT.                        :  DIST FWL TEXT
 DFST.                        :  DIST FSL TEXT
 DMF .             Drill Floor:  DRILL MEAS FROM
 STIM.      13.47.44 07-Jun-20:  START TIME
 DATE.      13.47.44 27-Jul-20:  END TIME
 SPUD.               07-Jun-20:  SPUD DATE
 NREF.                    Grid:  NORTH REFERENCE
 HPTY.       Minimum Curvature:  HOLE POS TYPE
 DMOD.             Drill Model:  DRILL MOD DESC
 SVYD.                  Survey:  SURVEY DESC
 ILTD.               Lithology:  INTERP LTH DESC
 FTOP.          Formation Tops:  FORM TOPS DESC
 RIG .             West Chirag:  RIG NAME
 PDAT.          Mean Sea Level:  PERMANENT DATUM
 FLD .                     ACG:  FIELD NAME
 SON .        AZ-XX-0906363612:  JOB NUMBER
 CTRY.              Azerbaijan:  COUNTRY NAME
 WELL.           J25 (Slot 35):  WELL NAME
 SRVC.          Turan Drilling:  CONTRACTOR
 COMP.     BP Exploration (Caspian Sea) Ltd:  COMPANY
 UWI .                     N/A:  UNIQUE WELL IDENTIFIER
 API .                     N/A:  API NUMBER
 BASE.              Azerbaijan:  LOGGING EQUIPMENT BASE LOCATION
 REGN.                   EESSA:  REGION
 PROV.                    Baku:  PROVINCE
 STAT.                    Baku:  STATE NAME
 MWDS.                     N/A:  MWD SHOP
 DOE .                     N/A:  DOE NUMBER
 DCON.         Sperry Drilling:  DIRECTNL CONTR
 UNIT.                     N/A:  LOGGING EQUIPMENT ID
 MDS .        Operator Entered:  MAG DATA SOURCE
 JOBN.        AZ-XX-0906363612:  JOB TICKET NUMB
 WTYP.                Deviated:  WELL TYPE
 CNTY.                        :  COUNTY
 LOC .                        :  LOCATION
 LMF .             Drill Floor:  LOG MEASURED FROM
 TVDS.m                  43.00:  TVDSS CORRECTN
 LATI.deg                40.13:  LATITUDE
 LONG.deg                51.22:  LONGITUDE
 WHNS.m                  -7.90:  WELL HEAD N/S
 WHEW.m                  -3.35:  WELL HEAD E/W
 UTMX.m              519005.06:  UTM X
 UTMY.m             4443793.85:  UTM Y
 DFWL.m                   0.00:  DISTANCE FWL
 DFSL.m                   0.00:  DISTANCE FSL
 SDEP.m                   0.00:  START DEPTH
 TDD .m                   0.00:  TOTAL DEPTH (DRILLER)
 VSDR.deg               308.97:  VERT SEC DIRECT
 GVFD.g                   1.00:  GRAVITY FIELD
 MFLD.nT              50350.00:  MAGNETIC FIELD
 MDIP.deg                59.62:  MAGNETIC DIP
 MDEC.deg                 6.44:  MAGNETIC DECL
 GRDC.deg                 0.13:  GRID CORRECTION
 AZTC.deg                 6.32:  AZM TOTAL CORR
 EPD .m                   0.00:  ELEVATION
 EGL .m                   0.00:  GROUND ELEVATION
 WDMS.m                 169.80:  WD ELEV
 APD .m                  43.00:  DEPTH ABOVE PD
 DEP .m                 356.43:  DEPTH
 AGAP.m                  43.00:  AIR GAP
 VSEW.m                  -3.35:  VERT SEC E/W
 VSNS.m                  -7.90:  VERT SEC N/S
 EKB .m                  43.00:  KB ELEVATION
 EDF .m                  43.00:  DF ELEVATION
 TDL .m                 934.00:  TOTAL DEPTH (LOGGER)
 VSC .                       0:  VS TO CLOSURE
 MAGU.                 1852825:  MAGUTM CHECKSUM
~Parameter Information Block
#MNEM.UNIT       Value        Description
#---------     -----------    ---------------------------
 AV  .mps                 0.80:  Ann Velocity 
 AVMX.mps                 1.70:  Max Ann Veloc 
 AZIF.deg               311.41:  Azm, Final 
 BHAT.        Rotary Steerable:  BHA Type 
 BROT.°/30m               0.09:  Build Rotating 
 BS  .in                 12.25:  Bit Size 
 BSZ .in                 12.25:  Bit Size 
 BTPL.psig              800.00:  Bit Press Loss 
 CABU.                      No:  Customer Abuse 
 COMM.                     ´
n:  Run Comments 1 
 TCS .hr                 96.00:  Time Ciculation Ended 
 CV  .mps                 2.03:  Crit Velocity 
 CVMX.mps                 2.42:  Max Crit Veloc 
 DD1 .          Taghi Taghiyev:  Direct Drillr 1 
 DD2 .      Tariel Pirmammadov:  Direct Drillr 2 
 DD3 .          Teymur Aghayev:  Direct Drillr 3 
 DDSV.                 iCruise:  DD Service 
 DEFF.%                  98.70:  % Det Eff 
 DLRX.°/30m               1.00:  Dogleg Rot Max 
 DLSO.°/30m               1.80:  Dogleg Oriented 
 DLSX.°/30m               3.16:  Dogleg Str Max 
 DRET.      15.00.00 07-Aug-20:  Drill End Time 
 DRST.      17.00.00 02-Aug-20:  Drill Start Tim 
 DTIM.hr                 45.90:  Time Drilling 
 EDEP.m                5298.01:  End Depth 
 ENG1.       Seymur Iskandarov:  Engineer 1 
 ENG2.         Yevgeniy Ulikov:  Engineer 2 
 ENG3.      Artemiy Matviyanov:  Engineer 3 
 ENG4.         Bahruz Mehdiyev:  Engineer 4 
 ETIM.      05.00.00 10-Aug-20:  End Time 
 FLOI.gpm              1150.00:  Flow In 
 FLON.gpm               900.00:  Flow In Min 
 FLOS.cptm                0.00:  Fluid Loss 
 FLOX.gpm              1200.00:  Flow In Max 
 FTRO.     Connectivity, Formation Presure:  FTWD Run Obj 
 HFLO.                      No:  High Flow 
 HPRE.                     Yes:  High Pressure 
 HTEM.                      No:  High Temp 
 HYDO.m                   1.80:  Hydro Offset 
 IFIN.deg                 9.71:  Inc, Final 
 IMAX.deg                63.81:  Inc Max 
 IMIN.deg                 9.53:  Inc Min 
 IMND.m                5075.52:  Inc Min Depth 
 IMXD.m                4367.08:  Inc Max Depth 
 JARR.                      No:  Jarring 
 LETM.      15.00.00 07-Aug-20:  Log End Time 
 LOST.hr                     2:  Lost Rig Time 
 LSTM.      17.00.00 02-Aug-20:  Log Start Time 
 MDCL.ppm             42500.00:  Mud Chlorides 
 MDES.     Inversion Oil/Synthetic:  Mud Desc 
 DFD .sg                  1.46:  Mud Density 
 MDMN.sg                  1.46:  Dens Mud Min 
 MDMX.sg                  1.46:  Dens Mud Max 
 MOIL.                      56:  Run Mud Oil % 
 MOWR.                   70:30:  Run Mud OWR 
 MSND.                     0.1:  Run Mud Sand % 
 MSOL.                      19:  Run Mud Solids% 
 DFV .spqt               83.00:  Mud Viscosity 
 MWOD.in                  8.00:  MWD Tool OD 
 MWSI.                     Yes:  Serv Intrp, MWD 
 OTIM.hr                196.57:  Time Operating 
 PCON.           Look Like New:  Pad Condition 
 PMAX.psia             7400.00:  Press Op, Max 
 PV  .cP                 36.00:  Mud PV 
 RUN .                    1000:  Run Number 
 ROPA.m/hr               25.00:  ROP Avg 
 ROPN.m/hr               10.00:  ROP Min 
 ROPX.m/hr               32.00:  ROP Max 
 RPMA.rpm               120.00:  RPM Surface Avg 
 RPMN.rpm               100.00:  RPM Surface Min 
 RPMX.rpm               140.00:  RPM Surface Max 
 RRUN.                    L504:  Rig Run Number 
 SAZI.deg               308.25:  Azm, Start 
 SDEP.m                4364.01:  Start Depth 
 SIDD.                      No:  Serv Intrp, DD 
 SINC.deg                63.81:  Inc, Start 
 SPPA.psig             5800.00:  SPP Avg 
 SPPN.psig             4200.00:  SPP Min 
 SPPX.psig             5950.00:  SPP Max 
 STIM.      18.00.00 01-Aug-20:  Start Time 
 SVCS.                 DD, MWD:  Services 
 SVER.                    9.20:  Sperry Version 
 TDAT.m                 934.00:  Tot Depth Attmp 
 TDDF.                      No:  Trip for DD 
 TDLG.m                 934.00:  Tot Depth Loggd 
 TFF .                      No:  Trip for Fail 
 TQAA.f-kp               31.00:  Torque Abs Avg 
 TQAN.f-kp               25.00:  Torque Abs Min 
 TQAX.f-kp               35.00:  Torque Abs Max 
 TRRT.°/30m              -0.75:  Turn Rotating 
 MRT .                  EWR-M5:  Maximum Recorded Temperature 
 TTMX.degC               95.00:  Max Tool Temp 
 VS01.                90516060:  Virtual Str1 SN 
 VS02.                90528488:  Virtual Str2 SN 
 VS03.                90577970:  Virtual Str3 SN 
 VS04.                12385033:  Virtual Str4 SN 
 VS05.                90522069:  Virtual Str5 SN 
 VS06.                13124134:  Virtual Str6 SN 
 WBMN.klb                20.00:  WOB Min 
 WITN.         Alistair Sprott:  Customer Rep 
 WITN.     Ronal van der Kraan:  Customer Rep 2 
 WOBA.klb                25.00:  WOB Avg 
 WOBX.klb                31.00:  WOB Max 
 YP  .lhf2               32.00:  Yield Point 
~Curve Information Block
#MNEM.UNIT                 API CODE     Curve Description
#---------               -----------    ---------------------------
 TIME.HHMMSS            00 000 000 000:  GT Time & Date
 GTDEPTH.m              00 000 000 000:  GT Depth
 GTPQH.psia             00 000 000 000:  GT HR Quartz Pressure
 GTTQ.degC              00 000 000 000:  GT Quartz Temperature
 GTTN.NONE              00 000 000 000:  GT Test Number
 GTET.sec               00 000 000 000:  GT Elapsed Test Time
 GTTVD.m                00 000 000 000:  GT True Vertical Depth
#Other Information
#
#WARRANTY: Halliburton will use its best efforts to furnish customers with 
#accurate information and interpretations that are part of, and incident to, the services 
#provided.  However, Halliburton cannot and does not warrant the accuracy 
#or correctness of such information and interpretations.  Under no circumstances should any 
#such information or interpretation be relied upon as the sole basis for any drilling, 
#completion, production, or financial decision or any procedure involving any risk to the 
#safety of any drilling venture, drilling rig or its crew or any other third party.  The 
#Customer has full responsibility for all drilling, completion and production operation.  
#Halliburton makes no representations or warranties, either expressed or 
#implied, including, but not limited to, the implied warranties of merchantability or fitness 
#for a particular purpose, with respect to the services rendered.  In no event will 
#Halliburton be liable for failure to obtain any particular results or for 
#any damages, including, but not limited to, indirect, special or consequential damages, 
#resulting from the use of any information or interpretation provided by Halliburton.
#
~A           TIME           GTDEPTH  GTPQH  GTTQ  GTTN  GTET   GTTVD  
# ...
   06:45:32.000.08-Aug-2020 5176.51 1317.16 80.25 4.00 345.00 3362.10
   06:45:32.200.08-Aug-2020 5176.51 1317.16 80.25 4.00 345.20 3362.10
   06:45:32.400.08-Aug-2020 5176.51 1318.21 80.25 4.00 345.40 3362.10
   06:45:32.600.08-Aug-2020 5176.51 1318.69 80.25 4.00 345.60 3362.10
   06:45:32.800.08-Aug-2020 5176.51 1319.15 80.25 4.00 345.80 3362.10
   06:45:33.000.08-Aug-2020 5176.51 1318.54 80.25 4.00 346.00 3362.10
   06:45:33.200.08-Aug-2020 5176.51 1319.28 80.25 4.00 346.20 3362.10
   06:45:33.400.08-Aug-2020 5176.51 1321.89 80.24 4.00 346.40 3362.10
   06:45:33.600.08-Aug-2020 5176.51 1325.57 80.24 4.00 346.60 3362.10
   06:45:33.800.08-Aug-2020 5176.51 1326.07 80.24 4.00 346.80 3362.10
   06:45:34.000.08-Aug-2020 5176.51 1326.49 80.24 4.00 347.00 3362.10
   06:45:34.200.08-Aug-2020 5176.51 1326.49 80.24 4.00 347.20 3362.10
   06:45:34.400.08-Aug-2020 5176.51 1327.42 80.24 4.00 347.40 3362.10
   06:45:34.600.08-Aug-2020 5176.51 1327.82 80.24 4.00 347.60 3362.10
   06:45:34.800.08-Aug-2020 5176.51 1328.30 80.24 4.00 347.80 3362.10
   06:45:35.000.08-Aug-2020 5176.51 1328.74 80.24 4.00 348.00 3362.10
   06:45:35.200.08-Aug-2020 5176.51 1328.74 80.24 4.00 348.20 3362.10
   06:45:35.400.08-Aug-2020 5176.51 1329.69 80.24 4.00 348.40 3362.10
   06:45:35.600.08-Aug-2020 5176.51 1330.08 80.24 4.00 348.60 3362.10
   06:45:35.800.08-Aug-2020 5176.51 1330.47 80.24 4.00 348.80 3362.10
   06:45:36.000.08-Aug-2020 5176.51 1330.88 80.24 4.00 349.00 3362.10
   06:45:36.200.08-Aug-2020 5176.51 1330.88 80.24 4.00 349.20 3362.10
   06:45:36.400.08-Aug-2020 5176.51 1331.24 80.24 4.00 349.40 3362.10
   06:45:36.600.08-Aug-2020 5176.51 1333.40 80.24 4.00 349.60 3362.10
   06:45:36.800.08-Aug-2020 5176.51 1333.76 80.24 4.00 349.80 3362.10
   06:45:37.000.08-Aug-2020 5176.51 1334.18 80.24 4.00 350.00 3362.10
   06:45:37.200.08-Aug-2020 5176.51 1334.18 80.24 4.00 350.20 3362.10
   06:45:37.400.08-Aug-2020 5176.51 1334.92 80.24 4.00 350.40 3362.10
   06:45:37.600.08-Aug-2020 5176.51 1335.24 80.24 4.00 350.60 3362.10
   06:45:37.800.08-Aug-2020 5176.51 1335.63 80.24 4.00 350.80 3362.10
   06:45:38.000.08-Aug-2020 5176.51 1335.83 80.24 4.00 351.00 3362.10
   06:45:38.200.08-Aug-2020 5176.51 1335.83 80.24 4.00 351.20 3362.10
   06:45:38.400.08-Aug-2020 5176.51 1336.51 80.24 4.00 351.40 3362.10
   06:45:38.600.08-Aug-2020 5176.51 1336.89 80.24 4.00 351.60 3362.10
   06:45:38.800.08-Aug-2020 5176.51 1337.24 80.24 4.00 351.80 3362.10
   06:45:39.000.08-Aug-2020 5176.51 1337.57 80.24 4.00 352.00 3362.10
   06:45:39.200.08-Aug-2020 5176.51 1337.57 80.24 4.00 352.20 3362.10
   06:45:39.400.08-Aug-2020 5176.51 1338.12 80.24 4.00 352.40 3362.10
   06:45:39.600.08-Aug-2020 5176.51 1338.72 80.24 4.00 352.60 3362.10
   06:45:39.800.08-Aug-2020 5176.51 1339.27 80.24 4.00 352.80 3362.10
   06:45:40.000.08-Aug-2020 5176.51 1339.48 80.23 4.00 353.00 3362.10
   06:45:40.200.08-Aug-2020 5176.51 1339.48 80.23 4.00 353.20 3362.10
   06:45:40.400.08-Aug-2020 5176.51 1341.62 80.23 4.00 353.40 3362.10
   06:45:40.600.08-Aug-2020 5176.51 1341.95 80.23 4.00 353.60 3362.10
   06:45:40.800.08-Aug-2020 5176.51 1342.38 80.23 4.00 353.80 3362.10
   06:45:41.000.08-Aug-2020 5176.51 1343.32 80.23 4.00 354.00 3362.10
   06:45:41.200.08-Aug-2020 5176.51 1343.32 80.23 4.00 354.20 3362.10
   06:45:41.400.08-Aug-2020 5176.51 1344.33 80.23 4.00 354.40 3362.10
   06:45:41.600.08-Aug-2020 5176.51 1344.90 80.23 4.00 354.60 3362.10
   06:45:41.800.08-Aug-2020 5176.51 1345.87 80.23 4.00 354.80 3362.10
   06:45:42.000.08-Aug-2020 5176.51 1346.44 80.23 4.00 355.00 3362.10
   06:45:42.200.08-Aug-2020 5176.51 1346.44 80.23 4.00 355.20 3362.10
   06:45:42.400.08-Aug-2020 5176.51 1347.25 80.23 4.00 355.40 3362.10
   06:45:42.600.08-Aug-2020 5176.51 1348.31 80.23 4.00 355.60 3362.10
   06:45:42.800.08-Aug-2020 5176.51 1348.64 80.23 4.00 355.80 3362.10
   06:45:43.000.08-Aug-2020 5176.51 1349.17 80.23 4.00 356.00 3362.10
   06:45:43.200.08-Aug-2020 5176.51 1349.17 80.23 4.00 356.20 3362.10
   06:45:43.400.08-Aug-2020 5176.51 1350.34 80.23 4.00 356.40 3362.10
   06:45:43.600.08-Aug-2020 5176.51 1350.72 80.23 4.00 356.60 3362.10
   06:45:43.800.08-Aug-2020 5176.51 1351.20 80.23 4.00 356.80 3362.10
   06:45:44.000.08-Aug-2020 5176.51 1351.59 80.23 4.00 357.00 3362.10
   06:45:44.200.08-Aug-2020 5176.51 1351.59 80.23 4.00 357.20 3362.10
   06:45:44.400.08-Aug-2020 5176.51 1352.29 80.23 4.00 357.40 3362.10
   06:45:44.600.08-Aug-2020 5176.51 1352.70 80.23 4.00 357.60 3362.10
   06:45:44.800.08-Aug-2020 5176.51 1353.06 80.23 4.00 357.80 3362.10
   06:45:45.000.08-Aug-2020 5176.51 1353.41 80.23 4.00 358.00 3362.10
   06:45:45.200.08-Aug-2020 5176.51 1353.41 80.23 4.00 358.20 3362.10
   06:45:45.400.08-Aug-2020 5176.51 1354.15 80.23 4.00 358.40 3362.10
   06:45:45.600.08-Aug-2020 5176.51 1354.52 80.23 4.00 358.60 3362.10
   06:45:45.800.08-Aug-2020 5176.51 1354.98 80.23 4.00 358.80 3362.10
   06:45:46.000.08-Aug-2020 5176.51 1356.18 80.23 4.00 359.00 3362.10
   06:45:46.200.08-Aug-2020 5176.51 1356.18 80.23 4.00 359.20 3362.10
   06:45:46.400.08-Aug-2020 5176.51 1356.96 80.23 4.00 359.40 3362.10
   06:45:46.600.08-Aug-2020 5176.51 1357.33 80.23 4.00 359.60 3362.10
   06:45:46.800.08-Aug-2020 5176.51 1357.72 80.23 4.00 359.80 3362.10
   06:45:47.000.08-Aug-2020 5176.51 1358.06 80.23 4.00 360.00 3362.10
   06:45:47.200.08-Aug-2020 5176.51 1358.06 80.23 4.00 360.20 3362.10
   06:45:47.400.08-Aug-2020 5176.51 1358.78 80.23 4.00 360.40 3362.10
   06:45:47.600.08-Aug-2020 5176.51 1359.10 80.23 4.00 360.60 3362.10
   06:45:47.800.08-Aug-2020 5176.51 1359.44 80.23 4.00 360.80 3362.10
   06:45:48.000.08-Aug-2020 5176.51 1359.78 80.23 4.00 361.00 3362.10
   06:45:48.200.08-Aug-2020 5176.51 1360.12 80.23 4.00 361.20 3362.10
   06:45:48.400.08-Aug-2020 5176.51 1360.47 80.23 4.00 361.40 3362.10
   06:45:48.600.08-Aug-2020 5176.51 1360.82 80.23 4.00 361.60 3362.10
   06:45:48.800.08-Aug-2020 5176.51 1361.13 80.23 4.00 361.80 3362.10
   06:45:49.000.08-Aug-2020 5176.51 1361.62 80.23 4.00 362.00 3362.10
   06:45:49.200.08-Aug-2020 5176.51 1361.62 80.23 4.00 362.20 3362.10
   06:45:49.400.08-Aug-2020 5176.51 1362.79 80.23 4.00 362.40 3362.10
   06:45:49.600.08-Aug-2020 5176.51 1363.52 80.23 4.00 362.60 3362.10
   06:45:49.800.08-Aug-2020 5176.51 1364.67 80.23 4.00 362.80 3362.10
   06:45:50.000.08-Aug-2020 5176.51 1365.11 80.23 4.00 363.00 3362.10
   06:45:50.200.08-Aug-2020 5176.51 1365.11 80.23 4.00 363.20 3362.10
   06:45:50.400.08-Aug-2020 5176.51 1366.21 80.22 4.00 363.40 3362.10
   06:45:50.600.08-Aug-2020 5176.51 1367.26 80.22 4.00 363.60 3362.10
   06:45:50.800.08-Aug-2020 5176.51 1367.71 80.22 4.00 363.80 3362.10
   06:45:51.000.08-Aug-2020 5176.51 1368.14 80.22 4.00 364.00 3362.10
   06:45:51.200.08-Aug-2020 5176.51 1368.14 80.22 4.00 364.20 3362.10
   06:45:51.400.08-Aug-2020 5176.51 1369.34 80.22 4.00 364.40 3362.10
   06:45:51.600.08-Aug-2020 5176.51 1369.93 80.22 4.00 364.60 3362.10
   06:45:51.800.08-Aug-2020 5176.51 1370.26 80.22 4.00 364.80 3362.10
   06:45:52.000.08-Aug-2020 5176.51 1370.75 80.22 4.00 365.00 3362.10
   06:45:52.200.08-Aug-2020 5176.51 1370.75 80.22 4.00 365.20 3362.10
   06:45:52.400.08-Aug-2020 5176.51 1371.72 80.22 4.00 365.40 3362.10
   06:45:52.600.08-Aug-2020 5176.51 1372.35 80.22 4.00 365.60 3362.10
   06:45:52.800.08-Aug-2020 5176.51 1372.64 80.22 4.00 365.80 3362.10
   06:45:53.000.08-Aug-2020 5176.51 1373.00 80.22 4.00 366.00 3362.10
   06:45:53.200.08-Aug-2020 5176.51 1373.00 80.22 4.00 366.20 3362.10
   06:45:53.400.08-Aug-2020 5176.51 1373.69 80.22 4.00 366.40 3362.10
   06:45:53.600.08-Aug-2020 5176.51 1374.02 80.22 4.00 366.60 3362.10
   06:45:53.800.08-Aug-2020 5176.51 1374.33 80.22 4.00 366.80 3362.10
   06:45:54.000.08-Aug-2020 5176.51 1374.60 80.22 4.00 367.00 3362.10
   06:45:54.200.08-Aug-2020 5176.51 1374.60 80.22 4.00 367.20 3362.10
   06:45:54.400.08-Aug-2020 5176.51 1375.32 80.22 4.00 367.40 3362.10
   06:45:54.600.08-Aug-2020 5176.51 1375.64 80.22 4.00 367.60 3362.10
   06:45:54.800.08-Aug-2020 5176.51 1375.97 80.22 4.00 367.80 3362.10
