~Version Information
 VERS.                  2.0:   CWLS log ASCII Standard -VERSION 2.0
 WRAP.                   NO:   One line per depth step
~Well Information Block
#MNEM.UNIT     VALUE/NAME     DESCRIPTION
#---------     -----------    ---------------------------
 STRT.S             07:09:07 08-Aug-20: START TIME 07:09:07 08-Aug-20
 STOP.S             07:17:38 08-Aug-20: STOP TIME  07:17:38 08-Aug-20
 STEP.S                   0.00: STEP TIME
 NULL.                 -999.25: NULL VALUE
 DFWT.                        :  DIST FWL TEXT
 DFST.                        :  DIST FSL TEXT
 DMF .             Drill Floor:  DRILL MEAS FROM
 STIM.      13.47.44 07-Jun-20:  START TIME
 DATE.      13.47.44 27-Jul-20:  END TIME
 SPUD.               07-Jun-20:  SPUD DATE
 NREF.                    Grid:  NORTH REFERENCE
 HPTY.       Minimum Curvature:  HOLE POS TYPE
 DMOD.             Drill Model:  DRILL MOD DESC
 SVYD.                  Survey:  SURVEY DESC
 ILTD.               Lithology:  INTERP LTH DESC
 FTOP.          Formation Tops:  FORM TOPS DESC
 RIG .             West Chirag:  RIG NAME
 PDAT.          Mean Sea Level:  PERMANENT DATUM
 FLD .                     ACG:  FIELD NAME
 SON .        AZ-XX-0906363612:  JOB NUMBER
 CTRY.              Azerbaijan:  COUNTRY NAME
 WELL.           J25 (Slot 35):  WELL NAME
 SRVC.          Turan Drilling:  CONTRACTOR
 COMP.     BP Exploration (Caspian Sea) Ltd:  COMPANY
 UWI .                     N/A:  UNIQUE WELL IDENTIFIER
 API .                     N/A:  API NUMBER
 BASE.              Azerbaijan:  LOGGING EQUIPMENT BASE LOCATION
 REGN.                   EESSA:  REGION
 PROV.                    Baku:  PROVINCE
 STAT.                    Baku:  STATE NAME
 MWDS.                     N/A:  MWD SHOP
 DOE .                     N/A:  DOE NUMBER
 DCON.         Sperry Drilling:  DIRECTNL CONTR
 UNIT.                     N/A:  LOGGING EQUIPMENT ID
 MDS .        Operator Entered:  MAG DATA SOURCE
 JOBN.        AZ-XX-0906363612:  JOB TICKET NUMB
 WTYP.                Deviated:  WELL TYPE
 CNTY.                        :  COUNTY
 LOC .                        :  LOCATION
 LMF .             Drill Floor:  LOG MEASURED FROM
 TVDS.m                  43.00:  TVDSS CORRECTN
 LATI.deg                40.13:  LATITUDE
 LONG.deg                51.22:  LONGITUDE
 WHNS.m                  -7.90:  WELL HEAD N/S
 WHEW.m                  -3.35:  WELL HEAD E/W
 UTMX.m              519005.06:  UTM X
 UTMY.m             4443793.85:  UTM Y
 DFWL.m                   0.00:  DISTANCE FWL
 DFSL.m                   0.00:  DISTANCE FSL
 SDEP.m                   0.00:  START DEPTH
 TDD .m                   0.00:  TOTAL DEPTH (DRILLER)
 VSDR.deg               308.97:  VERT SEC DIRECT
 GVFD.g                   1.00:  GRAVITY FIELD
 MFLD.nT              50350.00:  MAGNETIC FIELD
 MDIP.deg                59.62:  MAGNETIC DIP
 MDEC.deg                 6.44:  MAGNETIC DECL
 GRDC.deg                 0.13:  GRID CORRECTION
 AZTC.deg                 6.32:  AZM TOTAL CORR
 EPD .m                   0.00:  ELEVATION
 EGL .m                   0.00:  GROUND ELEVATION
 WDMS.m                 169.80:  WD ELEV
 APD .m                  43.00:  DEPTH ABOVE PD
 DEP .m                 356.43:  DEPTH
 AGAP.m                  43.00:  AIR GAP
 VSEW.m                  -3.35:  VERT SEC E/W
 VSNS.m                  -7.90:  VERT SEC N/S
 EKB .m                  43.00:  KB ELEVATION
 EDF .m                  43.00:  DF ELEVATION
 TDL .m                 934.00:  TOTAL DEPTH (LOGGER)
 VSC .                       0:  VS TO CLOSURE
 MAGU.                 1852825:  MAGUTM CHECKSUM
~Parameter Information Block
#MNEM.UNIT       Value        Description
#---------     -----------    ---------------------------
 AV  .mps                 0.80:  Ann Velocity 
 AVMX.mps                 1.70:  Max Ann Veloc 
 AZIF.deg               311.41:  Azm, Final 
 BHAT.        Rotary Steerable:  BHA Type 
 BROT.°/30m               0.09:  Build Rotating 
 BS  .in                 12.25:  Bit Size 
 BSZ .in                 12.25:  Bit Size 
 BTPL.psig              800.00:  Bit Press Loss 
 CABU.                      No:  Customer Abuse 
 COMM.                     „Òs:  Run Comments 1 
 TCS .hr                 96.00:  Time Ciculation Ended 
 CV  .mps                 2.03:  Crit Velocity 
 CVMX.mps                 2.42:  Max Crit Veloc 
 DD1 .          Taghi Taghiyev:  Direct Drillr 1 
 DD2 .      Tariel Pirmammadov:  Direct Drillr 2 
 DD3 .          Teymur Aghayev:  Direct Drillr 3 
 DDSV.                 iCruise:  DD Service 
 DEFF.%                  98.70:  % Det Eff 
 DLRX.°/30m               1.00:  Dogleg Rot Max 
 DLSO.°/30m               1.80:  Dogleg Oriented 
 DLSX.°/30m               3.16:  Dogleg Str Max 
 DRET.      15.00.00 07-Aug-20:  Drill End Time 
 DRST.      17.00.00 02-Aug-20:  Drill Start Tim 
 DTIM.hr                 45.90:  Time Drilling 
 EDEP.m                5298.01:  End Depth 
 ENG1.       Seymur Iskandarov:  Engineer 1 
 ENG2.         Yevgeniy Ulikov:  Engineer 2 
 ENG3.      Artemiy Matviyanov:  Engineer 3 
 ENG4.         Bahruz Mehdiyev:  Engineer 4 
 ETIM.      05.00.00 10-Aug-20:  End Time 
 FLOI.gpm              1150.00:  Flow In 
 FLON.gpm               900.00:  Flow In Min 
 FLOS.cptm                0.00:  Fluid Loss 
 FLOX.gpm              1200.00:  Flow In Max 
 FTRO.     Connectivity, Formation Presure:  FTWD Run Obj 
 HFLO.                      No:  High Flow 
 HPRE.                     Yes:  High Pressure 
 HTEM.                      No:  High Temp 
 HYDO.m                   1.80:  Hydro Offset 
 IFIN.deg                 9.71:  Inc, Final 
 IMAX.deg                63.81:  Inc Max 
 IMIN.deg                 9.53:  Inc Min 
 IMND.m                5075.52:  Inc Min Depth 
 IMXD.m                4367.08:  Inc Max Depth 
 JARR.                      No:  Jarring 
 LETM.      15.00.00 07-Aug-20:  Log End Time 
 LOST.hr                     2:  Lost Rig Time 
 LSTM.      17.00.00 02-Aug-20:  Log Start Time 
 MDCL.ppm             42500.00:  Mud Chlorides 
 MDES.     Inversion Oil/Synthetic:  Mud Desc 
 DFD .sg                  1.46:  Mud Density 
 MDMN.sg                  1.46:  Dens Mud Min 
 MDMX.sg                  1.46:  Dens Mud Max 
 MOIL.                      56:  Run Mud Oil % 
 MOWR.                   70:30:  Run Mud OWR 
 MSND.                     0.1:  Run Mud Sand % 
 MSOL.                      19:  Run Mud Solids% 
 DFV .spqt               83.00:  Mud Viscosity 
 MWOD.in                  8.00:  MWD Tool OD 
 MWSI.                     Yes:  Serv Intrp, MWD 
 OTIM.hr                196.57:  Time Operating 
 PCON.           Look Like New:  Pad Condition 
 PMAX.psia             7400.00:  Press Op, Max 
 PV  .cP                 36.00:  Mud PV 
 RUN .                    1000:  Run Number 
 ROPA.m/hr               25.00:  ROP Avg 
 ROPN.m/hr               10.00:  ROP Min 
 ROPX.m/hr               32.00:  ROP Max 
 RPMA.rpm               120.00:  RPM Surface Avg 
 RPMN.rpm               100.00:  RPM Surface Min 
 RPMX.rpm               140.00:  RPM Surface Max 
 RRUN.                    L504:  Rig Run Number 
 SAZI.deg               308.25:  Azm, Start 
 SDEP.m                4364.01:  Start Depth 
 SIDD.                      No:  Serv Intrp, DD 
 SINC.deg                63.81:  Inc, Start 
 SPPA.psig             5800.00:  SPP Avg 
 SPPN.psig             4200.00:  SPP Min 
 SPPX.psig             5950.00:  SPP Max 
 STIM.      18.00.00 01-Aug-20:  Start Time 
 SVCS.                 DD, MWD:  Services 
 SVER.                    9.20:  Sperry Version 
 TDAT.m                 934.00:  Tot Depth Attmp 
 TDDF.                      No:  Trip for DD 
 TDLG.m                 934.00:  Tot Depth Loggd 
 TFF .                      No:  Trip for Fail 
 TQAA.f-kp               31.00:  Torque Abs Avg 
 TQAN.f-kp               25.00:  Torque Abs Min 
 TQAX.f-kp               35.00:  Torque Abs Max 
 TRRT.°/30m              -0.75:  Turn Rotating 
 MRT .                  EWR-M5:  Maximum Recorded Temperature 
 TTMX.degC               95.00:  Max Tool Temp 
 VS01.                90516060:  Virtual Str1 SN 
 VS02.                90528488:  Virtual Str2 SN 
 VS03.                90577970:  Virtual Str3 SN 
 VS04.                12385033:  Virtual Str4 SN 
 VS05.                90522069:  Virtual Str5 SN 
 VS06.                13124134:  Virtual Str6 SN 
 WBMN.klb                20.00:  WOB Min 
 WITN.         Alistair Sprott:  Customer Rep 
 WITN.     Ronal van der Kraan:  Customer Rep 2 
 WOBA.klb                25.00:  WOB Avg 
 WOBX.klb                31.00:  WOB Max 
 YP  .lhf2               32.00:  Yield Point 
~Curve Information Block
#MNEM.UNIT                 API CODE     Curve Description
#---------               -----------    ---------------------------
 TIME.HHMMSS            00 000 000 000:  GT Time & Date
 GTDEPTH.m              00 000 000 000:  GT Depth
 GTPQH.psia             00 000 000 000:  GT HR Quartz Pressure
 GTTQ.degC              00 000 000 000:  GT Quartz Temperature
 GTTN.NONE              00 000 000 000:  GT Test Number
 GTET.sec               00 000 000 000:  GT Elapsed Test Time
 GTTVD.m                00 000 000 000:  GT True Vertical Depth
#Other Information
#
#WARRANTY: Halliburton will use its best efforts to furnish customers with 
#accurate information and interpretations that are part of, and incident to, the services 
#provided.  However, Halliburton cannot and does not warrant the accuracy 
#or correctness of such information and interpretations.  Under no circumstances should any 
#such information or interpretation be relied upon as the sole basis for any drilling, 
#completion, production, or financial decision or any procedure involving any risk to the 
#safety of any drilling venture, drilling rig or its crew or any other third party.  The 
#Customer has full responsibility for all drilling, completion and production operation.  
#Halliburton makes no representations or warranties, either expressed or 
#implied, including, but not limited to, the implied warranties of merchantability or fitness 
#for a particular purpose, with respect to the services rendered.  In no event will 
#Halliburton be liable for failure to obtain any particular results or for 
#any damages, including, but not limited to, indirect, special or consequential damages, 
#resulting from the use of any information or interpretation provided by Halliburton.
#
~A           TIME           GTDEPTH  GTPQH  GTTQ  GTTN  GTET   GTTVD  
# ...
   07:16:01.000.08-Aug-2020 5163.51 4260.74 78.06 5.00 414.00 3349.29
   07:16:01.200.08-Aug-2020 5163.51 4260.74 78.06 5.00 414.20 3349.29
   07:16:01.400.08-Aug-2020 5163.51 4260.64 78.06 5.00 414.40 3349.29
   07:16:01.600.08-Aug-2020 5163.51 4260.65 78.06 5.00 414.60 3349.29
   07:16:01.800.08-Aug-2020 5163.51 4260.65 78.06 5.00 414.80 3349.29
   07:16:02.000.08-Aug-2020 5163.51 4260.42 78.06 5.00 415.00 3349.29
   07:16:02.200.08-Aug-2020 5163.51 4260.42 78.06 5.00 415.20 3349.29
   07:16:02.400.08-Aug-2020 5163.51 4260.73 78.06 5.00 415.40 3349.29
   07:16:02.600.08-Aug-2020 5163.51 4260.54 78.06 5.00 415.60 3349.29
   07:16:02.800.08-Aug-2020 5163.51 4260.69 78.06 5.00 415.80 3349.29
   07:16:03.000.08-Aug-2020 5163.51 4260.56 78.06 5.00 416.00 3349.29
   07:16:03.200.08-Aug-2020 5163.51 4260.56 78.06 5.00 416.20 3349.29
   07:16:03.400.08-Aug-2020 5163.51 4260.55 78.06 5.00 416.40 3349.29
   07:16:03.600.08-Aug-2020 5163.51 4260.61 78.06 5.00 416.60 3349.29
   07:16:03.800.08-Aug-2020 5163.51 4260.47 78.06 5.00 416.80 3349.29
   07:16:04.000.08-Aug-2020 5163.51 4260.56 78.06 5.00 417.00 3349.29
   07:16:04.200.08-Aug-2020 5163.51 4260.56 78.06 5.00 417.20 3349.29
   07:16:04.400.08-Aug-2020 5163.51 4260.58 78.06 5.00 417.40 3349.29
   07:16:04.600.08-Aug-2020 5163.51 4260.59 78.05 5.00 417.60 3349.29
   07:16:04.800.08-Aug-2020 5163.51 4260.58 78.06 5.00 417.80 3349.29
   07:16:05.000.08-Aug-2020 5163.51 4260.50 78.05 5.00 418.00 3349.29
   07:16:05.200.08-Aug-2020 5163.51 4260.55 78.05 5.00 418.20 3349.29
   07:16:05.400.08-Aug-2020 5163.51 4260.57 78.05 5.00 418.40 3349.29
   07:16:05.600.08-Aug-2020 5163.51 4260.72 78.05 5.00 418.60 3349.29
   07:16:05.800.08-Aug-2020 5163.51 4260.95 78.05 5.00 418.80 3349.29
   07:16:06.000.08-Aug-2020 5163.51 4260.58 78.05 5.00 419.00 3349.29
   07:16:06.200.08-Aug-2020 5163.51 4260.58 78.05 5.00 419.20 3349.29
   07:16:06.400.08-Aug-2020 5163.51 4260.69 78.05 5.00 419.40 3349.29
   07:16:06.600.08-Aug-2020 5163.51 4260.51 78.05 5.00 419.60 3349.29
   07:16:06.800.08-Aug-2020 5163.51 4260.68 78.05 5.00 419.80 3349.29
   07:16:07.000.08-Aug-2020 5163.51 4260.75 78.05 5.00 420.00 3349.29
   07:16:07.200.08-Aug-2020 5163.51 4260.75 78.05 5.00 420.20 3349.29
   07:16:07.400.08-Aug-2020 5163.51 4260.49 78.05 5.00 420.40 3349.29
   07:16:07.600.08-Aug-2020 5163.51 4260.59 78.05 5.00 420.60 3349.29
   07:16:07.800.08-Aug-2020 5163.51 4260.68 78.05 5.00 420.80 3349.29
   07:16:08.000.08-Aug-2020 5163.51 4260.57 78.05 5.00 421.00 3349.29
   07:16:08.200.08-Aug-2020 5163.51 4260.57 78.05 5.00 421.20 3349.29
   07:16:08.400.08-Aug-2020 5163.51 4260.77 78.05 5.00 421.40 3349.29
   07:16:08.600.08-Aug-2020 5163.51 4260.61 78.05 5.00 421.60 3349.29
   07:16:08.800.08-Aug-2020 5163.51 4260.76 78.05 5.00 421.80 3349.29
   07:16:09.000.08-Aug-2020 5163.51 4261.04 78.05 5.00 422.00 3349.29
   07:16:09.200.08-Aug-2020 5163.51 4261.04 78.05 5.00 422.20 3349.29
   07:16:09.400.08-Aug-2020 5163.51 4260.89 78.05 5.00 422.40 3349.29
   07:16:09.600.08-Aug-2020 5163.51 4261.14 78.05 5.00 422.60 3349.29
   07:16:09.800.08-Aug-2020 5163.51 4260.79 78.05 5.00 422.80 3349.29
   07:16:10.000.08-Aug-2020 5163.51 4260.79 78.05 5.00 423.00 3349.29
   07:16:10.200.08-Aug-2020 5163.51 4260.79 78.05 5.00 423.20 3349.29
   07:16:10.400.08-Aug-2020 5163.51 4260.54 78.05 5.00 423.40 3349.29
   07:16:10.600.08-Aug-2020 5163.51 4260.60 78.05 5.00 423.60 3349.29
   07:16:10.800.08-Aug-2020 5163.51 4261.07 78.05 5.00 423.80 3349.29
   07:16:11.000.08-Aug-2020 5163.51 4260.65 78.05 5.00 424.00 3349.29
   07:16:11.200.08-Aug-2020 5163.51 4260.65 78.05 5.00 424.20 3349.29
   07:16:11.400.08-Aug-2020 5163.51 4261.03 78.05 5.00 424.40 3349.29
   07:16:11.600.08-Aug-2020 5163.51 4260.99 78.05 5.00 424.60 3349.29
   07:16:11.800.08-Aug-2020 5163.51 4260.67 78.05 5.00 424.80 3349.29
   07:16:12.000.08-Aug-2020 5163.51 4261.12 78.05 5.00 425.00 3349.29
   07:16:12.200.08-Aug-2020 5163.51 4261.12 78.05 5.00 425.20 3349.29
   07:16:12.400.08-Aug-2020 5163.51 4260.90 78.05 5.00 425.40 3349.29
   07:16:12.600.08-Aug-2020 5163.51 4261.06 78.05 5.00 425.60 3349.29
   07:16:12.800.08-Aug-2020 5163.51 4260.85 78.05 5.00 425.80 3349.29
   07:16:13.000.08-Aug-2020 5163.51 4260.91 78.05 5.00 426.00 3349.29
   07:16:13.200.08-Aug-2020 5163.51 4260.91 78.05 5.00 426.20 3349.29
   07:16:13.400.08-Aug-2020 5163.51 4260.91 78.05 5.00 426.40 3349.29
   07:16:13.600.08-Aug-2020 5163.51 4260.64 78.05 5.00 426.60 3349.29
   07:16:13.800.08-Aug-2020 5163.51 4260.75 78.05 5.00 426.80 3349.29
   07:16:14.000.08-Aug-2020 5163.51 4260.86 78.05 5.00 427.00 3349.29
   07:16:14.200.08-Aug-2020 5163.51 4260.86 78.05 5.00 427.20 3349.29
   07:16:14.400.08-Aug-2020 5163.51 4260.94 78.05 5.00 427.40 3349.29
   07:16:14.600.08-Aug-2020 5163.51 4260.97 78.05 5.00 427.60 3349.29
   07:16:14.800.08-Aug-2020 5163.51 4260.91 78.05 5.00 427.80 3349.29
   07:16:15.000.08-Aug-2020 5163.51 4260.89 78.05 5.00 428.00 3349.29
   07:16:15.200.08-Aug-2020 5163.51 4260.56 78.05 5.00 428.20 3349.29
   07:16:15.400.08-Aug-2020 5163.51 4261.14 78.05 5.00 428.40 3349.29
   07:16:15.600.08-Aug-2020 5163.51 4261.10 78.05 5.00 428.60 3349.29
   07:16:15.800.08-Aug-2020 5163.51 4260.95 78.05 5.00 428.80 3349.29
   07:16:16.000.08-Aug-2020 5163.51 4260.99 78.05 5.00 429.00 3349.29
   07:16:16.200.08-Aug-2020 5163.51 4260.99 78.05 5.00 429.20 3349.29
   07:16:16.400.08-Aug-2020 5163.51 4260.91 78.05 5.00 429.40 3349.29
   07:16:16.600.08-Aug-2020 5163.51 4260.88 78.05 5.00 429.60 3349.29
   07:16:16.800.08-Aug-2020 5163.51 4260.94 78.05 5.00 429.80 3349.29
   07:16:17.000.08-Aug-2020 5163.51 4260.91 78.05 5.00 430.00 3349.29
   07:16:17.200.08-Aug-2020 5163.51 4260.91 78.05 5.00 430.20 3349.29
   07:16:17.400.08-Aug-2020 5163.51 4260.90 78.05 5.00 430.40 3349.29
   07:16:17.600.08-Aug-2020 5163.51 4260.88 78.05 5.00 430.60 3349.29
   07:16:17.800.08-Aug-2020 5163.51 4260.87 78.05 5.00 430.80 3349.29
   07:16:18.000.08-Aug-2020 5163.51 4260.91 78.05 5.00 431.00 3349.29
   07:16:18.200.08-Aug-2020 5163.51 4260.91 78.05 5.00 431.20 3349.29
   07:16:18.400.08-Aug-2020 5163.51 4260.66 78.05 5.00 431.40 3349.29
   07:16:18.600.08-Aug-2020 5163.51 4261.26 78.04 5.00 431.60 3349.29
   07:16:18.800.08-Aug-2020 5163.51 4261.20 78.04 5.00 431.80 3349.29
   07:16:19.000.08-Aug-2020 5163.51 4260.71 78.04 5.00 432.00 3349.29
   07:16:19.200.08-Aug-2020 5163.51 4260.71 78.04 5.00 432.20 3349.29
   07:16:19.400.08-Aug-2020 5163.51 4261.23 78.04 5.00 432.40 3349.29
   07:16:19.600.08-Aug-2020 5163.51 4261.10 78.04 5.00 432.60 3349.29
   07:16:19.800.08-Aug-2020 5163.51 4261.08 78.04 5.00 432.80 3349.29
   07:16:20.000.08-Aug-2020 5163.51 4261.13 78.04 5.00 433.00 3349.29
   07:16:20.200.08-Aug-2020 5163.51 4261.13 78.04 5.00 433.20 3349.29
   07:16:20.400.08-Aug-2020 5163.51 4261.12 78.04 5.00 433.40 3349.29
   07:16:20.600.08-Aug-2020 5163.51 4261.18 78.04 5.00 433.60 3349.29
   07:16:20.800.08-Aug-2020 5163.51 4260.98 78.04 5.00 433.80 3349.29
   07:16:21.000.08-Aug-2020 5163.51 4260.98 78.04 5.00 434.00 3349.29
   07:16:21.200.08-Aug-2020 5163.51 4260.98 78.04 5.00 434.20 3349.29
   07:16:21.400.08-Aug-2020 5163.51 4261.26 78.04 5.00 434.40 3349.29
   07:16:21.600.08-Aug-2020 5163.51 4261.02 78.04 5.00 434.60 3349.29
   07:16:21.800.08-Aug-2020 5163.51 4261.30 78.04 5.00 434.80 3349.29
   07:16:22.000.08-Aug-2020 5163.51 4261.22 78.04 5.00 435.00 3349.29
   07:16:22.200.08-Aug-2020 5163.51 4261.22 78.04 5.00 435.20 3349.29
   07:16:22.400.08-Aug-2020 5163.51 4261.04 78.04 5.00 435.40 3349.29
   07:16:22.600.08-Aug-2020 5163.51 4261.03 78.04 5.00 435.60 3349.29
   07:16:22.800.08-Aug-2020 5163.51 4261.06 78.04 5.00 435.80 3349.29
   07:16:23.000.08-Aug-2020 5163.51 4260.98 78.04 5.00 436.00 3349.29
   07:16:23.200.08-Aug-2020 5163.51 4260.98 78.04 5.00 436.20 3349.29
   07:16:23.400.08-Aug-2020 5163.51 4261.10 78.04 5.00 436.40 3349.29
   07:16:23.600.08-Aug-2020 5163.51 4261.01 78.04 5.00 436.60 3349.29
   07:16:23.800.08-Aug-2020 5163.51 4261.10 78.04 5.00 436.80 3349.29
