~Version Information
 VERS.                  2.0:   CWLS log ASCII Standard -VERSION 2.0
 WRAP.                   NO:   One line per depth step
~Well Information Block
#MNEM.UNIT     VALUE/NAME     DESCRIPTION
#---------     -----------    ---------------------------
 STRT.S             03:17:15 08-Aug-20: START TIME 03:17:15 08-Aug-20
 STOP.S             03:24:06 08-Aug-20: STOP TIME  03:24:06 08-Aug-20
 STEP.S                   0.00: STEP TIME
 NULL.                 -999.25: NULL VALUE
 DFWT.                        :  DIST FWL TEXT
 DFST.                        :  DIST FSL TEXT
 DMF .             Drill Floor:  DRILL MEAS FROM
 STIM.      13.47.44 07-Jun-20:  START TIME
 DATE.      13.47.44 27-Jul-20:  END TIME
 SPUD.               07-Jun-20:  SPUD DATE
 NREF.                    Grid:  NORTH REFERENCE
 HPTY.       Minimum Curvature:  HOLE POS TYPE
 DMOD.             Drill Model:  DRILL MOD DESC
 SVYD.                  Survey:  SURVEY DESC
 ILTD.               Lithology:  INTERP LTH DESC
 FTOP.          Formation Tops:  FORM TOPS DESC
 RIG .             West Chirag:  RIG NAME
 PDAT.          Mean Sea Level:  PERMANENT DATUM
 FLD .                     ACG:  FIELD NAME
 SON .        AZ-XX-0906363612:  JOB NUMBER
 CTRY.              Azerbaijan:  COUNTRY NAME
 WELL.           J25 (Slot 35):  WELL NAME
 SRVC.          Turan Drilling:  CONTRACTOR
 COMP.     BP Exploration (Caspian Sea) Ltd:  COMPANY
 UWI .                     N/A:  UNIQUE WELL IDENTIFIER
 API .                     N/A:  API NUMBER
 BASE.              Azerbaijan:  LOGGING EQUIPMENT BASE LOCATION
 REGN.                   EESSA:  REGION
 PROV.                    Baku:  PROVINCE
 STAT.                    Baku:  STATE NAME
 MWDS.                     N/A:  MWD SHOP
 DOE .                     N/A:  DOE NUMBER
 DCON.         Sperry Drilling:  DIRECTNL CONTR
 UNIT.                     N/A:  LOGGING EQUIPMENT ID
 MDS .        Operator Entered:  MAG DATA SOURCE
 JOBN.        AZ-XX-0906363612:  JOB TICKET NUMB
 WTYP.                Deviated:  WELL TYPE
 CNTY.                        :  COUNTY
 LOC .                        :  LOCATION
 LMF .             Drill Floor:  LOG MEASURED FROM
 TVDS.m                  43.00:  TVDSS CORRECTN
 LATI.deg                40.13:  LATITUDE
 LONG.deg                51.22:  LONGITUDE
 WHNS.m                  -7.90:  WELL HEAD N/S
 WHEW.m                  -3.35:  WELL HEAD E/W
 UTMX.m              519005.06:  UTM X
 UTMY.m             4443793.85:  UTM Y
 DFWL.m                   0.00:  DISTANCE FWL
 DFSL.m                   0.00:  DISTANCE FSL
 SDEP.m                   0.00:  START DEPTH
 TDD .m                   0.00:  TOTAL DEPTH (DRILLER)
 VSDR.deg               308.97:  VERT SEC DIRECT
 GVFD.g                   1.00:  GRAVITY FIELD
 MFLD.nT              50350.00:  MAGNETIC FIELD
 MDIP.deg                59.62:  MAGNETIC DIP
 MDEC.deg                 6.44:  MAGNETIC DECL
 GRDC.deg                 0.13:  GRID CORRECTION
 AZTC.deg                 6.32:  AZM TOTAL CORR
 EPD .m                   0.00:  ELEVATION
 EGL .m                   0.00:  GROUND ELEVATION
 WDMS.m                 169.80:  WD ELEV
 APD .m                  43.00:  DEPTH ABOVE PD
 DEP .m                 356.43:  DEPTH
 AGAP.m                  43.00:  AIR GAP
 VSEW.m                  -3.35:  VERT SEC E/W
 VSNS.m                  -7.90:  VERT SEC N/S
 EKB .m                  43.00:  KB ELEVATION
 EDF .m                  43.00:  DF ELEVATION
 TDL .m                 934.00:  TOTAL DEPTH (LOGGER)
 VSC .                       0:  VS TO CLOSURE
 MAGU.                 1852825:  MAGUTM CHECKSUM
~Parameter Information Block
#MNEM.UNIT       Value        Description
#---------     -----------    ---------------------------
 AV  .mps                 0.80:  Ann Velocity 
 AVMX.mps                 1.70:  Max Ann Veloc 
 AZIF.deg               311.41:  Azm, Final 
 BHAT.        Rotary Steerable:  BHA Type 
 BROT.°/30m               0.09:  Build Rotating 
 BS  .in                 12.25:  Bit Size 
 BSZ .in                 12.25:  Bit Size 
 BTPL.psig              800.00:  Bit Press Loss 
 CABU.                      No:  Customer Abuse 
 COMM.                     k:  Run Comments 1 
 TCS .hr                 96.00:  Time Ciculation Ended 
 CV  .mps                 2.03:  Crit Velocity 
 CVMX.mps                 2.42:  Max Crit Veloc 
 DD1 .          Taghi Taghiyev:  Direct Drillr 1 
 DD2 .      Tariel Pirmammadov:  Direct Drillr 2 
 DD3 .          Teymur Aghayev:  Direct Drillr 3 
 DDSV.                 iCruise:  DD Service 
 DEFF.%                  98.70:  % Det Eff 
 DLRX.°/30m               1.00:  Dogleg Rot Max 
 DLSO.°/30m               1.80:  Dogleg Oriented 
 DLSX.°/30m               3.16:  Dogleg Str Max 
 DRET.      15.00.00 07-Aug-20:  Drill End Time 
 DRST.      17.00.00 02-Aug-20:  Drill Start Tim 
 DTIM.hr                 45.90:  Time Drilling 
 EDEP.m                5298.01:  End Depth 
 ENG1.       Seymur Iskandarov:  Engineer 1 
 ENG2.         Yevgeniy Ulikov:  Engineer 2 
 ENG3.      Artemiy Matviyanov:  Engineer 3 
 ENG4.         Bahruz Mehdiyev:  Engineer 4 
 ETIM.      05.00.00 10-Aug-20:  End Time 
 FLOI.gpm              1150.00:  Flow In 
 FLON.gpm               900.00:  Flow In Min 
 FLOS.cptm                0.00:  Fluid Loss 
 FLOX.gpm              1200.00:  Flow In Max 
 FTRO.     Connectivity, Formation Presure:  FTWD Run Obj 
 HFLO.                      No:  High Flow 
 HPRE.                     Yes:  High Pressure 
 HTEM.                      No:  High Temp 
 HYDO.m                   1.80:  Hydro Offset 
 IFIN.deg                 9.71:  Inc, Final 
 IMAX.deg                63.81:  Inc Max 
 IMIN.deg                 9.53:  Inc Min 
 IMND.m                5075.52:  Inc Min Depth 
 IMXD.m                4367.08:  Inc Max Depth 
 JARR.                      No:  Jarring 
 LETM.      15.00.00 07-Aug-20:  Log End Time 
 LOST.hr                     2:  Lost Rig Time 
 LSTM.      17.00.00 02-Aug-20:  Log Start Time 
 MDCL.ppm             42500.00:  Mud Chlorides 
 MDES.     Inversion Oil/Synthetic:  Mud Desc 
 DFD .sg                  1.46:  Mud Density 
 MDMN.sg                  1.46:  Dens Mud Min 
 MDMX.sg                  1.46:  Dens Mud Max 
 MOIL.                      56:  Run Mud Oil % 
 MOWR.                   70:30:  Run Mud OWR 
 MSND.                     0.1:  Run Mud Sand % 
 MSOL.                      19:  Run Mud Solids% 
 DFV .spqt               83.00:  Mud Viscosity 
 MWOD.in                  8.00:  MWD Tool OD 
 MWSI.                     Yes:  Serv Intrp, MWD 
 OTIM.hr                196.57:  Time Operating 
 PCON.           Look Like New:  Pad Condition 
 PMAX.psia             7400.00:  Press Op, Max 
 PV  .cP                 36.00:  Mud PV 
 RUN .                    1000:  Run Number 
 ROPA.m/hr               25.00:  ROP Avg 
 ROPN.m/hr               10.00:  ROP Min 
 ROPX.m/hr               32.00:  ROP Max 
 RPMA.rpm               120.00:  RPM Surface Avg 
 RPMN.rpm               100.00:  RPM Surface Min 
 RPMX.rpm               140.00:  RPM Surface Max 
 RRUN.                    L504:  Rig Run Number 
 SAZI.deg               308.25:  Azm, Start 
 SDEP.m                4364.01:  Start Depth 
 SIDD.                      No:  Serv Intrp, DD 
 SINC.deg                63.81:  Inc, Start 
 SPPA.psig             5800.00:  SPP Avg 
 SPPN.psig             4200.00:  SPP Min 
 SPPX.psig             5950.00:  SPP Max 
 STIM.      18.00.00 01-Aug-20:  Start Time 
 SVCS.                 DD, MWD:  Services 
 SVER.                    9.20:  Sperry Version 
 TDAT.m                 934.00:  Tot Depth Attmp 
 TDDF.                      No:  Trip for DD 
 TDLG.m                 934.00:  Tot Depth Loggd 
 TFF .                      No:  Trip for Fail 
 TQAA.f-kp               31.00:  Torque Abs Avg 
 TQAN.f-kp               25.00:  Torque Abs Min 
 TQAX.f-kp               35.00:  Torque Abs Max 
 TRRT.°/30m              -0.75:  Turn Rotating 
 MRT .                  EWR-M5:  Maximum Recorded Temperature 
 TTMX.degC               95.00:  Max Tool Temp 
 VS01.                90516060:  Virtual Str1 SN 
 VS02.                90528488:  Virtual Str2 SN 
 VS03.                90577970:  Virtual Str3 SN 
 VS04.                12385033:  Virtual Str4 SN 
 VS05.                90522069:  Virtual Str5 SN 
 VS06.                13124134:  Virtual Str6 SN 
 WBMN.klb                20.00:  WOB Min 
 WITN.         Alistair Sprott:  Customer Rep 
 WITN.     Ronal van der Kraan:  Customer Rep 2 
 WOBA.klb                25.00:  WOB Avg 
 WOBX.klb                31.00:  WOB Max 
 YP  .lhf2               32.00:  Yield Point 
~Curve Information Block
#MNEM.UNIT                 API CODE     Curve Description
#---------               -----------    ---------------------------
 TIME.HHMMSS            00 000 000 000:  GT Time & Date
 GTDEPTH.m              00 000 000 000:  GT Depth
 GTPQH.psia             00 000 000 000:  GT HR Quartz Pressure
 GTTQ.degC              00 000 000 000:  GT Quartz Temperature
 GTTN.NONE              00 000 000 000:  GT Test Number
 GTET.sec               00 000 000 000:  GT Elapsed Test Time
 GTTVD.m                00 000 000 000:  GT True Vertical Depth
#Other Information
#
#WARRANTY: Halliburton will use its best efforts to furnish customers with 
#accurate information and interpretations that are part of, and incident to, the services 
#provided.  However, Halliburton cannot and does not warrant the accuracy 
#or correctness of such information and interpretations.  Under no circumstances should any 
#such information or interpretation be relied upon as the sole basis for any drilling, 
#completion, production, or financial decision or any procedure involving any risk to the 
#safety of any drilling venture, drilling rig or its crew or any other third party.  The 
#Customer has full responsibility for all drilling, completion and production operation.  
#Halliburton makes no representations or warranties, either expressed or 
#implied, including, but not limited to, the implied warranties of merchantability or fitness 
#for a particular purpose, with respect to the services rendered.  In no event will 
#Halliburton be liable for failure to obtain any particular results or for 
#any damages, including, but not limited to, indirect, special or consequential damages, 
#resulting from the use of any information or interpretation provided by Halliburton.
#
~A           TIME           GTDEPTH  GTPQH  GTTQ  GTTN  GTET   GTTVD  
   03:17:15.596.08-Aug-2020 5190.56 -999.25 85.95 1.00   0.00 3375.95
   03:17:15.796.08-Aug-2020 5190.56    0.00 85.95 1.00   0.20 3375.95
   03:17:15.996.08-Aug-2020 5190.56    0.00 85.95 1.00   0.40 3375.95
   03:17:16.196.08-Aug-2020 5190.56 7217.26 85.95 1.00   0.60 3375.95
   03:17:16.396.08-Aug-2020 5190.56 7222.11 85.95 1.00   0.80 3375.95
   03:17:16.595.08-Aug-2020 5190.56 7216.11 85.95 1.00   1.00 3375.95
   03:17:16.795.08-Aug-2020 5190.56 7216.11 85.95 1.00   1.20 3375.95
   03:17:16.995.08-Aug-2020 5190.56 7212.50 85.95 1.00   1.40 3375.95
   03:17:17.195.08-Aug-2020 5190.56 7214.04 85.95 1.00   1.60 3375.95
   03:17:17.395.08-Aug-2020 5190.56 7213.21 85.95 1.00   1.80 3375.95
   03:17:17.595.08-Aug-2020 5190.56 7210.10 85.95 1.00   2.00 3375.95
   03:17:17.795.08-Aug-2020 5190.56 7210.10 85.95 1.00   2.20 3375.95
   03:17:17.995.08-Aug-2020 5190.56 7213.35 85.95 1.00   2.40 3375.95
   03:17:18.195.08-Aug-2020 5190.56 7210.57 85.95 1.00   2.60 3375.95
   03:17:18.395.08-Aug-2020 5190.56 7209.96 85.95 1.00   2.80 3375.95
   03:17:18.594.08-Aug-2020 5190.56 7212.12 85.95 1.00   3.00 3375.95
   03:17:18.794.08-Aug-2020 5190.56 7212.12 85.95 1.00   3.20 3375.95
   03:17:18.994.08-Aug-2020 5190.56 7213.22 85.95 1.00   3.40 3375.95
   03:17:19.194.08-Aug-2020 5190.56 7214.34 85.95 1.00   3.60 3375.95
   03:17:19.394.08-Aug-2020 5190.56 7216.09 85.95 1.00   3.80 3375.95
   03:17:19.594.08-Aug-2020 5190.56 7218.90 85.95 1.00   4.00 3375.95
   03:17:19.794.08-Aug-2020 5190.56 7218.90 85.95 1.00   4.20 3375.95
   03:17:19.994.08-Aug-2020 5190.56 7230.07 85.95 1.00   4.40 3375.95
   03:17:20.194.08-Aug-2020 5190.56 7226.23 85.95 1.00   4.60 3375.95
   03:17:20.394.08-Aug-2020 5190.56 7229.40 85.95 1.00   4.80 3375.95
   03:17:20.593.08-Aug-2020 5190.56 7229.31 85.95 1.00   5.00 3375.95
   03:17:20.793.08-Aug-2020 5190.56 7231.16 85.95 1.00   5.20 3375.95
   03:17:20.993.08-Aug-2020 5190.56 7231.91 85.95 1.00   5.40 3375.95
   03:17:21.193.08-Aug-2020 5190.56 7231.46 85.95 1.00   5.60 3375.95
   03:17:21.393.08-Aug-2020 5190.56 7234.64 85.95 1.00   5.80 3375.95
   03:17:21.593.08-Aug-2020 5190.56 7231.56 85.95 1.00   6.00 3375.95
   03:17:21.793.08-Aug-2020 5190.56 7231.56 85.95 1.00   6.20 3375.95
   03:17:21.993.08-Aug-2020 5190.56 7226.00 85.95 1.00   6.40 3375.95
   03:17:22.193.08-Aug-2020 5190.56 7230.26 85.95 1.00   6.60 3375.95
   03:17:22.393.08-Aug-2020 5190.56 7227.02 85.95 1.00   6.80 3375.95
   03:17:22.592.08-Aug-2020 5190.56 7227.30 85.95 1.00   7.00 3375.95
   03:17:22.792.08-Aug-2020 5190.56 7227.30 85.95 1.00   7.20 3375.95
   03:17:22.992.08-Aug-2020 5190.56 7225.79 85.95 1.00   7.40 3375.95
   03:17:23.192.08-Aug-2020 5190.56 7229.40 85.95 1.00   7.60 3375.95
   03:17:23.392.08-Aug-2020 5190.56 7227.69 85.95 1.00   7.80 3375.95
   03:17:23.592.08-Aug-2020 5190.56 7226.79 85.95 1.00   8.00 3375.95
   03:17:23.792.08-Aug-2020 5190.56 7226.79 85.95 1.00   8.20 3375.95
   03:17:23.992.08-Aug-2020 5190.56 7225.59 85.95 1.00   8.40 3375.95
   03:17:24.192.08-Aug-2020 5190.56 7229.13 85.95 1.00   8.60 3375.95
   03:17:24.391.08-Aug-2020 5190.56 7228.61 85.95 1.00   8.80 3375.95
   03:17:24.591.08-Aug-2020 5190.56 7226.08 85.95 1.00   9.00 3375.95
   03:17:24.791.08-Aug-2020 5190.56 7225.49 85.95 1.00   9.20 3375.95
   03:17:24.991.08-Aug-2020 5190.56 7228.79 85.95 1.00   9.40 3375.95
   03:17:25.191.08-Aug-2020 5190.56 7226.15 85.95 1.00   9.60 3375.95
   03:17:25.391.08-Aug-2020 5190.56 7225.20 85.95 1.00   9.80 3375.95
   03:17:25.591.08-Aug-2020 5190.56 7224.93 85.95 1.00   9.99 3375.95
   03:17:25.791.08-Aug-2020 5190.56 7224.93 85.95 1.00  10.19 3375.95
   03:17:25.991.08-Aug-2020 5190.56 7228.16 85.95 1.00  10.39 3375.95
   03:17:26.191.08-Aug-2020 5190.56 7226.78 85.95 1.00  10.59 3375.95
   03:17:26.390.08-Aug-2020 5190.56 7225.15 85.95 1.00  10.79 3375.95
   03:17:26.590.08-Aug-2020 5190.56 7225.02 85.95 1.00  10.99 3375.95
   03:17:26.790.08-Aug-2020 5190.56 7225.02 85.95 1.00  11.19 3375.95
   03:17:26.990.08-Aug-2020 5190.56 7225.02 85.95 1.00  11.39 3375.95
   03:17:27.190.08-Aug-2020 5190.56 7224.67 85.95 1.00  11.59 3375.95
   03:17:27.390.08-Aug-2020 5190.56 7227.60 85.95 1.00  11.79 3375.95
   03:17:27.590.08-Aug-2020 5190.56 7226.06 85.95 1.00  11.99 3375.95
   03:17:27.790.08-Aug-2020 5190.56 7226.06 85.95 1.00  12.19 3375.95
   03:17:27.990.08-Aug-2020 5190.56 7225.18 85.95 1.00  12.39 3375.95
   03:17:28.190.08-Aug-2020 5190.56 7227.25 85.95 1.00  12.59 3375.95
   03:17:28.389.08-Aug-2020 5190.56 7226.04 85.95 1.00  12.79 3375.95
   03:17:28.589.08-Aug-2020 5190.56 7226.60 85.95 1.00  12.99 3375.95
   03:17:28.789.08-Aug-2020 5190.56 7227.59 85.95 1.00  13.19 3375.95
   03:17:28.989.08-Aug-2020 5190.56 7228.33 85.95 1.00  13.39 3375.95
   03:17:29.189.08-Aug-2020 5190.56 7228.75 85.95 1.00  13.59 3375.95
   03:17:29.389.08-Aug-2020 5190.56 7229.39 85.95 1.00  13.79 3375.95
   03:17:29.589.08-Aug-2020 5190.56 7230.45 85.95 1.00  13.99 3375.95
   03:17:29.789.08-Aug-2020 5190.56 7230.45 85.95 1.00  14.19 3375.95
   03:17:29.989.08-Aug-2020 5190.56 7229.85 85.95 1.00  14.39 3375.95
   03:17:30.189.08-Aug-2020 5190.56 7229.48 85.95 1.00  14.59 3375.95
   03:17:30.388.08-Aug-2020 5190.56 7229.57 85.95 1.00  14.79 3375.95
   03:17:30.588.08-Aug-2020 5190.56 7229.17 85.95 1.00  14.99 3375.95
   03:17:30.788.08-Aug-2020 5190.56 7229.17 85.95 1.00  15.19 3375.95
   03:17:30.988.08-Aug-2020 5190.56 7228.71 85.95 1.00  15.39 3375.95
   03:17:31.188.08-Aug-2020 5190.56 7225.19 85.95 1.00  15.59 3375.95
   03:17:31.388.08-Aug-2020 5190.56 7224.31 85.95 1.00  15.79 3375.95
   03:17:31.588.08-Aug-2020 5190.56 7223.93 85.95 1.00  15.99 3375.95
   03:17:31.788.08-Aug-2020 5190.56 7223.93 85.95 1.00  16.19 3375.95
   03:17:31.988.08-Aug-2020 5190.56 7222.26 85.95 1.00  16.39 3375.95
   03:17:32.188.08-Aug-2020 5190.56 7221.58 85.95 1.00  16.59 3375.95
   03:17:32.387.08-Aug-2020 5190.56 7220.47 85.95 1.00  16.79 3375.95
   03:17:32.587.08-Aug-2020 5190.56 7220.16 85.95 1.00  16.99 3375.95
   03:17:32.787.08-Aug-2020 5190.56 7220.70 85.95 1.00  17.19 3375.95
   03:17:32.987.08-Aug-2020 5190.56 7221.58 85.94 1.00  17.39 3375.95
   03:17:33.187.08-Aug-2020 5190.56 7221.17 85.94 1.00  17.59 3375.95
   03:17:33.387.08-Aug-2020 5190.56 7220.37 85.94 1.00  17.79 3375.95
   03:17:33.587.08-Aug-2020 5190.56 7220.04 85.94 1.00  17.99 3375.95
   03:17:33.787.08-Aug-2020 5190.56 7220.29 85.94 1.00  18.19 3375.95
   03:17:33.987.08-Aug-2020 5190.56 7226.23 85.94 1.00  18.39 3375.95
   03:17:34.187.08-Aug-2020 5190.56 7219.95 85.94 1.00  18.59 3375.95
   03:17:34.386.08-Aug-2020 5190.56 7221.10 85.94 1.00  18.79 3375.95
   03:17:34.586.08-Aug-2020 5190.56 7219.42 85.94 1.00  18.99 3375.95
   03:17:34.786.08-Aug-2020 5190.56 7219.42 85.94 1.00  19.19 3375.95
   03:17:34.986.08-Aug-2020 5190.56 7219.88 85.94 1.00  19.39 3375.95
   03:17:35.186.08-Aug-2020 5190.56 7223.44 85.94 1.00  19.59 3375.95
   03:17:35.386.08-Aug-2020 5190.56 7222.21 85.94 1.00  19.79 3375.95
   03:17:35.586.08-Aug-2020 5190.56 7219.95 85.94 1.00  19.99 3375.95
   03:17:35.786.08-Aug-2020 5190.56 7219.95 85.94 1.00  20.19 3375.95
   03:17:35.986.08-Aug-2020 5190.56 7219.91 85.94 1.00  20.39 3375.95
   03:17:36.185.08-Aug-2020 5190.56 7224.78 85.94 1.00  20.59 3375.95
   03:17:36.385.08-Aug-2020 5190.56 7223.19 85.94 1.00  20.79 3375.95
   03:17:36.585.08-Aug-2020 5190.56 7220.34 85.94 1.00  20.99 3375.95
   03:17:36.785.08-Aug-2020 5190.56 7220.34 85.94 1.00  21.19 3375.95
   03:17:36.985.08-Aug-2020 5190.56 7220.12 85.94 1.00  21.39 3375.95
   03:17:37.185.08-Aug-2020 5190.56 7224.69 85.94 1.00  21.59 3375.95
   03:17:37.385.08-Aug-2020 5190.56 7223.37 85.94 1.00  21.79 3375.95
   03:17:37.585.08-Aug-2020 5190.56 7220.40 85.94 1.00  21.99 3375.95
   03:17:37.785.08-Aug-2020 5190.56 7220.40 85.94 1.00  22.19 3375.95
   03:17:37.985.08-Aug-2020 5190.56 7219.35 85.94 1.00  22.39 3375.95
   03:17:38.184.08-Aug-2020 5190.56 7220.61 85.94 1.00  22.59 3375.95
   03:17:38.384.08-Aug-2020 5190.56 7220.15 85.94 1.00  22.79 3375.95
