~Version Information
 VERS.                  2.0:   CWLS log ASCII Standard -VERSION 2.0
 WRAP.                   NO:   One line per depth step
~Well Information Block
#MNEM.UNIT     VALUE/NAME     DESCRIPTION
#---------     -----------    ---------------------------
 STRT.S             09:23:14 08-Aug-20: START TIME 09:23:14 08-Aug-20
 STOP.S             09:28:51 08-Aug-20: STOP TIME  09:28:51 08-Aug-20
 STEP.S                   0.00: STEP TIME
 NULL.                 -999.25: NULL VALUE
 DFWT.                        :  DIST FWL TEXT
 DFST.                        :  DIST FSL TEXT
 DMF .             Drill Floor:  DRILL MEAS FROM
 STIM.      13.47.44 07-Jun-20:  START TIME
 DATE.      13.47.44 27-Jul-20:  END TIME
 SPUD.               07-Jun-20:  SPUD DATE
 NREF.                    Grid:  NORTH REFERENCE
 HPTY.       Minimum Curvature:  HOLE POS TYPE
 DMOD.             Drill Model:  DRILL MOD DESC
 SVYD.                  Survey:  SURVEY DESC
 ILTD.               Lithology:  INTERP LTH DESC
 FTOP.          Formation Tops:  FORM TOPS DESC
 RIG .             West Chirag:  RIG NAME
 PDAT.          Mean Sea Level:  PERMANENT DATUM
 FLD .                     ACG:  FIELD NAME
 SON .        AZ-XX-0906363612:  JOB NUMBER
 CTRY.              Azerbaijan:  COUNTRY NAME
 WELL.           J25 (Slot 35):  WELL NAME
 SRVC.          Turan Drilling:  CONTRACTOR
 COMP.     BP Exploration (Caspian Sea) Ltd:  COMPANY
 UWI .                     N/A:  UNIQUE WELL IDENTIFIER
 API .                     N/A:  API NUMBER
 BASE.              Azerbaijan:  LOGGING EQUIPMENT BASE LOCATION
 REGN.                   EESSA:  REGION
 PROV.                    Baku:  PROVINCE
 STAT.                    Baku:  STATE NAME
 MWDS.                     N/A:  MWD SHOP
 DOE .                     N/A:  DOE NUMBER
 DCON.         Sperry Drilling:  DIRECTNL CONTR
 UNIT.                     N/A:  LOGGING EQUIPMENT ID
 MDS .        Operator Entered:  MAG DATA SOURCE
 JOBN.        AZ-XX-0906363612:  JOB TICKET NUMB
 WTYP.                Deviated:  WELL TYPE
 CNTY.                        :  COUNTY
 LOC .                        :  LOCATION
 LMF .             Drill Floor:  LOG MEASURED FROM
 TVDS.m                  43.00:  TVDSS CORRECTN
 LATI.deg                40.13:  LATITUDE
 LONG.deg                51.22:  LONGITUDE
 WHNS.m                  -7.90:  WELL HEAD N/S
 WHEW.m                  -3.35:  WELL HEAD E/W
 UTMX.m              519005.06:  UTM X
 UTMY.m             4443793.85:  UTM Y
 DFWL.m                   0.00:  DISTANCE FWL
 DFSL.m                   0.00:  DISTANCE FSL
 SDEP.m                   0.00:  START DEPTH
 TDD .m                   0.00:  TOTAL DEPTH (DRILLER)
 VSDR.deg               308.97:  VERT SEC DIRECT
 GVFD.g                   1.00:  GRAVITY FIELD
 MFLD.nT              50350.00:  MAGNETIC FIELD
 MDIP.deg                59.62:  MAGNETIC DIP
 MDEC.deg                 6.44:  MAGNETIC DECL
 GRDC.deg                 0.13:  GRID CORRECTION
 AZTC.deg                 6.32:  AZM TOTAL CORR
 EPD .m                   0.00:  ELEVATION
 EGL .m                   0.00:  GROUND ELEVATION
 WDMS.m                 169.80:  WD ELEV
 APD .m                  43.00:  DEPTH ABOVE PD
 DEP .m                 356.43:  DEPTH
 AGAP.m                  43.00:  AIR GAP
 VSEW.m                  -3.35:  VERT SEC E/W
 VSNS.m                  -7.90:  VERT SEC N/S
 EKB .m                  43.00:  KB ELEVATION
 EDF .m                  43.00:  DF ELEVATION
 TDL .m                 934.00:  TOTAL DEPTH (LOGGER)
 VSC .                       0:  VS TO CLOSURE
 MAGU.                 1852825:  MAGUTM CHECKSUM
~Parameter Information Block
#MNEM.UNIT       Value        Description
#---------     -----------    ---------------------------
 AV  .mps                 0.80:  Ann Velocity 
 AVMX.mps                 1.70:  Max Ann Veloc 
 AZIF.deg               311.41:  Azm, Final 
 BHAT.        Rotary Steerable:  BHA Type 
 BROT.°/30m               0.09:  Build Rotating 
 BS  .in                 12.25:  Bit Size 
 BSZ .in                 12.25:  Bit Size 
 BTPL.psig              800.00:  Bit Press Loss 
 CABU.                      No:  Customer Abuse 
 TCS .hr                 96.00:  Time Ciculation Ended 
 CV  .mps                 2.03:  Crit Velocity 
 CVMX.mps                 2.42:  Max Crit Veloc 
 DD1 .          Taghi Taghiyev:  Direct Drillr 1 
 DD2 .      Tariel Pirmammadov:  Direct Drillr 2 
 DD3 .          Teymur Aghayev:  Direct Drillr 3 
 DDSV.                 iCruise:  DD Service 
 DEFF.%                  98.70:  % Det Eff 
 DLRX.°/30m               1.00:  Dogleg Rot Max 
 DLSO.°/30m               1.80:  Dogleg Oriented 
 DLSX.°/30m               3.16:  Dogleg Str Max 
 DRET.      15.00.00 07-Aug-20:  Drill End Time 
 DRST.      17.00.00 02-Aug-20:  Drill Start Tim 
 DTIM.hr                 45.90:  Time Drilling 
 EDEP.m                5298.01:  End Depth 
 ENG1.       Seymur Iskandarov:  Engineer 1 
 ENG2.         Yevgeniy Ulikov:  Engineer 2 
 ENG3.      Artemiy Matviyanov:  Engineer 3 
 ENG4.         Bahruz Mehdiyev:  Engineer 4 
 ETIM.      05.00.00 10-Aug-20:  End Time 
 FLOI.gpm              1150.00:  Flow In 
 FLON.gpm               900.00:  Flow In Min 
 FLOS.cptm                0.00:  Fluid Loss 
 FLOX.gpm              1200.00:  Flow In Max 
 FTRO.     Connectivity, Formation Presure:  FTWD Run Obj 
 HFLO.                      No:  High Flow 
 HPRE.                     Yes:  High Pressure 
 HTEM.                      No:  High Temp 
 HYDO.m                   1.80:  Hydro Offset 
 IFIN.deg                 9.71:  Inc, Final 
 IMAX.deg                63.81:  Inc Max 
 IMIN.deg                 9.53:  Inc Min 
 IMND.m                5075.52:  Inc Min Depth 
 IMXD.m                4367.08:  Inc Max Depth 
 JARR.                      No:  Jarring 
 LETM.      15.00.00 07-Aug-20:  Log End Time 
 LOST.hr                     2:  Lost Rig Time 
 LSTM.      17.00.00 02-Aug-20:  Log Start Time 
 MDCL.ppm             42500.00:  Mud Chlorides 
 MDES.     Inversion Oil/Synthetic:  Mud Desc 
 DFD .sg                  1.46:  Mud Density 
 MDMN.sg                  1.46:  Dens Mud Min 
 MDMX.sg                  1.46:  Dens Mud Max 
 MOIL.                      56:  Run Mud Oil % 
 MOWR.                   70:30:  Run Mud OWR 
 MSND.                     0.1:  Run Mud Sand % 
 MSOL.                      19:  Run Mud Solids% 
 DFV .spqt               83.00:  Mud Viscosity 
 MWOD.in                  8.00:  MWD Tool OD 
 MWSI.                     Yes:  Serv Intrp, MWD 
 OTIM.hr                196.57:  Time Operating 
 PCON.           Look Like New:  Pad Condition 
 PMAX.psia             7400.00:  Press Op, Max 
 PV  .cP                 36.00:  Mud PV 
 RUN .                    1000:  Run Number 
 ROPA.m/hr               25.00:  ROP Avg 
 ROPN.m/hr               10.00:  ROP Min 
 ROPX.m/hr               32.00:  ROP Max 
 RPMA.rpm               120.00:  RPM Surface Avg 
 RPMN.rpm               100.00:  RPM Surface Min 
 RPMX.rpm               140.00:  RPM Surface Max 
 RRUN.                    L504:  Rig Run Number 
 SAZI.deg               308.25:  Azm, Start 
 SDEP.m                4364.01:  Start Depth 
 SIDD.                      No:  Serv Intrp, DD 
 SINC.deg                63.81:  Inc, Start 
 SPPA.psig             5800.00:  SPP Avg 
 SPPN.psig             4200.00:  SPP Min 
 SPPX.psig             5950.00:  SPP Max 
 STIM.      18.00.00 01-Aug-20:  Start Time 
 SVCS.                 DD, MWD:  Services 
 SVER.                    9.20:  Sperry Version 
 TDAT.m                 934.00:  Tot Depth Attmp 
 TDDF.                      No:  Trip for DD 
 TDLG.m                 934.00:  Tot Depth Loggd 
 TFF .                      No:  Trip for Fail 
 TQAA.f-kp               31.00:  Torque Abs Avg 
 TQAN.f-kp               25.00:  Torque Abs Min 
 TQAX.f-kp               35.00:  Torque Abs Max 
 TRRT.°/30m              -0.75:  Turn Rotating 
 MRT .                  EWR-M5:  Maximum Recorded Temperature 
 TTMX.degC               95.00:  Max Tool Temp 
 VS01.                90516060:  Virtual Str1 SN 
 VS02.                90528488:  Virtual Str2 SN 
 VS03.                90577970:  Virtual Str3 SN 
 VS04.                12385033:  Virtual Str4 SN 
 VS05.                90522069:  Virtual Str5 SN 
 VS06.                13124134:  Virtual Str6 SN 
 WBMN.klb                20.00:  WOB Min 
 WITN.         Alistair Sprott:  Customer Rep 
 WITN.     Ronal van der Kraan:  Customer Rep 2 
 WOBA.klb                25.00:  WOB Avg 
 WOBX.klb                31.00:  WOB Max 
 YP  .lhf2               32.00:  Yield Point 
~Curve Information Block
#MNEM.UNIT                 API CODE     Curve Description
#---------               -----------    ---------------------------
 TIME.HHMMSS            00 000 000 000:  GT Time & Date
 GTDEPTH.m              00 000 000 000:  GT Depth
 GTPQH.psia             00 000 000 000:  GT HR Quartz Pressure
 GTTQ.degC              00 000 000 000:  GT Quartz Temperature
 GTTN.NONE              00 000 000 000:  GT Test Number
 GTET.sec               00 000 000 000:  GT Elapsed Test Time
 GTTVD.m                00 000 000 000:  GT True Vertical Depth
#Other Information
#
#WARRANTY: Halliburton will use its best efforts to furnish customers with 
#accurate information and interpretations that are part of, and incident to, the services 
#provided.  However, Halliburton cannot and does not warrant the accuracy 
#or correctness of such information and interpretations.  Under no circumstances should any 
#such information or interpretation be relied upon as the sole basis for any drilling, 
#completion, production, or financial decision or any procedure involving any risk to the 
#safety of any drilling venture, drilling rig or its crew or any other third party.  The 
#Customer has full responsibility for all drilling, completion and production operation.  
#Halliburton makes no representations or warranties, either expressed or 
#implied, including, but not limited to, the implied warranties of merchantability or fitness 
#for a particular purpose, with respect to the services rendered.  In no event will 
#Halliburton be liable for failure to obtain any particular results or for 
#any damages, including, but not limited to, indirect, special or consequential damages, 
#resulting from the use of any information or interpretation provided by Halliburton.
#
~A           TIME           GTDEPTH  GTPQH  GTTQ  GTTN  GTET   GTTVD  
   09:23:14.995.08-Aug-2020 5133.51 7130.83 75.21 8.00   0.00 3319.72
   09:23:15.196.08-Aug-2020 5133.51 7130.83 75.21 8.00   0.20 3319.72
   09:23:15.396.08-Aug-2020 5133.51 7129.53 75.21 8.00   0.40 3319.72
   09:23:15.596.08-Aug-2020 5133.51 7132.36 75.21 8.00   0.60 3319.72
   09:23:15.796.08-Aug-2020 5133.51 7127.65 75.21 8.00   0.80 3319.72
   09:23:15.996.08-Aug-2020 5133.51 7129.06 75.21 8.00   1.00 3319.72
   09:23:16.196.08-Aug-2020 5133.51 7129.06 75.21 8.00   1.20 3319.72
   09:23:16.396.08-Aug-2020 5133.51 7130.78 75.21 8.00   1.40 3319.72
   09:23:16.596.08-Aug-2020 5133.51 7123.90 75.21 8.00   1.60 3319.72
   09:23:16.796.08-Aug-2020 5133.51 7126.90 75.21 8.00   1.80 3319.72
   09:23:16.997.08-Aug-2020 5133.51 7124.61 75.21 8.00   2.00 3319.72
   09:23:17.197.08-Aug-2020 5133.51 7124.61 75.21 8.00   2.20 3319.72
   09:23:17.397.08-Aug-2020 5133.51 7128.54 75.21 8.00   2.40 3319.72
   09:23:17.597.08-Aug-2020 5133.51 7119.86 75.21 8.00   2.60 3319.72
   09:23:17.797.08-Aug-2020 5133.51 7125.56 75.21 8.00   2.80 3319.72
   09:23:17.997.08-Aug-2020 5133.51 7122.61 75.21 8.00   3.00 3319.72
   09:23:18.197.08-Aug-2020 5133.51 7124.80 75.21 8.00   3.20 3319.72
   09:23:18.397.08-Aug-2020 5133.51 7124.98 75.21 8.00   3.40 3319.72
   09:23:18.597.08-Aug-2020 5133.51 7127.33 75.21 8.00   3.60 3319.72
   09:23:18.797.08-Aug-2020 5133.51 7128.81 75.21 8.00   3.80 3319.72
   09:23:18.998.08-Aug-2020 5133.51 7130.30 75.21 8.00   4.00 3319.72
   09:23:19.198.08-Aug-2020 5133.51 7130.30 75.21 8.00   4.20 3319.72
   09:23:19.398.08-Aug-2020 5133.51 7133.83 75.21 8.00   4.40 3319.72
   09:23:19.598.08-Aug-2020 5133.51 7137.62 75.21 8.00   4.60 3319.72
   09:23:19.798.08-Aug-2020 5133.51 7138.55 75.21 8.00   4.80 3319.72
   09:23:19.998.08-Aug-2020 5133.51 7140.02 75.21 8.00   5.00 3319.72
   09:23:20.198.08-Aug-2020 5133.51 7140.02 75.21 8.00   5.20 3319.72
   09:23:20.398.08-Aug-2020 5133.51 7141.25 75.21 8.00   5.40 3319.72
   09:23:20.598.08-Aug-2020 5133.51 7141.33 75.21 8.00   5.60 3319.72
   09:23:20.799.08-Aug-2020 5133.51 7145.68 75.21 8.00   5.80 3319.72
   09:23:20.999.08-Aug-2020 5133.51 7139.01 75.21 8.00   6.00 3319.72
   09:23:21.199.08-Aug-2020 5133.51 7139.01 75.21 8.00   6.20 3319.72
   09:23:21.399.08-Aug-2020 5133.51 7139.56 75.21 8.00   6.40 3319.72
   09:23:21.599.08-Aug-2020 5133.51 7138.65 75.21 8.00   6.60 3319.72
   09:23:21.799.08-Aug-2020 5133.51 7138.86 75.21 8.00   6.80 3319.72
   09:23:21.999.08-Aug-2020 5133.51 7138.20 75.21 8.00   7.00 3319.72
   09:23:22.199.08-Aug-2020 5133.51 7138.23 75.21 8.00   7.20 3319.72
   09:23:22.399.08-Aug-2020 5133.51 7138.08 75.21 8.00   7.40 3319.72
   09:23:22.599.08-Aug-2020 5133.51 7139.00 75.21 8.00   7.60 3319.72
   09:23:22.800.08-Aug-2020 5133.51 7138.09 75.21 8.00   7.80 3319.72
   09:23:23.000.08-Aug-2020 5133.51 7139.57 75.21 8.00   8.00 3319.72
   09:23:23.200.08-Aug-2020 5133.51 7139.57 75.21 8.00   8.20 3319.72
   09:23:23.400.08-Aug-2020 5133.51 7138.78 75.21 8.00   8.40 3319.72
   09:23:23.600.08-Aug-2020 5133.51 7138.52 75.21 8.00   8.60 3319.72
   09:23:23.800.08-Aug-2020 5133.51 7138.24 75.21 8.00   8.80 3319.72
   09:23:24.000.08-Aug-2020 5133.51 7137.87 75.21 8.00   9.00 3319.72
   09:23:24.200.08-Aug-2020 5133.51 7137.87 75.21 8.00   9.20 3319.72
   09:23:24.400.08-Aug-2020 5133.51 7138.60 75.20 8.00   9.40 3319.72
   09:23:24.601.08-Aug-2020 5133.51 7139.00 75.20 8.00   9.61 3319.72
   09:23:24.801.08-Aug-2020 5133.51 7138.00 75.20 8.00   9.81 3319.72
   09:23:25.001.08-Aug-2020 5133.51 7137.38 75.20 8.00  10.01 3319.72
   09:23:25.201.08-Aug-2020 5133.51 7137.38 75.20 8.00  10.21 3319.72
   09:23:25.401.08-Aug-2020 5133.51 7135.93 75.20 8.00  10.41 3319.72
   09:23:25.601.08-Aug-2020 5133.51 7139.57 75.20 8.00  10.61 3319.72
   09:23:25.801.08-Aug-2020 5133.51 7136.57 75.20 8.00  10.81 3319.72
   09:23:26.001.08-Aug-2020 5133.51 7137.39 75.20 8.00  11.01 3319.72
   09:23:26.201.08-Aug-2020 5133.51 7137.39 75.20 8.00  11.21 3319.72
   09:23:26.401.08-Aug-2020 5133.51 7138.97 75.20 8.00  11.41 3319.72
   09:23:26.602.08-Aug-2020 5133.51 7139.00 75.20 8.00  11.61 3319.72
   09:23:26.802.08-Aug-2020 5133.51 7136.51 75.20 8.00  11.81 3319.72
   09:23:27.002.08-Aug-2020 5133.51 7137.32 75.20 8.00  12.01 3319.72
   09:23:27.202.08-Aug-2020 5133.51 7137.32 75.20 8.00  12.21 3319.72
   09:23:27.402.08-Aug-2020 5133.51 7140.26 75.20 8.00  12.41 3319.72
   09:23:27.602.08-Aug-2020 5133.51 7139.80 75.20 8.00  12.61 3319.72
   09:23:27.802.08-Aug-2020 5133.51 7138.32 75.20 8.00  12.81 3319.72
   09:23:28.002.08-Aug-2020 5133.51 7141.52 75.20 8.00  13.01 3319.72
   09:23:28.202.08-Aug-2020 5133.51 7141.52 75.20 8.00  13.21 3319.72
   09:23:28.403.08-Aug-2020 5133.51 7141.56 75.20 8.00  13.41 3319.72
   09:23:28.603.08-Aug-2020 5133.51 7140.32 75.20 8.00  13.61 3319.72
   09:23:28.803.08-Aug-2020 5133.51 7140.55 75.20 8.00  13.81 3319.72
   09:23:29.003.08-Aug-2020 5133.51 7140.74 75.20 8.00  14.01 3319.72
   09:23:29.203.08-Aug-2020 5133.51 7140.74 75.20 8.00  14.21 3319.72
   09:23:29.403.08-Aug-2020 5133.51 7140.75 75.20 8.00  14.41 3319.72
   09:23:29.603.08-Aug-2020 5133.51 7142.69 75.20 8.00  14.61 3319.72
   09:23:29.803.08-Aug-2020 5133.51 7142.81 75.20 8.00  14.81 3319.72
   09:23:30.003.08-Aug-2020 5133.51 7141.27 75.20 8.00  15.01 3319.72
   09:23:30.203.08-Aug-2020 5133.51 7141.69 75.20 8.00  15.21 3319.72
   09:23:30.404.08-Aug-2020 5133.51 7140.16 75.20 8.00  15.41 3319.72
   09:23:30.604.08-Aug-2020 5133.51 7139.68 75.20 8.00  15.61 3319.72
   09:23:30.804.08-Aug-2020 5133.51 7138.69 75.20 8.00  15.81 3319.72
   09:23:31.004.08-Aug-2020 5133.51 7138.45 75.20 8.00  16.01 3319.72
   09:23:31.204.08-Aug-2020 5133.51 7138.45 75.20 8.00  16.21 3319.72
   09:23:31.404.08-Aug-2020 5133.51 7137.32 75.20 8.00  16.41 3319.72
   09:23:31.604.08-Aug-2020 5133.51 7136.27 75.20 8.00  16.61 3319.72
   09:23:31.804.08-Aug-2020 5133.51 7135.60 75.20 8.00  16.81 3319.72
   09:23:32.004.08-Aug-2020 5133.51 7134.96 75.20 8.00  17.01 3319.72
   09:23:32.205.08-Aug-2020 5133.51 7134.96 75.20 8.00  17.21 3319.72
   09:23:32.405.08-Aug-2020 5133.51 7134.42 75.20 8.00  17.41 3319.72
   09:23:32.605.08-Aug-2020 5133.51 7134.28 75.20 8.00  17.61 3319.72
   09:23:32.805.08-Aug-2020 5133.51 7139.11 75.20 8.00  17.81 3319.72
   09:23:33.005.08-Aug-2020 5133.51 7132.34 75.20 8.00  18.01 3319.72
   09:23:33.205.08-Aug-2020 5133.51 7132.34 75.20 8.00  18.21 3319.72
   09:23:33.405.08-Aug-2020 5133.51 7134.54 75.20 8.00  18.41 3319.72
   09:23:33.605.08-Aug-2020 5133.51 7134.15 75.20 8.00  18.61 3319.72
   09:23:33.805.08-Aug-2020 5133.51 7134.52 75.20 8.00  18.81 3319.72
   09:23:34.005.08-Aug-2020 5133.51 7133.91 75.20 8.00  19.01 3319.72
   09:23:34.206.08-Aug-2020 5133.51 7134.34 75.20 8.00  19.21 3319.72
   09:23:34.406.08-Aug-2020 5133.51 7133.10 75.20 8.00  19.41 3319.72
   09:23:34.606.08-Aug-2020 5133.51 7134.65 75.20 8.00  19.61 3319.72
   09:23:34.806.08-Aug-2020 5133.51 7133.15 75.20 8.00  19.81 3319.72
   09:23:35.006.08-Aug-2020 5133.51 7134.20 75.20 8.00  20.01 3319.72
   09:23:35.206.08-Aug-2020 5133.51 7134.20 75.20 8.00  20.21 3319.72
   09:23:35.406.08-Aug-2020 5133.51 7133.71 75.19 8.00  20.41 3319.72
   09:23:35.606.08-Aug-2020 5133.51 7133.57 75.19 8.00  20.61 3319.72
   09:23:35.806.08-Aug-2020 5133.51 7133.18 75.19 8.00  20.81 3319.72
   09:23:36.007.08-Aug-2020 5133.51 7138.09 75.19 8.00  21.01 3319.72
   09:23:36.207.08-Aug-2020 5133.51 7138.09 75.19 8.00  21.21 3319.72
   09:23:36.407.08-Aug-2020 5133.51 7135.38 75.19 8.00  21.41 3319.72
   09:23:36.607.08-Aug-2020 5133.51 7138.12 75.19 8.00  21.61 3319.72
   09:23:36.807.08-Aug-2020 5133.51 7131.03 75.19 8.00  21.81 3319.72
   09:23:37.007.08-Aug-2020 5133.51 7135.35 75.19 8.00  22.01 3319.72
   09:23:37.207.08-Aug-2020 5133.51 7135.35 75.19 8.00  22.21 3319.72
   09:23:37.407.08-Aug-2020 5133.51 7132.83 75.19 8.00  22.41 3319.72
   09:23:37.607.08-Aug-2020 5133.51 7133.08 75.19 8.00  22.61 3319.72
   09:23:37.808.08-Aug-2020 5133.51 7134.82 75.19 8.00  22.81 3319.72
