~Version Information
 VERS.                  2.0:   CWLS log ASCII Standard -VERSION 2.0
 WRAP.                   NO:   One line per depth step
~Well Information Block
#MNEM.UNIT     VALUE/NAME     DESCRIPTION
#---------     -----------    ---------------------------
 STRT.S             05:51:10 08-Aug-20: START TIME 05:51:10 08-Aug-20
 STOP.S             05:59:38 08-Aug-20: STOP TIME  05:59:38 08-Aug-20
 STEP.S                   0.00: STEP TIME
 NULL.                 -999.25: NULL VALUE
 DFWT.                        :  DIST FWL TEXT
 DFST.                        :  DIST FSL TEXT
 DMF .             Drill Floor:  DRILL MEAS FROM
 STIM.      13.47.44 07-Jun-20:  START TIME
 DATE.      13.47.44 27-Jul-20:  END TIME
 SPUD.               07-Jun-20:  SPUD DATE
 NREF.                    Grid:  NORTH REFERENCE
 HPTY.       Minimum Curvature:  HOLE POS TYPE
 DMOD.             Drill Model:  DRILL MOD DESC
 SVYD.                  Survey:  SURVEY DESC
 ILTD.               Lithology:  INTERP LTH DESC
 FTOP.          Formation Tops:  FORM TOPS DESC
 RIG .             West Chirag:  RIG NAME
 PDAT.          Mean Sea Level:  PERMANENT DATUM
 FLD .                     ACG:  FIELD NAME
 SON .        AZ-XX-0906363612:  JOB NUMBER
 CTRY.              Azerbaijan:  COUNTRY NAME
 WELL.           J25 (Slot 35):  WELL NAME
 SRVC.          Turan Drilling:  CONTRACTOR
 COMP.     BP Exploration (Caspian Sea) Ltd:  COMPANY
 UWI .                     N/A:  UNIQUE WELL IDENTIFIER
 API .                     N/A:  API NUMBER
 BASE.              Azerbaijan:  LOGGING EQUIPMENT BASE LOCATION
 REGN.                   EESSA:  REGION
 PROV.                    Baku:  PROVINCE
 STAT.                    Baku:  STATE NAME
 MWDS.                     N/A:  MWD SHOP
 DOE .                     N/A:  DOE NUMBER
 DCON.         Sperry Drilling:  DIRECTNL CONTR
 UNIT.                     N/A:  LOGGING EQUIPMENT ID
 MDS .        Operator Entered:  MAG DATA SOURCE
 JOBN.        AZ-XX-0906363612:  JOB TICKET NUMB
 WTYP.                Deviated:  WELL TYPE
 CNTY.                        :  COUNTY
 LOC .                        :  LOCATION
 LMF .             Drill Floor:  LOG MEASURED FROM
 TVDS.m                  43.00:  TVDSS CORRECTN
 LATI.deg                40.13:  LATITUDE
 LONG.deg                51.22:  LONGITUDE
 WHNS.m                  -7.90:  WELL HEAD N/S
 WHEW.m                  -3.35:  WELL HEAD E/W
 UTMX.m              519005.06:  UTM X
 UTMY.m             4443793.85:  UTM Y
 DFWL.m                   0.00:  DISTANCE FWL
 DFSL.m                   0.00:  DISTANCE FSL
 SDEP.m                   0.00:  START DEPTH
 TDD .m                   0.00:  TOTAL DEPTH (DRILLER)
 VSDR.deg               308.97:  VERT SEC DIRECT
 GVFD.g                   1.00:  GRAVITY FIELD
 MFLD.nT              50350.00:  MAGNETIC FIELD
 MDIP.deg                59.62:  MAGNETIC DIP
 MDEC.deg                 6.44:  MAGNETIC DECL
 GRDC.deg                 0.13:  GRID CORRECTION
 AZTC.deg                 6.32:  AZM TOTAL CORR
 EPD .m                   0.00:  ELEVATION
 EGL .m                   0.00:  GROUND ELEVATION
 WDMS.m                 169.80:  WD ELEV
 APD .m                  43.00:  DEPTH ABOVE PD
 DEP .m                 356.43:  DEPTH
 AGAP.m                  43.00:  AIR GAP
 VSEW.m                  -3.35:  VERT SEC E/W
 VSNS.m                  -7.90:  VERT SEC N/S
 EKB .m                  43.00:  KB ELEVATION
 EDF .m                  43.00:  DF ELEVATION
 TDL .m                 934.00:  TOTAL DEPTH (LOGGER)
 VSC .                       0:  VS TO CLOSURE
 MAGU.                 1852825:  MAGUTM CHECKSUM
~Parameter Information Block
#MNEM.UNIT       Value        Description
#---------     -----------    ---------------------------
 AV  .mps                 0.80:  Ann Velocity 
 AVMX.mps                 1.70:  Max Ann Veloc 
 AZIF.deg               311.41:  Azm, Final 
 BHAT.        Rotary Steerable:  BHA Type 
 BROT.°/30m               0.09:  Build Rotating 
 BS  .in                 12.25:  Bit Size 
 BSZ .in                 12.25:  Bit Size 
 BTPL.psig              800.00:  Bit Press Loss 
 CABU.                      No:  Customer Abuse 
 COMM.                     ¤'V:  Run Comments 1 
 TCS .hr                 96.00:  Time Ciculation Ended 
 CV  .mps                 2.03:  Crit Velocity 
 CVMX.mps                 2.42:  Max Crit Veloc 
 DD1 .          Taghi Taghiyev:  Direct Drillr 1 
 DD2 .      Tariel Pirmammadov:  Direct Drillr 2 
 DD3 .          Teymur Aghayev:  Direct Drillr 3 
 DDSV.                 iCruise:  DD Service 
 DEFF.%                  98.70:  % Det Eff 
 DLRX.°/30m               1.00:  Dogleg Rot Max 
 DLSO.°/30m               1.80:  Dogleg Oriented 
 DLSX.°/30m               3.16:  Dogleg Str Max 
 DRET.      15.00.00 07-Aug-20:  Drill End Time 
 DRST.      17.00.00 02-Aug-20:  Drill Start Tim 
 DTIM.hr                 45.90:  Time Drilling 
 EDEP.m                5298.01:  End Depth 
 ENG1.       Seymur Iskandarov:  Engineer 1 
 ENG2.         Yevgeniy Ulikov:  Engineer 2 
 ENG3.      Artemiy Matviyanov:  Engineer 3 
 ENG4.         Bahruz Mehdiyev:  Engineer 4 
 ETIM.      05.00.00 10-Aug-20:  End Time 
 FLOI.gpm              1150.00:  Flow In 
 FLON.gpm               900.00:  Flow In Min 
 FLOS.cptm                0.00:  Fluid Loss 
 FLOX.gpm              1200.00:  Flow In Max 
 FTRO.     Connectivity, Formation Presure:  FTWD Run Obj 
 HFLO.                      No:  High Flow 
 HPRE.                     Yes:  High Pressure 
 HTEM.                      No:  High Temp 
 HYDO.m                   1.80:  Hydro Offset 
 IFIN.deg                 9.71:  Inc, Final 
 IMAX.deg                63.81:  Inc Max 
 IMIN.deg                 9.53:  Inc Min 
 IMND.m                5075.52:  Inc Min Depth 
 IMXD.m                4367.08:  Inc Max Depth 
 JARR.                      No:  Jarring 
 LETM.      15.00.00 07-Aug-20:  Log End Time 
 LOST.hr                     2:  Lost Rig Time 
 LSTM.      17.00.00 02-Aug-20:  Log Start Time 
 MDCL.ppm             42500.00:  Mud Chlorides 
 MDES.     Inversion Oil/Synthetic:  Mud Desc 
 DFD .sg                  1.46:  Mud Density 
 MDMN.sg                  1.46:  Dens Mud Min 
 MDMX.sg                  1.46:  Dens Mud Max 
 MOIL.                      56:  Run Mud Oil % 
 MOWR.                   70:30:  Run Mud OWR 
 MSND.                     0.1:  Run Mud Sand % 
 MSOL.                      19:  Run Mud Solids% 
 DFV .spqt               83.00:  Mud Viscosity 
 MWOD.in                  8.00:  MWD Tool OD 
 MWSI.                     Yes:  Serv Intrp, MWD 
 OTIM.hr                196.57:  Time Operating 
 PCON.           Look Like New:  Pad Condition 
 PMAX.psia             7400.00:  Press Op, Max 
 PV  .cP                 36.00:  Mud PV 
 RUN .                    1000:  Run Number 
 ROPA.m/hr               25.00:  ROP Avg 
 ROPN.m/hr               10.00:  ROP Min 
 ROPX.m/hr               32.00:  ROP Max 
 RPMA.rpm               120.00:  RPM Surface Avg 
 RPMN.rpm               100.00:  RPM Surface Min 
 RPMX.rpm               140.00:  RPM Surface Max 
 RRUN.                    L504:  Rig Run Number 
 SAZI.deg               308.25:  Azm, Start 
 SDEP.m                4364.01:  Start Depth 
 SIDD.                      No:  Serv Intrp, DD 
 SINC.deg                63.81:  Inc, Start 
 SPPA.psig             5800.00:  SPP Avg 
 SPPN.psig             4200.00:  SPP Min 
 SPPX.psig             5950.00:  SPP Max 
 STIM.      18.00.00 01-Aug-20:  Start Time 
 SVCS.                 DD, MWD:  Services 
 SVER.                    9.20:  Sperry Version 
 TDAT.m                 934.00:  Tot Depth Attmp 
 TDDF.                      No:  Trip for DD 
 TDLG.m                 934.00:  Tot Depth Loggd 
 TFF .                      No:  Trip for Fail 
 TQAA.f-kp               31.00:  Torque Abs Avg 
 TQAN.f-kp               25.00:  Torque Abs Min 
 TQAX.f-kp               35.00:  Torque Abs Max 
 TRRT.°/30m              -0.75:  Turn Rotating 
 MRT .                  EWR-M5:  Maximum Recorded Temperature 
 TTMX.degC               95.00:  Max Tool Temp 
 VS01.                90516060:  Virtual Str1 SN 
 VS02.                90528488:  Virtual Str2 SN 
 VS03.                90577970:  Virtual Str3 SN 
 VS04.                12385033:  Virtual Str4 SN 
 VS05.                90522069:  Virtual Str5 SN 
 VS06.                13124134:  Virtual Str6 SN 
 WBMN.klb                20.00:  WOB Min 
 WITN.         Alistair Sprott:  Customer Rep 
 WITN.     Ronal van der Kraan:  Customer Rep 2 
 WOBA.klb                25.00:  WOB Avg 
 WOBX.klb                31.00:  WOB Max 
 YP  .lhf2               32.00:  Yield Point 
~Curve Information Block
#MNEM.UNIT                 API CODE     Curve Description
#---------               -----------    ---------------------------
 TIME.HHMMSS            00 000 000 000:  GT Time & Date
 GTDEPTH.m              00 000 000 000:  GT Depth
 GTPQH.psia             00 000 000 000:  GT HR Quartz Pressure
 GTTQ.degC              00 000 000 000:  GT Quartz Temperature
 GTTN.NONE              00 000 000 000:  GT Test Number
 GTET.sec               00 000 000 000:  GT Elapsed Test Time
 GTTVD.m                00 000 000 000:  GT True Vertical Depth
#Other Information
#
#WARRANTY: Halliburton will use its best efforts to furnish customers with 
#accurate information and interpretations that are part of, and incident to, the services 
#provided.  However, Halliburton cannot and does not warrant the accuracy 
#or correctness of such information and interpretations.  Under no circumstances should any 
#such information or interpretation be relied upon as the sole basis for any drilling, 
#completion, production, or financial decision or any procedure involving any risk to the 
#safety of any drilling venture, drilling rig or its crew or any other third party.  The 
#Customer has full responsibility for all drilling, completion and production operation.  
#Halliburton makes no representations or warranties, either expressed or 
#implied, including, but not limited to, the implied warranties of merchantability or fitness 
#for a particular purpose, with respect to the services rendered.  In no event will 
#Halliburton be liable for failure to obtain any particular results or for 
#any damages, including, but not limited to, indirect, special or consequential damages, 
#resulting from the use of any information or interpretation provided by Halliburton.
#
~A           TIME           GTDEPTH  GTPQH  GTTQ  GTTN  GTET   GTTVD  
# ...
   05:55:00.777.08-Aug-2020 5190.42 4664.24 82.71 3.00 229.88 3375.81
   05:55:00.977.08-Aug-2020 5190.42 4664.24 82.71 3.00 230.08 3375.81
   05:55:01.177.08-Aug-2020 5190.42 4692.76 82.71 3.00 230.28 3375.81
   05:55:01.377.08-Aug-2020 5190.42 4706.62 82.71 3.00 230.48 3375.81
   05:55:01.577.08-Aug-2020 5190.42 4719.87 82.71 3.00 230.68 3375.81
   05:55:01.777.08-Aug-2020 5190.42 4733.89 82.71 3.00 230.88 3375.81
   05:55:01.976.08-Aug-2020 5190.42 4733.89 82.71 3.00 231.08 3375.81
   05:55:02.176.08-Aug-2020 5190.42 4760.87 82.72 3.00 231.28 3375.81
   05:55:02.376.08-Aug-2020 5190.42 4774.48 82.72 3.00 231.48 3375.81
   05:55:02.576.08-Aug-2020 5190.42 4787.58 82.72 3.00 231.68 3375.81
   05:55:02.776.08-Aug-2020 5190.42 4799.15 82.72 3.00 231.88 3375.81
   05:55:02.976.08-Aug-2020 5190.42 4799.15 82.72 3.00 232.08 3375.81
   05:55:03.176.08-Aug-2020 5190.42 4824.74 82.72 3.00 232.28 3375.81
   05:55:03.376.08-Aug-2020 5190.42 4837.29 82.72 3.00 232.48 3375.81
   05:55:03.576.08-Aug-2020 5190.42 4849.98 82.72 3.00 232.68 3375.81
   05:55:03.776.08-Aug-2020 5190.42 4862.42 82.72 3.00 232.88 3375.81
   05:55:03.975.08-Aug-2020 5190.42 4862.42 82.72 3.00 233.08 3375.81
   05:55:04.175.08-Aug-2020 5190.42 4886.16 82.72 3.00 233.28 3375.81
   05:55:04.375.08-Aug-2020 5190.42 4898.02 82.72 3.00 233.48 3375.81
   05:55:04.575.08-Aug-2020 5190.42 4909.51 82.72 3.00 233.68 3375.81
   05:55:04.775.08-Aug-2020 5190.42 4921.37 82.72 3.00 233.88 3375.81
   05:55:04.975.08-Aug-2020 5190.42 4921.37 82.72 3.00 234.08 3375.81
   05:55:05.175.08-Aug-2020 5190.42 4943.76 82.72 3.00 234.28 3375.81
   05:55:05.375.08-Aug-2020 5190.42 4955.09 82.72 3.00 234.48 3375.81
   05:55:05.575.08-Aug-2020 5190.42 4965.91 82.72 3.00 234.68 3375.81
   05:55:05.774.08-Aug-2020 5190.42 4977.15 82.72 3.00 234.88 3375.81
   05:55:05.974.08-Aug-2020 5190.42 4977.15 82.72 3.00 235.08 3375.81
   05:55:06.174.08-Aug-2020 5190.42 4997.59 82.72 3.00 235.28 3375.81
   05:55:06.374.08-Aug-2020 5190.42 5008.04 82.73 3.00 235.48 3375.81
   05:55:06.574.08-Aug-2020 5190.42 5018.38 82.73 3.00 235.68 3375.81
   05:55:06.774.08-Aug-2020 5190.42 5028.29 82.73 3.00 235.88 3375.81
   05:55:06.974.08-Aug-2020 5190.42 5028.29 82.73 3.00 236.08 3375.81
   05:55:07.174.08-Aug-2020 5190.42 5049.26 82.73 3.00 236.28 3375.81
   05:55:07.374.08-Aug-2020 5190.42 5059.23 82.73 3.00 236.48 3375.81
   05:55:07.574.08-Aug-2020 5190.42 5068.49 82.73 3.00 236.68 3375.81
   05:55:07.773.08-Aug-2020 5190.42 5078.33 82.73 3.00 236.88 3375.81
   05:55:07.973.08-Aug-2020 5190.42 5078.33 82.73 3.00 237.08 3375.81
   05:55:08.173.08-Aug-2020 5190.42 5097.76 82.73 3.00 237.28 3375.81
   05:55:08.373.08-Aug-2020 5190.42 5106.82 82.73 3.00 237.48 3375.81
   05:55:08.573.08-Aug-2020 5190.42 5116.37 82.73 3.00 237.68 3375.81
   05:55:08.773.08-Aug-2020 5190.42 5125.79 82.73 3.00 237.88 3375.81
   05:55:08.973.08-Aug-2020 5190.42 5125.79 82.73 3.00 238.08 3375.81
   05:55:09.173.08-Aug-2020 5190.42 5143.60 82.73 3.00 238.28 3375.81
   05:55:09.373.08-Aug-2020 5190.42 5152.37 82.73 3.00 238.48 3375.81
   05:55:09.573.08-Aug-2020 5190.42 5160.44 82.73 3.00 238.68 3375.81
   05:55:09.772.08-Aug-2020 5190.42 5169.27 82.73 3.00 238.88 3375.81
   05:55:09.972.08-Aug-2020 5190.42 5169.27 82.73 3.00 239.08 3375.81
   05:55:10.172.08-Aug-2020 5190.42 5185.39 82.73 3.00 239.28 3375.81
   05:55:10.372.08-Aug-2020 5190.42 5193.53 82.73 3.00 239.48 3375.81
   05:55:10.572.08-Aug-2020 5190.42 5201.88 82.73 3.00 239.68 3375.81
   05:55:10.772.08-Aug-2020 5190.42 5209.97 82.73 3.00 239.88 3375.81
   05:55:10.972.08-Aug-2020 5190.42 5209.97 82.73 3.00 240.08 3375.81
   05:55:11.172.08-Aug-2020 5190.42 5226.42 82.73 3.00 240.28 3375.81
   05:55:11.372.08-Aug-2020 5190.42 5234.40 82.73 3.00 240.48 3375.81
   05:55:11.572.08-Aug-2020 5190.42 5242.48 82.73 3.00 240.68 3375.81
   05:55:11.771.08-Aug-2020 5190.42 5249.79 82.73 3.00 240.88 3375.81
   05:55:11.971.08-Aug-2020 5190.42 5249.79 82.73 3.00 241.08 3375.81
   05:55:12.171.08-Aug-2020 5190.42 5265.32 82.73 3.00 241.28 3375.81
   05:55:12.371.08-Aug-2020 5190.42 5273.33 82.73 3.00 241.48 3375.81
   05:55:12.571.08-Aug-2020 5190.42 5281.18 82.73 3.00 241.68 3375.81
   05:55:12.771.08-Aug-2020 5190.42 5289.02 82.73 3.00 241.88 3375.81
   05:55:12.971.08-Aug-2020 5190.42 5289.02 82.73 3.00 242.08 3375.81
   05:55:13.171.08-Aug-2020 5190.42 5302.82 82.73 3.00 242.28 3375.81
   05:55:13.371.08-Aug-2020 5190.42 5310.21 82.73 3.00 242.48 3375.81
   05:55:13.571.08-Aug-2020 5190.42 5317.56 82.73 3.00 242.68 3375.81
   05:55:13.770.08-Aug-2020 5190.42 5324.82 82.73 3.00 242.88 3375.81
   05:55:13.970.08-Aug-2020 5190.42 5324.82 82.73 3.00 243.08 3375.81
   05:55:14.170.08-Aug-2020 5190.42 5338.82 82.73 3.00 243.28 3375.81
   05:55:14.370.08-Aug-2020 5190.42 5345.97 82.73 3.00 243.48 3375.81
   05:55:14.570.08-Aug-2020 5190.42 5352.88 82.73 3.00 243.68 3375.81
   05:55:14.770.08-Aug-2020 5190.42 5359.66 82.73 3.00 243.88 3375.81
   05:55:14.970.08-Aug-2020 5190.42 5359.66 82.73 3.00 244.08 3375.81
   05:55:15.170.08-Aug-2020 5190.42 5373.89 82.73 3.00 244.28 3375.81
   05:55:15.370.08-Aug-2020 5190.42 5380.56 82.73 3.00 244.48 3375.81
   05:55:15.570.08-Aug-2020 5190.42 5386.85 82.73 3.00 244.68 3375.81
   05:55:15.769.08-Aug-2020 5190.42 5393.49 82.73 3.00 244.88 3375.81
   05:55:15.969.08-Aug-2020 5190.42 5400.42 82.73 3.00 245.08 3375.81
   05:55:16.169.08-Aug-2020 5190.42 5406.99 82.73 3.00 245.28 3375.81
   05:55:16.369.08-Aug-2020 5190.42 5412.76 82.73 3.00 245.48 3375.81
   05:55:16.569.08-Aug-2020 5190.42 5418.66 82.73 3.00 245.67 3375.81
   05:55:16.769.08-Aug-2020 5190.42 5424.76 82.73 3.00 245.87 3375.81
   05:55:16.969.08-Aug-2020 5190.42 5424.76 82.73 3.00 246.07 3375.81
   05:55:17.169.08-Aug-2020 5190.42 5437.20 82.73 3.00 246.27 3375.81
   05:55:17.369.08-Aug-2020 5190.42 5443.03 82.73 3.00 246.47 3375.81
   05:55:17.568.08-Aug-2020 5190.42 5449.19 82.73 3.00 246.67 3375.81
   05:55:17.768.08-Aug-2020 5190.42 5455.21 82.73 3.00 246.87 3375.81
   05:55:17.968.08-Aug-2020 5190.42 5455.21 82.73 3.00 247.07 3375.81
   05:55:18.168.08-Aug-2020 5190.42 5466.77 82.73 3.00 247.27 3375.81
   05:55:18.368.08-Aug-2020 5190.42 5472.82 82.73 3.00 247.47 3375.81
   05:55:18.568.08-Aug-2020 5190.42 5478.96 82.73 3.00 247.67 3375.81
   05:55:18.768.08-Aug-2020 5190.42 5484.82 82.73 3.00 247.87 3375.81
   05:55:18.968.08-Aug-2020 5190.42 5484.82 82.73 3.00 248.07 3375.81
   05:55:19.168.08-Aug-2020 5190.42 5495.98 82.73 3.00 248.27 3375.81
   05:55:19.368.08-Aug-2020 5190.42 5501.09 82.73 3.00 248.47 3375.81
   05:55:19.567.08-Aug-2020 5190.42 5506.81 82.73 3.00 248.67 3375.81
   05:55:19.767.08-Aug-2020 5190.42 5512.02 82.73 3.00 248.87 3375.81
   05:55:19.967.08-Aug-2020 5190.42 5512.02 82.73 3.00 249.07 3375.81
   05:55:20.167.08-Aug-2020 5190.42 5522.75 82.73 3.00 249.27 3375.81
   05:55:20.367.08-Aug-2020 5190.42 5527.27 82.73 3.00 249.47 3375.81
   05:55:20.567.08-Aug-2020 5190.42 5531.84 82.73 3.00 249.67 3375.81
   05:55:20.767.08-Aug-2020 5190.42 5537.23 82.73 3.00 249.87 3375.81
   05:55:20.967.08-Aug-2020 5190.42 5537.23 82.73 3.00 250.07 3375.81
   05:55:21.167.08-Aug-2020 5190.42 5548.03 82.73 3.00 250.27 3375.81
   05:55:21.367.08-Aug-2020 5190.42 5553.30 82.73 3.00 250.47 3375.81
   05:55:21.566.08-Aug-2020 5190.42 5558.08 82.73 3.00 250.67 3375.81
   05:55:21.766.08-Aug-2020 5190.42 5562.90 82.73 3.00 250.87 3375.81
   05:55:21.966.08-Aug-2020 5190.42 5562.90 82.73 3.00 251.07 3375.81
   05:55:22.166.08-Aug-2020 5190.42 5572.92 82.73 3.00 251.27 3375.81
   05:55:22.366.08-Aug-2020 5190.42 5578.17 82.73 3.00 251.47 3375.81
   05:55:22.566.08-Aug-2020 5190.42 5583.30 82.73 3.00 251.67 3375.81
   05:55:22.766.08-Aug-2020 5190.42 5587.68 82.73 3.00 251.87 3375.81
   05:55:22.966.08-Aug-2020 5190.42 5587.68 82.73 3.00 252.07 3375.81
   05:55:23.166.08-Aug-2020 5190.42 5597.00 82.73 3.00 252.27 3375.81
   05:55:23.366.08-Aug-2020 5190.42 5602.04 82.73 3.00 252.47 3375.81
   05:55:23.565.08-Aug-2020 5190.42 5606.71 82.73 3.00 252.67 3375.81
