~Version Information
 VERS.                  2.0:   CWLS log ASCII Standard -VERSION 2.0
 WRAP.                   NO:   One line per depth step
~Well Information Block
#MNEM.UNIT     VALUE/NAME     DESCRIPTION
#---------     -----------    ---------------------------
 STRT.S             03:17:15 08-Aug-20: START TIME 03:17:15 08-Aug-20
 STOP.S             03:24:06 08-Aug-20: STOP TIME  03:24:06 08-Aug-20
 STEP.S                   0.00: STEP TIME
 NULL.                 -999.25: NULL VALUE
 DFWT.                        :  DIST FWL TEXT
 DFST.                        :  DIST FSL TEXT
 DMF .             Drill Floor:  DRILL MEAS FROM
 STIM.      13.47.44 07-Jun-20:  START TIME
 DATE.      13.47.44 27-Jul-20:  END TIME
 SPUD.               07-Jun-20:  SPUD DATE
 NREF.                    Grid:  NORTH REFERENCE
 HPTY.       Minimum Curvature:  HOLE POS TYPE
 DMOD.             Drill Model:  DRILL MOD DESC
 SVYD.                  Survey:  SURVEY DESC
 ILTD.               Lithology:  INTERP LTH DESC
 FTOP.          Formation Tops:  FORM TOPS DESC
 RIG .             West Chirag:  RIG NAME
 PDAT.          Mean Sea Level:  PERMANENT DATUM
 FLD .                     ACG:  FIELD NAME
 SON .        AZ-XX-0906363612:  JOB NUMBER
 CTRY.              Azerbaijan:  COUNTRY NAME
 WELL.           J25 (Slot 35):  WELL NAME
 SRVC.          Turan Drilling:  CONTRACTOR
 COMP.     BP Exploration (Caspian Sea) Ltd:  COMPANY
 UWI .                     N/A:  UNIQUE WELL IDENTIFIER
 API .                     N/A:  API NUMBER
 BASE.              Azerbaijan:  LOGGING EQUIPMENT BASE LOCATION
 REGN.                   EESSA:  REGION
 PROV.                    Baku:  PROVINCE
 STAT.                    Baku:  STATE NAME
 MWDS.                     N/A:  MWD SHOP
 DOE .                     N/A:  DOE NUMBER
 DCON.         Sperry Drilling:  DIRECTNL CONTR
 UNIT.                     N/A:  LOGGING EQUIPMENT ID
 MDS .        Operator Entered:  MAG DATA SOURCE
 JOBN.        AZ-XX-0906363612:  JOB TICKET NUMB
 WTYP.                Deviated:  WELL TYPE
 CNTY.                        :  COUNTY
 LOC .                        :  LOCATION
 LMF .             Drill Floor:  LOG MEASURED FROM
 TVDS.m                  43.00:  TVDSS CORRECTN
 LATI.deg                40.13:  LATITUDE
 LONG.deg                51.22:  LONGITUDE
 WHNS.m                  -7.90:  WELL HEAD N/S
 WHEW.m                  -3.35:  WELL HEAD E/W
 UTMX.m              519005.06:  UTM X
 UTMY.m             4443793.85:  UTM Y
 DFWL.m                   0.00:  DISTANCE FWL
 DFSL.m                   0.00:  DISTANCE FSL
 SDEP.m                   0.00:  START DEPTH
 TDD .m                   0.00:  TOTAL DEPTH (DRILLER)
 VSDR.deg               308.97:  VERT SEC DIRECT
 GVFD.g                   1.00:  GRAVITY FIELD
 MFLD.nT              50350.00:  MAGNETIC FIELD
 MDIP.deg                59.62:  MAGNETIC DIP
 MDEC.deg                 6.44:  MAGNETIC DECL
 GRDC.deg                 0.13:  GRID CORRECTION
 AZTC.deg                 6.32:  AZM TOTAL CORR
 EPD .m                   0.00:  ELEVATION
 EGL .m                   0.00:  GROUND ELEVATION
 WDMS.m                 169.80:  WD ELEV
 APD .m                  43.00:  DEPTH ABOVE PD
 DEP .m                 356.43:  DEPTH
 AGAP.m                  43.00:  AIR GAP
 VSEW.m                  -3.35:  VERT SEC E/W
 VSNS.m                  -7.90:  VERT SEC N/S
 EKB .m                  43.00:  KB ELEVATION
 EDF .m                  43.00:  DF ELEVATION
 TDL .m                 934.00:  TOTAL DEPTH (LOGGER)
 VSC .                       0:  VS TO CLOSURE
 MAGU.                 1852825:  MAGUTM CHECKSUM
~Parameter Information Block
#MNEM.UNIT       Value        Description
#---------     -----------    ---------------------------
 AV  .mps                 0.80:  Ann Velocity 
 AVMX.mps                 1.70:  Max Ann Veloc 
 AZIF.deg               311.41:  Azm, Final 
 BHAT.        Rotary Steerable:  BHA Type 
 BROT.°/30m               0.09:  Build Rotating 
 BS  .in                 12.25:  Bit Size 
 BSZ .in                 12.25:  Bit Size 
 BTPL.psig              800.00:  Bit Press Loss 
 CABU.                      No:  Customer Abuse 
 COMM.                     k:  Run Comments 1 
 TCS .hr                 96.00:  Time Ciculation Ended 
 CV  .mps                 2.03:  Crit Velocity 
 CVMX.mps                 2.42:  Max Crit Veloc 
 DD1 .          Taghi Taghiyev:  Direct Drillr 1 
 DD2 .      Tariel Pirmammadov:  Direct Drillr 2 
 DD3 .          Teymur Aghayev:  Direct Drillr 3 
 DDSV.                 iCruise:  DD Service 
 DEFF.%                  98.70:  % Det Eff 
 DLRX.°/30m               1.00:  Dogleg Rot Max 
 DLSO.°/30m               1.80:  Dogleg Oriented 
 DLSX.°/30m               3.16:  Dogleg Str Max 
 DRET.      15.00.00 07-Aug-20:  Drill End Time 
 DRST.      17.00.00 02-Aug-20:  Drill Start Tim 
 DTIM.hr                 45.90:  Time Drilling 
 EDEP.m                5298.01:  End Depth 
 ENG1.       Seymur Iskandarov:  Engineer 1 
 ENG2.         Yevgeniy Ulikov:  Engineer 2 
 ENG3.      Artemiy Matviyanov:  Engineer 3 
 ENG4.         Bahruz Mehdiyev:  Engineer 4 
 ETIM.      05.00.00 10-Aug-20:  End Time 
 FLOI.gpm              1150.00:  Flow In 
 FLON.gpm               900.00:  Flow In Min 
 FLOS.cptm                0.00:  Fluid Loss 
 FLOX.gpm              1200.00:  Flow In Max 
 FTRO.     Connectivity, Formation Presure:  FTWD Run Obj 
 HFLO.                      No:  High Flow 
 HPRE.                     Yes:  High Pressure 
 HTEM.                      No:  High Temp 
 HYDO.m                   1.80:  Hydro Offset 
 IFIN.deg                 9.71:  Inc, Final 
 IMAX.deg                63.81:  Inc Max 
 IMIN.deg                 9.53:  Inc Min 
 IMND.m                5075.52:  Inc Min Depth 
 IMXD.m                4367.08:  Inc Max Depth 
 JARR.                      No:  Jarring 
 LETM.      15.00.00 07-Aug-20:  Log End Time 
 LOST.hr                     2:  Lost Rig Time 
 LSTM.      17.00.00 02-Aug-20:  Log Start Time 
 MDCL.ppm             42500.00:  Mud Chlorides 
 MDES.     Inversion Oil/Synthetic:  Mud Desc 
 DFD .sg                  1.46:  Mud Density 
 MDMN.sg                  1.46:  Dens Mud Min 
 MDMX.sg                  1.46:  Dens Mud Max 
 MOIL.                      56:  Run Mud Oil % 
 MOWR.                   70:30:  Run Mud OWR 
 MSND.                     0.1:  Run Mud Sand % 
 MSOL.                      19:  Run Mud Solids% 
 DFV .spqt               83.00:  Mud Viscosity 
 MWOD.in                  8.00:  MWD Tool OD 
 MWSI.                     Yes:  Serv Intrp, MWD 
 OTIM.hr                196.57:  Time Operating 
 PCON.           Look Like New:  Pad Condition 
 PMAX.psia             7400.00:  Press Op, Max 
 PV  .cP                 36.00:  Mud PV 
 RUN .                    1000:  Run Number 
 ROPA.m/hr               25.00:  ROP Avg 
 ROPN.m/hr               10.00:  ROP Min 
 ROPX.m/hr               32.00:  ROP Max 
 RPMA.rpm               120.00:  RPM Surface Avg 
 RPMN.rpm               100.00:  RPM Surface Min 
 RPMX.rpm               140.00:  RPM Surface Max 
 RRUN.                    L504:  Rig Run Number 
 SAZI.deg               308.25:  Azm, Start 
 SDEP.m                4364.01:  Start Depth 
 SIDD.                      No:  Serv Intrp, DD 
 SINC.deg                63.81:  Inc, Start 
 SPPA.psig             5800.00:  SPP Avg 
 SPPN.psig             4200.00:  SPP Min 
 SPPX.psig             5950.00:  SPP Max 
 STIM.      18.00.00 01-Aug-20:  Start Time 
 SVCS.                 DD, MWD:  Services 
 SVER.                    9.20:  Sperry Version 
 TDAT.m                 934.00:  Tot Depth Attmp 
 TDDF.                      No:  Trip for DD 
 TDLG.m                 934.00:  Tot Depth Loggd 
 TFF .                      No:  Trip for Fail 
 TQAA.f-kp               31.00:  Torque Abs Avg 
 TQAN.f-kp               25.00:  Torque Abs Min 
 TQAX.f-kp               35.00:  Torque Abs Max 
 TRRT.°/30m              -0.75:  Turn Rotating 
 MRT .                  EWR-M5:  Maximum Recorded Temperature 
 TTMX.degC               95.00:  Max Tool Temp 
 VS01.                90516060:  Virtual Str1 SN 
 VS02.                90528488:  Virtual Str2 SN 
 VS03.                90577970:  Virtual Str3 SN 
 VS04.                12385033:  Virtual Str4 SN 
 VS05.                90522069:  Virtual Str5 SN 
 VS06.                13124134:  Virtual Str6 SN 
 WBMN.klb                20.00:  WOB Min 
 WITN.         Alistair Sprott:  Customer Rep 
 WITN.     Ronal van der Kraan:  Customer Rep 2 
 WOBA.klb                25.00:  WOB Avg 
 WOBX.klb                31.00:  WOB Max 
 YP  .lhf2               32.00:  Yield Point 
~Curve Information Block
#MNEM.UNIT                 API CODE     Curve Description
#---------               -----------    ---------------------------
 TIME.HHMMSS            00 000 000 000:  GT Time & Date
 GTDEPTH.m              00 000 000 000:  GT Depth
 GTPQH.psia             00 000 000 000:  GT HR Quartz Pressure
 GTTQ.degC              00 000 000 000:  GT Quartz Temperature
 GTTN.NONE              00 000 000 000:  GT Test Number
 GTET.sec               00 000 000 000:  GT Elapsed Test Time
 GTTVD.m                00 000 000 000:  GT True Vertical Depth
#Other Information
#
#WARRANTY: Halliburton will use its best efforts to furnish customers with 
#accurate information and interpretations that are part of, and incident to, the services 
#provided.  However, Halliburton cannot and does not warrant the accuracy 
#or correctness of such information and interpretations.  Under no circumstances should any 
#such information or interpretation be relied upon as the sole basis for any drilling, 
#completion, production, or financial decision or any procedure involving any risk to the 
#safety of any drilling venture, drilling rig or its crew or any other third party.  The 
#Customer has full responsibility for all drilling, completion and production operation.  
#Halliburton makes no representations or warranties, either expressed or 
#implied, including, but not limited to, the implied warranties of merchantability or fitness 
#for a particular purpose, with respect to the services rendered.  In no event will 
#Halliburton be liable for failure to obtain any particular results or for 
#any damages, including, but not limited to, indirect, special or consequential damages, 
#resulting from the use of any information or interpretation provided by Halliburton.
#
~A           TIME           GTDEPTH  GTPQH  GTTQ  GTTN  GTET   GTTVD  
# ...
   03:19:33.526.08-Aug-2020 5190.56 4400.29 85.88 1.00 137.93 3375.95
   03:19:33.726.08-Aug-2020 5190.56 4400.29 85.88 1.00 138.13 3375.95
   03:19:33.926.08-Aug-2020 5190.56 4410.37 85.88 1.00 138.33 3375.95
   03:19:34.125.08-Aug-2020 5190.56 4415.24 85.88 1.00 138.53 3375.95
   03:19:34.325.08-Aug-2020 5190.56 4420.04 85.88 1.00 138.73 3375.95
   03:19:34.525.08-Aug-2020 5190.56 4424.25 85.88 1.00 138.93 3375.95
   03:19:34.725.08-Aug-2020 5190.56 4424.25 85.88 1.00 139.13 3375.95
   03:19:34.925.08-Aug-2020 5190.56 4433.10 85.88 1.00 139.33 3375.95
   03:19:35.125.08-Aug-2020 5190.56 4437.71 85.88 1.00 139.53 3375.95
   03:19:35.325.08-Aug-2020 5190.56 4442.57 85.88 1.00 139.73 3375.95
   03:19:35.525.08-Aug-2020 5190.56 4447.36 85.88 1.00 139.93 3375.95
   03:19:35.725.08-Aug-2020 5190.56 4447.36 85.88 1.00 140.13 3375.95
   03:19:35.925.08-Aug-2020 5190.56 4456.77 85.88 1.00 140.33 3375.95
   03:19:36.124.08-Aug-2020 5190.56 4461.62 85.88 1.00 140.53 3375.95
   03:19:36.324.08-Aug-2020 5190.56 4466.57 85.88 1.00 140.73 3375.95
   03:19:36.524.08-Aug-2020 5190.56 4471.21 85.88 1.00 140.93 3375.95
   03:19:36.724.08-Aug-2020 5190.56 4471.21 85.88 1.00 141.13 3375.95
   03:19:36.924.08-Aug-2020 5190.56 4480.26 85.88 1.00 141.33 3375.95
   03:19:37.124.08-Aug-2020 5190.56 4485.00 85.88 1.00 141.53 3375.95
   03:19:37.324.08-Aug-2020 5190.56 4489.71 85.88 1.00 141.73 3375.95
   03:19:37.524.08-Aug-2020 5190.56 4494.28 85.88 1.00 141.93 3375.95
   03:19:37.724.08-Aug-2020 5190.56 4494.28 85.88 1.00 142.13 3375.95
   03:19:37.924.08-Aug-2020 5190.56 4503.12 85.88 1.00 142.33 3375.95
   03:19:38.123.08-Aug-2020 5190.56 4507.72 85.88 1.00 142.53 3375.95
   03:19:38.323.08-Aug-2020 5190.56 4511.95 85.88 1.00 142.73 3375.95
   03:19:38.523.08-Aug-2020 5190.56 4516.33 85.89 1.00 142.93 3375.95
   03:19:38.723.08-Aug-2020 5190.56 4516.33 85.89 1.00 143.13 3375.95
   03:19:38.923.08-Aug-2020 5190.56 4523.89 85.89 1.00 143.33 3375.95
   03:19:39.123.08-Aug-2020 5190.56 4528.43 85.89 1.00 143.53 3375.95
   03:19:39.323.08-Aug-2020 5190.56 4533.34 85.89 1.00 143.73 3375.95
   03:19:39.523.08-Aug-2020 5190.56 4537.37 85.89 1.00 143.93 3375.95
   03:19:39.723.08-Aug-2020 5190.56 4542.39 85.89 1.00 144.13 3375.95
   03:19:39.922.08-Aug-2020 5190.56 4546.58 85.89 1.00 144.33 3375.95
   03:19:40.122.08-Aug-2020 5190.56 4551.18 85.89 1.00 144.53 3375.95
   03:19:40.322.08-Aug-2020 5190.56 4555.75 85.89 1.00 144.73 3375.95
   03:19:40.522.08-Aug-2020 5190.56 4560.25 85.89 1.00 144.93 3375.95
   03:19:40.722.08-Aug-2020 5190.56 4560.25 85.89 1.00 145.13 3375.95
   03:19:40.922.08-Aug-2020 5190.56 4568.98 85.89 1.00 145.33 3375.95
   03:19:41.122.08-Aug-2020 5190.56 4573.05 85.89 1.00 145.53 3375.95
   03:19:41.322.08-Aug-2020 5190.56 4577.38 85.89 1.00 145.73 3375.95
   03:19:41.522.08-Aug-2020 5190.56 4581.86 85.89 1.00 145.93 3375.95
   03:19:41.722.08-Aug-2020 5190.56 4581.86 85.89 1.00 146.13 3375.95
   03:19:41.921.08-Aug-2020 5190.56 4590.10 85.89 1.00 146.33 3375.95
   03:19:42.121.08-Aug-2020 5190.56 4594.77 85.89 1.00 146.53 3375.95
   03:19:42.321.08-Aug-2020 5190.56 4598.95 85.89 1.00 146.73 3375.95
   03:19:42.521.08-Aug-2020 5190.56 4603.37 85.89 1.00 146.93 3375.95
   03:19:42.721.08-Aug-2020 5190.56 4603.37 85.89 1.00 147.13 3375.95
   03:19:42.921.08-Aug-2020 5190.56 4611.88 85.89 1.00 147.32 3375.95
   03:19:43.121.08-Aug-2020 5190.56 4616.43 85.89 1.00 147.52 3375.95
   03:19:43.321.08-Aug-2020 5190.56 4620.61 85.89 1.00 147.72 3375.95
   03:19:43.521.08-Aug-2020 5190.56 4624.70 85.89 1.00 147.92 3375.95
   03:19:43.721.08-Aug-2020 5190.56 4629.23 85.89 1.00 148.12 3375.95
   03:19:43.920.08-Aug-2020 5190.56 4633.67 85.89 1.00 148.32 3375.95
   03:19:44.120.08-Aug-2020 5190.56 4638.19 85.89 1.00 148.52 3375.95
   03:19:44.320.08-Aug-2020 5190.56 4642.44 85.89 1.00 148.72 3375.95
   03:19:44.520.08-Aug-2020 5190.56 4645.95 85.89 1.00 148.92 3375.95
   03:19:44.720.08-Aug-2020 5190.56 4645.95 85.89 1.00 149.12 3375.95
   03:19:44.920.08-Aug-2020 5190.56 4654.22 85.89 1.00 149.32 3375.95
   03:19:45.120.08-Aug-2020 5190.56 4658.56 85.89 1.00 149.52 3375.95
   03:19:45.320.08-Aug-2020 5190.56 4662.12 85.89 1.00 149.72 3375.95
   03:19:45.520.08-Aug-2020 5190.56 4666.32 85.89 1.00 149.92 3375.95
   03:19:45.720.08-Aug-2020 5190.56 4666.32 85.89 1.00 150.12 3375.95
   03:19:45.919.08-Aug-2020 5190.56 4674.43 85.89 1.00 150.32 3375.95
   03:19:46.119.08-Aug-2020 5190.56 4678.57 85.89 1.00 150.52 3375.95
   03:19:46.319.08-Aug-2020 5190.56 4682.88 85.89 1.00 150.72 3375.95
   03:19:46.519.08-Aug-2020 5190.56 4686.89 85.89 1.00 150.92 3375.95
   03:19:46.719.08-Aug-2020 5190.56 4686.89 85.89 1.00 151.12 3375.95
   03:19:46.919.08-Aug-2020 5190.56 4694.60 85.89 1.00 151.32 3375.95
   03:19:47.119.08-Aug-2020 5190.56 4698.82 85.89 1.00 151.52 3375.95
   03:19:47.319.08-Aug-2020 5190.56 4703.03 85.89 1.00 151.72 3375.95
   03:19:47.519.08-Aug-2020 5190.56 4707.22 85.89 1.00 151.92 3375.95
   03:19:47.719.08-Aug-2020 5190.56 4711.50 85.89 1.00 152.12 3375.95
   03:19:47.918.08-Aug-2020 5190.56 4715.45 85.89 1.00 152.32 3375.95
   03:19:48.118.08-Aug-2020 5190.56 4719.06 85.89 1.00 152.52 3375.95
   03:19:48.318.08-Aug-2020 5190.56 4723.24 85.89 1.00 152.72 3375.95
   03:19:48.518.08-Aug-2020 5190.56 4726.89 85.89 1.00 152.92 3375.95
   03:19:48.718.08-Aug-2020 5190.56 4726.89 85.89 1.00 153.12 3375.95
   03:19:48.918.08-Aug-2020 5190.56 4734.65 85.89 1.00 153.32 3375.95
   03:19:49.118.08-Aug-2020 5190.56 4737.88 85.89 1.00 153.52 3375.95
   03:19:49.318.08-Aug-2020 5190.56 4741.40 85.89 1.00 153.72 3375.95
   03:19:49.518.08-Aug-2020 5190.56 4744.88 85.89 1.00 153.92 3375.95
   03:19:49.718.08-Aug-2020 5190.56 4744.88 85.89 1.00 154.12 3375.95
   03:19:49.917.08-Aug-2020 5190.56 4753.36 85.89 1.00 154.32 3375.95
   03:19:50.117.08-Aug-2020 5190.56 4756.79 85.89 1.00 154.52 3375.95
   03:19:50.317.08-Aug-2020 5190.56 4760.74 85.89 1.00 154.72 3375.95
   03:19:50.517.08-Aug-2020 5190.56 4764.42 85.89 1.00 154.92 3375.95
   03:19:50.717.08-Aug-2020 5190.56 4764.42 85.89 1.00 155.12 3375.95
   03:19:50.917.08-Aug-2020 5190.56 4772.30 85.89 1.00 155.32 3375.95
   03:19:51.117.08-Aug-2020 5190.56 4776.29 85.89 1.00 155.52 3375.95
   03:19:51.317.08-Aug-2020 5190.56 4779.85 85.89 1.00 155.72 3375.95
   03:19:51.517.08-Aug-2020 5190.56 4783.94 85.89 1.00 155.92 3375.95
   03:19:51.716.08-Aug-2020 5190.56 4787.24 85.89 1.00 156.12 3375.95
   03:19:51.916.08-Aug-2020 5190.56 4791.14 85.89 1.00 156.32 3375.95
   03:19:52.116.08-Aug-2020 5190.56 4795.27 85.89 1.00 156.52 3375.95
   03:19:52.316.08-Aug-2020 5190.56 4798.72 85.89 1.00 156.72 3375.95
   03:19:52.516.08-Aug-2020 5190.56 4802.23 85.89 1.00 156.92 3375.95
   03:19:52.716.08-Aug-2020 5190.56 4802.23 85.89 1.00 157.12 3375.95
   03:19:52.916.08-Aug-2020 5190.56 4809.97 85.89 1.00 157.32 3375.95
   03:19:53.116.08-Aug-2020 5190.56 4813.79 85.89 1.00 157.52 3375.95
   03:19:53.316.08-Aug-2020 5190.56 4817.85 85.89 1.00 157.72 3375.95
   03:19:53.516.08-Aug-2020 5190.56 4821.73 85.89 1.00 157.92 3375.95
   03:19:53.715.08-Aug-2020 5190.56 4821.73 85.89 1.00 158.12 3375.95
   03:19:53.915.08-Aug-2020 5190.56 4829.02 85.89 1.00 158.32 3375.95
   03:19:54.115.08-Aug-2020 5190.56 4832.31 85.89 1.00 158.52 3375.95
   03:19:54.315.08-Aug-2020 5190.56 4836.35 85.89 1.00 158.72 3375.95
   03:19:54.515.08-Aug-2020 5190.56 4840.11 85.89 1.00 158.92 3375.95
   03:19:54.715.08-Aug-2020 5190.56 4840.11 85.89 1.00 159.12 3375.95
   03:19:54.915.08-Aug-2020 5190.56 4847.85 85.89 1.00 159.32 3375.95
   03:19:55.115.08-Aug-2020 5190.56 4851.30 85.89 1.00 159.52 3375.95
   03:19:55.315.08-Aug-2020 5190.56 4854.81 85.89 1.00 159.72 3375.95
   03:19:55.515.08-Aug-2020 5190.56 4857.91 85.89 1.00 159.92 3375.95
   03:19:55.714.08-Aug-2020 5190.56 4857.91 85.89 1.00 160.12 3375.95
   03:19:55.914.08-Aug-2020 5190.56 4865.25 85.89 1.00 160.32 3375.95
   03:19:56.114.08-Aug-2020 5190.56 4868.86 85.89 1.00 160.52 3375.95
   03:19:56.314.08-Aug-2020 5190.56 4872.24 85.89 1.00 160.72 3375.95
