~Version Information
 VERS.                  2.0:   CWLS log ASCII Standard -VERSION 2.0
 WRAP.                   NO:   One line per depth step
~Well Information Block
#MNEM.UNIT     VALUE/NAME     DESCRIPTION
#---------     -----------    ---------------------------
 STRT.S             06:39:47 08-Aug-20: START TIME 06:39:47 08-Aug-20
 STOP.S             06:48:06 08-Aug-20: STOP TIME  06:48:06 08-Aug-20
 STEP.S                   0.00: STEP TIME
 NULL.                 -999.25: NULL VALUE
 DFWT.                        :  DIST FWL TEXT
 DFST.                        :  DIST FSL TEXT
 DMF .             Drill Floor:  DRILL MEAS FROM
 STIM.      13.47.44 07-Jun-20:  START TIME
 DATE.      13.47.44 27-Jul-20:  END TIME
 SPUD.               07-Jun-20:  SPUD DATE
 NREF.                    Grid:  NORTH REFERENCE
 HPTY.       Minimum Curvature:  HOLE POS TYPE
 DMOD.             Drill Model:  DRILL MOD DESC
 SVYD.                  Survey:  SURVEY DESC
 ILTD.               Lithology:  INTERP LTH DESC
 FTOP.          Formation Tops:  FORM TOPS DESC
 RIG .             West Chirag:  RIG NAME
 PDAT.          Mean Sea Level:  PERMANENT DATUM
 FLD .                     ACG:  FIELD NAME
 SON .        AZ-XX-0906363612:  JOB NUMBER
 CTRY.              Azerbaijan:  COUNTRY NAME
 WELL.           J25 (Slot 35):  WELL NAME
 SRVC.          Turan Drilling:  CONTRACTOR
 COMP.     BP Exploration (Caspian Sea) Ltd:  COMPANY
 UWI .                     N/A:  UNIQUE WELL IDENTIFIER
 API .                     N/A:  API NUMBER
 BASE.              Azerbaijan:  LOGGING EQUIPMENT BASE LOCATION
 REGN.                   EESSA:  REGION
 PROV.                    Baku:  PROVINCE
 STAT.                    Baku:  STATE NAME
 MWDS.                     N/A:  MWD SHOP
 DOE .                     N/A:  DOE NUMBER
 DCON.         Sperry Drilling:  DIRECTNL CONTR
 UNIT.                     N/A:  LOGGING EQUIPMENT ID
 MDS .        Operator Entered:  MAG DATA SOURCE
 JOBN.        AZ-XX-0906363612:  JOB TICKET NUMB
 WTYP.                Deviated:  WELL TYPE
 CNTY.                        :  COUNTY
 LOC .                        :  LOCATION
 LMF .             Drill Floor:  LOG MEASURED FROM
 TVDS.m                  43.00:  TVDSS CORRECTN
 LATI.deg                40.13:  LATITUDE
 LONG.deg                51.22:  LONGITUDE
 WHNS.m                  -7.90:  WELL HEAD N/S
 WHEW.m                  -3.35:  WELL HEAD E/W
 UTMX.m              519005.06:  UTM X
 UTMY.m             4443793.85:  UTM Y
 DFWL.m                   0.00:  DISTANCE FWL
 DFSL.m                   0.00:  DISTANCE FSL
 SDEP.m                   0.00:  START DEPTH
 TDD .m                   0.00:  TOTAL DEPTH (DRILLER)
 VSDR.deg               308.97:  VERT SEC DIRECT
 GVFD.g                   1.00:  GRAVITY FIELD
 MFLD.nT              50350.00:  MAGNETIC FIELD
 MDIP.deg                59.62:  MAGNETIC DIP
 MDEC.deg                 6.44:  MAGNETIC DECL
 GRDC.deg                 0.13:  GRID CORRECTION
 AZTC.deg                 6.32:  AZM TOTAL CORR
 EPD .m                   0.00:  ELEVATION
 EGL .m                   0.00:  GROUND ELEVATION
 WDMS.m                 169.80:  WD ELEV
 APD .m                  43.00:  DEPTH ABOVE PD
 DEP .m                 356.43:  DEPTH
 AGAP.m                  43.00:  AIR GAP
 VSEW.m                  -3.35:  VERT SEC E/W
 VSNS.m                  -7.90:  VERT SEC N/S
 EKB .m                  43.00:  KB ELEVATION
 EDF .m                  43.00:  DF ELEVATION
 TDL .m                 934.00:  TOTAL DEPTH (LOGGER)
 VSC .                       0:  VS TO CLOSURE
 MAGU.                 1852825:  MAGUTM CHECKSUM
~Parameter Information Block
#MNEM.UNIT       Value        Description
#---------     -----------    ---------------------------
 AV  .mps                 0.80:  Ann Velocity 
 AVMX.mps                 1.70:  Max Ann Veloc 
 AZIF.deg               311.41:  Azm, Final 
 BHAT.        Rotary Steerable:  BHA Type 
 BROT.°/30m               0.09:  Build Rotating 
 BS  .in                 12.25:  Bit Size 
 BSZ .in                 12.25:  Bit Size 
 BTPL.psig              800.00:  Bit Press Loss 
 CABU.                      No:  Customer Abuse 
 COMM.                     ´
n:  Run Comments 1 
 TCS .hr                 96.00:  Time Ciculation Ended 
 CV  .mps                 2.03:  Crit Velocity 
 CVMX.mps                 2.42:  Max Crit Veloc 
 DD1 .          Taghi Taghiyev:  Direct Drillr 1 
 DD2 .      Tariel Pirmammadov:  Direct Drillr 2 
 DD3 .          Teymur Aghayev:  Direct Drillr 3 
 DDSV.                 iCruise:  DD Service 
 DEFF.%                  98.70:  % Det Eff 
 DLRX.°/30m               1.00:  Dogleg Rot Max 
 DLSO.°/30m               1.80:  Dogleg Oriented 
 DLSX.°/30m               3.16:  Dogleg Str Max 
 DRET.      15.00.00 07-Aug-20:  Drill End Time 
 DRST.      17.00.00 02-Aug-20:  Drill Start Tim 
 DTIM.hr                 45.90:  Time Drilling 
 EDEP.m                5298.01:  End Depth 
 ENG1.       Seymur Iskandarov:  Engineer 1 
 ENG2.         Yevgeniy Ulikov:  Engineer 2 
 ENG3.      Artemiy Matviyanov:  Engineer 3 
 ENG4.         Bahruz Mehdiyev:  Engineer 4 
 ETIM.      05.00.00 10-Aug-20:  End Time 
 FLOI.gpm              1150.00:  Flow In 
 FLON.gpm               900.00:  Flow In Min 
 FLOS.cptm                0.00:  Fluid Loss 
 FLOX.gpm              1200.00:  Flow In Max 
 FTRO.     Connectivity, Formation Presure:  FTWD Run Obj 
 HFLO.                      No:  High Flow 
 HPRE.                     Yes:  High Pressure 
 HTEM.                      No:  High Temp 
 HYDO.m                   1.80:  Hydro Offset 
 IFIN.deg                 9.71:  Inc, Final 
 IMAX.deg                63.81:  Inc Max 
 IMIN.deg                 9.53:  Inc Min 
 IMND.m                5075.52:  Inc Min Depth 
 IMXD.m                4367.08:  Inc Max Depth 
 JARR.                      No:  Jarring 
 LETM.      15.00.00 07-Aug-20:  Log End Time 
 LOST.hr                     2:  Lost Rig Time 
 LSTM.      17.00.00 02-Aug-20:  Log Start Time 
 MDCL.ppm             42500.00:  Mud Chlorides 
 MDES.     Inversion Oil/Synthetic:  Mud Desc 
 DFD .sg                  1.46:  Mud Density 
 MDMN.sg                  1.46:  Dens Mud Min 
 MDMX.sg                  1.46:  Dens Mud Max 
 MOIL.                      56:  Run Mud Oil % 
 MOWR.                   70:30:  Run Mud OWR 
 MSND.                     0.1:  Run Mud Sand % 
 MSOL.                      19:  Run Mud Solids% 
 DFV .spqt               83.00:  Mud Viscosity 
 MWOD.in                  8.00:  MWD Tool OD 
 MWSI.                     Yes:  Serv Intrp, MWD 
 OTIM.hr                196.57:  Time Operating 
 PCON.           Look Like New:  Pad Condition 
 PMAX.psia             7400.00:  Press Op, Max 
 PV  .cP                 36.00:  Mud PV 
 RUN .                    1000:  Run Number 
 ROPA.m/hr               25.00:  ROP Avg 
 ROPN.m/hr               10.00:  ROP Min 
 ROPX.m/hr               32.00:  ROP Max 
 RPMA.rpm               120.00:  RPM Surface Avg 
 RPMN.rpm               100.00:  RPM Surface Min 
 RPMX.rpm               140.00:  RPM Surface Max 
 RRUN.                    L504:  Rig Run Number 
 SAZI.deg               308.25:  Azm, Start 
 SDEP.m                4364.01:  Start Depth 
 SIDD.                      No:  Serv Intrp, DD 
 SINC.deg                63.81:  Inc, Start 
 SPPA.psig             5800.00:  SPP Avg 
 SPPN.psig             4200.00:  SPP Min 
 SPPX.psig             5950.00:  SPP Max 
 STIM.      18.00.00 01-Aug-20:  Start Time 
 SVCS.                 DD, MWD:  Services 
 SVER.                    9.20:  Sperry Version 
 TDAT.m                 934.00:  Tot Depth Attmp 
 TDDF.                      No:  Trip for DD 
 TDLG.m                 934.00:  Tot Depth Loggd 
 TFF .                      No:  Trip for Fail 
 TQAA.f-kp               31.00:  Torque Abs Avg 
 TQAN.f-kp               25.00:  Torque Abs Min 
 TQAX.f-kp               35.00:  Torque Abs Max 
 TRRT.°/30m              -0.75:  Turn Rotating 
 MRT .                  EWR-M5:  Maximum Recorded Temperature 
 TTMX.degC               95.00:  Max Tool Temp 
 VS01.                90516060:  Virtual Str1 SN 
 VS02.                90528488:  Virtual Str2 SN 
 VS03.                90577970:  Virtual Str3 SN 
 VS04.                12385033:  Virtual Str4 SN 
 VS05.                90522069:  Virtual Str5 SN 
 VS06.                13124134:  Virtual Str6 SN 
 WBMN.klb                20.00:  WOB Min 
 WITN.         Alistair Sprott:  Customer Rep 
 WITN.     Ronal van der Kraan:  Customer Rep 2 
 WOBA.klb                25.00:  WOB Avg 
 WOBX.klb                31.00:  WOB Max 
 YP  .lhf2               32.00:  Yield Point 
~Curve Information Block
#MNEM.UNIT                 API CODE     Curve Description
#---------               -----------    ---------------------------
 TIME.HHMMSS            00 000 000 000:  GT Time & Date
 GTDEPTH.m              00 000 000 000:  GT Depth
 GTPQH.psia             00 000 000 000:  GT HR Quartz Pressure
 GTTQ.degC              00 000 000 000:  GT Quartz Temperature
 GTTN.NONE              00 000 000 000:  GT Test Number
 GTET.sec               00 000 000 000:  GT Elapsed Test Time
 GTTVD.m                00 000 000 000:  GT True Vertical Depth
#Other Information
#
#WARRANTY: Halliburton will use its best efforts to furnish customers with 
#accurate information and interpretations that are part of, and incident to, the services 
#provided.  However, Halliburton cannot and does not warrant the accuracy 
#or correctness of such information and interpretations.  Under no circumstances should any 
#such information or interpretation be relied upon as the sole basis for any drilling, 
#completion, production, or financial decision or any procedure involving any risk to the 
#safety of any drilling venture, drilling rig or its crew or any other third party.  The 
#Customer has full responsibility for all drilling, completion and production operation.  
#Halliburton makes no representations or warranties, either expressed or 
#implied, including, but not limited to, the implied warranties of merchantability or fitness 
#for a particular purpose, with respect to the services rendered.  In no event will 
#Halliburton be liable for failure to obtain any particular results or for 
#any damages, including, but not limited to, indirect, special or consequential damages, 
#resulting from the use of any information or interpretation provided by Halliburton.
#
~A           TIME           GTDEPTH  GTPQH  GTTQ  GTTN  GTET   GTTVD  
# ...
   06:46:41.000.08-Aug-2020 5176.51 1466.06 80.17 4.00 414.00 3362.10
   06:46:41.200.08-Aug-2020 5176.51 1466.06 80.17 4.00 414.20 3362.10
   06:46:41.400.08-Aug-2020 5176.51 1466.92 80.17 4.00 414.40 3362.10
   06:46:41.600.08-Aug-2020 5176.51 1468.13 80.17 4.00 414.60 3362.10
   06:46:41.800.08-Aug-2020 5176.51 1468.39 80.17 4.00 414.80 3362.10
   06:46:42.000.08-Aug-2020 5176.51 1469.21 80.17 4.00 415.00 3362.10
   06:46:42.200.08-Aug-2020 5176.51 1469.21 80.17 4.00 415.20 3362.10
   06:46:42.400.08-Aug-2020 5176.51 1470.17 80.17 4.00 415.40 3362.10
   06:46:42.600.08-Aug-2020 5176.51 1470.56 80.17 4.00 415.60 3362.10
   06:46:42.800.08-Aug-2020 5176.51 1471.08 80.17 4.00 415.80 3362.10
   06:46:43.000.08-Aug-2020 5176.51 1471.30 80.17 4.00 416.00 3362.10
   06:46:43.200.08-Aug-2020 5176.51 1471.62 80.17 4.00 416.20 3362.10
   06:46:43.400.08-Aug-2020 5176.51 1471.99 80.17 4.00 416.40 3362.10
   06:46:43.600.08-Aug-2020 5176.51 1472.32 80.17 4.00 416.60 3362.10
   06:46:43.800.08-Aug-2020 5176.51 1472.63 80.17 4.00 416.80 3362.10
   06:46:44.000.08-Aug-2020 5176.51 1472.94 80.17 4.00 417.00 3362.10
   06:46:44.200.08-Aug-2020 5176.51 1472.94 80.17 4.00 417.20 3362.10
   06:46:44.400.08-Aug-2020 5176.51 1473.47 80.17 4.00 417.40 3362.10
   06:46:44.600.08-Aug-2020 5176.51 1473.76 80.17 4.00 417.60 3362.10
   06:46:44.800.08-Aug-2020 5176.51 1474.40 80.17 4.00 417.80 3362.10
   06:46:45.000.08-Aug-2020 5176.51 1475.39 80.17 4.00 418.00 3362.10
   06:46:45.200.08-Aug-2020 5176.51 1475.39 80.17 4.00 418.20 3362.10
   06:46:45.400.08-Aug-2020 5176.51 1475.98 80.17 4.00 418.40 3362.10
   06:46:45.600.08-Aug-2020 5176.51 1476.30 80.17 4.00 418.60 3362.10
   06:46:45.800.08-Aug-2020 5176.51 1476.62 80.17 4.00 418.80 3362.10
   06:46:46.000.08-Aug-2020 5176.51 1476.88 80.17 4.00 419.00 3362.10
   06:46:46.200.08-Aug-2020 5176.51 1477.14 80.17 4.00 419.20 3362.10
   06:46:46.400.08-Aug-2020 5176.51 1477.38 80.17 4.00 419.40 3362.10
   06:46:46.600.08-Aug-2020 5176.51 1477.70 80.17 4.00 419.60 3362.10
   06:46:46.800.08-Aug-2020 5176.51 1477.99 80.17 4.00 419.80 3362.10
   06:46:47.000.08-Aug-2020 5176.51 1478.28 80.17 4.00 420.00 3362.10
   06:46:47.200.08-Aug-2020 5176.51 1478.55 80.17 4.00 420.20 3362.10
   06:46:47.400.08-Aug-2020 5176.51 1478.82 80.17 4.00 420.40 3362.10
   06:46:47.600.08-Aug-2020 5176.51 1479.09 80.17 4.00 420.60 3362.10
   06:46:47.800.08-Aug-2020 5176.51 1479.26 80.17 4.00 420.80 3362.10
   06:46:48.000.08-Aug-2020 5176.51 1480.14 80.16 4.00 421.00 3362.10
   06:46:48.200.08-Aug-2020 5176.51 1480.14 80.16 4.00 421.20 3362.10
   06:46:48.400.08-Aug-2020 5176.51 1480.85 80.16 4.00 421.40 3362.10
   06:46:48.600.08-Aug-2020 5176.51 1482.34 80.16 4.00 421.60 3362.10
   06:46:48.800.08-Aug-2020 5176.51 1483.08 80.16 4.00 421.80 3362.10
   06:46:49.000.08-Aug-2020 5176.51 1483.35 80.16 4.00 422.00 3362.10
   06:46:49.200.08-Aug-2020 5176.51 1483.35 80.16 4.00 422.20 3362.10
   06:46:49.400.08-Aug-2020 5176.51 1484.54 80.16 4.00 422.40 3362.10
   06:46:49.600.08-Aug-2020 5176.51 1484.74 80.16 4.00 422.60 3362.10
   06:46:49.800.08-Aug-2020 5176.51 1485.76 80.16 4.00 422.80 3362.10
   06:46:50.000.08-Aug-2020 5176.51 1486.46 80.16 4.00 423.00 3362.10
   06:46:50.200.08-Aug-2020 5176.51 1486.46 80.16 4.00 423.20 3362.10
   06:46:50.400.08-Aug-2020 5176.51 1487.22 80.16 4.00 423.40 3362.10
   06:46:50.600.08-Aug-2020 5176.51 1487.79 80.16 4.00 423.60 3362.10
   06:46:50.800.08-Aug-2020 5176.51 1488.70 80.16 4.00 423.80 3362.10
   06:46:51.000.08-Aug-2020 5176.51 1489.02 80.16 4.00 424.00 3362.10
   06:46:51.200.08-Aug-2020 5176.51 1489.02 80.16 4.00 424.20 3362.10
   06:46:51.400.08-Aug-2020 5176.51 1489.52 80.16 4.00 424.40 3362.10
   06:46:51.600.08-Aug-2020 5176.51 1489.86 80.16 4.00 424.60 3362.10
   06:46:51.800.08-Aug-2020 5176.51 1490.67 80.16 4.00 424.80 3362.10
   06:46:52.000.08-Aug-2020 5176.51 1490.94 80.16 4.00 425.00 3362.10
   06:46:52.200.08-Aug-2020 5176.51 1490.94 80.16 4.00 425.20 3362.10
   06:46:52.400.08-Aug-2020 5176.51 1491.49 80.16 4.00 425.40 3362.10
   06:46:52.600.08-Aug-2020 5176.51 1491.75 80.16 4.00 425.60 3362.10
   06:46:52.800.08-Aug-2020 5176.51 1492.08 80.16 4.00 425.80 3362.10
   06:46:53.000.08-Aug-2020 5176.51 1492.39 80.16 4.00 426.00 3362.10
   06:46:53.200.08-Aug-2020 5176.51 1492.63 80.16 4.00 426.20 3362.10
   06:46:53.400.08-Aug-2020 5176.51 1492.94 80.16 4.00 426.40 3362.10
   06:46:53.600.08-Aug-2020 5176.51 1493.24 80.16 4.00 426.60 3362.10
   06:46:53.800.08-Aug-2020 5176.51 1493.51 80.16 4.00 426.80 3362.10
   06:46:54.000.08-Aug-2020 5176.51 1493.76 80.16 4.00 427.00 3362.10
   06:46:54.200.08-Aug-2020 5176.51 1493.76 80.16 4.00 427.20 3362.10
   06:46:54.400.08-Aug-2020 5176.51 1494.23 80.16 4.00 427.40 3362.10
   06:46:54.600.08-Aug-2020 5176.51 1494.46 80.16 4.00 427.60 3362.10
   06:46:54.800.08-Aug-2020 5176.51 1494.70 80.16 4.00 427.80 3362.10
   06:46:55.000.08-Aug-2020 5176.51 1495.21 80.16 4.00 428.00 3362.10
   06:46:55.200.08-Aug-2020 5176.51 1495.21 80.16 4.00 428.20 3362.10
   06:46:55.400.08-Aug-2020 5176.51 1496.28 80.16 4.00 428.40 3362.10
   06:46:55.600.08-Aug-2020 5176.51 1496.53 80.16 4.00 428.60 3362.10
   06:46:55.800.08-Aug-2020 5176.51 1496.67 80.16 4.00 428.80 3362.10
   06:46:56.000.08-Aug-2020 5176.51 1496.89 80.16 4.00 429.00 3362.10
   06:46:56.200.08-Aug-2020 5176.51 1496.89 80.16 4.00 429.20 3362.10
   06:46:56.400.08-Aug-2020 5176.51 1497.29 80.16 4.00 429.40 3362.10
   06:46:56.600.08-Aug-2020 5176.51 1497.47 80.16 4.00 429.60 3362.10
   06:46:56.800.08-Aug-2020 5176.51 1497.72 80.16 4.00 429.80 3362.10
   06:46:57.000.08-Aug-2020 5176.51 1497.95 80.16 4.00 430.00 3362.10
   06:46:57.200.08-Aug-2020 5176.51 1497.95 80.16 4.00 430.20 3362.10
   06:46:57.400.08-Aug-2020 5176.51 1498.50 80.15 4.00 430.40 3362.10
   06:46:57.600.08-Aug-2020 5176.51 1498.70 80.15 4.00 430.60 3362.10
   06:46:57.800.08-Aug-2020 5176.51 1498.89 80.15 4.00 430.80 3362.10
   06:46:58.000.08-Aug-2020 5176.51 1499.06 80.15 4.00 431.00 3362.10
   06:46:58.200.08-Aug-2020 5176.51 1499.57 80.15 4.00 431.20 3362.10
   06:46:58.400.08-Aug-2020 5176.51 1499.95 80.15 4.00 431.40 3362.10
   06:46:58.600.08-Aug-2020 5176.51 1500.02 80.15 4.00 431.60 3362.10
   06:46:58.800.08-Aug-2020 5176.51 1500.92 80.15 4.00 431.80 3362.10
   06:46:59.000.08-Aug-2020 5176.51 1501.55 80.15 4.00 432.00 3362.10
   06:46:59.200.08-Aug-2020 5176.51 1501.77 80.15 4.00 432.20 3362.10
   06:46:59.400.08-Aug-2020 5176.51 1502.26 80.15 4.00 432.40 3362.10
   06:46:59.600.08-Aug-2020 5176.51 1502.47 80.15 4.00 432.60 3362.10
   06:46:59.800.08-Aug-2020 5176.51 1502.84 80.15 4.00 432.80 3362.10
   06:47:00.000.08-Aug-2020 5176.51 1503.98 80.15 4.00 433.00 3362.10
   06:47:00.200.08-Aug-2020 5176.51 1503.98 80.15 4.00 433.20 3362.10
   06:47:00.400.08-Aug-2020 5176.51 1504.60 80.15 4.00 433.40 3362.10
   06:47:00.600.08-Aug-2020 5176.51 1504.95 80.15 4.00 433.60 3362.10
   06:47:00.800.08-Aug-2020 5176.51 1505.22 80.15 4.00 433.80 3362.10
   06:47:01.000.08-Aug-2020 5176.51 1508.23 80.15 4.00 434.00 3362.10
   06:47:01.200.08-Aug-2020 5176.51 1508.23 80.15 4.00 434.20 3362.10
   06:47:01.400.08-Aug-2020 5176.51 1509.19 80.15 4.00 434.40 3362.10
   06:47:01.600.08-Aug-2020 5176.51 1509.30 80.15 4.00 434.60 3362.10
   06:47:01.800.08-Aug-2020 5176.51 1510.02 80.15 4.00 434.80 3362.10
   06:47:02.000.08-Aug-2020 5176.51 1510.32 80.15 4.00 435.00 3362.10
   06:47:02.200.08-Aug-2020 5176.51 1510.58 80.15 4.00 435.20 3362.10
   06:47:02.400.08-Aug-2020 5176.51 1510.92 80.15 4.00 435.40 3362.10
   06:47:02.600.08-Aug-2020 5176.51 1511.17 80.15 4.00 435.60 3362.10
   06:47:02.800.08-Aug-2020 5176.51 1511.44 80.15 4.00 435.80 3362.10
   06:47:03.000.08-Aug-2020 5176.51 1511.72 80.15 4.00 436.00 3362.10
   06:47:03.200.08-Aug-2020 5176.51 1511.72 80.15 4.00 436.20 3362.10
   06:47:03.400.08-Aug-2020 5176.51 1512.24 80.15 4.00 436.40 3362.10
   06:47:03.600.08-Aug-2020 5176.51 1512.54 80.15 4.00 436.60 3362.10
   06:47:03.800.08-Aug-2020 5176.51 1512.78 80.15 4.00 436.80 3362.10
