~Version Information
 VERS.                  2.0:   CWLS log ASCII Standard -VERSION 2.0
 WRAP.                   NO:   One line per depth step
~Well Information Block
#MNEM.UNIT     VALUE/NAME     DESCRIPTION
#---------     -----------    ---------------------------
 STRT.S             07:09:07 08-Aug-20: START TIME 07:09:07 08-Aug-20
 STOP.S             07:17:38 08-Aug-20: STOP TIME  07:17:38 08-Aug-20
 STEP.S                   0.00: STEP TIME
 NULL.                 -999.25: NULL VALUE
 DFWT.                        :  DIST FWL TEXT
 DFST.                        :  DIST FSL TEXT
 DMF .             Drill Floor:  DRILL MEAS FROM
 STIM.      13.47.44 07-Jun-20:  START TIME
 DATE.      13.47.44 27-Jul-20:  END TIME
 SPUD.               07-Jun-20:  SPUD DATE
 NREF.                    Grid:  NORTH REFERENCE
 HPTY.       Minimum Curvature:  HOLE POS TYPE
 DMOD.             Drill Model:  DRILL MOD DESC
 SVYD.                  Survey:  SURVEY DESC
 ILTD.               Lithology:  INTERP LTH DESC
 FTOP.          Formation Tops:  FORM TOPS DESC
 RIG .             West Chirag:  RIG NAME
 PDAT.          Mean Sea Level:  PERMANENT DATUM
 FLD .                     ACG:  FIELD NAME
 SON .        AZ-XX-0906363612:  JOB NUMBER
 CTRY.              Azerbaijan:  COUNTRY NAME
 WELL.           J25 (Slot 35):  WELL NAME
 SRVC.          Turan Drilling:  CONTRACTOR
 COMP.     BP Exploration (Caspian Sea) Ltd:  COMPANY
 UWI .                     N/A:  UNIQUE WELL IDENTIFIER
 API .                     N/A:  API NUMBER
 BASE.              Azerbaijan:  LOGGING EQUIPMENT BASE LOCATION
 REGN.                   EESSA:  REGION
 PROV.                    Baku:  PROVINCE
 STAT.                    Baku:  STATE NAME
 MWDS.                     N/A:  MWD SHOP
 DOE .                     N/A:  DOE NUMBER
 DCON.         Sperry Drilling:  DIRECTNL CONTR
 UNIT.                     N/A:  LOGGING EQUIPMENT ID
 MDS .        Operator Entered:  MAG DATA SOURCE
 JOBN.        AZ-XX-0906363612:  JOB TICKET NUMB
 WTYP.                Deviated:  WELL TYPE
 CNTY.                        :  COUNTY
 LOC .                        :  LOCATION
 LMF .             Drill Floor:  LOG MEASURED FROM
 TVDS.m                  43.00:  TVDSS CORRECTN
 LATI.deg                40.13:  LATITUDE
 LONG.deg                51.22:  LONGITUDE
 WHNS.m                  -7.90:  WELL HEAD N/S
 WHEW.m                  -3.35:  WELL HEAD E/W
 UTMX.m              519005.06:  UTM X
 UTMY.m             4443793.85:  UTM Y
 DFWL.m                   0.00:  DISTANCE FWL
 DFSL.m                   0.00:  DISTANCE FSL
 SDEP.m                   0.00:  START DEPTH
 TDD .m                   0.00:  TOTAL DEPTH (DRILLER)
 VSDR.deg               308.97:  VERT SEC DIRECT
 GVFD.g                   1.00:  GRAVITY FIELD
 MFLD.nT              50350.00:  MAGNETIC FIELD
 MDIP.deg                59.62:  MAGNETIC DIP
 MDEC.deg                 6.44:  MAGNETIC DECL
 GRDC.deg                 0.13:  GRID CORRECTION
 AZTC.deg                 6.32:  AZM TOTAL CORR
 EPD .m                   0.00:  ELEVATION
 EGL .m                   0.00:  GROUND ELEVATION
 WDMS.m                 169.80:  WD ELEV
 APD .m                  43.00:  DEPTH ABOVE PD
 DEP .m                 356.43:  DEPTH
 AGAP.m                  43.00:  AIR GAP
 VSEW.m                  -3.35:  VERT SEC E/W
 VSNS.m                  -7.90:  VERT SEC N/S
 EKB .m                  43.00:  KB ELEVATION
 EDF .m                  43.00:  DF ELEVATION
 TDL .m                 934.00:  TOTAL DEPTH (LOGGER)
 VSC .                       0:  VS TO CLOSURE
 MAGU.                 1852825:  MAGUTM CHECKSUM
~Parameter Information Block
#MNEM.UNIT       Value        Description
#---------     -----------    ---------------------------
 AV  .mps                 0.80:  Ann Velocity 
 AVMX.mps                 1.70:  Max Ann Veloc 
 AZIF.deg               311.41:  Azm, Final 
 BHAT.        Rotary Steerable:  BHA Type 
 BROT.°/30m               0.09:  Build Rotating 
 BS  .in                 12.25:  Bit Size 
 BSZ .in                 12.25:  Bit Size 
 BTPL.psig              800.00:  Bit Press Loss 
 CABU.                      No:  Customer Abuse 
 COMM.                     „Òs:  Run Comments 1 
 TCS .hr                 96.00:  Time Ciculation Ended 
 CV  .mps                 2.03:  Crit Velocity 
 CVMX.mps                 2.42:  Max Crit Veloc 
 DD1 .          Taghi Taghiyev:  Direct Drillr 1 
 DD2 .      Tariel Pirmammadov:  Direct Drillr 2 
 DD3 .          Teymur Aghayev:  Direct Drillr 3 
 DDSV.                 iCruise:  DD Service 
 DEFF.%                  98.70:  % Det Eff 
 DLRX.°/30m               1.00:  Dogleg Rot Max 
 DLSO.°/30m               1.80:  Dogleg Oriented 
 DLSX.°/30m               3.16:  Dogleg Str Max 
 DRET.      15.00.00 07-Aug-20:  Drill End Time 
 DRST.      17.00.00 02-Aug-20:  Drill Start Tim 
 DTIM.hr                 45.90:  Time Drilling 
 EDEP.m                5298.01:  End Depth 
 ENG1.       Seymur Iskandarov:  Engineer 1 
 ENG2.         Yevgeniy Ulikov:  Engineer 2 
 ENG3.      Artemiy Matviyanov:  Engineer 3 
 ENG4.         Bahruz Mehdiyev:  Engineer 4 
 ETIM.      05.00.00 10-Aug-20:  End Time 
 FLOI.gpm              1150.00:  Flow In 
 FLON.gpm               900.00:  Flow In Min 
 FLOS.cptm                0.00:  Fluid Loss 
 FLOX.gpm              1200.00:  Flow In Max 
 FTRO.     Connectivity, Formation Presure:  FTWD Run Obj 
 HFLO.                      No:  High Flow 
 HPRE.                     Yes:  High Pressure 
 HTEM.                      No:  High Temp 
 HYDO.m                   1.80:  Hydro Offset 
 IFIN.deg                 9.71:  Inc, Final 
 IMAX.deg                63.81:  Inc Max 
 IMIN.deg                 9.53:  Inc Min 
 IMND.m                5075.52:  Inc Min Depth 
 IMXD.m                4367.08:  Inc Max Depth 
 JARR.                      No:  Jarring 
 LETM.      15.00.00 07-Aug-20:  Log End Time 
 LOST.hr                     2:  Lost Rig Time 
 LSTM.      17.00.00 02-Aug-20:  Log Start Time 
 MDCL.ppm             42500.00:  Mud Chlorides 
 MDES.     Inversion Oil/Synthetic:  Mud Desc 
 DFD .sg                  1.46:  Mud Density 
 MDMN.sg                  1.46:  Dens Mud Min 
 MDMX.sg                  1.46:  Dens Mud Max 
 MOIL.                      56:  Run Mud Oil % 
 MOWR.                   70:30:  Run Mud OWR 
 MSND.                     0.1:  Run Mud Sand % 
 MSOL.                      19:  Run Mud Solids% 
 DFV .spqt               83.00:  Mud Viscosity 
 MWOD.in                  8.00:  MWD Tool OD 
 MWSI.                     Yes:  Serv Intrp, MWD 
 OTIM.hr                196.57:  Time Operating 
 PCON.           Look Like New:  Pad Condition 
 PMAX.psia             7400.00:  Press Op, Max 
 PV  .cP                 36.00:  Mud PV 
 RUN .                    1000:  Run Number 
 ROPA.m/hr               25.00:  ROP Avg 
 ROPN.m/hr               10.00:  ROP Min 
 ROPX.m/hr               32.00:  ROP Max 
 RPMA.rpm               120.00:  RPM Surface Avg 
 RPMN.rpm               100.00:  RPM Surface Min 
 RPMX.rpm               140.00:  RPM Surface Max 
 RRUN.                    L504:  Rig Run Number 
 SAZI.deg               308.25:  Azm, Start 
 SDEP.m                4364.01:  Start Depth 
 SIDD.                      No:  Serv Intrp, DD 
 SINC.deg                63.81:  Inc, Start 
 SPPA.psig             5800.00:  SPP Avg 
 SPPN.psig             4200.00:  SPP Min 
 SPPX.psig             5950.00:  SPP Max 
 STIM.      18.00.00 01-Aug-20:  Start Time 
 SVCS.                 DD, MWD:  Services 
 SVER.                    9.20:  Sperry Version 
 TDAT.m                 934.00:  Tot Depth Attmp 
 TDDF.                      No:  Trip for DD 
 TDLG.m                 934.00:  Tot Depth Loggd 
 TFF .                      No:  Trip for Fail 
 TQAA.f-kp               31.00:  Torque Abs Avg 
 TQAN.f-kp               25.00:  Torque Abs Min 
 TQAX.f-kp               35.00:  Torque Abs Max 
 TRRT.°/30m              -0.75:  Turn Rotating 
 MRT .                  EWR-M5:  Maximum Recorded Temperature 
 TTMX.degC               95.00:  Max Tool Temp 
 VS01.                90516060:  Virtual Str1 SN 
 VS02.                90528488:  Virtual Str2 SN 
 VS03.                90577970:  Virtual Str3 SN 
 VS04.                12385033:  Virtual Str4 SN 
 VS05.                90522069:  Virtual Str5 SN 
 VS06.                13124134:  Virtual Str6 SN 
 WBMN.klb                20.00:  WOB Min 
 WITN.         Alistair Sprott:  Customer Rep 
 WITN.     Ronal van der Kraan:  Customer Rep 2 
 WOBA.klb                25.00:  WOB Avg 
 WOBX.klb                31.00:  WOB Max 
 YP  .lhf2               32.00:  Yield Point 
~Curve Information Block
#MNEM.UNIT                 API CODE     Curve Description
#---------               -----------    ---------------------------
 TIME.HHMMSS            00 000 000 000:  GT Time & Date
 GTDEPTH.m              00 000 000 000:  GT Depth
 GTPQH.psia             00 000 000 000:  GT HR Quartz Pressure
 GTTQ.degC              00 000 000 000:  GT Quartz Temperature
 GTTN.NONE              00 000 000 000:  GT Test Number
 GTET.sec               00 000 000 000:  GT Elapsed Test Time
 GTTVD.m                00 000 000 000:  GT True Vertical Depth
#Other Information
#
#WARRANTY: Halliburton will use its best efforts to furnish customers with 
#accurate information and interpretations that are part of, and incident to, the services 
#provided.  However, Halliburton cannot and does not warrant the accuracy 
#or correctness of such information and interpretations.  Under no circumstances should any 
#such information or interpretation be relied upon as the sole basis for any drilling, 
#completion, production, or financial decision or any procedure involving any risk to the 
#safety of any drilling venture, drilling rig or its crew or any other third party.  The 
#Customer has full responsibility for all drilling, completion and production operation.  
#Halliburton makes no representations or warranties, either expressed or 
#implied, including, but not limited to, the implied warranties of merchantability or fitness 
#for a particular purpose, with respect to the services rendered.  In no event will 
#Halliburton be liable for failure to obtain any particular results or for 
#any damages, including, but not limited to, indirect, special or consequential damages, 
#resulting from the use of any information or interpretation provided by Halliburton.
#
~A           TIME           GTDEPTH  GTPQH  GTTQ  GTTN  GTET   GTTVD  
# ...
   07:12:57.000.08-Aug-2020 5163.51 4255.75 78.20 5.00 230.00 3349.29
   07:12:57.200.08-Aug-2020 5163.51 4255.75 78.20 5.00 230.20 3349.29
   07:12:57.400.08-Aug-2020 5163.51 4255.87 78.20 5.00 230.40 3349.29
   07:12:57.600.08-Aug-2020 5163.51 4255.82 78.20 5.00 230.60 3349.29
   07:12:57.800.08-Aug-2020 5163.51 4255.94 78.20 5.00 230.80 3349.29
   07:12:58.000.08-Aug-2020 5163.51 4255.66 78.20 5.00 231.00 3349.29
   07:12:58.200.08-Aug-2020 5163.51 4255.66 78.20 5.00 231.20 3349.29
   07:12:58.400.08-Aug-2020 5163.51 4256.43 78.20 5.00 231.40 3349.29
   07:12:58.600.08-Aug-2020 5163.51 4256.25 78.20 5.00 231.60 3349.29
   07:12:58.800.08-Aug-2020 5163.51 4256.28 78.20 5.00 231.80 3349.29
   07:12:59.000.08-Aug-2020 5163.51 4256.20 78.20 5.00 232.00 3349.29
   07:12:59.200.08-Aug-2020 5163.51 4256.20 78.20 5.00 232.20 3349.29
   07:12:59.400.08-Aug-2020 5163.51 4256.25 78.20 5.00 232.40 3349.29
   07:12:59.600.08-Aug-2020 5163.51 4256.33 78.20 5.00 232.60 3349.29
   07:12:59.800.08-Aug-2020 5163.51 4256.37 78.20 5.00 232.80 3349.29
   07:13:00.000.08-Aug-2020 5163.51 4256.37 78.20 5.00 233.00 3349.29
   07:13:00.200.08-Aug-2020 5163.51 4256.37 78.20 5.00 233.20 3349.29
   07:13:00.400.08-Aug-2020 5163.51 4256.40 78.20 5.00 233.40 3349.29
   07:13:00.600.08-Aug-2020 5163.51 4256.38 78.19 5.00 233.60 3349.29
   07:13:00.800.08-Aug-2020 5163.51 4256.42 78.19 5.00 233.80 3349.29
   07:13:01.000.08-Aug-2020 5163.51 4256.48 78.19 5.00 234.00 3349.29
   07:13:01.200.08-Aug-2020 5163.51 4256.48 78.19 5.00 234.20 3349.29
   07:13:01.400.08-Aug-2020 5163.51 4257.10 78.19 5.00 234.40 3349.29
   07:13:01.600.08-Aug-2020 5163.51 4257.05 78.19 5.00 234.60 3349.29
   07:13:01.800.08-Aug-2020 5163.51 4256.45 78.19 5.00 234.80 3349.29
   07:13:02.000.08-Aug-2020 5163.51 4257.20 78.19 5.00 235.00 3349.29
   07:13:02.200.08-Aug-2020 5163.51 4257.20 78.19 5.00 235.20 3349.29
   07:13:02.400.08-Aug-2020 5163.51 4257.01 78.19 5.00 235.40 3349.29
   07:13:02.600.08-Aug-2020 5163.51 4257.03 78.19 5.00 235.60 3349.29
   07:13:02.800.08-Aug-2020 5163.51 4257.05 78.19 5.00 235.80 3349.29
   07:13:03.000.08-Aug-2020 5163.51 4257.03 78.19 5.00 236.00 3349.29
   07:13:03.200.08-Aug-2020 5163.51 4257.03 78.19 5.00 236.20 3349.29
   07:13:03.400.08-Aug-2020 5163.51 4257.42 78.19 5.00 236.40 3349.29
   07:13:03.600.08-Aug-2020 5163.51 4257.19 78.19 5.00 236.60 3349.29
   07:13:03.800.08-Aug-2020 5163.51 4256.98 78.19 5.00 236.80 3349.29
   07:13:04.000.08-Aug-2020 5163.51 4257.43 78.19 5.00 237.00 3349.29
   07:13:04.200.08-Aug-2020 5163.51 4257.43 78.19 5.00 237.20 3349.29
   07:13:04.400.08-Aug-2020 5163.51 4257.27 78.19 5.00 237.40 3349.29
   07:13:04.600.08-Aug-2020 5163.51 4257.42 78.19 5.00 237.60 3349.29
   07:13:04.800.08-Aug-2020 5163.51 4257.87 78.19 5.00 237.80 3349.29
   07:13:05.000.08-Aug-2020 5163.51 4257.56 78.19 5.00 238.00 3349.29
   07:13:05.200.08-Aug-2020 5163.51 4257.56 78.19 5.00 238.20 3349.29
   07:13:05.400.08-Aug-2020 5163.51 4257.29 78.19 5.00 238.40 3349.29
   07:13:05.600.08-Aug-2020 5163.51 4257.58 78.19 5.00 238.60 3349.29
   07:13:05.800.08-Aug-2020 5163.51 4257.47 78.19 5.00 238.80 3349.29
   07:13:06.000.08-Aug-2020 5163.51 4257.37 78.19 5.00 239.00 3349.29
   07:13:06.200.08-Aug-2020 5163.51 4257.37 78.19 5.00 239.20 3349.29
   07:13:06.400.08-Aug-2020 5163.51 4257.68 78.19 5.00 239.40 3349.29
   07:13:06.600.08-Aug-2020 5163.51 4257.49 78.19 5.00 239.60 3349.29
   07:13:06.800.08-Aug-2020 5163.51 4257.65 78.19 5.00 239.80 3349.29
   07:13:07.000.08-Aug-2020 5163.51 4257.63 78.19 5.00 240.00 3349.29
   07:13:07.200.08-Aug-2020 5163.51 4257.63 78.19 5.00 240.20 3349.29
   07:13:07.400.08-Aug-2020 5163.51 4257.57 78.19 5.00 240.40 3349.29
   07:13:07.600.08-Aug-2020 5163.51 4257.56 78.19 5.00 240.60 3349.29
   07:13:07.800.08-Aug-2020 5163.51 4257.52 78.19 5.00 240.80 3349.29
   07:13:08.000.08-Aug-2020 5163.51 4257.46 78.19 5.00 241.00 3349.29
   07:13:08.200.08-Aug-2020 5163.51 4257.46 78.19 5.00 241.20 3349.29
   07:13:08.400.08-Aug-2020 5163.51 4257.93 78.19 5.00 241.40 3349.29
   07:13:08.600.08-Aug-2020 5163.51 4257.94 78.19 5.00 241.60 3349.29
   07:13:08.800.08-Aug-2020 5163.51 4257.72 78.19 5.00 241.80 3349.29
   07:13:09.000.08-Aug-2020 5163.51 4257.86 78.19 5.00 242.00 3349.29
   07:13:09.200.08-Aug-2020 5163.51 4257.86 78.19 5.00 242.20 3349.29
   07:13:09.400.08-Aug-2020 5163.51 4257.72 78.19 5.00 242.40 3349.29
   07:13:09.600.08-Aug-2020 5163.51 4257.64 78.19 5.00 242.60 3349.29
   07:13:09.800.08-Aug-2020 5163.51 4257.73 78.19 5.00 242.80 3349.29
   07:13:10.000.08-Aug-2020 5163.51 4257.72 78.19 5.00 243.00 3349.29
   07:13:10.200.08-Aug-2020 5163.51 4257.72 78.19 5.00 243.20 3349.29
   07:13:10.400.08-Aug-2020 5163.51 4257.81 78.19 5.00 243.40 3349.29
   07:13:10.600.08-Aug-2020 5163.51 4257.85 78.19 5.00 243.60 3349.29
   07:13:10.800.08-Aug-2020 5163.51 4257.85 78.19 5.00 243.80 3349.29
   07:13:11.000.08-Aug-2020 5163.51 4257.82 78.19 5.00 244.00 3349.29
   07:13:11.200.08-Aug-2020 5163.51 4257.82 78.19 5.00 244.20 3349.29
   07:13:11.400.08-Aug-2020 5163.51 4258.16 78.19 5.00 244.40 3349.29
   07:13:11.600.08-Aug-2020 5163.51 4258.27 78.19 5.00 244.60 3349.29
   07:13:11.800.08-Aug-2020 5163.51 4258.14 78.19 5.00 244.80 3349.29
   07:13:12.000.08-Aug-2020 5163.51 4258.22 78.19 5.00 245.00 3349.29
   07:13:12.200.08-Aug-2020 5163.51 4258.22 78.19 5.00 245.20 3349.29
   07:13:12.400.08-Aug-2020 5163.51 4258.23 78.19 5.00 245.40 3349.29
   07:13:12.600.08-Aug-2020 5163.51 4258.14 78.19 5.00 245.60 3349.29
   07:13:12.800.08-Aug-2020 5163.51 4258.14 78.19 5.00 245.80 3349.29
   07:13:13.000.08-Aug-2020 5163.51 4258.00 78.19 5.00 246.00 3349.29
   07:13:13.200.08-Aug-2020 5163.51 4258.00 78.19 5.00 246.20 3349.29
   07:13:13.400.08-Aug-2020 5163.51 4258.29 78.18 5.00 246.40 3349.29
   07:13:13.600.08-Aug-2020 5163.51 4258.29 78.18 5.00 246.60 3349.29
   07:13:13.800.08-Aug-2020 5163.51 4258.27 78.18 5.00 246.80 3349.29
   07:13:14.000.08-Aug-2020 5163.51 4258.63 78.18 5.00 247.00 3349.29
   07:13:14.200.08-Aug-2020 5163.51 4258.63 78.18 5.00 247.20 3349.29
   07:13:14.400.08-Aug-2020 5163.51 4257.92 78.18 5.00 247.40 3349.29
   07:13:14.600.08-Aug-2020 5163.51 4258.69 78.18 5.00 247.60 3349.29
   07:13:14.800.08-Aug-2020 5163.51 4258.54 78.18 5.00 247.80 3349.29
   07:13:15.000.08-Aug-2020 5163.51 4258.23 78.18 5.00 248.00 3349.29
   07:13:15.200.08-Aug-2020 5163.51 4258.23 78.18 5.00 248.20 3349.29
   07:13:15.400.08-Aug-2020 5163.51 4258.42 78.18 5.00 248.40 3349.29
   07:13:15.600.08-Aug-2020 5163.51 4258.26 78.18 5.00 248.60 3349.29
   07:13:15.800.08-Aug-2020 5163.51 4258.38 78.18 5.00 248.80 3349.29
   07:13:16.000.08-Aug-2020 5163.51 4258.36 78.18 5.00 249.00 3349.29
   07:13:16.200.08-Aug-2020 5163.51 4258.36 78.18 5.00 249.20 3349.29
   07:13:16.400.08-Aug-2020 5163.51 4258.34 78.18 5.00 249.40 3349.29
   07:13:16.600.08-Aug-2020 5163.51 4258.38 78.18 5.00 249.60 3349.29
   07:13:16.800.08-Aug-2020 5163.51 4258.35 78.18 5.00 249.80 3349.29
   07:13:17.000.08-Aug-2020 5163.51 4258.36 78.18 5.00 250.00 3349.29
   07:13:17.200.08-Aug-2020 5163.51 4258.36 78.18 5.00 250.20 3349.29
   07:13:17.400.08-Aug-2020 5163.51 4258.31 78.18 5.00 250.40 3349.29
   07:13:17.600.08-Aug-2020 5163.51 4258.35 78.18 5.00 250.60 3349.29
   07:13:17.800.08-Aug-2020 5163.51 4258.13 78.18 5.00 250.80 3349.29
   07:13:18.000.08-Aug-2020 5163.51 4258.90 78.18 5.00 251.00 3349.29
   07:13:18.200.08-Aug-2020 5163.51 4258.90 78.18 5.00 251.20 3349.29
   07:13:18.400.08-Aug-2020 5163.51 4258.62 78.18 5.00 251.40 3349.29
   07:13:18.600.08-Aug-2020 5163.51 4258.55 78.18 5.00 251.60 3349.29
   07:13:18.800.08-Aug-2020 5163.51 4258.46 78.18 5.00 251.80 3349.29
   07:13:19.000.08-Aug-2020 5163.51 4258.46 78.18 5.00 252.00 3349.29
   07:13:19.200.08-Aug-2020 5163.51 4258.46 78.18 5.00 252.20 3349.29
   07:13:19.400.08-Aug-2020 5163.51 4258.53 78.18 5.00 252.40 3349.29
   07:13:19.600.08-Aug-2020 5163.51 4258.55 78.18 5.00 252.60 3349.29
   07:13:19.800.08-Aug-2020 5163.51 4258.55 78.18 5.00 252.80 3349.29
