~Version Information
 VERS.                  2.0:   CWLS log ASCII Standard -VERSION 2.0
 WRAP.                   NO:   One line per depth step
~Well Information Block
#MNEM.UNIT     VALUE/NAME     DESCRIPTION
#---------     -----------    ---------------------------
 STRT.S             08:27:32 08-Aug-20: START TIME 08:27:32 08-Aug-20
 STOP.S             08:36:05 08-Aug-20: STOP TIME  08:36:05 08-Aug-20
 STEP.S                   0.00: STEP TIME
 NULL.                 -999.25: NULL VALUE
 DFWT.                        :  DIST FWL TEXT
 DFST.                        :  DIST FSL TEXT
 DMF .             Drill Floor:  DRILL MEAS FROM
 STIM.      13.47.44 07-Jun-20:  START TIME
 DATE.      13.47.44 27-Jul-20:  END TIME
 SPUD.               07-Jun-20:  SPUD DATE
 NREF.                    Grid:  NORTH REFERENCE
 HPTY.       Minimum Curvature:  HOLE POS TYPE
 DMOD.             Drill Model:  DRILL MOD DESC
 SVYD.                  Survey:  SURVEY DESC
 ILTD.               Lithology:  INTERP LTH DESC
 FTOP.          Formation Tops:  FORM TOPS DESC
 RIG .             West Chirag:  RIG NAME
 PDAT.          Mean Sea Level:  PERMANENT DATUM
 FLD .                     ACG:  FIELD NAME
 SON .        AZ-XX-0906363612:  JOB NUMBER
 CTRY.              Azerbaijan:  COUNTRY NAME
 WELL.           J25 (Slot 35):  WELL NAME
 SRVC.          Turan Drilling:  CONTRACTOR
 COMP.     BP Exploration (Caspian Sea) Ltd:  COMPANY
 UWI .                     N/A:  UNIQUE WELL IDENTIFIER
 API .                     N/A:  API NUMBER
 BASE.              Azerbaijan:  LOGGING EQUIPMENT BASE LOCATION
 REGN.                   EESSA:  REGION
 PROV.                    Baku:  PROVINCE
 STAT.                    Baku:  STATE NAME
 MWDS.                     N/A:  MWD SHOP
 DOE .                     N/A:  DOE NUMBER
 DCON.         Sperry Drilling:  DIRECTNL CONTR
 UNIT.                     N/A:  LOGGING EQUIPMENT ID
 MDS .        Operator Entered:  MAG DATA SOURCE
 JOBN.        AZ-XX-0906363612:  JOB TICKET NUMB
 WTYP.                Deviated:  WELL TYPE
 CNTY.                        :  COUNTY
 LOC .                        :  LOCATION
 LMF .             Drill Floor:  LOG MEASURED FROM
 TVDS.m                  43.00:  TVDSS CORRECTN
 LATI.deg                40.13:  LATITUDE
 LONG.deg                51.22:  LONGITUDE
 WHNS.m                  -7.90:  WELL HEAD N/S
 WHEW.m                  -3.35:  WELL HEAD E/W
 UTMX.m              519005.06:  UTM X
 UTMY.m             4443793.85:  UTM Y
 DFWL.m                   0.00:  DISTANCE FWL
 DFSL.m                   0.00:  DISTANCE FSL
 SDEP.m                   0.00:  START DEPTH
 TDD .m                   0.00:  TOTAL DEPTH (DRILLER)
 VSDR.deg               308.97:  VERT SEC DIRECT
 GVFD.g                   1.00:  GRAVITY FIELD
 MFLD.nT              50350.00:  MAGNETIC FIELD
 MDIP.deg                59.62:  MAGNETIC DIP
 MDEC.deg                 6.44:  MAGNETIC DECL
 GRDC.deg                 0.13:  GRID CORRECTION
 AZTC.deg                 6.32:  AZM TOTAL CORR
 EPD .m                   0.00:  ELEVATION
 EGL .m                   0.00:  GROUND ELEVATION
 WDMS.m                 169.80:  WD ELEV
 APD .m                  43.00:  DEPTH ABOVE PD
 DEP .m                 356.43:  DEPTH
 AGAP.m                  43.00:  AIR GAP
 VSEW.m                  -3.35:  VERT SEC E/W
 VSNS.m                  -7.90:  VERT SEC N/S
 EKB .m                  43.00:  KB ELEVATION
 EDF .m                  43.00:  DF ELEVATION
 TDL .m                 934.00:  TOTAL DEPTH (LOGGER)
 VSC .                       0:  VS TO CLOSURE
 MAGU.                 1852825:  MAGUTM CHECKSUM
~Parameter Information Block
#MNEM.UNIT       Value        Description
#---------     -----------    ---------------------------
 AV  .mps                 0.80:  Ann Velocity 
 AVMX.mps                 1.70:  Max Ann Veloc 
 AZIF.deg               311.41:  Azm, Final 
 BHAT.        Rotary Steerable:  BHA Type 
 BROT.°/30m               0.09:  Build Rotating 
 BS  .in                 12.25:  Bit Size 
 BSZ .in                 12.25:  Bit Size 
 BTPL.psig              800.00:  Bit Press Loss 
 CABU.                      No:  Customer Abuse 
 COMM.                     ¼’n:  Run Comments 1 
 TCS .hr                 96.00:  Time Ciculation Ended 
 CV  .mps                 2.03:  Crit Velocity 
 CVMX.mps                 2.42:  Max Crit Veloc 
 DD1 .          Taghi Taghiyev:  Direct Drillr 1 
 DD2 .      Tariel Pirmammadov:  Direct Drillr 2 
 DD3 .          Teymur Aghayev:  Direct Drillr 3 
 DDSV.                 iCruise:  DD Service 
 DEFF.%                  98.70:  % Det Eff 
 DLRX.°/30m               1.00:  Dogleg Rot Max 
 DLSO.°/30m               1.80:  Dogleg Oriented 
 DLSX.°/30m               3.16:  Dogleg Str Max 
 DRET.      15.00.00 07-Aug-20:  Drill End Time 
 DRST.      17.00.00 02-Aug-20:  Drill Start Tim 
 DTIM.hr                 45.90:  Time Drilling 
 EDEP.m                5298.01:  End Depth 
 ENG1.       Seymur Iskandarov:  Engineer 1 
 ENG2.         Yevgeniy Ulikov:  Engineer 2 
 ENG3.      Artemiy Matviyanov:  Engineer 3 
 ENG4.         Bahruz Mehdiyev:  Engineer 4 
 ETIM.      05.00.00 10-Aug-20:  End Time 
 FLOI.gpm              1150.00:  Flow In 
 FLON.gpm               900.00:  Flow In Min 
 FLOS.cptm                0.00:  Fluid Loss 
 FLOX.gpm              1200.00:  Flow In Max 
 FTRO.     Connectivity, Formation Presure:  FTWD Run Obj 
 HFLO.                      No:  High Flow 
 HPRE.                     Yes:  High Pressure 
 HTEM.                      No:  High Temp 
 HYDO.m                   1.80:  Hydro Offset 
 IFIN.deg                 9.71:  Inc, Final 
 IMAX.deg                63.81:  Inc Max 
 IMIN.deg                 9.53:  Inc Min 
 IMND.m                5075.52:  Inc Min Depth 
 IMXD.m                4367.08:  Inc Max Depth 
 JARR.                      No:  Jarring 
 LETM.      15.00.00 07-Aug-20:  Log End Time 
 LOST.hr                     2:  Lost Rig Time 
 LSTM.      17.00.00 02-Aug-20:  Log Start Time 
 MDCL.ppm             42500.00:  Mud Chlorides 
 MDES.     Inversion Oil/Synthetic:  Mud Desc 
 DFD .sg                  1.46:  Mud Density 
 MDMN.sg                  1.46:  Dens Mud Min 
 MDMX.sg                  1.46:  Dens Mud Max 
 MOIL.                      56:  Run Mud Oil % 
 MOWR.                   70:30:  Run Mud OWR 
 MSND.                     0.1:  Run Mud Sand % 
 MSOL.                      19:  Run Mud Solids% 
 DFV .spqt               83.00:  Mud Viscosity 
 MWOD.in                  8.00:  MWD Tool OD 
 MWSI.                     Yes:  Serv Intrp, MWD 
 OTIM.hr                196.57:  Time Operating 
 PCON.           Look Like New:  Pad Condition 
 PMAX.psia             7400.00:  Press Op, Max 
 PV  .cP                 36.00:  Mud PV 
 RUN .                    1000:  Run Number 
 ROPA.m/hr               25.00:  ROP Avg 
 ROPN.m/hr               10.00:  ROP Min 
 ROPX.m/hr               32.00:  ROP Max 
 RPMA.rpm               120.00:  RPM Surface Avg 
 RPMN.rpm               100.00:  RPM Surface Min 
 RPMX.rpm               140.00:  RPM Surface Max 
 RRUN.                    L504:  Rig Run Number 
 SAZI.deg               308.25:  Azm, Start 
 SDEP.m                4364.01:  Start Depth 
 SIDD.                      No:  Serv Intrp, DD 
 SINC.deg                63.81:  Inc, Start 
 SPPA.psig             5800.00:  SPP Avg 
 SPPN.psig             4200.00:  SPP Min 
 SPPX.psig             5950.00:  SPP Max 
 STIM.      18.00.00 01-Aug-20:  Start Time 
 SVCS.                 DD, MWD:  Services 
 SVER.                    9.20:  Sperry Version 
 TDAT.m                 934.00:  Tot Depth Attmp 
 TDDF.                      No:  Trip for DD 
 TDLG.m                 934.00:  Tot Depth Loggd 
 TFF .                      No:  Trip for Fail 
 TQAA.f-kp               31.00:  Torque Abs Avg 
 TQAN.f-kp               25.00:  Torque Abs Min 
 TQAX.f-kp               35.00:  Torque Abs Max 
 TRRT.°/30m              -0.75:  Turn Rotating 
 MRT .                  EWR-M5:  Maximum Recorded Temperature 
 TTMX.degC               95.00:  Max Tool Temp 
 VS01.                90516060:  Virtual Str1 SN 
 VS02.                90528488:  Virtual Str2 SN 
 VS03.                90577970:  Virtual Str3 SN 
 VS04.                12385033:  Virtual Str4 SN 
 VS05.                90522069:  Virtual Str5 SN 
 VS06.                13124134:  Virtual Str6 SN 
 WBMN.klb                20.00:  WOB Min 
 WITN.         Alistair Sprott:  Customer Rep 
 WITN.     Ronal van der Kraan:  Customer Rep 2 
 WOBA.klb                25.00:  WOB Avg 
 WOBX.klb                31.00:  WOB Max 
 YP  .lhf2               32.00:  Yield Point 
~Curve Information Block
#MNEM.UNIT                 API CODE     Curve Description
#---------               -----------    ---------------------------
 TIME.HHMMSS            00 000 000 000:  GT Time & Date
 GTDEPTH.m              00 000 000 000:  GT Depth
 GTPQH.psia             00 000 000 000:  GT HR Quartz Pressure
 GTTQ.degC              00 000 000 000:  GT Quartz Temperature
 GTTN.NONE              00 000 000 000:  GT Test Number
 GTET.sec               00 000 000 000:  GT Elapsed Test Time
 GTTVD.m                00 000 000 000:  GT True Vertical Depth
#Other Information
#
#WARRANTY: Halliburton will use its best efforts to furnish customers with 
#accurate information and interpretations that are part of, and incident to, the services 
#provided.  However, Halliburton cannot and does not warrant the accuracy 
#or correctness of such information and interpretations.  Under no circumstances should any 
#such information or interpretation be relied upon as the sole basis for any drilling, 
#completion, production, or financial decision or any procedure involving any risk to the 
#safety of any drilling venture, drilling rig or its crew or any other third party.  The 
#Customer has full responsibility for all drilling, completion and production operation.  
#Halliburton makes no representations or warranties, either expressed or 
#implied, including, but not limited to, the implied warranties of merchantability or fitness 
#for a particular purpose, with respect to the services rendered.  In no event will 
#Halliburton be liable for failure to obtain any particular results or for 
#any damages, including, but not limited to, indirect, special or consequential damages, 
#resulting from the use of any information or interpretation provided by Halliburton.
#
~A           TIME           GTDEPTH  GTPQH  GTTQ  GTTN  GTET   GTTVD  
# ...
   08:32:31.385.08-Aug-2020 5149.01 4344.77 76.74 6.00 299.16 3335.00
   08:32:31.585.08-Aug-2020 5149.01 4344.77 76.74 6.00 299.36 3335.00
   08:32:31.786.08-Aug-2020 5149.01 4344.76 76.74 6.00 299.56 3335.00
   08:32:31.986.08-Aug-2020 5149.01 4344.81 76.74 6.00 299.76 3335.00
   08:32:32.186.08-Aug-2020 5149.01 4344.77 76.74 6.00 299.96 3335.00
   08:32:32.386.08-Aug-2020 5149.01 4344.88 76.74 6.00 300.16 3335.00
   08:32:32.586.08-Aug-2020 5149.01 4344.88 76.74 6.00 300.36 3335.00
   08:32:32.786.08-Aug-2020 5149.01 4344.75 76.74 6.00 300.56 3335.00
   08:32:32.986.08-Aug-2020 5149.01 4344.77 76.74 6.00 300.76 3335.00
   08:32:33.186.08-Aug-2020 5149.01 4344.75 76.74 6.00 300.96 3335.00
   08:32:33.386.08-Aug-2020 5149.01 4344.74 76.74 6.00 301.16 3335.00
   08:32:33.587.08-Aug-2020 5149.01 4344.74 76.74 6.00 301.36 3335.00
   08:32:33.787.08-Aug-2020 5149.01 4344.80 76.74 6.00 301.56 3335.00
   08:32:33.987.08-Aug-2020 5149.01 4344.76 76.74 6.00 301.76 3335.00
   08:32:34.187.08-Aug-2020 5149.01 4344.77 76.74 6.00 301.96 3335.00
   08:32:34.387.08-Aug-2020 5149.01 4344.78 76.74 6.00 302.16 3335.00
   08:32:34.587.08-Aug-2020 5149.01 4344.78 76.74 6.00 302.36 3335.00
   08:32:34.787.08-Aug-2020 5149.01 4344.75 76.74 6.00 302.56 3335.00
   08:32:34.987.08-Aug-2020 5149.01 4344.85 76.74 6.00 302.76 3335.00
   08:32:35.187.08-Aug-2020 5149.01 4344.73 76.74 6.00 302.96 3335.00
   08:32:35.387.08-Aug-2020 5149.01 4344.91 76.74 6.00 303.16 3335.00
   08:32:35.588.08-Aug-2020 5149.01 4344.81 76.74 6.00 303.36 3335.00
   08:32:35.788.08-Aug-2020 5149.01 4344.84 76.74 6.00 303.56 3335.00
   08:32:35.988.08-Aug-2020 5149.01 4345.00 76.74 6.00 303.76 3335.00
   08:32:36.188.08-Aug-2020 5149.01 4344.84 76.74 6.00 303.96 3335.00
   08:32:36.388.08-Aug-2020 5149.01 4344.81 76.74 6.00 304.16 3335.00
   08:32:36.588.08-Aug-2020 5149.01 4344.81 76.74 6.00 304.36 3335.00
   08:32:36.788.08-Aug-2020 5149.01 4344.82 76.74 6.00 304.56 3335.00
   08:32:36.988.08-Aug-2020 5149.01 4344.74 76.74 6.00 304.76 3335.00
   08:32:37.188.08-Aug-2020 5149.01 4344.75 76.74 6.00 304.96 3335.00
   08:32:37.389.08-Aug-2020 5149.01 4344.84 76.74 6.00 305.16 3335.00
   08:32:37.589.08-Aug-2020 5149.01 4344.96 76.74 6.00 305.36 3335.00
   08:32:37.789.08-Aug-2020 5149.01 4344.78 76.74 6.00 305.56 3335.00
   08:32:37.989.08-Aug-2020 5149.01 4344.76 76.74 6.00 305.76 3335.00
   08:32:38.189.08-Aug-2020 5149.01 4344.83 76.74 6.00 305.96 3335.00
   08:32:38.389.08-Aug-2020 5149.01 4344.75 76.74 6.00 306.16 3335.00
   08:32:38.589.08-Aug-2020 5149.01 4344.75 76.74 6.00 306.36 3335.00
   08:32:38.789.08-Aug-2020 5149.01 4344.94 76.74 6.00 306.56 3335.00
   08:32:38.989.08-Aug-2020 5149.01 4344.67 76.74 6.00 306.76 3335.00
   08:32:39.189.08-Aug-2020 5149.01 4344.92 76.74 6.00 306.96 3335.00
   08:32:39.390.08-Aug-2020 5149.01 4344.72 76.74 6.00 307.16 3335.00
   08:32:39.590.08-Aug-2020 5149.01 4344.72 76.74 6.00 307.36 3335.00
   08:32:39.790.08-Aug-2020 5149.01 4344.86 76.74 6.00 307.56 3335.00
   08:32:39.990.08-Aug-2020 5149.01 4344.67 76.74 6.00 307.76 3335.00
   08:32:40.190.08-Aug-2020 5149.01 4344.79 76.74 6.00 307.96 3335.00
   08:32:40.390.08-Aug-2020 5149.01 4344.81 76.74 6.00 308.16 3335.00
   08:32:40.590.08-Aug-2020 5149.01 4344.84 76.74 6.00 308.36 3335.00
   08:32:40.790.08-Aug-2020 5149.01 4344.76 76.74 6.00 308.56 3335.00
   08:32:40.990.08-Aug-2020 5149.01 4344.82 76.74 6.00 308.76 3335.00
   08:32:41.191.08-Aug-2020 5149.01 4344.78 76.74 6.00 308.96 3335.00
   08:32:41.391.08-Aug-2020 5149.01 4344.91 76.74 6.00 309.16 3335.00
   08:32:41.591.08-Aug-2020 5149.01 4344.91 76.74 6.00 309.36 3335.00
   08:32:41.791.08-Aug-2020 5149.01 4344.90 76.74 6.00 309.56 3335.00
   08:32:41.991.08-Aug-2020 5149.01 4344.77 76.74 6.00 309.76 3335.00
   08:32:42.191.08-Aug-2020 5149.01 4344.80 76.74 6.00 309.96 3335.00
   08:32:42.391.08-Aug-2020 5149.01 4344.77 76.74 6.00 310.16 3335.00
   08:32:42.591.08-Aug-2020 5149.01 4344.77 76.74 6.00 310.36 3335.00
   08:32:42.791.08-Aug-2020 5149.01 4344.81 76.74 6.00 310.56 3335.00
   08:32:42.991.08-Aug-2020 5149.01 4344.90 76.74 6.00 310.76 3335.00
   08:32:43.192.08-Aug-2020 5149.01 4344.81 76.74 6.00 310.96 3335.00
   08:32:43.392.08-Aug-2020 5149.01 4344.79 76.74 6.00 311.16 3335.00
   08:32:43.592.08-Aug-2020 5149.01 4344.79 76.74 6.00 311.36 3335.00
   08:32:43.792.08-Aug-2020 5149.01 4344.80 76.74 6.00 311.56 3335.00
   08:32:43.992.08-Aug-2020 5149.01 4344.81 76.74 6.00 311.76 3335.00
   08:32:44.192.08-Aug-2020 5149.01 4344.81 76.74 6.00 311.97 3335.00
   08:32:44.392.08-Aug-2020 5149.01 4344.79 76.74 6.00 312.17 3335.00
   08:32:44.592.08-Aug-2020 5149.01 4344.79 76.74 6.00 312.37 3335.00
   08:32:44.792.08-Aug-2020 5149.01 4344.80 76.74 6.00 312.57 3335.00
   08:32:44.993.08-Aug-2020 5149.01 4344.81 76.74 6.00 312.77 3335.00
   08:32:45.193.08-Aug-2020 5149.01 4344.80 76.74 6.00 312.97 3335.00
   08:32:45.393.08-Aug-2020 5149.01 4344.86 76.74 6.00 313.17 3335.00
   08:32:45.593.08-Aug-2020 5149.01 4344.86 76.74 6.00 313.37 3335.00
   08:32:45.793.08-Aug-2020 5149.01 4344.87 76.74 6.00 313.57 3335.00
   08:32:45.993.08-Aug-2020 5149.01 4344.81 76.74 6.00 313.77 3335.00
   08:32:46.193.08-Aug-2020 5149.01 4344.93 76.74 6.00 313.97 3335.00
   08:32:46.393.08-Aug-2020 5149.01 4344.78 76.74 6.00 314.17 3335.00
   08:32:46.593.08-Aug-2020 5149.01 4344.78 76.74 6.00 314.37 3335.00
   08:32:46.794.08-Aug-2020 5149.01 4344.93 76.74 6.00 314.57 3335.00
   08:32:46.994.08-Aug-2020 5149.01 4344.79 76.74 6.00 314.77 3335.00
   08:32:47.194.08-Aug-2020 5149.01 4344.83 76.74 6.00 314.97 3335.00
   08:32:47.394.08-Aug-2020 5149.01 4344.80 76.74 6.00 315.17 3335.00
   08:32:47.594.08-Aug-2020 5149.01 4344.80 76.74 6.00 315.37 3335.00
   08:32:47.794.08-Aug-2020 5149.01 4344.93 76.74 6.00 315.57 3335.00
   08:32:47.994.08-Aug-2020 5149.01 4344.88 76.74 6.00 315.77 3335.00
   08:32:48.194.08-Aug-2020 5149.01 4344.91 76.74 6.00 315.97 3335.00
   08:32:48.394.08-Aug-2020 5149.01 4344.82 76.74 6.00 316.17 3335.00
   08:32:48.594.08-Aug-2020 5149.01 4344.82 76.74 6.00 316.37 3335.00
   08:32:48.795.08-Aug-2020 5149.01 4344.87 76.74 6.00 316.57 3335.00
   08:32:48.995.08-Aug-2020 5149.01 4344.73 76.74 6.00 316.77 3335.00
   08:32:49.195.08-Aug-2020 5149.01 4345.02 76.74 6.00 316.97 3335.00
   08:32:49.395.08-Aug-2020 5149.01 4344.80 76.74 6.00 317.17 3335.00
   08:32:49.595.08-Aug-2020 5149.01 4344.80 76.74 6.00 317.37 3335.00
   08:32:49.795.08-Aug-2020 5149.01 4344.70 76.74 6.00 317.57 3335.00
   08:32:49.995.08-Aug-2020 5149.01 4344.98 76.74 6.00 317.77 3335.00
   08:32:50.195.08-Aug-2020 5149.01 4344.85 76.74 6.00 317.97 3335.00
   08:32:50.395.08-Aug-2020 5149.01 4344.82 76.74 6.00 318.17 3335.00
   08:32:50.596.08-Aug-2020 5149.01 4344.82 76.74 6.00 318.37 3335.00
   08:32:50.796.08-Aug-2020 5149.01 4344.80 76.74 6.00 318.57 3335.00
   08:32:50.996.08-Aug-2020 5149.01 4344.80 76.74 6.00 318.77 3335.00
   08:32:51.196.08-Aug-2020 5149.01 4344.84 76.74 6.00 318.97 3335.00
   08:32:51.396.08-Aug-2020 5149.01 4344.88 76.74 6.00 319.17 3335.00
   08:32:51.596.08-Aug-2020 5149.01 4344.88 76.74 6.00 319.37 3335.00
   08:32:51.796.08-Aug-2020 5149.01 4344.83 76.74 6.00 319.57 3335.00
   08:32:51.996.08-Aug-2020 5149.01 4344.88 76.74 6.00 319.77 3335.00
   08:32:52.196.08-Aug-2020 5149.01 4344.85 76.74 6.00 319.97 3335.00
   08:32:52.396.08-Aug-2020 5149.01 4344.80 76.74 6.00 320.17 3335.00
   08:32:52.597.08-Aug-2020 5149.01 4344.80 76.74 6.00 320.37 3335.00
   08:32:52.797.08-Aug-2020 5149.01 4344.84 76.74 6.00 320.57 3335.00
   08:32:52.997.08-Aug-2020 5149.01 4344.83 76.74 6.00 320.77 3335.00
   08:32:53.197.08-Aug-2020 5149.01 4344.81 76.74 6.00 320.97 3335.00
   08:32:53.397.08-Aug-2020 5149.01 4344.94 76.74 6.00 321.17 3335.00
   08:32:53.597.08-Aug-2020 5149.01 4344.94 76.74 6.00 321.37 3335.00
   08:32:53.797.08-Aug-2020 5149.01 4344.82 76.74 6.00 321.57 3335.00
   08:32:53.997.08-Aug-2020 5149.01 4344.82 76.74 6.00 321.77 3335.00
   08:32:54.197.08-Aug-2020 5149.01 4344.83 76.74 6.00 321.97 3335.00
