~Version Information
 VERS.                  2.0:   CWLS log ASCII Standard -VERSION 2.0
 WRAP.                   NO:   One line per depth step
~Well Information Block
#MNEM.UNIT     VALUE/NAME     DESCRIPTION
#---------     -----------    ---------------------------
 STRT.S             08:27:32 08-Aug-20: START TIME 08:27:32 08-Aug-20
 STOP.S             08:36:05 08-Aug-20: STOP TIME  08:36:05 08-Aug-20
 STEP.S                   0.00: STEP TIME
 NULL.                 -999.25: NULL VALUE
 DFWT.                        :  DIST FWL TEXT
 DFST.                        :  DIST FSL TEXT
 DMF .             Drill Floor:  DRILL MEAS FROM
 STIM.      13.47.44 07-Jun-20:  START TIME
 DATE.      13.47.44 27-Jul-20:  END TIME
 SPUD.               07-Jun-20:  SPUD DATE
 NREF.                    Grid:  NORTH REFERENCE
 HPTY.       Minimum Curvature:  HOLE POS TYPE
 DMOD.             Drill Model:  DRILL MOD DESC
 SVYD.                  Survey:  SURVEY DESC
 ILTD.               Lithology:  INTERP LTH DESC
 FTOP.          Formation Tops:  FORM TOPS DESC
 RIG .             West Chirag:  RIG NAME
 PDAT.          Mean Sea Level:  PERMANENT DATUM
 FLD .                     ACG:  FIELD NAME
 SON .        AZ-XX-0906363612:  JOB NUMBER
 CTRY.              Azerbaijan:  COUNTRY NAME
 WELL.           J25 (Slot 35):  WELL NAME
 SRVC.          Turan Drilling:  CONTRACTOR
 COMP.     BP Exploration (Caspian Sea) Ltd:  COMPANY
 UWI .                     N/A:  UNIQUE WELL IDENTIFIER
 API .                     N/A:  API NUMBER
 BASE.              Azerbaijan:  LOGGING EQUIPMENT BASE LOCATION
 REGN.                   EESSA:  REGION
 PROV.                    Baku:  PROVINCE
 STAT.                    Baku:  STATE NAME
 MWDS.                     N/A:  MWD SHOP
 DOE .                     N/A:  DOE NUMBER
 DCON.         Sperry Drilling:  DIRECTNL CONTR
 UNIT.                     N/A:  LOGGING EQUIPMENT ID
 MDS .        Operator Entered:  MAG DATA SOURCE
 JOBN.        AZ-XX-0906363612:  JOB TICKET NUMB
 WTYP.                Deviated:  WELL TYPE
 CNTY.                        :  COUNTY
 LOC .                        :  LOCATION
 LMF .             Drill Floor:  LOG MEASURED FROM
 TVDS.m                  43.00:  TVDSS CORRECTN
 LATI.deg                40.13:  LATITUDE
 LONG.deg                51.22:  LONGITUDE
 WHNS.m                  -7.90:  WELL HEAD N/S
 WHEW.m                  -3.35:  WELL HEAD E/W
 UTMX.m              519005.06:  UTM X
 UTMY.m             4443793.85:  UTM Y
 DFWL.m                   0.00:  DISTANCE FWL
 DFSL.m                   0.00:  DISTANCE FSL
 SDEP.m                   0.00:  START DEPTH
 TDD .m                   0.00:  TOTAL DEPTH (DRILLER)
 VSDR.deg               308.97:  VERT SEC DIRECT
 GVFD.g                   1.00:  GRAVITY FIELD
 MFLD.nT              50350.00:  MAGNETIC FIELD
 MDIP.deg                59.62:  MAGNETIC DIP
 MDEC.deg                 6.44:  MAGNETIC DECL
 GRDC.deg                 0.13:  GRID CORRECTION
 AZTC.deg                 6.32:  AZM TOTAL CORR
 EPD .m                   0.00:  ELEVATION
 EGL .m                   0.00:  GROUND ELEVATION
 WDMS.m                 169.80:  WD ELEV
 APD .m                  43.00:  DEPTH ABOVE PD
 DEP .m                 356.43:  DEPTH
 AGAP.m                  43.00:  AIR GAP
 VSEW.m                  -3.35:  VERT SEC E/W
 VSNS.m                  -7.90:  VERT SEC N/S
 EKB .m                  43.00:  KB ELEVATION
 EDF .m                  43.00:  DF ELEVATION
 TDL .m                 934.00:  TOTAL DEPTH (LOGGER)
 VSC .                       0:  VS TO CLOSURE
 MAGU.                 1852825:  MAGUTM CHECKSUM
~Parameter Information Block
#MNEM.UNIT       Value        Description
#---------     -----------    ---------------------------
 AV  .mps                 0.80:  Ann Velocity 
 AVMX.mps                 1.70:  Max Ann Veloc 
 AZIF.deg               311.41:  Azm, Final 
 BHAT.        Rotary Steerable:  BHA Type 
 BROT.°/30m               0.09:  Build Rotating 
 BS  .in                 12.25:  Bit Size 
 BSZ .in                 12.25:  Bit Size 
 BTPL.psig              800.00:  Bit Press Loss 
 CABU.                      No:  Customer Abuse 
 COMM.                     ¼’n:  Run Comments 1 
 TCS .hr                 96.00:  Time Ciculation Ended 
 CV  .mps                 2.03:  Crit Velocity 
 CVMX.mps                 2.42:  Max Crit Veloc 
 DD1 .          Taghi Taghiyev:  Direct Drillr 1 
 DD2 .      Tariel Pirmammadov:  Direct Drillr 2 
 DD3 .          Teymur Aghayev:  Direct Drillr 3 
 DDSV.                 iCruise:  DD Service 
 DEFF.%                  98.70:  % Det Eff 
 DLRX.°/30m               1.00:  Dogleg Rot Max 
 DLSO.°/30m               1.80:  Dogleg Oriented 
 DLSX.°/30m               3.16:  Dogleg Str Max 
 DRET.      15.00.00 07-Aug-20:  Drill End Time 
 DRST.      17.00.00 02-Aug-20:  Drill Start Tim 
 DTIM.hr                 45.90:  Time Drilling 
 EDEP.m                5298.01:  End Depth 
 ENG1.       Seymur Iskandarov:  Engineer 1 
 ENG2.         Yevgeniy Ulikov:  Engineer 2 
 ENG3.      Artemiy Matviyanov:  Engineer 3 
 ENG4.         Bahruz Mehdiyev:  Engineer 4 
 ETIM.      05.00.00 10-Aug-20:  End Time 
 FLOI.gpm              1150.00:  Flow In 
 FLON.gpm               900.00:  Flow In Min 
 FLOS.cptm                0.00:  Fluid Loss 
 FLOX.gpm              1200.00:  Flow In Max 
 FTRO.     Connectivity, Formation Presure:  FTWD Run Obj 
 HFLO.                      No:  High Flow 
 HPRE.                     Yes:  High Pressure 
 HTEM.                      No:  High Temp 
 HYDO.m                   1.80:  Hydro Offset 
 IFIN.deg                 9.71:  Inc, Final 
 IMAX.deg                63.81:  Inc Max 
 IMIN.deg                 9.53:  Inc Min 
 IMND.m                5075.52:  Inc Min Depth 
 IMXD.m                4367.08:  Inc Max Depth 
 JARR.                      No:  Jarring 
 LETM.      15.00.00 07-Aug-20:  Log End Time 
 LOST.hr                     2:  Lost Rig Time 
 LSTM.      17.00.00 02-Aug-20:  Log Start Time 
 MDCL.ppm             42500.00:  Mud Chlorides 
 MDES.     Inversion Oil/Synthetic:  Mud Desc 
 DFD .sg                  1.46:  Mud Density 
 MDMN.sg                  1.46:  Dens Mud Min 
 MDMX.sg                  1.46:  Dens Mud Max 
 MOIL.                      56:  Run Mud Oil % 
 MOWR.                   70:30:  Run Mud OWR 
 MSND.                     0.1:  Run Mud Sand % 
 MSOL.                      19:  Run Mud Solids% 
 DFV .spqt               83.00:  Mud Viscosity 
 MWOD.in                  8.00:  MWD Tool OD 
 MWSI.                     Yes:  Serv Intrp, MWD 
 OTIM.hr                196.57:  Time Operating 
 PCON.           Look Like New:  Pad Condition 
 PMAX.psia             7400.00:  Press Op, Max 
 PV  .cP                 36.00:  Mud PV 
 RUN .                    1000:  Run Number 
 ROPA.m/hr               25.00:  ROP Avg 
 ROPN.m/hr               10.00:  ROP Min 
 ROPX.m/hr               32.00:  ROP Max 
 RPMA.rpm               120.00:  RPM Surface Avg 
 RPMN.rpm               100.00:  RPM Surface Min 
 RPMX.rpm               140.00:  RPM Surface Max 
 RRUN.                    L504:  Rig Run Number 
 SAZI.deg               308.25:  Azm, Start 
 SDEP.m                4364.01:  Start Depth 
 SIDD.                      No:  Serv Intrp, DD 
 SINC.deg                63.81:  Inc, Start 
 SPPA.psig             5800.00:  SPP Avg 
 SPPN.psig             4200.00:  SPP Min 
 SPPX.psig             5950.00:  SPP Max 
 STIM.      18.00.00 01-Aug-20:  Start Time 
 SVCS.                 DD, MWD:  Services 
 SVER.                    9.20:  Sperry Version 
 TDAT.m                 934.00:  Tot Depth Attmp 
 TDDF.                      No:  Trip for DD 
 TDLG.m                 934.00:  Tot Depth Loggd 
 TFF .                      No:  Trip for Fail 
 TQAA.f-kp               31.00:  Torque Abs Avg 
 TQAN.f-kp               25.00:  Torque Abs Min 
 TQAX.f-kp               35.00:  Torque Abs Max 
 TRRT.°/30m              -0.75:  Turn Rotating 
 MRT .                  EWR-M5:  Maximum Recorded Temperature 
 TTMX.degC               95.00:  Max Tool Temp 
 VS01.                90516060:  Virtual Str1 SN 
 VS02.                90528488:  Virtual Str2 SN 
 VS03.                90577970:  Virtual Str3 SN 
 VS04.                12385033:  Virtual Str4 SN 
 VS05.                90522069:  Virtual Str5 SN 
 VS06.                13124134:  Virtual Str6 SN 
 WBMN.klb                20.00:  WOB Min 
 WITN.         Alistair Sprott:  Customer Rep 
 WITN.     Ronal van der Kraan:  Customer Rep 2 
 WOBA.klb                25.00:  WOB Avg 
 WOBX.klb                31.00:  WOB Max 
 YP  .lhf2               32.00:  Yield Point 
~Curve Information Block
#MNEM.UNIT                 API CODE     Curve Description
#---------               -----------    ---------------------------
 TIME.HHMMSS            00 000 000 000:  GT Time & Date
 GTDEPTH.m              00 000 000 000:  GT Depth
 GTPQH.psia             00 000 000 000:  GT HR Quartz Pressure
 GTTQ.degC              00 000 000 000:  GT Quartz Temperature
 GTTN.NONE              00 000 000 000:  GT Test Number
 GTET.sec               00 000 000 000:  GT Elapsed Test Time
 GTTVD.m                00 000 000 000:  GT True Vertical Depth
#Other Information
#
#WARRANTY: Halliburton will use its best efforts to furnish customers with 
#accurate information and interpretations that are part of, and incident to, the services 
#provided.  However, Halliburton cannot and does not warrant the accuracy 
#or correctness of such information and interpretations.  Under no circumstances should any 
#such information or interpretation be relied upon as the sole basis for any drilling, 
#completion, production, or financial decision or any procedure involving any risk to the 
#safety of any drilling venture, drilling rig or its crew or any other third party.  The 
#Customer has full responsibility for all drilling, completion and production operation.  
#Halliburton makes no representations or warranties, either expressed or 
#implied, including, but not limited to, the implied warranties of merchantability or fitness 
#for a particular purpose, with respect to the services rendered.  In no event will 
#Halliburton be liable for failure to obtain any particular results or for 
#any damages, including, but not limited to, indirect, special or consequential damages, 
#resulting from the use of any information or interpretation provided by Halliburton.
#
~A           TIME           GTDEPTH  GTPQH  GTTQ  GTTN  GTET   GTTVD  
# ...
   08:35:12.471.08-Aug-2020 5149.01 4344.84 76.71 6.00 460.24 3335.00
   08:35:12.671.08-Aug-2020 5149.01 4344.92 76.71 6.00 460.44 3335.00
   08:35:12.871.08-Aug-2020 5149.01 4344.91 76.71 6.00 460.64 3335.00
   08:35:13.071.08-Aug-2020 5149.01 4344.89 76.71 6.00 460.84 3335.00
   08:35:13.271.08-Aug-2020 5149.01 4344.94 76.71 6.00 461.04 3335.00
   08:35:13.471.08-Aug-2020 5149.01 4344.89 76.71 6.00 461.24 3335.00
   08:35:13.671.08-Aug-2020 5149.01 4344.89 76.71 6.00 461.44 3335.00
   08:35:13.871.08-Aug-2020 5149.01 4344.89 76.71 6.00 461.64 3335.00
   08:35:14.071.08-Aug-2020 5149.01 4344.91 76.71 6.00 461.84 3335.00
   08:35:14.272.08-Aug-2020 5149.01 4344.89 76.71 6.00 462.04 3335.00
   08:35:14.472.08-Aug-2020 5149.01 4344.98 76.71 6.00 462.24 3335.00
   08:35:14.672.08-Aug-2020 5149.01 4344.98 76.71 6.00 462.44 3335.00
   08:35:14.872.08-Aug-2020 5149.01 4344.80 76.71 6.00 462.64 3335.00
   08:35:15.072.08-Aug-2020 5149.01 4344.97 76.71 6.00 462.84 3335.00
   08:35:15.272.08-Aug-2020 5149.01 4345.09 76.71 6.00 463.04 3335.00
   08:35:15.472.08-Aug-2020 5149.01 4344.81 76.71 6.00 463.25 3335.00
   08:35:15.672.08-Aug-2020 5149.01 4344.81 76.71 6.00 463.45 3335.00
   08:35:15.872.08-Aug-2020 5149.01 4344.86 76.71 6.00 463.65 3335.00
   08:35:16.072.08-Aug-2020 5149.01 4344.95 76.71 6.00 463.85 3335.00
   08:35:16.273.08-Aug-2020 5149.01 4344.98 76.71 6.00 464.05 3335.00
   08:35:16.473.08-Aug-2020 5149.01 4344.85 76.71 6.00 464.25 3335.00
   08:35:16.673.08-Aug-2020 5149.01 4344.85 76.71 6.00 464.45 3335.00
   08:35:16.873.08-Aug-2020 5149.01 4345.02 76.71 6.00 464.65 3335.00
   08:35:17.073.08-Aug-2020 5149.01 4344.92 76.71 6.00 464.85 3335.00
   08:35:17.273.08-Aug-2020 5149.01 4344.87 76.71 6.00 465.05 3335.00
   08:35:17.473.08-Aug-2020 5149.01 4344.96 76.71 6.00 465.25 3335.00
   08:35:17.673.08-Aug-2020 5149.01 4344.96 76.71 6.00 465.45 3335.00
   08:35:17.873.08-Aug-2020 5149.01 4344.91 76.71 6.00 465.65 3335.00
   08:35:18.074.08-Aug-2020 5149.01 4344.97 76.71 6.00 465.85 3335.00
   08:35:18.274.08-Aug-2020 5149.01 4344.89 76.71 6.00 466.05 3335.00
   08:35:18.474.08-Aug-2020 5149.01 4344.98 76.71 6.00 466.25 3335.00
   08:35:18.674.08-Aug-2020 5149.01 4344.98 76.71 6.00 466.45 3335.00
   08:35:18.874.08-Aug-2020 5149.01 4345.08 76.71 6.00 466.65 3335.00
   08:35:19.074.08-Aug-2020 5149.01 4344.80 76.71 6.00 466.85 3335.00
   08:35:19.274.08-Aug-2020 5149.01 4344.82 76.71 6.00 467.05 3335.00
   08:35:19.474.08-Aug-2020 5149.01 4345.01 76.71 6.00 467.25 3335.00
   08:35:19.674.08-Aug-2020 5149.01 4345.01 76.71 6.00 467.45 3335.00
   08:35:19.874.08-Aug-2020 5149.01 4344.87 76.71 6.00 467.65 3335.00
   08:35:20.075.08-Aug-2020 5149.01 4344.97 76.71 6.00 467.85 3335.00
   08:35:20.275.08-Aug-2020 5149.01 4344.89 76.71 6.00 468.05 3335.00
   08:35:20.475.08-Aug-2020 5149.01 4344.91 76.71 6.00 468.25 3335.00
   08:35:20.675.08-Aug-2020 5149.01 4344.91 76.71 6.00 468.45 3335.00
   08:35:20.875.08-Aug-2020 5149.01 4344.90 76.71 6.00 468.65 3335.00
   08:35:21.075.08-Aug-2020 5149.01 4344.99 76.71 6.00 468.85 3335.00
   08:35:21.275.08-Aug-2020 5149.01 4344.87 76.71 6.00 469.05 3335.00
   08:35:21.475.08-Aug-2020 5149.01 4344.91 76.71 6.00 469.25 3335.00
   08:35:21.675.08-Aug-2020 5149.01 4344.91 76.71 6.00 469.45 3335.00
   08:35:21.876.08-Aug-2020 5149.01 4344.88 76.71 6.00 469.65 3335.00
   08:35:22.076.08-Aug-2020 5149.01 4344.89 76.71 6.00 469.85 3335.00
   08:35:22.276.08-Aug-2020 5149.01 4344.96 76.71 6.00 470.05 3335.00
   08:35:22.476.08-Aug-2020 5149.01 4344.92 76.71 6.00 470.25 3335.00
   08:35:22.676.08-Aug-2020 5149.01 4344.92 76.71 6.00 470.45 3335.00
   08:35:22.876.08-Aug-2020 5149.01 4344.87 76.71 6.00 470.65 3335.00
   08:35:23.076.08-Aug-2020 5149.01 4344.91 76.71 6.00 470.85 3335.00
   08:35:23.276.08-Aug-2020 5149.01 4344.87 76.71 6.00 471.05 3335.00
   08:35:23.476.08-Aug-2020 5149.01 4344.96 76.71 6.00 471.25 3335.00
   08:35:23.676.08-Aug-2020 5149.01 4344.96 76.71 6.00 471.45 3335.00
   08:35:23.877.08-Aug-2020 5149.01 4344.94 76.71 6.00 471.65 3335.00
   08:35:24.077.08-Aug-2020 5149.01 4344.96 76.71 6.00 471.85 3335.00
   08:35:24.277.08-Aug-2020 5149.01 4344.95 76.71 6.00 472.05 3335.00
   08:35:24.477.08-Aug-2020 5149.01 4344.87 76.71 6.00 472.25 3335.00
   08:35:24.677.08-Aug-2020 5149.01 4344.87 76.71 6.00 472.45 3335.00
   08:35:24.877.08-Aug-2020 5149.01 4345.00 76.71 6.00 472.65 3335.00
   08:35:25.077.08-Aug-2020 5149.01 4344.82 76.71 6.00 472.85 3335.00
   08:35:25.277.08-Aug-2020 5149.01 4344.90 76.71 6.00 473.05 3335.00
   08:35:25.477.08-Aug-2020 5149.01 4345.02 76.71 6.00 473.25 3335.00
   08:35:25.678.08-Aug-2020 5149.01 4344.89 76.71 6.00 473.45 3335.00
   08:35:25.878.08-Aug-2020 5149.01 4344.92 76.71 6.00 473.65 3335.00
   08:35:26.078.08-Aug-2020 5149.01 4344.99 76.71 6.00 473.85 3335.00
   08:35:26.278.08-Aug-2020 5149.01 4344.86 76.71 6.00 474.05 3335.00
   08:35:26.478.08-Aug-2020 5149.01 4344.95 76.71 6.00 474.25 3335.00
   08:35:26.678.08-Aug-2020 5149.01 4344.95 76.71 6.00 474.45 3335.00
   08:35:26.878.08-Aug-2020 5149.01 4345.00 76.71 6.00 474.65 3335.00
   08:35:27.078.08-Aug-2020 5149.01 4345.05 76.71 6.00 474.85 3335.00
   08:35:27.278.08-Aug-2020 5149.01 4344.92 76.71 6.00 475.05 3335.00
   08:35:27.479.08-Aug-2020 5149.01 4344.91 76.71 6.00 475.25 3335.00
   08:35:27.679.08-Aug-2020 5149.01 4344.91 76.71 6.00 475.45 3335.00
   08:35:27.879.08-Aug-2020 5149.01 4345.00 76.71 6.00 475.65 3335.00
   08:35:28.079.08-Aug-2020 5149.01 4344.99 76.71 6.00 475.85 3335.00
   08:35:28.279.08-Aug-2020 5149.01 4344.93 76.71 6.00 476.05 3335.00
   08:35:28.479.08-Aug-2020 5149.01 4344.97 76.71 6.00 476.25 3335.00
   08:35:28.679.08-Aug-2020 5149.01 4344.97 76.71 6.00 476.45 3335.00
   08:35:28.879.08-Aug-2020 5149.01 4345.21 76.71 6.00 476.65 3335.00
   08:35:29.079.08-Aug-2020 5149.01 4345.13 76.71 6.00 476.85 3335.00
   08:35:29.279.08-Aug-2020 5149.01 4344.77 76.71 6.00 477.05 3335.00
   08:35:29.480.08-Aug-2020 5149.01 4345.06 76.71 6.00 477.25 3335.00
   08:35:29.680.08-Aug-2020 5149.01 4345.06 76.71 6.00 477.45 3335.00
   08:35:29.880.08-Aug-2020 5149.01 4345.10 76.71 6.00 477.65 3335.00
   08:35:30.080.08-Aug-2020 5149.01 4344.86 76.71 6.00 477.85 3335.00
   08:35:30.280.08-Aug-2020 5149.01 4345.05 76.71 6.00 478.05 3335.00
   08:35:30.480.08-Aug-2020 5149.01 4344.82 76.71 6.00 478.25 3335.00
   08:35:30.680.08-Aug-2020 5149.01 4344.82 76.71 6.00 478.45 3335.00
   08:35:30.880.08-Aug-2020 5149.01 4344.94 76.71 6.00 478.65 3335.00
   08:35:31.080.08-Aug-2020 5149.01 4344.77 76.71 6.00 478.85 3335.00
   08:35:31.281.08-Aug-2020 5149.01 4352.13 76.71 6.00 479.05 3335.00
   08:35:31.481.08-Aug-2020 5149.01 4382.77 76.71 6.00 479.25 3335.00
   08:35:31.681.08-Aug-2020 5149.01 4382.77 76.71 6.00 479.45 3335.00
   08:35:31.881.08-Aug-2020 5149.01 4397.05 76.71 6.00 479.65 3335.00
   08:35:32.081.08-Aug-2020 5149.01 4398.53 76.71 6.00 479.85 3335.00
   08:35:32.281.08-Aug-2020 5149.01 4402.75 76.71 6.00 480.05 3335.00
   08:35:32.481.08-Aug-2020 5149.01 4409.66 76.71 6.00 480.25 3335.00
   08:35:32.681.08-Aug-2020 5149.01 4409.66 76.71 6.00 480.45 3335.00
   08:35:32.881.08-Aug-2020 5149.01 4422.95 76.71 6.00 480.65 3335.00
   08:35:33.081.08-Aug-2020 5149.01 4438.26 76.71 6.00 480.85 3335.00
   08:35:33.282.08-Aug-2020 5149.01 4459.72 76.71 6.00 481.05 3335.00
   08:35:33.482.08-Aug-2020 5149.01 4258.96 76.71 6.00 481.25 3335.00
   08:35:33.682.08-Aug-2020 5149.01 4258.96 76.71 6.00 481.45 3335.00
   08:35:33.882.08-Aug-2020 5149.01 6382.55 76.71 6.00 481.65 3335.00
   08:35:34.082.08-Aug-2020 5149.01 7155.88 76.71 6.00 481.85 3335.00
   08:35:34.282.08-Aug-2020 5149.01 7154.27 76.71 6.00 482.06 3335.00
   08:35:34.482.08-Aug-2020 5149.01 7153.97 76.71 6.00 482.26 3335.00
   08:35:34.682.08-Aug-2020 5149.01 7153.97 76.71 6.00 482.46 3335.00
   08:35:34.882.08-Aug-2020 5149.01 7154.16 76.71 6.00 482.66 3335.00
   08:35:35.083.08-Aug-2020 5149.01 7154.51 76.71 6.00 482.86 3335.00
   08:35:35.283.08-Aug-2020 5149.01 7154.95 76.71 6.00 483.06 3335.00
