~Version Information
 VERS.                  2.0:   CWLS log ASCII Standard -VERSION 2.0
 WRAP.                   NO:   One line per depth step
~Well Information Block
#MNEM.UNIT     VALUE/NAME     DESCRIPTION
#---------     -----------    ---------------------------
 STRT.S             08:27:32 08-Aug-20: START TIME 08:27:32 08-Aug-20
 STOP.S             08:36:05 08-Aug-20: STOP TIME  08:36:05 08-Aug-20
 STEP.S                   0.00: STEP TIME
 NULL.                 -999.25: NULL VALUE
 DFWT.                        :  DIST FWL TEXT
 DFST.                        :  DIST FSL TEXT
 DMF .             Drill Floor:  DRILL MEAS FROM
 STIM.      13.47.44 07-Jun-20:  START TIME
 DATE.      13.47.44 27-Jul-20:  END TIME
 SPUD.               07-Jun-20:  SPUD DATE
 NREF.                    Grid:  NORTH REFERENCE
 HPTY.       Minimum Curvature:  HOLE POS TYPE
 DMOD.             Drill Model:  DRILL MOD DESC
 SVYD.                  Survey:  SURVEY DESC
 ILTD.               Lithology:  INTERP LTH DESC
 FTOP.          Formation Tops:  FORM TOPS DESC
 RIG .             West Chirag:  RIG NAME
 PDAT.          Mean Sea Level:  PERMANENT DATUM
 FLD .                     ACG:  FIELD NAME
 SON .        AZ-XX-0906363612:  JOB NUMBER
 CTRY.              Azerbaijan:  COUNTRY NAME
 WELL.           J25 (Slot 35):  WELL NAME
 SRVC.          Turan Drilling:  CONTRACTOR
 COMP.     BP Exploration (Caspian Sea) Ltd:  COMPANY
 UWI .                     N/A:  UNIQUE WELL IDENTIFIER
 API .                     N/A:  API NUMBER
 BASE.              Azerbaijan:  LOGGING EQUIPMENT BASE LOCATION
 REGN.                   EESSA:  REGION
 PROV.                    Baku:  PROVINCE
 STAT.                    Baku:  STATE NAME
 MWDS.                     N/A:  MWD SHOP
 DOE .                     N/A:  DOE NUMBER
 DCON.         Sperry Drilling:  DIRECTNL CONTR
 UNIT.                     N/A:  LOGGING EQUIPMENT ID
 MDS .        Operator Entered:  MAG DATA SOURCE
 JOBN.        AZ-XX-0906363612:  JOB TICKET NUMB
 WTYP.                Deviated:  WELL TYPE
 CNTY.                        :  COUNTY
 LOC .                        :  LOCATION
 LMF .             Drill Floor:  LOG MEASURED FROM
 TVDS.m                  43.00:  TVDSS CORRECTN
 LATI.deg                40.13:  LATITUDE
 LONG.deg                51.22:  LONGITUDE
 WHNS.m                  -7.90:  WELL HEAD N/S
 WHEW.m                  -3.35:  WELL HEAD E/W
 UTMX.m              519005.06:  UTM X
 UTMY.m             4443793.85:  UTM Y
 DFWL.m                   0.00:  DISTANCE FWL
 DFSL.m                   0.00:  DISTANCE FSL
 SDEP.m                   0.00:  START DEPTH
 TDD .m                   0.00:  TOTAL DEPTH (DRILLER)
 VSDR.deg               308.97:  VERT SEC DIRECT
 GVFD.g                   1.00:  GRAVITY FIELD
 MFLD.nT              50350.00:  MAGNETIC FIELD
 MDIP.deg                59.62:  MAGNETIC DIP
 MDEC.deg                 6.44:  MAGNETIC DECL
 GRDC.deg                 0.13:  GRID CORRECTION
 AZTC.deg                 6.32:  AZM TOTAL CORR
 EPD .m                   0.00:  ELEVATION
 EGL .m                   0.00:  GROUND ELEVATION
 WDMS.m                 169.80:  WD ELEV
 APD .m                  43.00:  DEPTH ABOVE PD
 DEP .m                 356.43:  DEPTH
 AGAP.m                  43.00:  AIR GAP
 VSEW.m                  -3.35:  VERT SEC E/W
 VSNS.m                  -7.90:  VERT SEC N/S
 EKB .m                  43.00:  KB ELEVATION
 EDF .m                  43.00:  DF ELEVATION
 TDL .m                 934.00:  TOTAL DEPTH (LOGGER)
 VSC .                       0:  VS TO CLOSURE
 MAGU.                 1852825:  MAGUTM CHECKSUM
~Parameter Information Block
#MNEM.UNIT       Value        Description
#---------     -----------    ---------------------------
 AV  .mps                 0.80:  Ann Velocity 
 AVMX.mps                 1.70:  Max Ann Veloc 
 AZIF.deg               311.41:  Azm, Final 
 BHAT.        Rotary Steerable:  BHA Type 
 BROT.°/30m               0.09:  Build Rotating 
 BS  .in                 12.25:  Bit Size 
 BSZ .in                 12.25:  Bit Size 
 BTPL.psig              800.00:  Bit Press Loss 
 CABU.                      No:  Customer Abuse 
 COMM.                     ¼’n:  Run Comments 1 
 TCS .hr                 96.00:  Time Ciculation Ended 
 CV  .mps                 2.03:  Crit Velocity 
 CVMX.mps                 2.42:  Max Crit Veloc 
 DD1 .          Taghi Taghiyev:  Direct Drillr 1 
 DD2 .      Tariel Pirmammadov:  Direct Drillr 2 
 DD3 .          Teymur Aghayev:  Direct Drillr 3 
 DDSV.                 iCruise:  DD Service 
 DEFF.%                  98.70:  % Det Eff 
 DLRX.°/30m               1.00:  Dogleg Rot Max 
 DLSO.°/30m               1.80:  Dogleg Oriented 
 DLSX.°/30m               3.16:  Dogleg Str Max 
 DRET.      15.00.00 07-Aug-20:  Drill End Time 
 DRST.      17.00.00 02-Aug-20:  Drill Start Tim 
 DTIM.hr                 45.90:  Time Drilling 
 EDEP.m                5298.01:  End Depth 
 ENG1.       Seymur Iskandarov:  Engineer 1 
 ENG2.         Yevgeniy Ulikov:  Engineer 2 
 ENG3.      Artemiy Matviyanov:  Engineer 3 
 ENG4.         Bahruz Mehdiyev:  Engineer 4 
 ETIM.      05.00.00 10-Aug-20:  End Time 
 FLOI.gpm              1150.00:  Flow In 
 FLON.gpm               900.00:  Flow In Min 
 FLOS.cptm                0.00:  Fluid Loss 
 FLOX.gpm              1200.00:  Flow In Max 
 FTRO.     Connectivity, Formation Presure:  FTWD Run Obj 
 HFLO.                      No:  High Flow 
 HPRE.                     Yes:  High Pressure 
 HTEM.                      No:  High Temp 
 HYDO.m                   1.80:  Hydro Offset 
 IFIN.deg                 9.71:  Inc, Final 
 IMAX.deg                63.81:  Inc Max 
 IMIN.deg                 9.53:  Inc Min 
 IMND.m                5075.52:  Inc Min Depth 
 IMXD.m                4367.08:  Inc Max Depth 
 JARR.                      No:  Jarring 
 LETM.      15.00.00 07-Aug-20:  Log End Time 
 LOST.hr                     2:  Lost Rig Time 
 LSTM.      17.00.00 02-Aug-20:  Log Start Time 
 MDCL.ppm             42500.00:  Mud Chlorides 
 MDES.     Inversion Oil/Synthetic:  Mud Desc 
 DFD .sg                  1.46:  Mud Density 
 MDMN.sg                  1.46:  Dens Mud Min 
 MDMX.sg                  1.46:  Dens Mud Max 
 MOIL.                      56:  Run Mud Oil % 
 MOWR.                   70:30:  Run Mud OWR 
 MSND.                     0.1:  Run Mud Sand % 
 MSOL.                      19:  Run Mud Solids% 
 DFV .spqt               83.00:  Mud Viscosity 
 MWOD.in                  8.00:  MWD Tool OD 
 MWSI.                     Yes:  Serv Intrp, MWD 
 OTIM.hr                196.57:  Time Operating 
 PCON.           Look Like New:  Pad Condition 
 PMAX.psia             7400.00:  Press Op, Max 
 PV  .cP                 36.00:  Mud PV 
 RUN .                    1000:  Run Number 
 ROPA.m/hr               25.00:  ROP Avg 
 ROPN.m/hr               10.00:  ROP Min 
 ROPX.m/hr               32.00:  ROP Max 
 RPMA.rpm               120.00:  RPM Surface Avg 
 RPMN.rpm               100.00:  RPM Surface Min 
 RPMX.rpm               140.00:  RPM Surface Max 
 RRUN.                    L504:  Rig Run Number 
 SAZI.deg               308.25:  Azm, Start 
 SDEP.m                4364.01:  Start Depth 
 SIDD.                      No:  Serv Intrp, DD 
 SINC.deg                63.81:  Inc, Start 
 SPPA.psig             5800.00:  SPP Avg 
 SPPN.psig             4200.00:  SPP Min 
 SPPX.psig             5950.00:  SPP Max 
 STIM.      18.00.00 01-Aug-20:  Start Time 
 SVCS.                 DD, MWD:  Services 
 SVER.                    9.20:  Sperry Version 
 TDAT.m                 934.00:  Tot Depth Attmp 
 TDDF.                      No:  Trip for DD 
 TDLG.m                 934.00:  Tot Depth Loggd 
 TFF .                      No:  Trip for Fail 
 TQAA.f-kp               31.00:  Torque Abs Avg 
 TQAN.f-kp               25.00:  Torque Abs Min 
 TQAX.f-kp               35.00:  Torque Abs Max 
 TRRT.°/30m              -0.75:  Turn Rotating 
 MRT .                  EWR-M5:  Maximum Recorded Temperature 
 TTMX.degC               95.00:  Max Tool Temp 
 VS01.                90516060:  Virtual Str1 SN 
 VS02.                90528488:  Virtual Str2 SN 
 VS03.                90577970:  Virtual Str3 SN 
 VS04.                12385033:  Virtual Str4 SN 
 VS05.                90522069:  Virtual Str5 SN 
 VS06.                13124134:  Virtual Str6 SN 
 WBMN.klb                20.00:  WOB Min 
 WITN.         Alistair Sprott:  Customer Rep 
 WITN.     Ronal van der Kraan:  Customer Rep 2 
 WOBA.klb                25.00:  WOB Avg 
 WOBX.klb                31.00:  WOB Max 
 YP  .lhf2               32.00:  Yield Point 
~Curve Information Block
#MNEM.UNIT                 API CODE     Curve Description
#---------               -----------    ---------------------------
 TIME.HHMMSS            00 000 000 000:  GT Time & Date
 GTDEPTH.m              00 000 000 000:  GT Depth
 GTPQH.psia             00 000 000 000:  GT HR Quartz Pressure
 GTTQ.degC              00 000 000 000:  GT Quartz Temperature
 GTTN.NONE              00 000 000 000:  GT Test Number
 GTET.sec               00 000 000 000:  GT Elapsed Test Time
 GTTVD.m                00 000 000 000:  GT True Vertical Depth
#Other Information
#
#WARRANTY: Halliburton will use its best efforts to furnish customers with 
#accurate information and interpretations that are part of, and incident to, the services 
#provided.  However, Halliburton cannot and does not warrant the accuracy 
#or correctness of such information and interpretations.  Under no circumstances should any 
#such information or interpretation be relied upon as the sole basis for any drilling, 
#completion, production, or financial decision or any procedure involving any risk to the 
#safety of any drilling venture, drilling rig or its crew or any other third party.  The 
#Customer has full responsibility for all drilling, completion and production operation.  
#Halliburton makes no representations or warranties, either expressed or 
#implied, including, but not limited to, the implied warranties of merchantability or fitness 
#for a particular purpose, with respect to the services rendered.  In no event will 
#Halliburton be liable for failure to obtain any particular results or for 
#any damages, including, but not limited to, indirect, special or consequential damages, 
#resulting from the use of any information or interpretation provided by Halliburton.
#
~A           TIME           GTDEPTH  GTPQH  GTTQ  GTTN  GTET   GTTVD  
# ...
   08:29:04.276.08-Aug-2020 5149.01 4344.36 76.70 6.00  92.05 3335.00
   08:29:04.476.08-Aug-2020 5149.01 4344.36 76.70 6.00  92.25 3335.00
   08:29:04.676.08-Aug-2020 5149.01 4344.17 76.70 6.00  92.45 3335.00
   08:29:04.876.08-Aug-2020 5149.01 4344.17 76.70 6.00  92.65 3335.00
   08:29:05.076.08-Aug-2020 5149.01 4344.27 76.70 6.00  92.85 3335.00
   08:29:05.276.08-Aug-2020 5149.01 4344.22 76.70 6.00  93.05 3335.00
   08:29:05.476.08-Aug-2020 5149.01 4344.22 76.70 6.00  93.25 3335.00
   08:29:05.677.08-Aug-2020 5149.01 4344.21 76.70 6.00  93.45 3335.00
   08:29:05.877.08-Aug-2020 5149.01 4344.32 76.70 6.00  93.65 3335.00
   08:29:06.077.08-Aug-2020 5149.01 4344.30 76.70 6.00  93.85 3335.00
   08:29:06.277.08-Aug-2020 5149.01 4344.22 76.70 6.00  94.05 3335.00
   08:29:06.477.08-Aug-2020 5149.01 4344.22 76.70 6.00  94.25 3335.00
   08:29:06.677.08-Aug-2020 5149.01 4344.41 76.70 6.00  94.45 3335.00
   08:29:06.877.08-Aug-2020 5149.01 4344.43 76.70 6.00  94.65 3335.00
   08:29:07.077.08-Aug-2020 5149.01 4344.49 76.71 6.00  94.85 3335.00
   08:29:07.277.08-Aug-2020 5149.01 4344.26 76.71 6.00  95.05 3335.00
   08:29:07.477.08-Aug-2020 5149.01 4344.26 76.71 6.00  95.25 3335.00
   08:29:07.678.08-Aug-2020 5149.01 4344.25 76.71 6.00  95.45 3335.00
   08:29:07.878.08-Aug-2020 5149.01 4344.33 76.71 6.00  95.65 3335.00
   08:29:08.078.08-Aug-2020 5149.01 4344.68 76.71 6.00  95.85 3335.00
   08:29:08.278.08-Aug-2020 5149.01 4344.13 76.71 6.00  96.05 3335.00
   08:29:08.478.08-Aug-2020 5149.01 4344.13 76.71 6.00  96.25 3335.00
   08:29:08.678.08-Aug-2020 5149.01 4344.35 76.71 6.00  96.45 3335.00
   08:29:08.878.08-Aug-2020 5149.01 4344.47 76.71 6.00  96.65 3335.00
   08:29:09.078.08-Aug-2020 5149.01 4344.29 76.71 6.00  96.85 3335.00
   08:29:09.278.08-Aug-2020 5149.01 4344.45 76.71 6.00  97.05 3335.00
   08:29:09.479.08-Aug-2020 5149.01 4344.45 76.71 6.00  97.25 3335.00
   08:29:09.679.08-Aug-2020 5149.01 4344.51 76.71 6.00  97.45 3335.00
   08:29:09.879.08-Aug-2020 5149.01 4344.28 76.71 6.00  97.65 3335.00
   08:29:10.079.08-Aug-2020 5149.01 4344.66 76.71 6.00  97.85 3335.00
   08:29:10.279.08-Aug-2020 5149.01 4344.41 76.71 6.00  98.05 3335.00
   08:29:10.479.08-Aug-2020 5149.01 4344.41 76.71 6.00  98.25 3335.00
   08:29:10.679.08-Aug-2020 5149.01 4344.45 76.71 6.00  98.45 3335.00
   08:29:10.879.08-Aug-2020 5149.01 4344.50 76.71 6.00  98.65 3335.00
   08:29:11.079.08-Aug-2020 5149.01 4344.47 76.71 6.00  98.85 3335.00
   08:29:11.279.08-Aug-2020 5149.01 4344.60 76.71 6.00  99.05 3335.00
   08:29:11.480.08-Aug-2020 5149.01 4344.60 76.71 6.00  99.25 3335.00
   08:29:11.680.08-Aug-2020 5149.01 4344.74 76.71 6.00  99.45 3335.00
   08:29:11.880.08-Aug-2020 5149.01 4344.21 76.71 6.00  99.65 3335.00
   08:29:12.080.08-Aug-2020 5149.01 4344.64 76.71 6.00  99.85 3335.00
   08:29:12.280.08-Aug-2020 5149.01 4344.34 76.71 6.00 100.05 3335.00
   08:29:12.480.08-Aug-2020 5149.01 4344.34 76.71 6.00 100.25 3335.00
   08:29:12.680.08-Aug-2020 5149.01 4344.52 76.71 6.00 100.45 3335.00
   08:29:12.880.08-Aug-2020 5149.01 4344.46 76.71 6.00 100.65 3335.00
   08:29:13.080.08-Aug-2020 5149.01 4344.45 76.71 6.00 100.85 3335.00
   08:29:13.281.08-Aug-2020 5149.01 4344.63 76.71 6.00 101.05 3335.00
   08:29:13.481.08-Aug-2020 5149.01 4344.63 76.71 6.00 101.25 3335.00
   08:29:13.681.08-Aug-2020 5149.01 4344.57 76.71 6.00 101.45 3335.00
   08:29:13.881.08-Aug-2020 5149.01 4344.58 76.71 6.00 101.65 3335.00
   08:29:14.081.08-Aug-2020 5149.01 4344.58 76.71 6.00 101.85 3335.00
   08:29:14.281.08-Aug-2020 5149.01 4344.60 76.71 6.00 102.05 3335.00
   08:29:14.481.08-Aug-2020 5149.01 4344.60 76.71 6.00 102.25 3335.00
   08:29:14.681.08-Aug-2020 5149.01 4344.73 76.71 6.00 102.45 3335.00
   08:29:14.881.08-Aug-2020 5149.01 4344.42 76.71 6.00 102.65 3335.00
   08:29:15.082.08-Aug-2020 5149.01 4344.67 76.71 6.00 102.85 3335.00
   08:29:15.282.08-Aug-2020 5149.01 4344.54 76.71 6.00 103.05 3335.00
   08:29:15.482.08-Aug-2020 5149.01 4344.54 76.71 6.00 103.25 3335.00
   08:29:15.682.08-Aug-2020 5149.01 4344.59 76.71 6.00 103.45 3335.00
   08:29:15.882.08-Aug-2020 5149.01 4344.54 76.71 6.00 103.65 3335.00
   08:29:16.082.08-Aug-2020 5149.01 4344.47 76.71 6.00 103.85 3335.00
   08:29:16.282.08-Aug-2020 5149.01 4344.46 76.71 6.00 104.06 3335.00
   08:29:16.482.08-Aug-2020 5149.01 4344.46 76.71 6.00 104.26 3335.00
   08:29:16.682.08-Aug-2020 5149.01 4344.63 76.71 6.00 104.46 3335.00
   08:29:16.882.08-Aug-2020 5149.01 4344.60 76.71 6.00 104.66 3335.00
   08:29:17.083.08-Aug-2020 5149.01 4344.49 76.71 6.00 104.86 3335.00
   08:29:17.283.08-Aug-2020 5149.01 4344.46 76.71 6.00 105.06 3335.00
   08:29:17.483.08-Aug-2020 5149.01 4344.46 76.71 6.00 105.26 3335.00
   08:29:17.683.08-Aug-2020 5149.01 4344.56 76.71 6.00 105.46 3335.00
   08:29:17.883.08-Aug-2020 5149.01 4344.63 76.71 6.00 105.66 3335.00
   08:29:18.083.08-Aug-2020 5149.01 4344.70 76.71 6.00 105.86 3335.00
   08:29:18.283.08-Aug-2020 5149.01 4344.44 76.71 6.00 106.06 3335.00
   08:29:18.483.08-Aug-2020 5149.01 4344.44 76.71 6.00 106.26 3335.00
   08:29:18.683.08-Aug-2020 5149.01 4344.69 76.71 6.00 106.46 3335.00
   08:29:18.884.08-Aug-2020 5149.01 4344.64 76.71 6.00 106.66 3335.00
   08:29:19.084.08-Aug-2020 5149.01 4344.43 76.71 6.00 106.86 3335.00
   08:29:19.284.08-Aug-2020 5149.01 4344.52 76.71 6.00 107.06 3335.00
   08:29:19.484.08-Aug-2020 5149.01 4344.52 76.71 6.00 107.26 3335.00
   08:29:19.684.08-Aug-2020 5149.01 4344.57 76.71 6.00 107.46 3335.00
   08:29:19.884.08-Aug-2020 5149.01 4344.57 76.72 6.00 107.66 3335.00
   08:29:20.084.08-Aug-2020 5149.01 4344.58 76.72 6.00 107.86 3335.00
   08:29:20.284.08-Aug-2020 5149.01 4344.62 76.72 6.00 108.06 3335.00
   08:29:20.484.08-Aug-2020 5149.01 4344.62 76.72 6.00 108.26 3335.00
   08:29:20.684.08-Aug-2020 5149.01 4344.72 76.72 6.00 108.46 3335.00
   08:29:20.885.08-Aug-2020 5149.01 4344.63 76.72 6.00 108.66 3335.00
   08:29:21.085.08-Aug-2020 5149.01 4344.66 76.72 6.00 108.86 3335.00
   08:29:21.285.08-Aug-2020 5149.01 4344.72 76.72 6.00 109.06 3335.00
   08:29:21.485.08-Aug-2020 5149.01 4344.72 76.72 6.00 109.26 3335.00
   08:29:21.685.08-Aug-2020 5149.01 4344.69 76.72 6.00 109.46 3335.00
   08:29:21.885.08-Aug-2020 5149.01 4344.70 76.72 6.00 109.66 3335.00
   08:29:22.085.08-Aug-2020 5149.01 4344.74 76.72 6.00 109.86 3335.00
   08:29:22.285.08-Aug-2020 5149.01 4344.71 76.72 6.00 110.06 3335.00
   08:29:22.485.08-Aug-2020 5149.01 4344.52 76.72 6.00 110.26 3335.00
   08:29:22.686.08-Aug-2020 5149.01 4344.58 76.72 6.00 110.46 3335.00
   08:29:22.886.08-Aug-2020 5149.01 4344.60 76.72 6.00 110.66 3335.00
   08:29:23.086.08-Aug-2020 5149.01 4344.65 76.72 6.00 110.86 3335.00
   08:29:23.286.08-Aug-2020 5149.01 4344.63 76.72 6.00 111.06 3335.00
   08:29:23.486.08-Aug-2020 5149.01 4344.67 76.72 6.00 111.26 3335.00
   08:29:23.686.08-Aug-2020 5149.01 4344.65 76.72 6.00 111.46 3335.00
   08:29:23.886.08-Aug-2020 5149.01 4344.66 76.72 6.00 111.66 3335.00
   08:29:24.086.08-Aug-2020 5149.01 4344.75 76.72 6.00 111.86 3335.00
   08:29:24.286.08-Aug-2020 5149.01 4344.72 76.72 6.00 112.06 3335.00
   08:29:24.486.08-Aug-2020 5149.01 4344.72 76.72 6.00 112.26 3335.00
   08:29:24.687.08-Aug-2020 5149.01 4344.70 76.72 6.00 112.46 3335.00
   08:29:24.887.08-Aug-2020 5149.01 4344.75 76.72 6.00 112.66 3335.00
   08:29:25.087.08-Aug-2020 5149.01 4344.68 76.72 6.00 112.86 3335.00
   08:29:25.287.08-Aug-2020 5149.01 4344.84 76.72 6.00 113.06 3335.00
   08:29:25.487.08-Aug-2020 5149.01 4344.84 76.72 6.00 113.26 3335.00
   08:29:25.687.08-Aug-2020 5149.01 4344.45 76.72 6.00 113.46 3335.00
   08:29:25.887.08-Aug-2020 5149.01 4345.00 76.72 6.00 113.66 3335.00
   08:29:26.087.08-Aug-2020 5149.01 4344.56 76.72 6.00 113.86 3335.00
   08:29:26.287.08-Aug-2020 5149.01 4344.82 76.72 6.00 114.06 3335.00
   08:29:26.488.08-Aug-2020 5149.01 4344.41 76.72 6.00 114.26 3335.00
   08:29:26.688.08-Aug-2020 5149.01 4344.84 76.72 6.00 114.46 3335.00
   08:29:26.888.08-Aug-2020 5149.01 4344.46 76.72 6.00 114.66 3335.00
   08:29:27.088.08-Aug-2020 5149.01 4344.79 76.72 6.00 114.86 3335.00
