~Version Information
 VERS.                  2.0:   CWLS log ASCII Standard -VERSION 2.0
 WRAP.                   NO:   One line per depth step
~Well Information Block
#MNEM.UNIT     VALUE/NAME     DESCRIPTION
#---------     -----------    ---------------------------
 STRT.S             05:51:10 08-Aug-20: START TIME 05:51:10 08-Aug-20
 STOP.S             05:59:38 08-Aug-20: STOP TIME  05:59:38 08-Aug-20
 STEP.S                   0.00: STEP TIME
 NULL.                 -999.25: NULL VALUE
 DFWT.                        :  DIST FWL TEXT
 DFST.                        :  DIST FSL TEXT
 DMF .             Drill Floor:  DRILL MEAS FROM
 STIM.      13.47.44 07-Jun-20:  START TIME
 DATE.      13.47.44 27-Jul-20:  END TIME
 SPUD.               07-Jun-20:  SPUD DATE
 NREF.                    Grid:  NORTH REFERENCE
 HPTY.       Minimum Curvature:  HOLE POS TYPE
 DMOD.             Drill Model:  DRILL MOD DESC
 SVYD.                  Survey:  SURVEY DESC
 ILTD.               Lithology:  INTERP LTH DESC
 FTOP.          Formation Tops:  FORM TOPS DESC
 RIG .             West Chirag:  RIG NAME
 PDAT.          Mean Sea Level:  PERMANENT DATUM
 FLD .                     ACG:  FIELD NAME
 SON .        AZ-XX-0906363612:  JOB NUMBER
 CTRY.              Azerbaijan:  COUNTRY NAME
 WELL.           J25 (Slot 35):  WELL NAME
 SRVC.          Turan Drilling:  CONTRACTOR
 COMP.     BP Exploration (Caspian Sea) Ltd:  COMPANY
 UWI .                     N/A:  UNIQUE WELL IDENTIFIER
 API .                     N/A:  API NUMBER
 BASE.              Azerbaijan:  LOGGING EQUIPMENT BASE LOCATION
 REGN.                   EESSA:  REGION
 PROV.                    Baku:  PROVINCE
 STAT.                    Baku:  STATE NAME
 MWDS.                     N/A:  MWD SHOP
 DOE .                     N/A:  DOE NUMBER
 DCON.         Sperry Drilling:  DIRECTNL CONTR
 UNIT.                     N/A:  LOGGING EQUIPMENT ID
 MDS .        Operator Entered:  MAG DATA SOURCE
 JOBN.        AZ-XX-0906363612:  JOB TICKET NUMB
 WTYP.                Deviated:  WELL TYPE
 CNTY.                        :  COUNTY
 LOC .                        :  LOCATION
 LMF .             Drill Floor:  LOG MEASURED FROM
 TVDS.m                  43.00:  TVDSS CORRECTN
 LATI.deg                40.13:  LATITUDE
 LONG.deg                51.22:  LONGITUDE
 WHNS.m                  -7.90:  WELL HEAD N/S
 WHEW.m                  -3.35:  WELL HEAD E/W
 UTMX.m              519005.06:  UTM X
 UTMY.m             4443793.85:  UTM Y
 DFWL.m                   0.00:  DISTANCE FWL
 DFSL.m                   0.00:  DISTANCE FSL
 SDEP.m                   0.00:  START DEPTH
 TDD .m                   0.00:  TOTAL DEPTH (DRILLER)
 VSDR.deg               308.97:  VERT SEC DIRECT
 GVFD.g                   1.00:  GRAVITY FIELD
 MFLD.nT              50350.00:  MAGNETIC FIELD
 MDIP.deg                59.62:  MAGNETIC DIP
 MDEC.deg                 6.44:  MAGNETIC DECL
 GRDC.deg                 0.13:  GRID CORRECTION
 AZTC.deg                 6.32:  AZM TOTAL CORR
 EPD .m                   0.00:  ELEVATION
 EGL .m                   0.00:  GROUND ELEVATION
 WDMS.m                 169.80:  WD ELEV
 APD .m                  43.00:  DEPTH ABOVE PD
 DEP .m                 356.43:  DEPTH
 AGAP.m                  43.00:  AIR GAP
 VSEW.m                  -3.35:  VERT SEC E/W
 VSNS.m                  -7.90:  VERT SEC N/S
 EKB .m                  43.00:  KB ELEVATION
 EDF .m                  43.00:  DF ELEVATION
 TDL .m                 934.00:  TOTAL DEPTH (LOGGER)
 VSC .                       0:  VS TO CLOSURE
 MAGU.                 1852825:  MAGUTM CHECKSUM
~Parameter Information Block
#MNEM.UNIT       Value        Description
#---------     -----------    ---------------------------
 AV  .mps                 0.80:  Ann Velocity 
 AVMX.mps                 1.70:  Max Ann Veloc 
 AZIF.deg               311.41:  Azm, Final 
 BHAT.        Rotary Steerable:  BHA Type 
 BROT.°/30m               0.09:  Build Rotating 
 BS  .in                 12.25:  Bit Size 
 BSZ .in                 12.25:  Bit Size 
 BTPL.psig              800.00:  Bit Press Loss 
 CABU.                      No:  Customer Abuse 
 COMM.                     ¤'V:  Run Comments 1 
 TCS .hr                 96.00:  Time Ciculation Ended 
 CV  .mps                 2.03:  Crit Velocity 
 CVMX.mps                 2.42:  Max Crit Veloc 
 DD1 .          Taghi Taghiyev:  Direct Drillr 1 
 DD2 .      Tariel Pirmammadov:  Direct Drillr 2 
 DD3 .          Teymur Aghayev:  Direct Drillr 3 
 DDSV.                 iCruise:  DD Service 
 DEFF.%                  98.70:  % Det Eff 
 DLRX.°/30m               1.00:  Dogleg Rot Max 
 DLSO.°/30m               1.80:  Dogleg Oriented 
 DLSX.°/30m               3.16:  Dogleg Str Max 
 DRET.      15.00.00 07-Aug-20:  Drill End Time 
 DRST.      17.00.00 02-Aug-20:  Drill Start Tim 
 DTIM.hr                 45.90:  Time Drilling 
 EDEP.m                5298.01:  End Depth 
 ENG1.       Seymur Iskandarov:  Engineer 1 
 ENG2.         Yevgeniy Ulikov:  Engineer 2 
 ENG3.      Artemiy Matviyanov:  Engineer 3 
 ENG4.         Bahruz Mehdiyev:  Engineer 4 
 ETIM.      05.00.00 10-Aug-20:  End Time 
 FLOI.gpm              1150.00:  Flow In 
 FLON.gpm               900.00:  Flow In Min 
 FLOS.cptm                0.00:  Fluid Loss 
 FLOX.gpm              1200.00:  Flow In Max 
 FTRO.     Connectivity, Formation Presure:  FTWD Run Obj 
 HFLO.                      No:  High Flow 
 HPRE.                     Yes:  High Pressure 
 HTEM.                      No:  High Temp 
 HYDO.m                   1.80:  Hydro Offset 
 IFIN.deg                 9.71:  Inc, Final 
 IMAX.deg                63.81:  Inc Max 
 IMIN.deg                 9.53:  Inc Min 
 IMND.m                5075.52:  Inc Min Depth 
 IMXD.m                4367.08:  Inc Max Depth 
 JARR.                      No:  Jarring 
 LETM.      15.00.00 07-Aug-20:  Log End Time 
 LOST.hr                     2:  Lost Rig Time 
 LSTM.      17.00.00 02-Aug-20:  Log Start Time 
 MDCL.ppm             42500.00:  Mud Chlorides 
 MDES.     Inversion Oil/Synthetic:  Mud Desc 
 DFD .sg                  1.46:  Mud Density 
 MDMN.sg                  1.46:  Dens Mud Min 
 MDMX.sg                  1.46:  Dens Mud Max 
 MOIL.                      56:  Run Mud Oil % 
 MOWR.                   70:30:  Run Mud OWR 
 MSND.                     0.1:  Run Mud Sand % 
 MSOL.                      19:  Run Mud Solids% 
 DFV .spqt               83.00:  Mud Viscosity 
 MWOD.in                  8.00:  MWD Tool OD 
 MWSI.                     Yes:  Serv Intrp, MWD 
 OTIM.hr                196.57:  Time Operating 
 PCON.           Look Like New:  Pad Condition 
 PMAX.psia             7400.00:  Press Op, Max 
 PV  .cP                 36.00:  Mud PV 
 RUN .                    1000:  Run Number 
 ROPA.m/hr               25.00:  ROP Avg 
 ROPN.m/hr               10.00:  ROP Min 
 ROPX.m/hr               32.00:  ROP Max 
 RPMA.rpm               120.00:  RPM Surface Avg 
 RPMN.rpm               100.00:  RPM Surface Min 
 RPMX.rpm               140.00:  RPM Surface Max 
 RRUN.                    L504:  Rig Run Number 
 SAZI.deg               308.25:  Azm, Start 
 SDEP.m                4364.01:  Start Depth 
 SIDD.                      No:  Serv Intrp, DD 
 SINC.deg                63.81:  Inc, Start 
 SPPA.psig             5800.00:  SPP Avg 
 SPPN.psig             4200.00:  SPP Min 
 SPPX.psig             5950.00:  SPP Max 
 STIM.      18.00.00 01-Aug-20:  Start Time 
 SVCS.                 DD, MWD:  Services 
 SVER.                    9.20:  Sperry Version 
 TDAT.m                 934.00:  Tot Depth Attmp 
 TDDF.                      No:  Trip for DD 
 TDLG.m                 934.00:  Tot Depth Loggd 
 TFF .                      No:  Trip for Fail 
 TQAA.f-kp               31.00:  Torque Abs Avg 
 TQAN.f-kp               25.00:  Torque Abs Min 
 TQAX.f-kp               35.00:  Torque Abs Max 
 TRRT.°/30m              -0.75:  Turn Rotating 
 MRT .                  EWR-M5:  Maximum Recorded Temperature 
 TTMX.degC               95.00:  Max Tool Temp 
 VS01.                90516060:  Virtual Str1 SN 
 VS02.                90528488:  Virtual Str2 SN 
 VS03.                90577970:  Virtual Str3 SN 
 VS04.                12385033:  Virtual Str4 SN 
 VS05.                90522069:  Virtual Str5 SN 
 VS06.                13124134:  Virtual Str6 SN 
 WBMN.klb                20.00:  WOB Min 
 WITN.         Alistair Sprott:  Customer Rep 
 WITN.     Ronal van der Kraan:  Customer Rep 2 
 WOBA.klb                25.00:  WOB Avg 
 WOBX.klb                31.00:  WOB Max 
 YP  .lhf2               32.00:  Yield Point 
~Curve Information Block
#MNEM.UNIT                 API CODE     Curve Description
#---------               -----------    ---------------------------
 TIME.HHMMSS            00 000 000 000:  GT Time & Date
 GTDEPTH.m              00 000 000 000:  GT Depth
 GTPQH.psia             00 000 000 000:  GT HR Quartz Pressure
 GTTQ.degC              00 000 000 000:  GT Quartz Temperature
 GTTN.NONE              00 000 000 000:  GT Test Number
 GTET.sec               00 000 000 000:  GT Elapsed Test Time
 GTTVD.m                00 000 000 000:  GT True Vertical Depth
#Other Information
#
#WARRANTY: Halliburton will use its best efforts to furnish customers with 
#accurate information and interpretations that are part of, and incident to, the services 
#provided.  However, Halliburton cannot and does not warrant the accuracy 
#or correctness of such information and interpretations.  Under no circumstances should any 
#such information or interpretation be relied upon as the sole basis for any drilling, 
#completion, production, or financial decision or any procedure involving any risk to the 
#safety of any drilling venture, drilling rig or its crew or any other third party.  The 
#Customer has full responsibility for all drilling, completion and production operation.  
#Halliburton makes no representations or warranties, either expressed or 
#implied, including, but not limited to, the implied warranties of merchantability or fitness 
#for a particular purpose, with respect to the services rendered.  In no event will 
#Halliburton be liable for failure to obtain any particular results or for 
#any damages, including, but not limited to, indirect, special or consequential damages, 
#resulting from the use of any information or interpretation provided by Halliburton.
#
~A           TIME           GTDEPTH  GTPQH  GTTQ  GTTN  GTET   GTTVD  
# ...
   05:56:32.730.08-Aug-2020 5190.42 6291.42 82.61 3.00 321.84 3375.81
   05:56:32.930.08-Aug-2020 5190.42 6291.42 82.61 3.00 322.04 3375.81
   05:56:33.130.08-Aug-2020 5190.42 6293.37 82.60 3.00 322.24 3375.81
   05:56:33.330.08-Aug-2020 5190.42 6293.87 82.60 3.00 322.44 3375.81
   05:56:33.530.08-Aug-2020 5190.42 6294.15 82.60 3.00 322.64 3375.81
   05:56:33.730.08-Aug-2020 5190.42 6295.81 82.60 3.00 322.84 3375.81
   05:56:33.930.08-Aug-2020 5190.42 6295.81 82.60 3.00 323.04 3375.81
   05:56:34.130.08-Aug-2020 5190.42 6297.42 82.60 3.00 323.24 3375.81
   05:56:34.329.08-Aug-2020 5190.42 6298.49 82.60 3.00 323.44 3375.81
   05:56:34.529.08-Aug-2020 5190.42 6299.29 82.60 3.00 323.64 3375.81
   05:56:34.729.08-Aug-2020 5190.42 6299.63 82.60 3.00 323.84 3375.81
   05:56:34.929.08-Aug-2020 5190.42 6299.63 82.60 3.00 324.04 3375.81
   05:56:35.129.08-Aug-2020 5190.42 6301.51 82.60 3.00 324.23 3375.81
   05:56:35.329.08-Aug-2020 5190.42 6302.28 82.60 3.00 324.43 3375.81
   05:56:35.529.08-Aug-2020 5190.42 6303.32 82.60 3.00 324.63 3375.81
   05:56:35.729.08-Aug-2020 5190.42 6304.14 82.60 3.00 324.83 3375.81
   05:56:35.929.08-Aug-2020 5190.42 6304.14 82.60 3.00 325.03 3375.81
   05:56:36.128.08-Aug-2020 5190.42 6305.32 82.60 3.00 325.23 3375.81
   05:56:36.328.08-Aug-2020 5190.42 6306.04 82.60 3.00 325.43 3375.81
   05:56:36.528.08-Aug-2020 5190.42 6307.01 82.60 3.00 325.63 3375.81
   05:56:36.728.08-Aug-2020 5190.42 6307.69 82.60 3.00 325.83 3375.81
   05:56:36.928.08-Aug-2020 5190.42 6307.69 82.60 3.00 326.03 3375.81
   05:56:37.128.08-Aug-2020 5190.42 6309.71 82.60 3.00 326.23 3375.81
   05:56:37.328.08-Aug-2020 5190.42 6310.67 82.60 3.00 326.43 3375.81
   05:56:37.528.08-Aug-2020 5190.42 6311.65 82.60 3.00 326.63 3375.81
   05:56:37.728.08-Aug-2020 5190.42 6312.35 82.60 3.00 326.83 3375.81
   05:56:37.928.08-Aug-2020 5190.42 6312.35 82.60 3.00 327.03 3375.81
   05:56:38.127.08-Aug-2020 5190.42 6313.81 82.60 3.00 327.23 3375.81
   05:56:38.327.08-Aug-2020 5190.42 6314.70 82.60 3.00 327.43 3375.81
   05:56:38.527.08-Aug-2020 5190.42 6315.79 82.59 3.00 327.63 3375.81
   05:56:38.727.08-Aug-2020 5190.42 6316.60 82.59 3.00 327.83 3375.81
   05:56:38.927.08-Aug-2020 5190.42 6316.60 82.59 3.00 328.03 3375.81
   05:56:39.127.08-Aug-2020 5190.42 6318.05 82.59 3.00 328.23 3375.81
   05:56:39.327.08-Aug-2020 5190.42 6318.66 82.59 3.00 328.43 3375.81
   05:56:39.527.08-Aug-2020 5190.42 6319.64 82.59 3.00 328.63 3375.81
   05:56:39.727.08-Aug-2020 5190.42 6320.04 82.59 3.00 328.83 3375.81
   05:56:39.927.08-Aug-2020 5190.42 6320.04 82.59 3.00 329.03 3375.81
   05:56:40.126.08-Aug-2020 5190.42 6321.71 82.59 3.00 329.23 3375.81
   05:56:40.326.08-Aug-2020 5190.42 6322.39 82.59 3.00 329.43 3375.81
   05:56:40.526.08-Aug-2020 5190.42 6323.45 82.59 3.00 329.63 3375.81
   05:56:40.726.08-Aug-2020 5190.42 6324.12 82.59 3.00 329.83 3375.81
   05:56:40.926.08-Aug-2020 5190.42 6324.12 82.59 3.00 330.03 3375.81
   05:56:41.126.08-Aug-2020 5190.42 6326.13 82.59 3.00 330.23 3375.81
   05:56:41.326.08-Aug-2020 5190.42 6326.66 82.59 3.00 330.43 3375.81
   05:56:41.526.08-Aug-2020 5190.42 6327.52 82.59 3.00 330.63 3375.81
   05:56:41.726.08-Aug-2020 5190.42 6328.12 82.59 3.00 330.83 3375.81
   05:56:41.926.08-Aug-2020 5190.42 6328.12 82.59 3.00 331.03 3375.81
   05:56:42.125.08-Aug-2020 5190.42 6329.64 82.59 3.00 331.23 3375.81
   05:56:42.325.08-Aug-2020 5190.42 6330.88 82.59 3.00 331.43 3375.81
   05:56:42.525.08-Aug-2020 5190.42 6331.57 82.59 3.00 331.63 3375.81
   05:56:42.725.08-Aug-2020 5190.42 6331.53 82.59 3.00 331.83 3375.81
   05:56:42.925.08-Aug-2020 5190.42 6331.53 82.59 3.00 332.03 3375.81
   05:56:43.125.08-Aug-2020 5190.42 6332.94 82.59 3.00 332.23 3375.81
   05:56:43.325.08-Aug-2020 5190.42 6333.76 82.59 3.00 332.43 3375.81
   05:56:43.525.08-Aug-2020 5190.42 6334.43 82.59 3.00 332.63 3375.81
   05:56:43.725.08-Aug-2020 5190.42 6335.24 82.58 3.00 332.83 3375.81
   05:56:43.925.08-Aug-2020 5190.42 6335.24 82.58 3.00 333.03 3375.81
   05:56:44.124.08-Aug-2020 5190.42 6336.54 82.58 3.00 333.23 3375.81
   05:56:44.324.08-Aug-2020 5190.42 6337.38 82.58 3.00 333.43 3375.81
   05:56:44.524.08-Aug-2020 5190.42 6337.72 82.58 3.00 333.63 3375.81
   05:56:44.724.08-Aug-2020 5190.42 6338.97 82.58 3.00 333.83 3375.81
   05:56:44.924.08-Aug-2020 5190.42 6338.97 82.58 3.00 334.03 3375.81
   05:56:45.124.08-Aug-2020 5190.42 6340.20 82.58 3.00 334.23 3375.81
   05:56:45.324.08-Aug-2020 5190.42 6340.70 82.58 3.00 334.43 3375.81
   05:56:45.524.08-Aug-2020 5190.42 6341.60 82.58 3.00 334.63 3375.81
   05:56:45.724.08-Aug-2020 5190.42 6341.97 82.58 3.00 334.83 3375.81
   05:56:45.924.08-Aug-2020 5190.42 6341.97 82.58 3.00 335.03 3375.81
   05:56:46.123.08-Aug-2020 5190.42 6343.76 82.58 3.00 335.23 3375.81
   05:56:46.323.08-Aug-2020 5190.42 6344.09 82.58 3.00 335.43 3375.81
   05:56:46.523.08-Aug-2020 5190.42 6344.75 82.58 3.00 335.63 3375.81
   05:56:46.723.08-Aug-2020 5190.42 6345.38 82.58 3.00 335.83 3375.81
   05:56:46.923.08-Aug-2020 5190.42 6345.38 82.58 3.00 336.03 3375.81
   05:56:47.123.08-Aug-2020 5190.42 6346.87 82.58 3.00 336.23 3375.81
   05:56:47.323.08-Aug-2020 5190.42 6347.75 82.58 3.00 336.43 3375.81
   05:56:47.523.08-Aug-2020 5190.42 6348.65 82.58 3.00 336.63 3375.81
   05:56:47.723.08-Aug-2020 5190.42 6349.39 82.58 3.00 336.83 3375.81
   05:56:47.922.08-Aug-2020 5190.42 6349.39 82.58 3.00 337.03 3375.81
   05:56:48.122.08-Aug-2020 5190.42 6350.88 82.58 3.00 337.23 3375.81
   05:56:48.322.08-Aug-2020 5190.42 6351.47 82.58 3.00 337.43 3375.81
   05:56:48.522.08-Aug-2020 5190.42 6352.32 82.58 3.00 337.63 3375.81
   05:56:48.722.08-Aug-2020 5190.42 6353.03 82.58 3.00 337.83 3375.81
   05:56:48.922.08-Aug-2020 5190.42 6353.03 82.58 3.00 338.03 3375.81
   05:56:49.122.08-Aug-2020 5190.42 6066.97 82.57 3.00 338.23 3375.81
   05:56:49.322.08-Aug-2020 5190.42 3863.08 82.57 3.00 338.43 3375.81
   05:56:49.522.08-Aug-2020 5190.42 3641.43 82.57 3.00 338.63 3375.81
   05:56:49.722.08-Aug-2020 5190.42 3448.27 82.57 3.00 338.83 3375.81
   05:56:49.921.08-Aug-2020 5190.42 3448.27 82.57 3.00 339.03 3375.81
   05:56:50.121.08-Aug-2020 5190.42 3126.81 82.57 3.00 339.23 3375.81
   05:56:50.321.08-Aug-2020 5190.42 2996.52 82.57 3.00 339.43 3375.81
   05:56:50.521.08-Aug-2020 5190.42 2899.13 82.57 3.00 339.63 3375.81
   05:56:50.721.08-Aug-2020 5190.42 2836.68 82.57 3.00 339.83 3375.81
   05:56:50.921.08-Aug-2020 5190.42 2836.68 82.57 3.00 340.03 3375.81
   05:56:51.121.08-Aug-2020 5190.42 2706.51 82.57 3.00 340.23 3375.81
   05:56:51.321.08-Aug-2020 5190.42 2653.83 82.56 3.00 340.43 3375.81
   05:56:51.521.08-Aug-2020 5190.42 2602.64 82.56 3.00 340.63 3375.81
   05:56:51.721.08-Aug-2020 5190.42 2551.45 82.56 3.00 340.83 3375.81
   05:56:51.920.08-Aug-2020 5190.42 2502.36 82.56 3.00 341.03 3375.81
   05:56:52.120.08-Aug-2020 5190.42 2452.65 82.56 3.00 341.23 3375.81
   05:56:52.320.08-Aug-2020 5190.42 2400.04 82.55 3.00 341.43 3375.81
   05:56:52.520.08-Aug-2020 5190.42 2351.19 82.55 3.00 341.63 3375.81
   05:56:52.720.08-Aug-2020 5190.42 2297.77 82.55 3.00 341.83 3375.81
   05:56:52.920.08-Aug-2020 5190.42 2297.77 82.55 3.00 342.03 3375.81
   05:56:53.120.08-Aug-2020 5190.42 2203.63 82.55 3.00 342.23 3375.81
   05:56:53.320.08-Aug-2020 5190.42 2152.94 82.54 3.00 342.43 3375.81
   05:56:53.520.08-Aug-2020 5190.42 2104.58 82.54 3.00 342.63 3375.81
   05:56:53.720.08-Aug-2020 5190.42 2056.25 82.54 3.00 342.83 3375.81
   05:56:53.919.08-Aug-2020 5190.42 2056.25 82.54 3.00 343.03 3375.81
   05:56:54.119.08-Aug-2020 5190.42 1961.42 82.53 3.00 343.23 3375.81
   05:56:54.319.08-Aug-2020 5190.42 1916.95 82.53 3.00 343.43 3375.81
   05:56:54.519.08-Aug-2020 5190.42 1868.46 82.53 3.00 343.63 3375.81
   05:56:54.719.08-Aug-2020 5190.42 1821.60 82.52 3.00 343.82 3375.81
   05:56:54.919.08-Aug-2020 5190.42 1821.60 82.52 3.00 344.02 3375.81
   05:56:55.119.08-Aug-2020 5190.42 1732.23 82.52 3.00 344.22 3375.81
   05:56:55.319.08-Aug-2020 5190.42 1678.11 82.51 3.00 344.42 3375.81
   05:56:55.519.08-Aug-2020 5190.42 1630.97 82.51 3.00 344.62 3375.81
