~Version Information
 VERS.                  2.0:   CWLS log ASCII Standard -VERSION 2.0
 WRAP.                   NO:   One line per depth step
~Well Information Block
#MNEM.UNIT     VALUE/NAME     DESCRIPTION
#---------     -----------    ---------------------------
 STRT.S             09:23:14 08-Aug-20: START TIME 09:23:14 08-Aug-20
 STOP.S             09:28:51 08-Aug-20: STOP TIME  09:28:51 08-Aug-20
 STEP.S                   0.00: STEP TIME
 NULL.                 -999.25: NULL VALUE
 DFWT.                        :  DIST FWL TEXT
 DFST.                        :  DIST FSL TEXT
 DMF .             Drill Floor:  DRILL MEAS FROM
 STIM.      13.47.44 07-Jun-20:  START TIME
 DATE.      13.47.44 27-Jul-20:  END TIME
 SPUD.               07-Jun-20:  SPUD DATE
 NREF.                    Grid:  NORTH REFERENCE
 HPTY.       Minimum Curvature:  HOLE POS TYPE
 DMOD.             Drill Model:  DRILL MOD DESC
 SVYD.                  Survey:  SURVEY DESC
 ILTD.               Lithology:  INTERP LTH DESC
 FTOP.          Formation Tops:  FORM TOPS DESC
 RIG .             West Chirag:  RIG NAME
 PDAT.          Mean Sea Level:  PERMANENT DATUM
 FLD .                     ACG:  FIELD NAME
 SON .        AZ-XX-0906363612:  JOB NUMBER
 CTRY.              Azerbaijan:  COUNTRY NAME
 WELL.           J25 (Slot 35):  WELL NAME
 SRVC.          Turan Drilling:  CONTRACTOR
 COMP.     BP Exploration (Caspian Sea) Ltd:  COMPANY
 UWI .                     N/A:  UNIQUE WELL IDENTIFIER
 API .                     N/A:  API NUMBER
 BASE.              Azerbaijan:  LOGGING EQUIPMENT BASE LOCATION
 REGN.                   EESSA:  REGION
 PROV.                    Baku:  PROVINCE
 STAT.                    Baku:  STATE NAME
 MWDS.                     N/A:  MWD SHOP
 DOE .                     N/A:  DOE NUMBER
 DCON.         Sperry Drilling:  DIRECTNL CONTR
 UNIT.                     N/A:  LOGGING EQUIPMENT ID
 MDS .        Operator Entered:  MAG DATA SOURCE
 JOBN.        AZ-XX-0906363612:  JOB TICKET NUMB
 WTYP.                Deviated:  WELL TYPE
 CNTY.                        :  COUNTY
 LOC .                        :  LOCATION
 LMF .             Drill Floor:  LOG MEASURED FROM
 TVDS.m                  43.00:  TVDSS CORRECTN
 LATI.deg                40.13:  LATITUDE
 LONG.deg                51.22:  LONGITUDE
 WHNS.m                  -7.90:  WELL HEAD N/S
 WHEW.m                  -3.35:  WELL HEAD E/W
 UTMX.m              519005.06:  UTM X
 UTMY.m             4443793.85:  UTM Y
 DFWL.m                   0.00:  DISTANCE FWL
 DFSL.m                   0.00:  DISTANCE FSL
 SDEP.m                   0.00:  START DEPTH
 TDD .m                   0.00:  TOTAL DEPTH (DRILLER)
 VSDR.deg               308.97:  VERT SEC DIRECT
 GVFD.g                   1.00:  GRAVITY FIELD
 MFLD.nT              50350.00:  MAGNETIC FIELD
 MDIP.deg                59.62:  MAGNETIC DIP
 MDEC.deg                 6.44:  MAGNETIC DECL
 GRDC.deg                 0.13:  GRID CORRECTION
 AZTC.deg                 6.32:  AZM TOTAL CORR
 EPD .m                   0.00:  ELEVATION
 EGL .m                   0.00:  GROUND ELEVATION
 WDMS.m                 169.80:  WD ELEV
 APD .m                  43.00:  DEPTH ABOVE PD
 DEP .m                 356.43:  DEPTH
 AGAP.m                  43.00:  AIR GAP
 VSEW.m                  -3.35:  VERT SEC E/W
 VSNS.m                  -7.90:  VERT SEC N/S
 EKB .m                  43.00:  KB ELEVATION
 EDF .m                  43.00:  DF ELEVATION
 TDL .m                 934.00:  TOTAL DEPTH (LOGGER)
 VSC .                       0:  VS TO CLOSURE
 MAGU.                 1852825:  MAGUTM CHECKSUM
~Parameter Information Block
#MNEM.UNIT       Value        Description
#---------     -----------    ---------------------------
 AV  .mps                 0.80:  Ann Velocity 
 AVMX.mps                 1.70:  Max Ann Veloc 
 AZIF.deg               311.41:  Azm, Final 
 BHAT.        Rotary Steerable:  BHA Type 
 BROT.°/30m               0.09:  Build Rotating 
 BS  .in                 12.25:  Bit Size 
 BSZ .in                 12.25:  Bit Size 
 BTPL.psig              800.00:  Bit Press Loss 
 CABU.                      No:  Customer Abuse 
 TCS .hr                 96.00:  Time Ciculation Ended 
 CV  .mps                 2.03:  Crit Velocity 
 CVMX.mps                 2.42:  Max Crit Veloc 
 DD1 .          Taghi Taghiyev:  Direct Drillr 1 
 DD2 .      Tariel Pirmammadov:  Direct Drillr 2 
 DD3 .          Teymur Aghayev:  Direct Drillr 3 
 DDSV.                 iCruise:  DD Service 
 DEFF.%                  98.70:  % Det Eff 
 DLRX.°/30m               1.00:  Dogleg Rot Max 
 DLSO.°/30m               1.80:  Dogleg Oriented 
 DLSX.°/30m               3.16:  Dogleg Str Max 
 DRET.      15.00.00 07-Aug-20:  Drill End Time 
 DRST.      17.00.00 02-Aug-20:  Drill Start Tim 
 DTIM.hr                 45.90:  Time Drilling 
 EDEP.m                5298.01:  End Depth 
 ENG1.       Seymur Iskandarov:  Engineer 1 
 ENG2.         Yevgeniy Ulikov:  Engineer 2 
 ENG3.      Artemiy Matviyanov:  Engineer 3 
 ENG4.         Bahruz Mehdiyev:  Engineer 4 
 ETIM.      05.00.00 10-Aug-20:  End Time 
 FLOI.gpm              1150.00:  Flow In 
 FLON.gpm               900.00:  Flow In Min 
 FLOS.cptm                0.00:  Fluid Loss 
 FLOX.gpm              1200.00:  Flow In Max 
 FTRO.     Connectivity, Formation Presure:  FTWD Run Obj 
 HFLO.                      No:  High Flow 
 HPRE.                     Yes:  High Pressure 
 HTEM.                      No:  High Temp 
 HYDO.m                   1.80:  Hydro Offset 
 IFIN.deg                 9.71:  Inc, Final 
 IMAX.deg                63.81:  Inc Max 
 IMIN.deg                 9.53:  Inc Min 
 IMND.m                5075.52:  Inc Min Depth 
 IMXD.m                4367.08:  Inc Max Depth 
 JARR.                      No:  Jarring 
 LETM.      15.00.00 07-Aug-20:  Log End Time 
 LOST.hr                     2:  Lost Rig Time 
 LSTM.      17.00.00 02-Aug-20:  Log Start Time 
 MDCL.ppm             42500.00:  Mud Chlorides 
 MDES.     Inversion Oil/Synthetic:  Mud Desc 
 DFD .sg                  1.46:  Mud Density 
 MDMN.sg                  1.46:  Dens Mud Min 
 MDMX.sg                  1.46:  Dens Mud Max 
 MOIL.                      56:  Run Mud Oil % 
 MOWR.                   70:30:  Run Mud OWR 
 MSND.                     0.1:  Run Mud Sand % 
 MSOL.                      19:  Run Mud Solids% 
 DFV .spqt               83.00:  Mud Viscosity 
 MWOD.in                  8.00:  MWD Tool OD 
 MWSI.                     Yes:  Serv Intrp, MWD 
 OTIM.hr                196.57:  Time Operating 
 PCON.           Look Like New:  Pad Condition 
 PMAX.psia             7400.00:  Press Op, Max 
 PV  .cP                 36.00:  Mud PV 
 RUN .                    1000:  Run Number 
 ROPA.m/hr               25.00:  ROP Avg 
 ROPN.m/hr               10.00:  ROP Min 
 ROPX.m/hr               32.00:  ROP Max 
 RPMA.rpm               120.00:  RPM Surface Avg 
 RPMN.rpm               100.00:  RPM Surface Min 
 RPMX.rpm               140.00:  RPM Surface Max 
 RRUN.                    L504:  Rig Run Number 
 SAZI.deg               308.25:  Azm, Start 
 SDEP.m                4364.01:  Start Depth 
 SIDD.                      No:  Serv Intrp, DD 
 SINC.deg                63.81:  Inc, Start 
 SPPA.psig             5800.00:  SPP Avg 
 SPPN.psig             4200.00:  SPP Min 
 SPPX.psig             5950.00:  SPP Max 
 STIM.      18.00.00 01-Aug-20:  Start Time 
 SVCS.                 DD, MWD:  Services 
 SVER.                    9.20:  Sperry Version 
 TDAT.m                 934.00:  Tot Depth Attmp 
 TDDF.                      No:  Trip for DD 
 TDLG.m                 934.00:  Tot Depth Loggd 
 TFF .                      No:  Trip for Fail 
 TQAA.f-kp               31.00:  Torque Abs Avg 
 TQAN.f-kp               25.00:  Torque Abs Min 
 TQAX.f-kp               35.00:  Torque Abs Max 
 TRRT.°/30m              -0.75:  Turn Rotating 
 MRT .                  EWR-M5:  Maximum Recorded Temperature 
 TTMX.degC               95.00:  Max Tool Temp 
 VS01.                90516060:  Virtual Str1 SN 
 VS02.                90528488:  Virtual Str2 SN 
 VS03.                90577970:  Virtual Str3 SN 
 VS04.                12385033:  Virtual Str4 SN 
 VS05.                90522069:  Virtual Str5 SN 
 VS06.                13124134:  Virtual Str6 SN 
 WBMN.klb                20.00:  WOB Min 
 WITN.         Alistair Sprott:  Customer Rep 
 WITN.     Ronal van der Kraan:  Customer Rep 2 
 WOBA.klb                25.00:  WOB Avg 
 WOBX.klb                31.00:  WOB Max 
 YP  .lhf2               32.00:  Yield Point 
~Curve Information Block
#MNEM.UNIT                 API CODE     Curve Description
#---------               -----------    ---------------------------
 TIME.HHMMSS            00 000 000 000:  GT Time & Date
 GTDEPTH.m              00 000 000 000:  GT Depth
 GTPQH.psia             00 000 000 000:  GT HR Quartz Pressure
 GTTQ.degC              00 000 000 000:  GT Quartz Temperature
 GTTN.NONE              00 000 000 000:  GT Test Number
 GTET.sec               00 000 000 000:  GT Elapsed Test Time
 GTTVD.m                00 000 000 000:  GT True Vertical Depth
#Other Information
#
#WARRANTY: Halliburton will use its best efforts to furnish customers with 
#accurate information and interpretations that are part of, and incident to, the services 
#provided.  However, Halliburton cannot and does not warrant the accuracy 
#or correctness of such information and interpretations.  Under no circumstances should any 
#such information or interpretation be relied upon as the sole basis for any drilling, 
#completion, production, or financial decision or any procedure involving any risk to the 
#safety of any drilling venture, drilling rig or its crew or any other third party.  The 
#Customer has full responsibility for all drilling, completion and production operation.  
#Halliburton makes no representations or warranties, either expressed or 
#implied, including, but not limited to, the implied warranties of merchantability or fitness 
#for a particular purpose, with respect to the services rendered.  In no event will 
#Halliburton be liable for failure to obtain any particular results or for 
#any damages, including, but not limited to, indirect, special or consequential damages, 
#resulting from the use of any information or interpretation provided by Halliburton.
#
~A           TIME           GTDEPTH  GTPQH  GTTQ  GTTN  GTET   GTTVD  
# ...
   09:25:33.068.08-Aug-2020 5133.51 4124.98 75.07 8.00 138.07 3319.72
   09:25:33.269.08-Aug-2020 5133.51 4124.98 75.07 8.00 138.27 3319.72
   09:25:33.469.08-Aug-2020 5133.51 4125.03 75.07 8.00 138.47 3319.72
   09:25:33.669.08-Aug-2020 5133.51 4124.79 75.07 8.00 138.67 3319.72
   09:25:33.869.08-Aug-2020 5133.51 4124.98 75.07 8.00 138.87 3319.72
   09:25:34.069.08-Aug-2020 5133.51 4124.97 75.07 8.00 139.07 3319.72
   09:25:34.269.08-Aug-2020 5133.51 4124.90 75.07 8.00 139.27 3319.72
   09:25:34.469.08-Aug-2020 5133.51 4125.00 75.07 8.00 139.47 3319.72
   09:25:34.669.08-Aug-2020 5133.51 4124.92 75.07 8.00 139.67 3319.72
   09:25:34.869.08-Aug-2020 5133.51 4125.00 75.07 8.00 139.87 3319.72
   09:25:35.070.08-Aug-2020 5133.51 4124.92 75.07 8.00 140.07 3319.72
   09:25:35.270.08-Aug-2020 5133.51 4124.92 75.07 8.00 140.27 3319.72
   09:25:35.470.08-Aug-2020 5133.51 4124.98 75.07 8.00 140.47 3319.72
   09:25:35.670.08-Aug-2020 5133.51 4124.98 75.07 8.00 140.67 3319.72
   09:25:35.870.08-Aug-2020 5133.51 4124.95 75.07 8.00 140.87 3319.72
   09:25:36.070.08-Aug-2020 5133.51 4124.98 75.07 8.00 141.07 3319.72
   09:25:36.270.08-Aug-2020 5133.51 4124.98 75.07 8.00 141.27 3319.72
   09:25:36.470.08-Aug-2020 5133.51 4124.73 75.07 8.00 141.47 3319.72
   09:25:36.670.08-Aug-2020 5133.51 4125.12 75.07 8.00 141.67 3319.72
   09:25:36.870.08-Aug-2020 5133.51 4124.75 75.07 8.00 141.88 3319.72
   09:25:37.071.08-Aug-2020 5133.51 4124.72 75.07 8.00 142.08 3319.72
   09:25:37.271.08-Aug-2020 5133.51 4124.72 75.07 8.00 142.28 3319.72
   09:25:37.471.08-Aug-2020 5133.51 4124.69 75.07 8.00 142.48 3319.72
   09:25:37.671.08-Aug-2020 5133.51 4125.05 75.07 8.00 142.68 3319.72
   09:25:37.871.08-Aug-2020 5133.51 4124.51 75.07 8.00 142.88 3319.72
   09:25:38.071.08-Aug-2020 5133.51 4124.86 75.07 8.00 143.08 3319.72
   09:25:38.271.08-Aug-2020 5133.51 4124.94 75.07 8.00 143.28 3319.72
   09:25:38.471.08-Aug-2020 5133.51 4124.80 75.07 8.00 143.48 3319.72
   09:25:38.671.08-Aug-2020 5133.51 4124.74 75.07 8.00 143.68 3319.72
   09:25:38.872.08-Aug-2020 5133.51 4125.00 75.07 8.00 143.88 3319.72
   09:25:39.072.08-Aug-2020 5133.51 4124.73 75.07 8.00 144.08 3319.72
   09:25:39.272.08-Aug-2020 5133.51 4124.73 75.07 8.00 144.28 3319.72
   09:25:39.472.08-Aug-2020 5133.51 4124.60 75.07 8.00 144.48 3319.72
   09:25:39.672.08-Aug-2020 5133.51 4124.78 75.07 8.00 144.68 3319.72
   09:25:39.872.08-Aug-2020 5133.51 4125.06 75.07 8.00 144.88 3319.72
   09:25:40.072.08-Aug-2020 5133.51 4124.75 75.07 8.00 145.08 3319.72
   09:25:40.272.08-Aug-2020 5133.51 4124.75 75.07 8.00 145.28 3319.72
   09:25:40.472.08-Aug-2020 5133.51 4124.80 75.07 8.00 145.48 3319.72
   09:25:40.673.08-Aug-2020 5133.51 4124.97 75.07 8.00 145.68 3319.72
   09:25:40.873.08-Aug-2020 5133.51 4124.86 75.07 8.00 145.88 3319.72
   09:25:41.073.08-Aug-2020 5133.51 4124.96 75.07 8.00 146.08 3319.72
   09:25:41.273.08-Aug-2020 5133.51 4124.96 75.07 8.00 146.28 3319.72
   09:25:41.473.08-Aug-2020 5133.51 4124.94 75.07 8.00 146.48 3319.72
   09:25:41.673.08-Aug-2020 5133.51 4124.94 75.06 8.00 146.68 3319.72
   09:25:41.873.08-Aug-2020 5133.51 4124.98 75.06 8.00 146.88 3319.72
   09:25:42.073.08-Aug-2020 5133.51 4124.95 75.06 8.00 147.08 3319.72
   09:25:42.273.08-Aug-2020 5133.51 4124.94 75.06 8.00 147.28 3319.72
   09:25:42.473.08-Aug-2020 5133.51 4124.96 75.07 8.00 147.48 3319.72
   09:25:42.674.08-Aug-2020 5133.51 4125.04 75.06 8.00 147.68 3319.72
   09:25:42.874.08-Aug-2020 5133.51 4124.53 75.06 8.00 147.88 3319.72
   09:25:43.074.08-Aug-2020 5133.51 4124.89 75.06 8.00 148.08 3319.72
   09:25:43.274.08-Aug-2020 5133.51 4124.89 75.06 8.00 148.28 3319.72
   09:25:43.474.08-Aug-2020 5133.51 4124.86 75.06 8.00 148.48 3319.72
   09:25:43.674.08-Aug-2020 5133.51 4124.94 75.06 8.00 148.68 3319.72
   09:25:43.874.08-Aug-2020 5133.51 4124.92 75.06 8.00 148.88 3319.72
   09:25:44.074.08-Aug-2020 5133.51 4124.92 75.06 8.00 149.08 3319.72
   09:25:44.274.08-Aug-2020 5133.51 4124.92 75.06 8.00 149.28 3319.72
   09:25:44.475.08-Aug-2020 5133.51 4124.97 75.06 8.00 149.48 3319.72
   09:25:44.675.08-Aug-2020 5133.51 4124.93 75.06 8.00 149.68 3319.72
   09:25:44.875.08-Aug-2020 5133.51 4124.98 75.06 8.00 149.88 3319.72
   09:25:45.075.08-Aug-2020 5133.51 4124.96 75.06 8.00 150.08 3319.72
   09:25:45.275.08-Aug-2020 5133.51 4124.96 75.06 8.00 150.28 3319.72
   09:25:45.475.08-Aug-2020 5133.51 4124.97 75.06 8.00 150.48 3319.72
   09:25:45.675.08-Aug-2020 5133.51 4124.92 75.06 8.00 150.68 3319.72
   09:25:45.875.08-Aug-2020 5133.51 4125.06 75.06 8.00 150.88 3319.72
   09:25:46.075.08-Aug-2020 5133.51 4124.53 75.06 8.00 151.08 3319.72
   09:25:46.275.08-Aug-2020 5133.51 4124.53 75.06 8.00 151.28 3319.72
   09:25:46.476.08-Aug-2020 5133.51 4125.08 75.06 8.00 151.48 3319.72
   09:25:46.676.08-Aug-2020 5133.51 4124.33 75.06 8.00 151.68 3319.72
   09:25:46.876.08-Aug-2020 5133.51 4124.90 75.06 8.00 151.88 3319.72
   09:25:47.076.08-Aug-2020 5133.51 4124.95 75.06 8.00 152.08 3319.72
   09:25:47.276.08-Aug-2020 5133.51 4124.95 75.06 8.00 152.28 3319.72
   09:25:47.476.08-Aug-2020 5133.51 4125.13 75.06 8.00 152.48 3319.72
   09:25:47.676.08-Aug-2020 5133.51 4124.64 75.06 8.00 152.68 3319.72
   09:25:47.876.08-Aug-2020 5133.51 4124.94 75.06 8.00 152.88 3319.72
   09:25:48.076.08-Aug-2020 5133.51 4124.84 75.06 8.00 153.08 3319.72
   09:25:48.277.08-Aug-2020 5133.51 4124.84 75.06 8.00 153.28 3319.72
   09:25:48.477.08-Aug-2020 5133.51 4124.82 75.06 8.00 153.48 3319.72
   09:25:48.677.08-Aug-2020 5133.51 4124.77 75.06 8.00 153.68 3319.72
   09:25:48.877.08-Aug-2020 5133.51 4124.72 75.06 8.00 153.88 3319.72
   09:25:49.077.08-Aug-2020 5133.51 4124.71 75.06 8.00 154.08 3319.72
   09:25:49.277.08-Aug-2020 5133.51 4124.71 75.06 8.00 154.28 3319.72
   09:25:49.477.08-Aug-2020 5133.51 4124.80 75.06 8.00 154.48 3319.72
   09:25:49.677.08-Aug-2020 5133.51 4124.91 75.06 8.00 154.68 3319.72
   09:25:49.877.08-Aug-2020 5133.51 4124.92 75.06 8.00 154.88 3319.72
   09:25:50.077.08-Aug-2020 5133.51 4124.78 75.06 8.00 155.08 3319.72
   09:25:50.278.08-Aug-2020 5133.51 4124.78 75.06 8.00 155.28 3319.72
   09:25:50.478.08-Aug-2020 5133.51 4124.92 75.06 8.00 155.48 3319.72
   09:25:50.678.08-Aug-2020 5133.51 4124.80 75.06 8.00 155.68 3319.72
   09:25:50.878.08-Aug-2020 5133.51 4124.89 75.06 8.00 155.88 3319.72
   09:25:51.078.08-Aug-2020 5133.51 4124.90 75.06 8.00 156.08 3319.72
   09:25:51.278.08-Aug-2020 5133.51 4124.90 75.06 8.00 156.28 3319.72
   09:25:51.478.08-Aug-2020 5133.51 4124.91 75.06 8.00 156.48 3319.72
   09:25:51.678.08-Aug-2020 5133.51 4124.84 75.06 8.00 156.68 3319.72
   09:25:51.878.08-Aug-2020 5133.51 4124.87 75.06 8.00 156.88 3319.72
   09:25:52.079.08-Aug-2020 5133.51 4124.85 75.06 8.00 157.08 3319.72
   09:25:52.279.08-Aug-2020 5133.51 4124.85 75.06 8.00 157.28 3319.72
   09:25:52.479.08-Aug-2020 5133.51 4124.68 75.06 8.00 157.48 3319.72
   09:25:52.679.08-Aug-2020 5133.51 4124.85 75.06 8.00 157.68 3319.72
   09:25:52.879.08-Aug-2020 5133.51 4124.84 75.06 8.00 157.88 3319.72
   09:25:53.079.08-Aug-2020 5133.51 4124.91 75.06 8.00 158.08 3319.72
   09:25:53.279.08-Aug-2020 5133.51 4124.86 75.06 8.00 158.28 3319.72
   09:25:53.479.08-Aug-2020 5133.51 4124.88 75.06 8.00 158.48 3319.72
   09:25:53.679.08-Aug-2020 5133.51 4124.89 75.06 8.00 158.68 3319.72
   09:25:53.879.08-Aug-2020 5133.51 4124.93 75.06 8.00 158.88 3319.72
   09:25:54.080.08-Aug-2020 5133.51 4124.87 75.06 8.00 159.08 3319.72
   09:25:54.280.08-Aug-2020 5133.51 4124.95 75.06 8.00 159.28 3319.72
   09:25:54.480.08-Aug-2020 5133.51 4124.88 75.06 8.00 159.48 3319.72
   09:25:54.680.08-Aug-2020 5133.51 4124.91 75.06 8.00 159.68 3319.72
   09:25:54.880.08-Aug-2020 5133.51 4124.88 75.06 8.00 159.88 3319.72
   09:25:55.080.08-Aug-2020 5133.51 4124.89 75.06 8.00 160.08 3319.72
   09:25:55.280.08-Aug-2020 5133.51 4124.91 75.06 8.00 160.28 3319.72
   09:25:55.480.08-Aug-2020 5133.51 4124.41 75.06 8.00 160.48 3319.72
   09:25:55.680.08-Aug-2020 5133.51 4124.76 75.06 8.00 160.69 3319.72
   09:25:55.881.08-Aug-2020 5133.51 4124.82 75.06 8.00 160.89 3319.72
