~Version Information
 VERS.                  2.0:   CWLS log ASCII Standard -VERSION 2.0
 WRAP.                   NO:   One line per depth step
~Well Information Block
#MNEM.UNIT     VALUE/NAME     DESCRIPTION
#---------     -----------    ---------------------------
 STRT.S             03:17:15 08-Aug-20: START TIME 03:17:15 08-Aug-20
 STOP.S             03:24:06 08-Aug-20: STOP TIME  03:24:06 08-Aug-20
 STEP.S                   0.00: STEP TIME
 NULL.                 -999.25: NULL VALUE
 DFWT.                        :  DIST FWL TEXT
 DFST.                        :  DIST FSL TEXT
 DMF .             Drill Floor:  DRILL MEAS FROM
 STIM.      13.47.44 07-Jun-20:  START TIME
 DATE.      13.47.44 27-Jul-20:  END TIME
 SPUD.               07-Jun-20:  SPUD DATE
 NREF.                    Grid:  NORTH REFERENCE
 HPTY.       Minimum Curvature:  HOLE POS TYPE
 DMOD.             Drill Model:  DRILL MOD DESC
 SVYD.                  Survey:  SURVEY DESC
 ILTD.               Lithology:  INTERP LTH DESC
 FTOP.          Formation Tops:  FORM TOPS DESC
 RIG .             West Chirag:  RIG NAME
 PDAT.          Mean Sea Level:  PERMANENT DATUM
 FLD .                     ACG:  FIELD NAME
 SON .        AZ-XX-0906363612:  JOB NUMBER
 CTRY.              Azerbaijan:  COUNTRY NAME
 WELL.           J25 (Slot 35):  WELL NAME
 SRVC.          Turan Drilling:  CONTRACTOR
 COMP.     BP Exploration (Caspian Sea) Ltd:  COMPANY
 UWI .                     N/A:  UNIQUE WELL IDENTIFIER
 API .                     N/A:  API NUMBER
 BASE.              Azerbaijan:  LOGGING EQUIPMENT BASE LOCATION
 REGN.                   EESSA:  REGION
 PROV.                    Baku:  PROVINCE
 STAT.                    Baku:  STATE NAME
 MWDS.                     N/A:  MWD SHOP
 DOE .                     N/A:  DOE NUMBER
 DCON.         Sperry Drilling:  DIRECTNL CONTR
 UNIT.                     N/A:  LOGGING EQUIPMENT ID
 MDS .        Operator Entered:  MAG DATA SOURCE
 JOBN.        AZ-XX-0906363612:  JOB TICKET NUMB
 WTYP.                Deviated:  WELL TYPE
 CNTY.                        :  COUNTY
 LOC .                        :  LOCATION
 LMF .             Drill Floor:  LOG MEASURED FROM
 TVDS.m                  43.00:  TVDSS CORRECTN
 LATI.deg                40.13:  LATITUDE
 LONG.deg                51.22:  LONGITUDE
 WHNS.m                  -7.90:  WELL HEAD N/S
 WHEW.m                  -3.35:  WELL HEAD E/W
 UTMX.m              519005.06:  UTM X
 UTMY.m             4443793.85:  UTM Y
 DFWL.m                   0.00:  DISTANCE FWL
 DFSL.m                   0.00:  DISTANCE FSL
 SDEP.m                   0.00:  START DEPTH
 TDD .m                   0.00:  TOTAL DEPTH (DRILLER)
 VSDR.deg               308.97:  VERT SEC DIRECT
 GVFD.g                   1.00:  GRAVITY FIELD
 MFLD.nT              50350.00:  MAGNETIC FIELD
 MDIP.deg                59.62:  MAGNETIC DIP
 MDEC.deg                 6.44:  MAGNETIC DECL
 GRDC.deg                 0.13:  GRID CORRECTION
 AZTC.deg                 6.32:  AZM TOTAL CORR
 EPD .m                   0.00:  ELEVATION
 EGL .m                   0.00:  GROUND ELEVATION
 WDMS.m                 169.80:  WD ELEV
 APD .m                  43.00:  DEPTH ABOVE PD
 DEP .m                 356.43:  DEPTH
 AGAP.m                  43.00:  AIR GAP
 VSEW.m                  -3.35:  VERT SEC E/W
 VSNS.m                  -7.90:  VERT SEC N/S
 EKB .m                  43.00:  KB ELEVATION
 EDF .m                  43.00:  DF ELEVATION
 TDL .m                 934.00:  TOTAL DEPTH (LOGGER)
 VSC .                       0:  VS TO CLOSURE
 MAGU.                 1852825:  MAGUTM CHECKSUM
~Parameter Information Block
#MNEM.UNIT       Value        Description
#---------     -----------    ---------------------------
 AV  .mps                 0.80:  Ann Velocity 
 AVMX.mps                 1.70:  Max Ann Veloc 
 AZIF.deg               311.41:  Azm, Final 
 BHAT.        Rotary Steerable:  BHA Type 
 BROT.°/30m               0.09:  Build Rotating 
 BS  .in                 12.25:  Bit Size 
 BSZ .in                 12.25:  Bit Size 
 BTPL.psig              800.00:  Bit Press Loss 
 CABU.                      No:  Customer Abuse 
 COMM.                     k:  Run Comments 1 
 TCS .hr                 96.00:  Time Ciculation Ended 
 CV  .mps                 2.03:  Crit Velocity 
 CVMX.mps                 2.42:  Max Crit Veloc 
 DD1 .          Taghi Taghiyev:  Direct Drillr 1 
 DD2 .      Tariel Pirmammadov:  Direct Drillr 2 
 DD3 .          Teymur Aghayev:  Direct Drillr 3 
 DDSV.                 iCruise:  DD Service 
 DEFF.%                  98.70:  % Det Eff 
 DLRX.°/30m               1.00:  Dogleg Rot Max 
 DLSO.°/30m               1.80:  Dogleg Oriented 
 DLSX.°/30m               3.16:  Dogleg Str Max 
 DRET.      15.00.00 07-Aug-20:  Drill End Time 
 DRST.      17.00.00 02-Aug-20:  Drill Start Tim 
 DTIM.hr                 45.90:  Time Drilling 
 EDEP.m                5298.01:  End Depth 
 ENG1.       Seymur Iskandarov:  Engineer 1 
 ENG2.         Yevgeniy Ulikov:  Engineer 2 
 ENG3.      Artemiy Matviyanov:  Engineer 3 
 ENG4.         Bahruz Mehdiyev:  Engineer 4 
 ETIM.      05.00.00 10-Aug-20:  End Time 
 FLOI.gpm              1150.00:  Flow In 
 FLON.gpm               900.00:  Flow In Min 
 FLOS.cptm                0.00:  Fluid Loss 
 FLOX.gpm              1200.00:  Flow In Max 
 FTRO.     Connectivity, Formation Presure:  FTWD Run Obj 
 HFLO.                      No:  High Flow 
 HPRE.                     Yes:  High Pressure 
 HTEM.                      No:  High Temp 
 HYDO.m                   1.80:  Hydro Offset 
 IFIN.deg                 9.71:  Inc, Final 
 IMAX.deg                63.81:  Inc Max 
 IMIN.deg                 9.53:  Inc Min 
 IMND.m                5075.52:  Inc Min Depth 
 IMXD.m                4367.08:  Inc Max Depth 
 JARR.                      No:  Jarring 
 LETM.      15.00.00 07-Aug-20:  Log End Time 
 LOST.hr                     2:  Lost Rig Time 
 LSTM.      17.00.00 02-Aug-20:  Log Start Time 
 MDCL.ppm             42500.00:  Mud Chlorides 
 MDES.     Inversion Oil/Synthetic:  Mud Desc 
 DFD .sg                  1.46:  Mud Density 
 MDMN.sg                  1.46:  Dens Mud Min 
 MDMX.sg                  1.46:  Dens Mud Max 
 MOIL.                      56:  Run Mud Oil % 
 MOWR.                   70:30:  Run Mud OWR 
 MSND.                     0.1:  Run Mud Sand % 
 MSOL.                      19:  Run Mud Solids% 
 DFV .spqt               83.00:  Mud Viscosity 
 MWOD.in                  8.00:  MWD Tool OD 
 MWSI.                     Yes:  Serv Intrp, MWD 
 OTIM.hr                196.57:  Time Operating 
 PCON.           Look Like New:  Pad Condition 
 PMAX.psia             7400.00:  Press Op, Max 
 PV  .cP                 36.00:  Mud PV 
 RUN .                    1000:  Run Number 
 ROPA.m/hr               25.00:  ROP Avg 
 ROPN.m/hr               10.00:  ROP Min 
 ROPX.m/hr               32.00:  ROP Max 
 RPMA.rpm               120.00:  RPM Surface Avg 
 RPMN.rpm               100.00:  RPM Surface Min 
 RPMX.rpm               140.00:  RPM Surface Max 
 RRUN.                    L504:  Rig Run Number 
 SAZI.deg               308.25:  Azm, Start 
 SDEP.m                4364.01:  Start Depth 
 SIDD.                      No:  Serv Intrp, DD 
 SINC.deg                63.81:  Inc, Start 
 SPPA.psig             5800.00:  SPP Avg 
 SPPN.psig             4200.00:  SPP Min 
 SPPX.psig             5950.00:  SPP Max 
 STIM.      18.00.00 01-Aug-20:  Start Time 
 SVCS.                 DD, MWD:  Services 
 SVER.                    9.20:  Sperry Version 
 TDAT.m                 934.00:  Tot Depth Attmp 
 TDDF.                      No:  Trip for DD 
 TDLG.m                 934.00:  Tot Depth Loggd 
 TFF .                      No:  Trip for Fail 
 TQAA.f-kp               31.00:  Torque Abs Avg 
 TQAN.f-kp               25.00:  Torque Abs Min 
 TQAX.f-kp               35.00:  Torque Abs Max 
 TRRT.°/30m              -0.75:  Turn Rotating 
 MRT .                  EWR-M5:  Maximum Recorded Temperature 
 TTMX.degC               95.00:  Max Tool Temp 
 VS01.                90516060:  Virtual Str1 SN 
 VS02.                90528488:  Virtual Str2 SN 
 VS03.                90577970:  Virtual Str3 SN 
 VS04.                12385033:  Virtual Str4 SN 
 VS05.                90522069:  Virtual Str5 SN 
 VS06.                13124134:  Virtual Str6 SN 
 WBMN.klb                20.00:  WOB Min 
 WITN.         Alistair Sprott:  Customer Rep 
 WITN.     Ronal van der Kraan:  Customer Rep 2 
 WOBA.klb                25.00:  WOB Avg 
 WOBX.klb                31.00:  WOB Max 
 YP  .lhf2               32.00:  Yield Point 
~Curve Information Block
#MNEM.UNIT                 API CODE     Curve Description
#---------               -----------    ---------------------------
 TIME.HHMMSS            00 000 000 000:  GT Time & Date
 GTDEPTH.m              00 000 000 000:  GT Depth
 GTPQH.psia             00 000 000 000:  GT HR Quartz Pressure
 GTTQ.degC              00 000 000 000:  GT Quartz Temperature
 GTTN.NONE              00 000 000 000:  GT Test Number
 GTET.sec               00 000 000 000:  GT Elapsed Test Time
 GTTVD.m                00 000 000 000:  GT True Vertical Depth
#Other Information
#
#WARRANTY: Halliburton will use its best efforts to furnish customers with 
#accurate information and interpretations that are part of, and incident to, the services 
#provided.  However, Halliburton cannot and does not warrant the accuracy 
#or correctness of such information and interpretations.  Under no circumstances should any 
#such information or interpretation be relied upon as the sole basis for any drilling, 
#completion, production, or financial decision or any procedure involving any risk to the 
#safety of any drilling venture, drilling rig or its crew or any other third party.  The 
#Customer has full responsibility for all drilling, completion and production operation.  
#Halliburton makes no representations or warranties, either expressed or 
#implied, including, but not limited to, the implied warranties of merchantability or fitness 
#for a particular purpose, with respect to the services rendered.  In no event will 
#Halliburton be liable for failure to obtain any particular results or for 
#any damages, including, but not limited to, indirect, special or consequential damages, 
#resulting from the use of any information or interpretation provided by Halliburton.
#
~A           TIME           GTDEPTH  GTPQH  GTTQ  GTTN  GTET   GTTVD  
# ...
   03:21:51.456.08-Aug-2020 5190.56 4688.94 85.89 1.00 275.86 3375.95
   03:21:51.655.08-Aug-2020 5190.56 4691.84 85.89 1.00 276.06 3375.95
   03:21:51.855.08-Aug-2020 5190.56 4695.73 85.89 1.00 276.26 3375.95
   03:21:52.055.08-Aug-2020 5190.56 4699.02 85.89 1.00 276.46 3375.95
   03:21:52.255.08-Aug-2020 5190.56 4702.44 85.89 1.00 276.66 3375.95
   03:21:52.455.08-Aug-2020 5190.56 4705.90 85.89 1.00 276.86 3375.95
   03:21:52.655.08-Aug-2020 5190.56 4705.90 85.89 1.00 277.06 3375.95
   03:21:52.855.08-Aug-2020 5190.56 4455.44 85.89 1.00 277.26 3375.95
   03:21:53.055.08-Aug-2020 5190.56 3496.06 85.89 1.00 277.46 3375.95
   03:21:53.255.08-Aug-2020 5190.56 3027.17 85.89 1.00 277.66 3375.95
   03:21:53.455.08-Aug-2020 5190.56 2781.83 85.89 1.00 277.86 3375.95
   03:21:53.654.08-Aug-2020 5190.56 2781.83 85.89 1.00 278.06 3375.95
   03:21:53.854.08-Aug-2020 5190.56 2457.39 85.89 1.00 278.26 3375.95
   03:21:54.054.08-Aug-2020 5190.56 2300.78 85.89 1.00 278.46 3375.95
   03:21:54.254.08-Aug-2020 5190.56 2149.87 85.89 1.00 278.66 3375.95
   03:21:54.454.08-Aug-2020 5190.56 1999.62 85.89 1.00 278.86 3375.95
   03:21:54.654.08-Aug-2020 5190.56 1999.62 85.89 1.00 279.06 3375.95
   03:21:54.854.08-Aug-2020 5190.56 1696.97 85.89 1.00 279.26 3375.95
   03:21:55.054.08-Aug-2020 5190.56 1539.77 85.89 1.00 279.46 3375.95
   03:21:55.254.08-Aug-2020 5190.56 1426.38 85.89 1.00 279.66 3375.95
   03:21:55.453.08-Aug-2020 5190.56 1445.01 85.88 1.00 279.86 3375.95
   03:21:55.653.08-Aug-2020 5190.56 1458.61 85.88 1.00 280.06 3375.95
   03:21:55.853.08-Aug-2020 5190.56 1461.50 85.88 1.00 280.26 3375.95
   03:21:56.053.08-Aug-2020 5190.56 1458.70 85.88 1.00 280.46 3375.95
   03:21:56.253.08-Aug-2020 5190.56 1454.94 85.88 1.00 280.66 3375.95
   03:21:56.453.08-Aug-2020 5190.56 1449.52 85.88 1.00 280.86 3375.95
   03:21:56.653.08-Aug-2020 5190.56 1449.52 85.88 1.00 281.06 3375.95
   03:21:56.853.08-Aug-2020 5190.56 1433.06 85.87 1.00 281.26 3375.95
   03:21:57.053.08-Aug-2020 5190.56 1423.72 85.87 1.00 281.46 3375.95
   03:21:57.253.08-Aug-2020 5190.56 1418.08 85.87 1.00 281.66 3375.95
   03:21:57.452.08-Aug-2020 5190.56 1422.83 85.87 1.00 281.86 3375.95
   03:21:57.652.08-Aug-2020 5190.56 1422.83 85.87 1.00 282.06 3375.95
   03:21:57.852.08-Aug-2020 5190.56 1430.92 85.86 1.00 282.26 3375.95
   03:21:58.052.08-Aug-2020 5190.56 1428.53 85.86 1.00 282.46 3375.95
   03:21:58.252.08-Aug-2020 5190.56 1425.52 85.86 1.00 282.66 3375.95
   03:21:58.452.08-Aug-2020 5190.56 1421.25 85.86 1.00 282.86 3375.95
   03:21:58.652.08-Aug-2020 5190.56 1421.25 85.86 1.00 283.06 3375.95
   03:21:58.852.08-Aug-2020 5190.56 1403.40 85.85 1.00 283.26 3375.95
   03:21:59.052.08-Aug-2020 5190.56 1402.28 85.85 1.00 283.46 3375.95
   03:21:59.252.08-Aug-2020 5190.56 1417.44 85.85 1.00 283.66 3375.95
   03:21:59.451.08-Aug-2020 5190.56 1433.01 85.85 1.00 283.86 3375.95
   03:21:59.651.08-Aug-2020 5190.56 1447.10 85.84 1.00 284.06 3375.95
   03:21:59.851.08-Aug-2020 5190.56 1461.79 85.84 1.00 284.26 3375.95
   03:22:00.051.08-Aug-2020 5190.56 1472.14 85.84 1.00 284.46 3375.95
   03:22:00.251.08-Aug-2020 5190.56 1472.94 85.84 1.00 284.66 3375.95
   03:22:00.451.08-Aug-2020 5190.56 1476.86 85.84 1.00 284.85 3375.95
   03:22:00.651.08-Aug-2020 5190.56 1476.86 85.84 1.00 285.05 3375.95
   03:22:00.851.08-Aug-2020 5190.56 1480.71 85.83 1.00 285.25 3375.95
   03:22:01.051.08-Aug-2020 5190.56 1478.15 85.83 1.00 285.45 3375.95
   03:22:01.251.08-Aug-2020 5190.56 1472.20 85.83 1.00 285.65 3375.95
   03:22:01.450.08-Aug-2020 5190.56 1480.61 85.83 1.00 285.85 3375.95
   03:22:01.650.08-Aug-2020 5190.56 1480.61 85.83 1.00 286.05 3375.95
   03:22:01.850.08-Aug-2020 5190.56 1511.46 85.82 1.00 286.25 3375.95
   03:22:02.050.08-Aug-2020 5190.56 1525.44 85.82 1.00 286.45 3375.95
   03:22:02.250.08-Aug-2020 5190.56 1539.32 85.82 1.00 286.65 3375.95
   03:22:02.450.08-Aug-2020 5190.56 1553.13 85.82 1.00 286.85 3375.95
   03:22:02.650.08-Aug-2020 5190.56 1553.13 85.82 1.00 287.05 3375.95
   03:22:02.850.08-Aug-2020 5190.56 1580.19 85.81 1.00 287.25 3375.95
   03:22:03.050.08-Aug-2020 5190.56 1593.47 85.81 1.00 287.45 3375.95
   03:22:03.250.08-Aug-2020 5190.56 1607.27 85.81 1.00 287.65 3375.95
   03:22:03.449.08-Aug-2020 5190.56 1620.14 85.81 1.00 287.85 3375.95
   03:22:03.649.08-Aug-2020 5190.56 1632.96 85.81 1.00 288.05 3375.95
   03:22:03.849.08-Aug-2020 5190.56 1645.66 85.81 1.00 288.25 3375.95
   03:22:04.049.08-Aug-2020 5190.56 1658.14 85.81 1.00 288.45 3375.95
   03:22:04.249.08-Aug-2020 5190.56 1670.82 85.81 1.00 288.65 3375.95
   03:22:04.449.08-Aug-2020 5190.56 1683.33 85.81 1.00 288.85 3375.95
   03:22:04.649.08-Aug-2020 5190.56 1683.33 85.81 1.00 289.05 3375.95
   03:22:04.849.08-Aug-2020 5190.56 1707.79 85.80 1.00 289.25 3375.95
   03:22:05.049.08-Aug-2020 5190.56 1719.92 85.80 1.00 289.45 3375.95
   03:22:05.249.08-Aug-2020 5190.56 1731.96 85.80 1.00 289.65 3375.95
   03:22:05.448.08-Aug-2020 5190.56 1744.15 85.80 1.00 289.85 3375.95
   03:22:05.648.08-Aug-2020 5190.56 1744.15 85.80 1.00 290.05 3375.95
   03:22:05.848.08-Aug-2020 5190.56 1767.72 85.80 1.00 290.25 3375.95
   03:22:06.048.08-Aug-2020 5190.56 1779.67 85.80 1.00 290.45 3375.95
   03:22:06.248.08-Aug-2020 5190.56 1791.13 85.80 1.00 290.65 3375.95
   03:22:06.448.08-Aug-2020 5190.56 1802.43 85.80 1.00 290.85 3375.95
   03:22:06.648.08-Aug-2020 5190.56 1802.43 85.80 1.00 291.05 3375.95
   03:22:06.848.08-Aug-2020 5190.56 1825.67 85.80 1.00 291.25 3375.95
   03:22:07.048.08-Aug-2020 5190.56 1837.21 85.80 1.00 291.45 3375.95
   03:22:07.247.08-Aug-2020 5190.56 1847.96 85.80 1.00 291.65 3375.95
   03:22:07.447.08-Aug-2020 5190.56 1859.06 85.80 1.00 291.85 3375.95
   03:22:07.647.08-Aug-2020 5190.56 1870.30 85.80 1.00 292.05 3375.95
   03:22:07.847.08-Aug-2020 5190.56 1881.39 85.80 1.00 292.25 3375.95
   03:22:08.047.08-Aug-2020 5190.56 1891.40 85.80 1.00 292.45 3375.95
   03:22:08.247.08-Aug-2020 5190.56 1902.48 85.79 1.00 292.65 3375.95
   03:22:08.447.08-Aug-2020 5190.56 1913.55 85.79 1.00 292.85 3375.95
   03:22:08.647.08-Aug-2020 5190.56 1913.55 85.79 1.00 293.05 3375.95
   03:22:08.847.08-Aug-2020 5190.56 1935.16 85.79 1.00 293.25 3375.95
   03:22:09.047.08-Aug-2020 5190.56 1945.87 85.79 1.00 293.45 3375.95
   03:22:09.246.08-Aug-2020 5190.56 1956.61 85.79 1.00 293.65 3375.95
   03:22:09.446.08-Aug-2020 5190.56 1966.17 85.79 1.00 293.85 3375.95
   03:22:09.646.08-Aug-2020 5190.56 1966.17 85.79 1.00 294.05 3375.95
   03:22:09.846.08-Aug-2020 5190.56 1987.51 85.79 1.00 294.25 3375.95
   03:22:10.046.08-Aug-2020 5190.56 1998.05 85.79 1.00 294.45 3375.95
   03:22:10.246.08-Aug-2020 5190.56 2008.29 85.79 1.00 294.65 3375.95
   03:22:10.446.08-Aug-2020 5190.56 2018.60 85.79 1.00 294.85 3375.95
   03:22:10.646.08-Aug-2020 5190.56 2018.60 85.79 1.00 295.05 3375.95
   03:22:10.846.08-Aug-2020 5190.56 2039.39 85.79 1.00 295.25 3375.95
   03:22:11.046.08-Aug-2020 5190.56 2049.60 85.80 1.00 295.45 3375.95
   03:22:11.245.08-Aug-2020 5190.56 2059.53 85.80 1.00 295.65 3375.95
   03:22:11.445.08-Aug-2020 5190.56 2069.59 85.80 1.00 295.85 3375.95
   03:22:11.645.08-Aug-2020 5190.56 2079.77 85.80 1.00 296.05 3375.95
   03:22:11.845.08-Aug-2020 5190.56 2089.95 85.80 1.00 296.25 3375.95
   03:22:12.045.08-Aug-2020 5190.56 2099.73 85.80 1.00 296.45 3375.95
   03:22:12.245.08-Aug-2020 5190.56 2109.73 85.80 1.00 296.65 3375.95
   03:22:12.445.08-Aug-2020 5190.56 2119.66 85.80 1.00 296.85 3375.95
   03:22:12.645.08-Aug-2020 5190.56 2119.66 85.80 1.00 297.05 3375.95
   03:22:12.845.08-Aug-2020 5190.56 2139.15 85.80 1.00 297.25 3375.95
   03:22:13.045.08-Aug-2020 5190.56 2149.24 85.80 1.00 297.45 3375.95
   03:22:13.244.08-Aug-2020 5190.56 2159.26 85.80 1.00 297.65 3375.95
   03:22:13.444.08-Aug-2020 5190.56 2168.38 85.80 1.00 297.85 3375.95
   03:22:13.644.08-Aug-2020 5190.56 2168.38 85.80 1.00 298.05 3375.95
   03:22:13.844.08-Aug-2020 5190.56 2187.25 85.80 1.00 298.25 3375.95
   03:22:14.044.08-Aug-2020 5190.56 2196.94 85.80 1.00 298.45 3375.95
   03:22:14.244.08-Aug-2020 5190.56 2206.69 85.80 1.00 298.65 3375.95
