~Version Information
 VERS.                  2.0:   CWLS log ASCII Standard -VERSION 2.0
 WRAP.                   NO:   One line per depth step
~Well Information Block
#MNEM.UNIT     VALUE/NAME     DESCRIPTION
#---------     -----------    ---------------------------
 STRT.S             08:45:48 08-Aug-20: START TIME 08:45:48 08-Aug-20
 STOP.S             08:54:16 08-Aug-20: STOP TIME  08:54:16 08-Aug-20
 STEP.S                   0.00: STEP TIME
 NULL.                 -999.25: NULL VALUE
 DFWT.                        :  DIST FWL TEXT
 DFST.                        :  DIST FSL TEXT
 DMF .             Drill Floor:  DRILL MEAS FROM
 STIM.      13.47.44 07-Jun-20:  START TIME
 DATE.      13.47.44 27-Jul-20:  END TIME
 SPUD.               07-Jun-20:  SPUD DATE
 NREF.                    Grid:  NORTH REFERENCE
 HPTY.       Minimum Curvature:  HOLE POS TYPE
 DMOD.             Drill Model:  DRILL MOD DESC
 SVYD.                  Survey:  SURVEY DESC
 ILTD.               Lithology:  INTERP LTH DESC
 FTOP.          Formation Tops:  FORM TOPS DESC
 RIG .             West Chirag:  RIG NAME
 PDAT.          Mean Sea Level:  PERMANENT DATUM
 FLD .                     ACG:  FIELD NAME
 SON .        AZ-XX-0906363612:  JOB NUMBER
 CTRY.              Azerbaijan:  COUNTRY NAME
 WELL.           J25 (Slot 35):  WELL NAME
 SRVC.          Turan Drilling:  CONTRACTOR
 COMP.     BP Exploration (Caspian Sea) Ltd:  COMPANY
 UWI .                     N/A:  UNIQUE WELL IDENTIFIER
 API .                     N/A:  API NUMBER
 BASE.              Azerbaijan:  LOGGING EQUIPMENT BASE LOCATION
 REGN.                   EESSA:  REGION
 PROV.                    Baku:  PROVINCE
 STAT.                    Baku:  STATE NAME
 MWDS.                     N/A:  MWD SHOP
 DOE .                     N/A:  DOE NUMBER
 DCON.         Sperry Drilling:  DIRECTNL CONTR
 UNIT.                     N/A:  LOGGING EQUIPMENT ID
 MDS .        Operator Entered:  MAG DATA SOURCE
 JOBN.        AZ-XX-0906363612:  JOB TICKET NUMB
 WTYP.                Deviated:  WELL TYPE
 CNTY.                        :  COUNTY
 LOC .                        :  LOCATION
 LMF .             Drill Floor:  LOG MEASURED FROM
 TVDS.m                  43.00:  TVDSS CORRECTN
 LATI.deg                40.13:  LATITUDE
 LONG.deg                51.22:  LONGITUDE
 WHNS.m                  -7.90:  WELL HEAD N/S
 WHEW.m                  -3.35:  WELL HEAD E/W
 UTMX.m              519005.06:  UTM X
 UTMY.m             4443793.85:  UTM Y
 DFWL.m                   0.00:  DISTANCE FWL
 DFSL.m                   0.00:  DISTANCE FSL
 SDEP.m                   0.00:  START DEPTH
 TDD .m                   0.00:  TOTAL DEPTH (DRILLER)
 VSDR.deg               308.97:  VERT SEC DIRECT
 GVFD.g                   1.00:  GRAVITY FIELD
 MFLD.nT              50350.00:  MAGNETIC FIELD
 MDIP.deg                59.62:  MAGNETIC DIP
 MDEC.deg                 6.44:  MAGNETIC DECL
 GRDC.deg                 0.13:  GRID CORRECTION
 AZTC.deg                 6.32:  AZM TOTAL CORR
 EPD .m                   0.00:  ELEVATION
 EGL .m                   0.00:  GROUND ELEVATION
 WDMS.m                 169.80:  WD ELEV
 APD .m                  43.00:  DEPTH ABOVE PD
 DEP .m                 356.43:  DEPTH
 AGAP.m                  43.00:  AIR GAP
 VSEW.m                  -3.35:  VERT SEC E/W
 VSNS.m                  -7.90:  VERT SEC N/S
 EKB .m                  43.00:  KB ELEVATION
 EDF .m                  43.00:  DF ELEVATION
 TDL .m                 934.00:  TOTAL DEPTH (LOGGER)
 VSC .                       0:  VS TO CLOSURE
 MAGU.                 1852825:  MAGUTM CHECKSUM
~Parameter Information Block
#MNEM.UNIT       Value        Description
#---------     -----------    ---------------------------
 AV  .mps                 0.80:  Ann Velocity 
 AVMX.mps                 1.70:  Max Ann Veloc 
 AZIF.deg               311.41:  Azm, Final 
 BHAT.        Rotary Steerable:  BHA Type 
 BROT.°/30m               0.09:  Build Rotating 
 BS  .in                 12.25:  Bit Size 
 BSZ .in                 12.25:  Bit Size 
 BTPL.psig              800.00:  Bit Press Loss 
 CABU.                      No:  Customer Abuse 
 COMM.                     ôS:  Run Comments 1 
 TCS .hr                 96.00:  Time Ciculation Ended 
 CV  .mps                 2.03:  Crit Velocity 
 CVMX.mps                 2.42:  Max Crit Veloc 
 DD1 .          Taghi Taghiyev:  Direct Drillr 1 
 DD2 .      Tariel Pirmammadov:  Direct Drillr 2 
 DD3 .          Teymur Aghayev:  Direct Drillr 3 
 DDSV.                 iCruise:  DD Service 
 DEFF.%                  98.70:  % Det Eff 
 DLRX.°/30m               1.00:  Dogleg Rot Max 
 DLSO.°/30m               1.80:  Dogleg Oriented 
 DLSX.°/30m               3.16:  Dogleg Str Max 
 DRET.      15.00.00 07-Aug-20:  Drill End Time 
 DRST.      17.00.00 02-Aug-20:  Drill Start Tim 
 DTIM.hr                 45.90:  Time Drilling 
 EDEP.m                5298.01:  End Depth 
 ENG1.       Seymur Iskandarov:  Engineer 1 
 ENG2.         Yevgeniy Ulikov:  Engineer 2 
 ENG3.      Artemiy Matviyanov:  Engineer 3 
 ENG4.         Bahruz Mehdiyev:  Engineer 4 
 ETIM.      05.00.00 10-Aug-20:  End Time 
 FLOI.gpm              1150.00:  Flow In 
 FLON.gpm               900.00:  Flow In Min 
 FLOS.cptm                0.00:  Fluid Loss 
 FLOX.gpm              1200.00:  Flow In Max 
 FTRO.     Connectivity, Formation Presure:  FTWD Run Obj 
 HFLO.                      No:  High Flow 
 HPRE.                     Yes:  High Pressure 
 HTEM.                      No:  High Temp 
 HYDO.m                   1.80:  Hydro Offset 
 IFIN.deg                 9.71:  Inc, Final 
 IMAX.deg                63.81:  Inc Max 
 IMIN.deg                 9.53:  Inc Min 
 IMND.m                5075.52:  Inc Min Depth 
 IMXD.m                4367.08:  Inc Max Depth 
 JARR.                      No:  Jarring 
 LETM.      15.00.00 07-Aug-20:  Log End Time 
 LOST.hr                     2:  Lost Rig Time 
 LSTM.      17.00.00 02-Aug-20:  Log Start Time 
 MDCL.ppm             42500.00:  Mud Chlorides 
 MDES.     Inversion Oil/Synthetic:  Mud Desc 
 DFD .sg                  1.46:  Mud Density 
 MDMN.sg                  1.46:  Dens Mud Min 
 MDMX.sg                  1.46:  Dens Mud Max 
 MOIL.                      56:  Run Mud Oil % 
 MOWR.                   70:30:  Run Mud OWR 
 MSND.                     0.1:  Run Mud Sand % 
 MSOL.                      19:  Run Mud Solids% 
 DFV .spqt               83.00:  Mud Viscosity 
 MWOD.in                  8.00:  MWD Tool OD 
 MWSI.                     Yes:  Serv Intrp, MWD 
 OTIM.hr                196.57:  Time Operating 
 PCON.           Look Like New:  Pad Condition 
 PMAX.psia             7400.00:  Press Op, Max 
 PV  .cP                 36.00:  Mud PV 
 RUN .                    1000:  Run Number 
 ROPA.m/hr               25.00:  ROP Avg 
 ROPN.m/hr               10.00:  ROP Min 
 ROPX.m/hr               32.00:  ROP Max 
 RPMA.rpm               120.00:  RPM Surface Avg 
 RPMN.rpm               100.00:  RPM Surface Min 
 RPMX.rpm               140.00:  RPM Surface Max 
 RRUN.                    L504:  Rig Run Number 
 SAZI.deg               308.25:  Azm, Start 
 SDEP.m                4364.01:  Start Depth 
 SIDD.                      No:  Serv Intrp, DD 
 SINC.deg                63.81:  Inc, Start 
 SPPA.psig             5800.00:  SPP Avg 
 SPPN.psig             4200.00:  SPP Min 
 SPPX.psig             5950.00:  SPP Max 
 STIM.      18.00.00 01-Aug-20:  Start Time 
 SVCS.                 DD, MWD:  Services 
 SVER.                    9.20:  Sperry Version 
 TDAT.m                 934.00:  Tot Depth Attmp 
 TDDF.                      No:  Trip for DD 
 TDLG.m                 934.00:  Tot Depth Loggd 
 TFF .                      No:  Trip for Fail 
 TQAA.f-kp               31.00:  Torque Abs Avg 
 TQAN.f-kp               25.00:  Torque Abs Min 
 TQAX.f-kp               35.00:  Torque Abs Max 
 TRRT.°/30m              -0.75:  Turn Rotating 
 MRT .                  EWR-M5:  Maximum Recorded Temperature 
 TTMX.degC               95.00:  Max Tool Temp 
 VS01.                90516060:  Virtual Str1 SN 
 VS02.                90528488:  Virtual Str2 SN 
 VS03.                90577970:  Virtual Str3 SN 
 VS04.                12385033:  Virtual Str4 SN 
 VS05.                90522069:  Virtual Str5 SN 
 VS06.                13124134:  Virtual Str6 SN 
 WBMN.klb                20.00:  WOB Min 
 WITN.         Alistair Sprott:  Customer Rep 
 WITN.     Ronal van der Kraan:  Customer Rep 2 
 WOBA.klb                25.00:  WOB Avg 
 WOBX.klb                31.00:  WOB Max 
 YP  .lhf2               32.00:  Yield Point 
~Curve Information Block
#MNEM.UNIT                 API CODE     Curve Description
#---------               -----------    ---------------------------
 TIME.HHMMSS            00 000 000 000:  GT Time & Date
 GTDEPTH.m              00 000 000 000:  GT Depth
 GTPQH.psia             00 000 000 000:  GT HR Quartz Pressure
 GTTQ.degC              00 000 000 000:  GT Quartz Temperature
 GTTN.NONE              00 000 000 000:  GT Test Number
 GTET.sec               00 000 000 000:  GT Elapsed Test Time
 GTTVD.m                00 000 000 000:  GT True Vertical Depth
#Other Information
#
#WARRANTY: Halliburton will use its best efforts to furnish customers with 
#accurate information and interpretations that are part of, and incident to, the services 
#provided.  However, Halliburton cannot and does not warrant the accuracy 
#or correctness of such information and interpretations.  Under no circumstances should any 
#such information or interpretation be relied upon as the sole basis for any drilling, 
#completion, production, or financial decision or any procedure involving any risk to the 
#safety of any drilling venture, drilling rig or its crew or any other third party.  The 
#Customer has full responsibility for all drilling, completion and production operation.  
#Halliburton makes no representations or warranties, either expressed or 
#implied, including, but not limited to, the implied warranties of merchantability or fitness 
#for a particular purpose, with respect to the services rendered.  In no event will 
#Halliburton be liable for failure to obtain any particular results or for 
#any damages, including, but not limited to, indirect, special or consequential damages, 
#resulting from the use of any information or interpretation provided by Halliburton.
#
~A           TIME           GTDEPTH  GTPQH  GTTQ  GTTN  GTET   GTTVD  
   08:45:48.807.08-Aug-2020 5134.01 7121.89 76.37 7.00   0.00 3320.21
   08:45:49.007.08-Aug-2020 5134.01 7121.89 76.37 7.00   0.20 3320.21
   08:45:49.207.08-Aug-2020 5134.01 7123.73 76.37 7.00   0.40 3320.21
   08:45:49.408.08-Aug-2020 5134.01 7127.09 76.37 7.00   0.60 3320.21
   08:45:49.608.08-Aug-2020 5134.01 7125.34 76.37 7.00   0.80 3320.21
   08:45:49.808.08-Aug-2020 5134.01 7124.55 76.36 7.00   1.00 3320.21
   08:45:50.008.08-Aug-2020 5134.01 7124.55 76.36 7.00   1.20 3320.21
   08:45:50.208.08-Aug-2020 5134.01 7124.55 76.36 7.00   1.40 3320.21
   08:45:50.408.08-Aug-2020 5134.01 7123.02 76.36 7.00   1.60 3320.21
   08:45:50.608.08-Aug-2020 5134.01 7121.29 76.36 7.00   1.80 3320.21
   08:45:50.808.08-Aug-2020 5134.01 7120.15 76.36 7.00   2.00 3320.21
   08:45:51.008.08-Aug-2020 5134.01 7120.15 76.36 7.00   2.20 3320.21
   08:45:51.208.08-Aug-2020 5134.01 7121.48 76.36 7.00   2.40 3320.21
   08:45:51.409.08-Aug-2020 5134.01 7118.29 76.36 7.00   2.60 3320.21
   08:45:51.609.08-Aug-2020 5134.01 7118.96 76.36 7.00   2.80 3320.21
   08:45:51.809.08-Aug-2020 5134.01 7117.60 76.36 7.00   3.00 3320.21
   08:45:52.009.08-Aug-2020 5134.01 7117.60 76.36 7.00   3.20 3320.21
   08:45:52.209.08-Aug-2020 5134.01 7120.48 76.36 7.00   3.40 3320.21
   08:45:52.409.08-Aug-2020 5134.01 7119.71 76.36 7.00   3.60 3320.21
   08:45:52.609.08-Aug-2020 5134.01 7119.69 76.36 7.00   3.80 3320.21
   08:45:52.809.08-Aug-2020 5134.01 7124.01 76.36 7.00   4.00 3320.21
   08:45:53.009.08-Aug-2020 5134.01 7124.01 76.36 7.00   4.20 3320.21
   08:45:53.210.08-Aug-2020 5134.01 7124.99 76.36 7.00   4.40 3320.21
   08:45:53.410.08-Aug-2020 5134.01 7132.48 76.36 7.00   4.60 3320.21
   08:45:53.610.08-Aug-2020 5134.01 7126.06 76.36 7.00   4.80 3320.21
   08:45:53.810.08-Aug-2020 5134.01 7131.27 76.36 7.00   5.00 3320.21
   08:45:54.010.08-Aug-2020 5134.01 7131.27 76.36 7.00   5.20 3320.21
   08:45:54.210.08-Aug-2020 5134.01 7133.10 76.36 7.00   5.40 3320.21
   08:45:54.410.08-Aug-2020 5134.01 7133.35 76.36 7.00   5.60 3320.21
   08:45:54.610.08-Aug-2020 5134.01 7137.89 76.36 7.00   5.80 3320.21
   08:45:54.810.08-Aug-2020 5134.01 7135.61 76.36 7.00   6.00 3320.21
   08:45:55.010.08-Aug-2020 5134.01 7135.61 76.36 7.00   6.20 3320.21
   08:45:55.211.08-Aug-2020 5134.01 7138.55 76.36 7.00   6.40 3320.21
   08:45:55.411.08-Aug-2020 5134.01 7134.34 76.36 7.00   6.60 3320.21
   08:45:55.611.08-Aug-2020 5134.01 7135.73 76.36 7.00   6.80 3320.21
   08:45:55.811.08-Aug-2020 5134.01 7134.02 76.36 7.00   7.00 3320.21
   08:45:56.011.08-Aug-2020 5134.01 7134.02 76.36 7.00   7.20 3320.21
   08:45:56.211.08-Aug-2020 5134.01 7137.11 76.36 7.00   7.40 3320.21
   08:45:56.411.08-Aug-2020 5134.01 7133.75 76.36 7.00   7.60 3320.21
   08:45:56.611.08-Aug-2020 5134.01 7135.96 76.36 7.00   7.80 3320.21
   08:45:56.811.08-Aug-2020 5134.01 7133.62 76.36 7.00   8.00 3320.21
   08:45:57.012.08-Aug-2020 5134.01 7134.80 76.36 7.00   8.20 3320.21
   08:45:57.212.08-Aug-2020 5134.01 7134.66 76.36 7.00   8.40 3320.21
   08:45:57.412.08-Aug-2020 5134.01 7134.27 76.36 7.00   8.60 3320.21
   08:45:57.612.08-Aug-2020 5134.01 7133.81 76.36 7.00   8.80 3320.21
   08:45:57.812.08-Aug-2020 5134.01 7132.44 76.36 7.00   9.00 3320.21
   08:45:58.012.08-Aug-2020 5134.01 7132.44 76.36 7.00   9.20 3320.21
   08:45:58.212.08-Aug-2020 5134.01 7132.68 76.35 7.00   9.40 3320.21
   08:45:58.412.08-Aug-2020 5134.01 7133.30 76.35 7.00   9.61 3320.21
   08:45:58.612.08-Aug-2020 5134.01 7132.85 76.35 7.00   9.81 3320.21
   08:45:58.812.08-Aug-2020 5134.01 7132.98 76.35 7.00  10.01 3320.21
   08:45:59.013.08-Aug-2020 5134.01 7132.98 76.35 7.00  10.21 3320.21
   08:45:59.213.08-Aug-2020 5134.01 7133.23 76.35 7.00  10.41 3320.21
   08:45:59.413.08-Aug-2020 5134.01 7133.26 76.35 7.00  10.61 3320.21
   08:45:59.613.08-Aug-2020 5134.01 7137.13 76.35 7.00  10.81 3320.21
   08:45:59.813.08-Aug-2020 5134.01 7133.08 76.35 7.00  11.01 3320.21
   08:46:00.013.08-Aug-2020 5134.01 7133.08 76.35 7.00  11.21 3320.21
   08:46:00.213.08-Aug-2020 5134.01 7132.90 76.35 7.00  11.41 3320.21
   08:46:00.413.08-Aug-2020 5134.01 7132.22 76.35 7.00  11.61 3320.21
   08:46:00.613.08-Aug-2020 5134.01 7131.74 76.35 7.00  11.81 3320.21
   08:46:00.814.08-Aug-2020 5134.01 7130.97 76.35 7.00  12.01 3320.21
   08:46:01.014.08-Aug-2020 5134.01 7130.97 76.35 7.00  12.21 3320.21
   08:46:01.214.08-Aug-2020 5134.01 7129.93 76.35 7.00  12.41 3320.21
   08:46:01.414.08-Aug-2020 5134.01 7131.84 76.35 7.00  12.61 3320.21
   08:46:01.614.08-Aug-2020 5134.01 7131.14 76.35 7.00  12.81 3320.21
   08:46:01.814.08-Aug-2020 5134.01 7132.48 76.35 7.00  13.01 3320.21
   08:46:02.014.08-Aug-2020 5134.01 7132.48 76.35 7.00  13.21 3320.21
   08:46:02.214.08-Aug-2020 5134.01 7133.08 76.35 7.00  13.41 3320.21
   08:46:02.414.08-Aug-2020 5134.01 7133.53 76.35 7.00  13.61 3320.21
   08:46:02.614.08-Aug-2020 5134.01 7133.74 76.35 7.00  13.81 3320.21
   08:46:02.815.08-Aug-2020 5134.01 7137.08 76.35 7.00  14.01 3320.21
   08:46:03.015.08-Aug-2020 5134.01 7137.08 76.35 7.00  14.21 3320.21
   08:46:03.215.08-Aug-2020 5134.01 7137.04 76.35 7.00  14.41 3320.21
   08:46:03.415.08-Aug-2020 5134.01 7134.65 76.35 7.00  14.61 3320.21
   08:46:03.615.08-Aug-2020 5134.01 7134.56 76.35 7.00  14.81 3320.21
   08:46:03.815.08-Aug-2020 5134.01 7134.73 76.35 7.00  15.01 3320.21
   08:46:04.015.08-Aug-2020 5134.01 7134.73 76.35 7.00  15.21 3320.21
   08:46:04.215.08-Aug-2020 5134.01 7133.78 76.35 7.00  15.41 3320.21
   08:46:04.415.08-Aug-2020 5134.01 7135.37 76.35 7.00  15.61 3320.21
   08:46:04.616.08-Aug-2020 5134.01 7133.76 76.35 7.00  15.81 3320.21
   08:46:04.816.08-Aug-2020 5134.01 7132.56 76.35 7.00  16.01 3320.21
   08:46:05.016.08-Aug-2020 5134.01 7139.07 76.35 7.00  16.21 3320.21
   08:46:05.216.08-Aug-2020 5134.01 7129.95 76.35 7.00  16.41 3320.21
   08:46:05.416.08-Aug-2020 5134.01 7133.54 76.35 7.00  16.61 3320.21
   08:46:05.616.08-Aug-2020 5134.01 7130.10 76.35 7.00  16.81 3320.21
   08:46:05.816.08-Aug-2020 5134.01 7130.63 76.35 7.00  17.01 3320.21
   08:46:06.016.08-Aug-2020 5134.01 7130.63 76.34 7.00  17.21 3320.21
   08:46:06.216.08-Aug-2020 5134.01 7126.62 76.34 7.00  17.41 3320.21
   08:46:06.417.08-Aug-2020 5134.01 7130.49 76.34 7.00  17.61 3320.21
   08:46:06.617.08-Aug-2020 5134.01 7130.94 76.34 7.00  17.81 3320.21
   08:46:06.817.08-Aug-2020 5134.01 7129.00 76.34 7.00  18.01 3320.21
   08:46:07.017.08-Aug-2020 5134.01 7129.42 76.34 7.00  18.21 3320.21
   08:46:07.217.08-Aug-2020 5134.01 7127.76 76.34 7.00  18.41 3320.21
   08:46:07.417.08-Aug-2020 5134.01 7127.30 76.34 7.00  18.61 3320.21
   08:46:07.617.08-Aug-2020 5134.01 7126.74 76.34 7.00  18.81 3320.21
   08:46:07.817.08-Aug-2020 5134.01 7128.21 76.34 7.00  19.01 3320.21
   08:46:08.017.08-Aug-2020 5134.01 7128.21 76.34 7.00  19.21 3320.21
   08:46:08.217.08-Aug-2020 5134.01 7127.55 76.34 7.00  19.41 3320.21
   08:46:08.418.08-Aug-2020 5134.01 7129.27 76.34 7.00  19.61 3320.21
   08:46:08.618.08-Aug-2020 5134.01 7127.48 76.34 7.00  19.81 3320.21
   08:46:08.818.08-Aug-2020 5134.01 7128.37 76.34 7.00  20.01 3320.21
   08:46:09.018.08-Aug-2020 5134.01 7128.37 76.34 7.00  20.21 3320.21
   08:46:09.218.08-Aug-2020 5134.01 7127.59 76.34 7.00  20.41 3320.21
   08:46:09.418.08-Aug-2020 5134.01 7127.85 76.34 7.00  20.61 3320.21
   08:46:09.618.08-Aug-2020 5134.01 7126.73 76.34 7.00  20.81 3320.21
   08:46:09.818.08-Aug-2020 5134.01 7128.37 76.34 7.00  21.01 3320.21
   08:46:10.018.08-Aug-2020 5134.01 7128.37 76.34 7.00  21.21 3320.21
   08:46:10.219.08-Aug-2020 5134.01 7127.86 76.34 7.00  21.41 3320.21
   08:46:10.419.08-Aug-2020 5134.01 7127.21 76.34 7.00  21.61 3320.21
   08:46:10.619.08-Aug-2020 5134.01 7127.23 76.34 7.00  21.81 3320.21
   08:46:10.819.08-Aug-2020 5134.01 7126.75 76.34 7.00  22.01 3320.21
   08:46:11.019.08-Aug-2020 5134.01 7126.75 76.34 7.00  22.21 3320.21
   08:46:11.219.08-Aug-2020 5134.01 7126.69 76.34 7.00  22.41 3320.21
   08:46:11.419.08-Aug-2020 5134.01 7126.64 76.34 7.00  22.61 3320.21
   08:46:11.619.08-Aug-2020 5134.01 7130.18 76.34 7.00  22.81 3320.21
