~Version Information
 VERS.                  2.0:   CWLS log ASCII Standard -VERSION 2.0
 WRAP.                   NO:   One line per depth step
~Well Information Block
#MNEM.UNIT     VALUE/NAME     DESCRIPTION
#---------     -----------    ---------------------------
 STRT.S             03:17:15 08-Aug-20: START TIME 03:17:15 08-Aug-20
 STOP.S             03:24:06 08-Aug-20: STOP TIME  03:24:06 08-Aug-20
 STEP.S                   0.00: STEP TIME
 NULL.                 -999.25: NULL VALUE
 DFWT.                        :  DIST FWL TEXT
 DFST.                        :  DIST FSL TEXT
 DMF .             Drill Floor:  DRILL MEAS FROM
 STIM.      13.47.44 07-Jun-20:  START TIME
 DATE.      13.47.44 27-Jul-20:  END TIME
 SPUD.               07-Jun-20:  SPUD DATE
 NREF.                    Grid:  NORTH REFERENCE
 HPTY.       Minimum Curvature:  HOLE POS TYPE
 DMOD.             Drill Model:  DRILL MOD DESC
 SVYD.                  Survey:  SURVEY DESC
 ILTD.               Lithology:  INTERP LTH DESC
 FTOP.          Formation Tops:  FORM TOPS DESC
 RIG .             West Chirag:  RIG NAME
 PDAT.          Mean Sea Level:  PERMANENT DATUM
 FLD .                     ACG:  FIELD NAME
 SON .        AZ-XX-0906363612:  JOB NUMBER
 CTRY.              Azerbaijan:  COUNTRY NAME
 WELL.           J25 (Slot 35):  WELL NAME
 SRVC.          Turan Drilling:  CONTRACTOR
 COMP.     BP Exploration (Caspian Sea) Ltd:  COMPANY
 UWI .                     N/A:  UNIQUE WELL IDENTIFIER
 API .                     N/A:  API NUMBER
 BASE.              Azerbaijan:  LOGGING EQUIPMENT BASE LOCATION
 REGN.                   EESSA:  REGION
 PROV.                    Baku:  PROVINCE
 STAT.                    Baku:  STATE NAME
 MWDS.                     N/A:  MWD SHOP
 DOE .                     N/A:  DOE NUMBER
 DCON.         Sperry Drilling:  DIRECTNL CONTR
 UNIT.                     N/A:  LOGGING EQUIPMENT ID
 MDS .        Operator Entered:  MAG DATA SOURCE
 JOBN.        AZ-XX-0906363612:  JOB TICKET NUMB
 WTYP.                Deviated:  WELL TYPE
 CNTY.                        :  COUNTY
 LOC .                        :  LOCATION
 LMF .             Drill Floor:  LOG MEASURED FROM
 TVDS.m                  43.00:  TVDSS CORRECTN
 LATI.deg                40.13:  LATITUDE
 LONG.deg                51.22:  LONGITUDE
 WHNS.m                  -7.90:  WELL HEAD N/S
 WHEW.m                  -3.35:  WELL HEAD E/W
 UTMX.m              519005.06:  UTM X
 UTMY.m             4443793.85:  UTM Y
 DFWL.m                   0.00:  DISTANCE FWL
 DFSL.m                   0.00:  DISTANCE FSL
 SDEP.m                   0.00:  START DEPTH
 TDD .m                   0.00:  TOTAL DEPTH (DRILLER)
 VSDR.deg               308.97:  VERT SEC DIRECT
 GVFD.g                   1.00:  GRAVITY FIELD
 MFLD.nT              50350.00:  MAGNETIC FIELD
 MDIP.deg                59.62:  MAGNETIC DIP
 MDEC.deg                 6.44:  MAGNETIC DECL
 GRDC.deg                 0.13:  GRID CORRECTION
 AZTC.deg                 6.32:  AZM TOTAL CORR
 EPD .m                   0.00:  ELEVATION
 EGL .m                   0.00:  GROUND ELEVATION
 WDMS.m                 169.80:  WD ELEV
 APD .m                  43.00:  DEPTH ABOVE PD
 DEP .m                 356.43:  DEPTH
 AGAP.m                  43.00:  AIR GAP
 VSEW.m                  -3.35:  VERT SEC E/W
 VSNS.m                  -7.90:  VERT SEC N/S
 EKB .m                  43.00:  KB ELEVATION
 EDF .m                  43.00:  DF ELEVATION
 TDL .m                 934.00:  TOTAL DEPTH (LOGGER)
 VSC .                       0:  VS TO CLOSURE
 MAGU.                 1852825:  MAGUTM CHECKSUM
~Parameter Information Block
#MNEM.UNIT       Value        Description
#---------     -----------    ---------------------------
 AV  .mps                 0.80:  Ann Velocity 
 AVMX.mps                 1.70:  Max Ann Veloc 
 AZIF.deg               311.41:  Azm, Final 
 BHAT.        Rotary Steerable:  BHA Type 
 BROT.°/30m               0.09:  Build Rotating 
 BS  .in                 12.25:  Bit Size 
 BSZ .in                 12.25:  Bit Size 
 BTPL.psig              800.00:  Bit Press Loss 
 CABU.                      No:  Customer Abuse 
 COMM.                     k:  Run Comments 1 
 TCS .hr                 96.00:  Time Ciculation Ended 
 CV  .mps                 2.03:  Crit Velocity 
 CVMX.mps                 2.42:  Max Crit Veloc 
 DD1 .          Taghi Taghiyev:  Direct Drillr 1 
 DD2 .      Tariel Pirmammadov:  Direct Drillr 2 
 DD3 .          Teymur Aghayev:  Direct Drillr 3 
 DDSV.                 iCruise:  DD Service 
 DEFF.%                  98.70:  % Det Eff 
 DLRX.°/30m               1.00:  Dogleg Rot Max 
 DLSO.°/30m               1.80:  Dogleg Oriented 
 DLSX.°/30m               3.16:  Dogleg Str Max 
 DRET.      15.00.00 07-Aug-20:  Drill End Time 
 DRST.      17.00.00 02-Aug-20:  Drill Start Tim 
 DTIM.hr                 45.90:  Time Drilling 
 EDEP.m                5298.01:  End Depth 
 ENG1.       Seymur Iskandarov:  Engineer 1 
 ENG2.         Yevgeniy Ulikov:  Engineer 2 
 ENG3.      Artemiy Matviyanov:  Engineer 3 
 ENG4.         Bahruz Mehdiyev:  Engineer 4 
 ETIM.      05.00.00 10-Aug-20:  End Time 
 FLOI.gpm              1150.00:  Flow In 
 FLON.gpm               900.00:  Flow In Min 
 FLOS.cptm                0.00:  Fluid Loss 
 FLOX.gpm              1200.00:  Flow In Max 
 FTRO.     Connectivity, Formation Presure:  FTWD Run Obj 
 HFLO.                      No:  High Flow 
 HPRE.                     Yes:  High Pressure 
 HTEM.                      No:  High Temp 
 HYDO.m                   1.80:  Hydro Offset 
 IFIN.deg                 9.71:  Inc, Final 
 IMAX.deg                63.81:  Inc Max 
 IMIN.deg                 9.53:  Inc Min 
 IMND.m                5075.52:  Inc Min Depth 
 IMXD.m                4367.08:  Inc Max Depth 
 JARR.                      No:  Jarring 
 LETM.      15.00.00 07-Aug-20:  Log End Time 
 LOST.hr                     2:  Lost Rig Time 
 LSTM.      17.00.00 02-Aug-20:  Log Start Time 
 MDCL.ppm             42500.00:  Mud Chlorides 
 MDES.     Inversion Oil/Synthetic:  Mud Desc 
 DFD .sg                  1.46:  Mud Density 
 MDMN.sg                  1.46:  Dens Mud Min 
 MDMX.sg                  1.46:  Dens Mud Max 
 MOIL.                      56:  Run Mud Oil % 
 MOWR.                   70:30:  Run Mud OWR 
 MSND.                     0.1:  Run Mud Sand % 
 MSOL.                      19:  Run Mud Solids% 
 DFV .spqt               83.00:  Mud Viscosity 
 MWOD.in                  8.00:  MWD Tool OD 
 MWSI.                     Yes:  Serv Intrp, MWD 
 OTIM.hr                196.57:  Time Operating 
 PCON.           Look Like New:  Pad Condition 
 PMAX.psia             7400.00:  Press Op, Max 
 PV  .cP                 36.00:  Mud PV 
 RUN .                    1000:  Run Number 
 ROPA.m/hr               25.00:  ROP Avg 
 ROPN.m/hr               10.00:  ROP Min 
 ROPX.m/hr               32.00:  ROP Max 
 RPMA.rpm               120.00:  RPM Surface Avg 
 RPMN.rpm               100.00:  RPM Surface Min 
 RPMX.rpm               140.00:  RPM Surface Max 
 RRUN.                    L504:  Rig Run Number 
 SAZI.deg               308.25:  Azm, Start 
 SDEP.m                4364.01:  Start Depth 
 SIDD.                      No:  Serv Intrp, DD 
 SINC.deg                63.81:  Inc, Start 
 SPPA.psig             5800.00:  SPP Avg 
 SPPN.psig             4200.00:  SPP Min 
 SPPX.psig             5950.00:  SPP Max 
 STIM.      18.00.00 01-Aug-20:  Start Time 
 SVCS.                 DD, MWD:  Services 
 SVER.                    9.20:  Sperry Version 
 TDAT.m                 934.00:  Tot Depth Attmp 
 TDDF.                      No:  Trip for DD 
 TDLG.m                 934.00:  Tot Depth Loggd 
 TFF .                      No:  Trip for Fail 
 TQAA.f-kp               31.00:  Torque Abs Avg 
 TQAN.f-kp               25.00:  Torque Abs Min 
 TQAX.f-kp               35.00:  Torque Abs Max 
 TRRT.°/30m              -0.75:  Turn Rotating 
 MRT .                  EWR-M5:  Maximum Recorded Temperature 
 TTMX.degC               95.00:  Max Tool Temp 
 VS01.                90516060:  Virtual Str1 SN 
 VS02.                90528488:  Virtual Str2 SN 
 VS03.                90577970:  Virtual Str3 SN 
 VS04.                12385033:  Virtual Str4 SN 
 VS05.                90522069:  Virtual Str5 SN 
 VS06.                13124134:  Virtual Str6 SN 
 WBMN.klb                20.00:  WOB Min 
 WITN.         Alistair Sprott:  Customer Rep 
 WITN.     Ronal van der Kraan:  Customer Rep 2 
 WOBA.klb                25.00:  WOB Avg 
 WOBX.klb                31.00:  WOB Max 
 YP  .lhf2               32.00:  Yield Point 
~Curve Information Block
#MNEM.UNIT                 API CODE     Curve Description
#---------               -----------    ---------------------------
 TIME.HHMMSS            00 000 000 000:  GT Time & Date
 GTDEPTH.m              00 000 000 000:  GT Depth
 GTPQH.psia             00 000 000 000:  GT HR Quartz Pressure
 GTTQ.degC              00 000 000 000:  GT Quartz Temperature
 GTTN.NONE              00 000 000 000:  GT Test Number
 GTET.sec               00 000 000 000:  GT Elapsed Test Time
 GTTVD.m                00 000 000 000:  GT True Vertical Depth
#Other Information
#
#WARRANTY: Halliburton will use its best efforts to furnish customers with 
#accurate information and interpretations that are part of, and incident to, the services 
#provided.  However, Halliburton cannot and does not warrant the accuracy 
#or correctness of such information and interpretations.  Under no circumstances should any 
#such information or interpretation be relied upon as the sole basis for any drilling, 
#completion, production, or financial decision or any procedure involving any risk to the 
#safety of any drilling venture, drilling rig or its crew or any other third party.  The 
#Customer has full responsibility for all drilling, completion and production operation.  
#Halliburton makes no representations or warranties, either expressed or 
#implied, including, but not limited to, the implied warranties of merchantability or fitness 
#for a particular purpose, with respect to the services rendered.  In no event will 
#Halliburton be liable for failure to obtain any particular results or for 
#any damages, including, but not limited to, indirect, special or consequential damages, 
#resulting from the use of any information or interpretation provided by Halliburton.
#
~A           TIME           GTDEPTH  GTPQH  GTTQ  GTTN  GTET   GTTVD  
# ...
   03:18:24.561.08-Aug-2020 5190.56 2206.33 85.92 1.00  68.96 3375.95
   03:18:24.761.08-Aug-2020 5190.56 2060.98 85.92 1.00  69.16 3375.95
   03:18:24.961.08-Aug-2020 5190.56 1921.79 85.91 1.00  69.36 3375.95
   03:18:25.161.08-Aug-2020 5190.56 1780.25 85.91 1.00  69.56 3375.95
   03:18:25.360.08-Aug-2020 5190.56 1637.86 85.91 1.00  69.76 3375.95
   03:18:25.560.08-Aug-2020 5190.56 1509.22 85.91 1.00  69.96 3375.95
   03:18:25.760.08-Aug-2020 5190.56 1509.22 85.91 1.00  70.16 3375.95
   03:18:25.960.08-Aug-2020 5190.56 1450.89 85.90 1.00  70.36 3375.95
   03:18:26.160.08-Aug-2020 5190.56 1449.13 85.90 1.00  70.56 3375.95
   03:18:26.360.08-Aug-2020 5190.56 1446.80 85.89 1.00  70.76 3375.95
   03:18:26.560.08-Aug-2020 5190.56 1446.65 85.89 1.00  70.96 3375.95
   03:18:26.760.08-Aug-2020 5190.56 1446.65 85.89 1.00  71.16 3375.95
   03:18:26.960.08-Aug-2020 5190.56 1448.80 85.88 1.00  71.36 3375.95
   03:18:27.160.08-Aug-2020 5190.56 1450.01 85.88 1.00  71.56 3375.95
   03:18:27.359.08-Aug-2020 5190.56 1449.86 85.88 1.00  71.76 3375.95
   03:18:27.559.08-Aug-2020 5190.56 1449.54 85.87 1.00  71.96 3375.95
   03:18:27.759.08-Aug-2020 5190.56 1449.54 85.87 1.00  72.16 3375.95
   03:18:27.959.08-Aug-2020 5190.56 1446.22 85.86 1.00  72.36 3375.95
   03:18:28.159.08-Aug-2020 5190.56 1444.38 85.86 1.00  72.56 3375.95
   03:18:28.359.08-Aug-2020 5190.56 1443.17 85.86 1.00  72.76 3375.95
   03:18:28.559.08-Aug-2020 5190.56 1441.93 85.85 1.00  72.96 3375.95
   03:18:28.759.08-Aug-2020 5190.56 1440.63 85.85 1.00  73.16 3375.95
   03:18:28.959.08-Aug-2020 5190.56 1439.77 85.85 1.00  73.36 3375.95
   03:18:29.159.08-Aug-2020 5190.56 1434.56 85.84 1.00  73.56 3375.95
   03:18:29.358.08-Aug-2020 5190.56 1437.97 85.84 1.00  73.76 3375.95
   03:18:29.558.08-Aug-2020 5190.56 1442.44 85.84 1.00  73.96 3375.95
   03:18:29.758.08-Aug-2020 5190.56 1442.44 85.84 1.00  74.16 3375.95
   03:18:29.958.08-Aug-2020 5190.56 1446.76 85.83 1.00  74.36 3375.95
   03:18:30.158.08-Aug-2020 5190.56 1441.79 85.83 1.00  74.56 3375.95
   03:18:30.358.08-Aug-2020 5190.56 1443.85 85.82 1.00  74.76 3375.95
   03:18:30.558.08-Aug-2020 5190.56 1443.57 85.82 1.00  74.96 3375.95
   03:18:30.758.08-Aug-2020 5190.56 1443.57 85.82 1.00  75.16 3375.95
   03:18:30.958.08-Aug-2020 5190.56 1473.65 85.81 1.00  75.36 3375.95
   03:18:31.158.08-Aug-2020 5190.56 1497.93 85.81 1.00  75.56 3375.95
   03:18:31.357.08-Aug-2020 5190.56 1519.62 85.81 1.00  75.76 3375.95
   03:18:31.557.08-Aug-2020 5190.56 1540.71 85.80 1.00  75.96 3375.95
   03:18:31.757.08-Aug-2020 5190.56 1540.71 85.80 1.00  76.16 3375.95
   03:18:31.957.08-Aug-2020 5190.56 1583.59 85.80 1.00  76.36 3375.95
   03:18:32.157.08-Aug-2020 5190.56 1603.51 85.80 1.00  76.56 3375.95
   03:18:32.357.08-Aug-2020 5190.56 1623.37 85.79 1.00  76.76 3375.95
   03:18:32.557.08-Aug-2020 5190.56 1642.73 85.79 1.00  76.96 3375.95
   03:18:32.757.08-Aug-2020 5190.56 1661.53 85.79 1.00  77.16 3375.95
   03:18:32.957.08-Aug-2020 5190.56 1680.21 85.79 1.00  77.36 3375.95
   03:18:33.156.08-Aug-2020 5190.56 1698.84 85.79 1.00  77.56 3375.95
   03:18:33.356.08-Aug-2020 5190.56 1716.87 85.78 1.00  77.76 3375.95
   03:18:33.556.08-Aug-2020 5190.56 1734.98 85.78 1.00  77.96 3375.95
   03:18:33.756.08-Aug-2020 5190.56 1734.98 85.78 1.00  78.16 3375.95
   03:18:33.956.08-Aug-2020 5190.56 1770.30 85.78 1.00  78.36 3375.95
   03:18:34.156.08-Aug-2020 5190.56 1787.83 85.78 1.00  78.56 3375.95
   03:18:34.356.08-Aug-2020 5190.56 1805.05 85.78 1.00  78.76 3375.95
   03:18:34.556.08-Aug-2020 5190.56 1822.18 85.77 1.00  78.96 3375.95
   03:18:34.756.08-Aug-2020 5190.56 1822.18 85.77 1.00  79.16 3375.95
   03:18:34.956.08-Aug-2020 5190.56 1855.49 85.77 1.00  79.36 3375.95
   03:18:35.155.08-Aug-2020 5190.56 1872.08 85.77 1.00  79.56 3375.95
   03:18:35.355.08-Aug-2020 5190.56 1888.49 85.77 1.00  79.76 3375.95
   03:18:35.555.08-Aug-2020 5190.56 1904.78 85.77 1.00  79.96 3375.95
   03:18:35.755.08-Aug-2020 5190.56 1904.78 85.77 1.00  80.16 3375.95
   03:18:35.955.08-Aug-2020 5190.56 1936.09 85.77 1.00  80.36 3375.95
   03:18:36.155.08-Aug-2020 5190.56 1951.96 85.77 1.00  80.56 3375.95
   03:18:36.355.08-Aug-2020 5190.56 1967.73 85.77 1.00  80.76 3375.95
   03:18:36.555.08-Aug-2020 5190.56 1983.35 85.76 1.00  80.96 3375.95
   03:18:36.755.08-Aug-2020 5190.56 1983.35 85.76 1.00  81.16 3375.95
   03:18:36.955.08-Aug-2020 5190.56 2013.30 85.76 1.00  81.36 3375.95
   03:18:37.154.08-Aug-2020 5190.56 2028.54 85.76 1.00  81.56 3375.95
   03:18:37.354.08-Aug-2020 5190.56 2043.71 85.76 1.00  81.76 3375.95
   03:18:37.554.08-Aug-2020 5190.56 2058.07 85.76 1.00  81.96 3375.95
   03:18:37.754.08-Aug-2020 5190.56 2058.07 85.76 1.00  82.16 3375.95
   03:18:37.954.08-Aug-2020 5190.56 2087.82 85.76 1.00  82.36 3375.95
   03:18:38.154.08-Aug-2020 5190.56 2101.66 85.76 1.00  82.56 3375.95
   03:18:38.354.08-Aug-2020 5190.56 2116.60 85.76 1.00  82.76 3375.95
   03:18:38.554.08-Aug-2020 5190.56 2130.73 85.76 1.00  82.96 3375.95
   03:18:38.754.08-Aug-2020 5190.56 2130.73 85.76 1.00  83.16 3375.95
   03:18:38.954.08-Aug-2020 5190.56 2158.95 85.76 1.00  83.36 3375.95
   03:18:39.153.08-Aug-2020 5190.56 2173.19 85.76 1.00  83.56 3375.95
   03:18:39.353.08-Aug-2020 5190.56 2186.83 85.76 1.00  83.76 3375.95
   03:18:39.553.08-Aug-2020 5190.56 2201.31 85.76 1.00  83.96 3375.95
   03:18:39.753.08-Aug-2020 5190.56 2201.31 85.76 1.00  84.16 3375.95
   03:18:39.953.08-Aug-2020 5190.56 2229.08 85.76 1.00  84.36 3375.95
   03:18:40.153.08-Aug-2020 5190.56 2243.27 85.76 1.00  84.56 3375.95
   03:18:40.353.08-Aug-2020 5190.56 2257.79 85.76 1.00  84.76 3375.95
   03:18:40.553.08-Aug-2020 5190.56 2272.20 85.76 1.00  84.96 3375.95
   03:18:40.753.08-Aug-2020 5190.56 2285.82 85.76 1.00  85.16 3375.95
   03:18:40.953.08-Aug-2020 5190.56 2300.21 85.76 1.00  85.36 3375.95
   03:18:41.152.08-Aug-2020 5190.56 2313.51 85.76 1.00  85.56 3375.95
   03:18:41.352.08-Aug-2020 5190.56 2325.78 85.77 1.00  85.76 3375.95
   03:18:41.552.08-Aug-2020 5190.56 2339.38 85.77 1.00  85.96 3375.95
   03:18:41.752.08-Aug-2020 5190.56 2339.38 85.77 1.00  86.16 3375.95
   03:18:41.952.08-Aug-2020 5190.56 2365.73 85.77 1.00  86.36 3375.95
   03:18:42.152.08-Aug-2020 5190.56 2378.33 85.77 1.00  86.56 3375.95
   03:18:42.352.08-Aug-2020 5190.56 2391.57 85.77 1.00  86.76 3375.95
   03:18:42.552.08-Aug-2020 5190.56 2404.51 85.77 1.00  86.96 3375.95
   03:18:42.752.08-Aug-2020 5190.56 2404.51 85.77 1.00  87.16 3375.95
   03:18:42.951.08-Aug-2020 5190.56 2429.77 85.77 1.00  87.36 3375.95
   03:18:43.151.08-Aug-2020 5190.56 2442.38 85.77 1.00  87.56 3375.95
   03:18:43.351.08-Aug-2020 5190.56 2455.56 85.77 1.00  87.76 3375.95
   03:18:43.551.08-Aug-2020 5190.56 2467.78 85.77 1.00  87.96 3375.95
   03:18:43.751.08-Aug-2020 5190.56 2467.78 85.77 1.00  88.16 3375.95
   03:18:43.951.08-Aug-2020 5190.56 2492.77 85.77 1.00  88.36 3375.95
   03:18:44.151.08-Aug-2020 5190.56 2505.20 85.77 1.00  88.55 3375.95
   03:18:44.351.08-Aug-2020 5190.56 2517.48 85.77 1.00  88.75 3375.95
   03:18:44.551.08-Aug-2020 5190.56 2529.68 85.77 1.00  88.95 3375.95
   03:18:44.751.08-Aug-2020 5190.56 2540.79 85.78 1.00  89.15 3375.95
   03:18:44.950.08-Aug-2020 5190.56 2551.89 85.78 1.00  89.35 3375.95
   03:18:45.150.08-Aug-2020 5190.56 2564.03 85.78 1.00  89.55 3375.95
   03:18:45.350.08-Aug-2020 5190.56 2577.57 85.78 1.00  89.75 3375.95
   03:18:45.550.08-Aug-2020 5190.56 2589.19 85.78 1.00  89.95 3375.95
   03:18:45.750.08-Aug-2020 5190.56 2589.19 85.78 1.00  90.15 3375.95
   03:18:45.950.08-Aug-2020 5190.56 2613.28 85.78 1.00  90.35 3375.95
   03:18:46.150.08-Aug-2020 5190.56 2624.98 85.78 1.00  90.55 3375.95
   03:18:46.350.08-Aug-2020 5190.56 2635.73 85.78 1.00  90.75 3375.95
   03:18:46.550.08-Aug-2020 5190.56 2648.70 85.78 1.00  90.95 3375.95
   03:18:46.750.08-Aug-2020 5190.56 2648.70 85.78 1.00  91.15 3375.95
   03:18:46.949.08-Aug-2020 5190.56 2671.48 85.78 1.00  91.35 3375.95
   03:18:47.149.08-Aug-2020 5190.56 2682.96 85.78 1.00  91.55 3375.95
   03:18:47.349.08-Aug-2020 5190.56 2694.40 85.79 1.00  91.75 3375.95
