~Version Information
 VERS.                  2.0:   CWLS log ASCII Standard -VERSION 2.0
 WRAP.                   NO:   One line per depth step
~Well Information Block
#MNEM.UNIT     VALUE/NAME     DESCRIPTION
#---------     -----------    ---------------------------
 STRT.S             06:39:47 08-Aug-20: START TIME 06:39:47 08-Aug-20
 STOP.S             06:48:06 08-Aug-20: STOP TIME  06:48:06 08-Aug-20
 STEP.S                   0.00: STEP TIME
 NULL.                 -999.25: NULL VALUE
 DFWT.                        :  DIST FWL TEXT
 DFST.                        :  DIST FSL TEXT
 DMF .             Drill Floor:  DRILL MEAS FROM
 STIM.      13.47.44 07-Jun-20:  START TIME
 DATE.      13.47.44 27-Jul-20:  END TIME
 SPUD.               07-Jun-20:  SPUD DATE
 NREF.                    Grid:  NORTH REFERENCE
 HPTY.       Minimum Curvature:  HOLE POS TYPE
 DMOD.             Drill Model:  DRILL MOD DESC
 SVYD.                  Survey:  SURVEY DESC
 ILTD.               Lithology:  INTERP LTH DESC
 FTOP.          Formation Tops:  FORM TOPS DESC
 RIG .             West Chirag:  RIG NAME
 PDAT.          Mean Sea Level:  PERMANENT DATUM
 FLD .                     ACG:  FIELD NAME
 SON .        AZ-XX-0906363612:  JOB NUMBER
 CTRY.              Azerbaijan:  COUNTRY NAME
 WELL.           J25 (Slot 35):  WELL NAME
 SRVC.          Turan Drilling:  CONTRACTOR
 COMP.     BP Exploration (Caspian Sea) Ltd:  COMPANY
 UWI .                     N/A:  UNIQUE WELL IDENTIFIER
 API .                     N/A:  API NUMBER
 BASE.              Azerbaijan:  LOGGING EQUIPMENT BASE LOCATION
 REGN.                   EESSA:  REGION
 PROV.                    Baku:  PROVINCE
 STAT.                    Baku:  STATE NAME
 MWDS.                     N/A:  MWD SHOP
 DOE .                     N/A:  DOE NUMBER
 DCON.         Sperry Drilling:  DIRECTNL CONTR
 UNIT.                     N/A:  LOGGING EQUIPMENT ID
 MDS .        Operator Entered:  MAG DATA SOURCE
 JOBN.        AZ-XX-0906363612:  JOB TICKET NUMB
 WTYP.                Deviated:  WELL TYPE
 CNTY.                        :  COUNTY
 LOC .                        :  LOCATION
 LMF .             Drill Floor:  LOG MEASURED FROM
 TVDS.m                  43.00:  TVDSS CORRECTN
 LATI.deg                40.13:  LATITUDE
 LONG.deg                51.22:  LONGITUDE
 WHNS.m                  -7.90:  WELL HEAD N/S
 WHEW.m                  -3.35:  WELL HEAD E/W
 UTMX.m              519005.06:  UTM X
 UTMY.m             4443793.85:  UTM Y
 DFWL.m                   0.00:  DISTANCE FWL
 DFSL.m                   0.00:  DISTANCE FSL
 SDEP.m                   0.00:  START DEPTH
 TDD .m                   0.00:  TOTAL DEPTH (DRILLER)
 VSDR.deg               308.97:  VERT SEC DIRECT
 GVFD.g                   1.00:  GRAVITY FIELD
 MFLD.nT              50350.00:  MAGNETIC FIELD
 MDIP.deg                59.62:  MAGNETIC DIP
 MDEC.deg                 6.44:  MAGNETIC DECL
 GRDC.deg                 0.13:  GRID CORRECTION
 AZTC.deg                 6.32:  AZM TOTAL CORR
 EPD .m                   0.00:  ELEVATION
 EGL .m                   0.00:  GROUND ELEVATION
 WDMS.m                 169.80:  WD ELEV
 APD .m                  43.00:  DEPTH ABOVE PD
 DEP .m                 356.43:  DEPTH
 AGAP.m                  43.00:  AIR GAP
 VSEW.m                  -3.35:  VERT SEC E/W
 VSNS.m                  -7.90:  VERT SEC N/S
 EKB .m                  43.00:  KB ELEVATION
 EDF .m                  43.00:  DF ELEVATION
 TDL .m                 934.00:  TOTAL DEPTH (LOGGER)
 VSC .                       0:  VS TO CLOSURE
 MAGU.                 1852825:  MAGUTM CHECKSUM
~Parameter Information Block
#MNEM.UNIT       Value        Description
#---------     -----------    ---------------------------
 AV  .mps                 0.80:  Ann Velocity 
 AVMX.mps                 1.70:  Max Ann Veloc 
 AZIF.deg               311.41:  Azm, Final 
 BHAT.        Rotary Steerable:  BHA Type 
 BROT.°/30m               0.09:  Build Rotating 
 BS  .in                 12.25:  Bit Size 
 BSZ .in                 12.25:  Bit Size 
 BTPL.psig              800.00:  Bit Press Loss 
 CABU.                      No:  Customer Abuse 
 COMM.                     ´
n:  Run Comments 1 
 TCS .hr                 96.00:  Time Ciculation Ended 
 CV  .mps                 2.03:  Crit Velocity 
 CVMX.mps                 2.42:  Max Crit Veloc 
 DD1 .          Taghi Taghiyev:  Direct Drillr 1 
 DD2 .      Tariel Pirmammadov:  Direct Drillr 2 
 DD3 .          Teymur Aghayev:  Direct Drillr 3 
 DDSV.                 iCruise:  DD Service 
 DEFF.%                  98.70:  % Det Eff 
 DLRX.°/30m               1.00:  Dogleg Rot Max 
 DLSO.°/30m               1.80:  Dogleg Oriented 
 DLSX.°/30m               3.16:  Dogleg Str Max 
 DRET.      15.00.00 07-Aug-20:  Drill End Time 
 DRST.      17.00.00 02-Aug-20:  Drill Start Tim 
 DTIM.hr                 45.90:  Time Drilling 
 EDEP.m                5298.01:  End Depth 
 ENG1.       Seymur Iskandarov:  Engineer 1 
 ENG2.         Yevgeniy Ulikov:  Engineer 2 
 ENG3.      Artemiy Matviyanov:  Engineer 3 
 ENG4.         Bahruz Mehdiyev:  Engineer 4 
 ETIM.      05.00.00 10-Aug-20:  End Time 
 FLOI.gpm              1150.00:  Flow In 
 FLON.gpm               900.00:  Flow In Min 
 FLOS.cptm                0.00:  Fluid Loss 
 FLOX.gpm              1200.00:  Flow In Max 
 FTRO.     Connectivity, Formation Presure:  FTWD Run Obj 
 HFLO.                      No:  High Flow 
 HPRE.                     Yes:  High Pressure 
 HTEM.                      No:  High Temp 
 HYDO.m                   1.80:  Hydro Offset 
 IFIN.deg                 9.71:  Inc, Final 
 IMAX.deg                63.81:  Inc Max 
 IMIN.deg                 9.53:  Inc Min 
 IMND.m                5075.52:  Inc Min Depth 
 IMXD.m                4367.08:  Inc Max Depth 
 JARR.                      No:  Jarring 
 LETM.      15.00.00 07-Aug-20:  Log End Time 
 LOST.hr                     2:  Lost Rig Time 
 LSTM.      17.00.00 02-Aug-20:  Log Start Time 
 MDCL.ppm             42500.00:  Mud Chlorides 
 MDES.     Inversion Oil/Synthetic:  Mud Desc 
 DFD .sg                  1.46:  Mud Density 
 MDMN.sg                  1.46:  Dens Mud Min 
 MDMX.sg                  1.46:  Dens Mud Max 
 MOIL.                      56:  Run Mud Oil % 
 MOWR.                   70:30:  Run Mud OWR 
 MSND.                     0.1:  Run Mud Sand % 
 MSOL.                      19:  Run Mud Solids% 
 DFV .spqt               83.00:  Mud Viscosity 
 MWOD.in                  8.00:  MWD Tool OD 
 MWSI.                     Yes:  Serv Intrp, MWD 
 OTIM.hr                196.57:  Time Operating 
 PCON.           Look Like New:  Pad Condition 
 PMAX.psia             7400.00:  Press Op, Max 
 PV  .cP                 36.00:  Mud PV 
 RUN .                    1000:  Run Number 
 ROPA.m/hr               25.00:  ROP Avg 
 ROPN.m/hr               10.00:  ROP Min 
 ROPX.m/hr               32.00:  ROP Max 
 RPMA.rpm               120.00:  RPM Surface Avg 
 RPMN.rpm               100.00:  RPM Surface Min 
 RPMX.rpm               140.00:  RPM Surface Max 
 RRUN.                    L504:  Rig Run Number 
 SAZI.deg               308.25:  Azm, Start 
 SDEP.m                4364.01:  Start Depth 
 SIDD.                      No:  Serv Intrp, DD 
 SINC.deg                63.81:  Inc, Start 
 SPPA.psig             5800.00:  SPP Avg 
 SPPN.psig             4200.00:  SPP Min 
 SPPX.psig             5950.00:  SPP Max 
 STIM.      18.00.00 01-Aug-20:  Start Time 
 SVCS.                 DD, MWD:  Services 
 SVER.                    9.20:  Sperry Version 
 TDAT.m                 934.00:  Tot Depth Attmp 
 TDDF.                      No:  Trip for DD 
 TDLG.m                 934.00:  Tot Depth Loggd 
 TFF .                      No:  Trip for Fail 
 TQAA.f-kp               31.00:  Torque Abs Avg 
 TQAN.f-kp               25.00:  Torque Abs Min 
 TQAX.f-kp               35.00:  Torque Abs Max 
 TRRT.°/30m              -0.75:  Turn Rotating 
 MRT .                  EWR-M5:  Maximum Recorded Temperature 
 TTMX.degC               95.00:  Max Tool Temp 
 VS01.                90516060:  Virtual Str1 SN 
 VS02.                90528488:  Virtual Str2 SN 
 VS03.                90577970:  Virtual Str3 SN 
 VS04.                12385033:  Virtual Str4 SN 
 VS05.                90522069:  Virtual Str5 SN 
 VS06.                13124134:  Virtual Str6 SN 
 WBMN.klb                20.00:  WOB Min 
 WITN.         Alistair Sprott:  Customer Rep 
 WITN.     Ronal van der Kraan:  Customer Rep 2 
 WOBA.klb                25.00:  WOB Avg 
 WOBX.klb                31.00:  WOB Max 
 YP  .lhf2               32.00:  Yield Point 
~Curve Information Block
#MNEM.UNIT                 API CODE     Curve Description
#---------               -----------    ---------------------------
 TIME.HHMMSS            00 000 000 000:  GT Time & Date
 GTDEPTH.m              00 000 000 000:  GT Depth
 GTPQH.psia             00 000 000 000:  GT HR Quartz Pressure
 GTTQ.degC              00 000 000 000:  GT Quartz Temperature
 GTTN.NONE              00 000 000 000:  GT Test Number
 GTET.sec               00 000 000 000:  GT Elapsed Test Time
 GTTVD.m                00 000 000 000:  GT True Vertical Depth
#Other Information
#
#WARRANTY: Halliburton will use its best efforts to furnish customers with 
#accurate information and interpretations that are part of, and incident to, the services 
#provided.  However, Halliburton cannot and does not warrant the accuracy 
#or correctness of such information and interpretations.  Under no circumstances should any 
#such information or interpretation be relied upon as the sole basis for any drilling, 
#completion, production, or financial decision or any procedure involving any risk to the 
#safety of any drilling venture, drilling rig or its crew or any other third party.  The 
#Customer has full responsibility for all drilling, completion and production operation.  
#Halliburton makes no representations or warranties, either expressed or 
#implied, including, but not limited to, the implied warranties of merchantability or fitness 
#for a particular purpose, with respect to the services rendered.  In no event will 
#Halliburton be liable for failure to obtain any particular results or for 
#any damages, including, but not limited to, indirect, special or consequential damages, 
#resulting from the use of any information or interpretation provided by Halliburton.
#
~A           TIME           GTDEPTH  GTPQH  GTTQ  GTTN  GTET   GTTVD  
# ...
   06:42:05.000.08-Aug-2020 5176.51 1899.40 80.43 4.00 138.00 3362.10
   06:42:05.200.08-Aug-2020 5176.51 1899.40 80.43 4.00 138.20 3362.10
   06:42:05.400.08-Aug-2020 5176.51 1901.02 80.43 4.00 138.40 3362.10
   06:42:05.600.08-Aug-2020 5176.51 1901.92 80.43 4.00 138.60 3362.10
   06:42:05.800.08-Aug-2020 5176.51 1902.80 80.43 4.00 138.80 3362.10
   06:42:06.000.08-Aug-2020 5176.51 1903.65 80.43 4.00 139.00 3362.10
   06:42:06.200.08-Aug-2020 5176.51 1904.58 80.43 4.00 139.20 3362.10
   06:42:06.400.08-Aug-2020 5176.51 1906.02 80.43 4.00 139.40 3362.10
   06:42:06.600.08-Aug-2020 5176.51 1906.89 80.43 4.00 139.60 3362.10
   06:42:06.800.08-Aug-2020 5176.51 1907.71 80.43 4.00 139.80 3362.10
   06:42:07.000.08-Aug-2020 5176.51 1908.68 80.43 4.00 140.00 3362.10
   06:42:07.200.08-Aug-2020 5176.51 1908.68 80.43 4.00 140.20 3362.10
   06:42:07.400.08-Aug-2020 5176.51 1910.47 80.43 4.00 140.40 3362.10
   06:42:07.600.08-Aug-2020 5176.51 1911.35 80.43 4.00 140.60 3362.10
   06:42:07.800.08-Aug-2020 5176.51 1912.31 80.43 4.00 140.80 3362.10
   06:42:08.000.08-Aug-2020 5176.51 1913.20 80.43 4.00 141.00 3362.10
   06:42:08.200.08-Aug-2020 5176.51 1913.20 80.43 4.00 141.20 3362.10
   06:42:08.400.08-Aug-2020 5176.51 1915.71 80.43 4.00 141.40 3362.10
   06:42:08.600.08-Aug-2020 5176.51 1916.62 80.43 4.00 141.60 3362.10
   06:42:08.800.08-Aug-2020 5176.51 1917.39 80.43 4.00 141.80 3362.10
   06:42:09.000.08-Aug-2020 5176.51 1918.28 80.43 4.00 142.00 3362.10
   06:42:09.200.08-Aug-2020 5176.51 1918.28 80.43 4.00 142.20 3362.10
   06:42:09.400.08-Aug-2020 5176.51 1919.99 80.43 4.00 142.40 3362.10
   06:42:09.600.08-Aug-2020 5176.51 1920.88 80.43 4.00 142.60 3362.10
   06:42:09.800.08-Aug-2020 5176.51 1921.73 80.43 4.00 142.80 3362.10
   06:42:10.000.08-Aug-2020 5176.51 1922.49 80.43 4.00 143.00 3362.10
   06:42:10.200.08-Aug-2020 5176.51 1923.41 80.43 4.00 143.20 3362.10
   06:42:10.400.08-Aug-2020 5176.51 1924.32 80.43 4.00 143.40 3362.10
   06:42:10.600.08-Aug-2020 5176.51 1925.13 80.43 4.00 143.60 3362.10
   06:42:10.800.08-Aug-2020 5176.51 1925.95 80.43 4.00 143.80 3362.10
   06:42:11.000.08-Aug-2020 5176.51 1926.82 80.43 4.00 144.00 3362.10
   06:42:11.200.08-Aug-2020 5176.51 1927.69 80.43 4.00 144.20 3362.10
   06:42:11.400.08-Aug-2020 5176.51 1928.68 80.43 4.00 144.40 3362.10
   06:42:11.600.08-Aug-2020 5176.51 1930.25 80.43 4.00 144.60 3362.10
   06:42:11.800.08-Aug-2020 5176.51 1931.04 80.43 4.00 144.80 3362.10
   06:42:12.000.08-Aug-2020 5176.51 1931.97 80.43 4.00 145.00 3362.10
   06:42:12.200.08-Aug-2020 5176.51 1933.60 80.43 4.00 145.20 3362.10
   06:42:12.400.08-Aug-2020 5176.51 1934.43 80.43 4.00 145.40 3362.10
   06:42:12.600.08-Aug-2020 5176.51 1935.15 80.43 4.00 145.60 3362.10
   06:42:12.800.08-Aug-2020 5176.51 1936.49 80.43 4.00 145.80 3362.10
   06:42:13.000.08-Aug-2020 5176.51 1937.43 80.43 4.00 146.00 3362.10
   06:42:13.200.08-Aug-2020 5176.51 1937.43 80.43 4.00 146.20 3362.10
   06:42:13.400.08-Aug-2020 5176.51 1938.84 80.43 4.00 146.40 3362.10
   06:42:13.600.08-Aug-2020 5176.51 1939.76 80.43 4.00 146.60 3362.10
   06:42:13.800.08-Aug-2020 5176.51 1940.38 80.43 4.00 146.80 3362.10
   06:42:14.000.08-Aug-2020 5176.51 1941.51 80.43 4.00 147.00 3362.10
   06:42:14.200.08-Aug-2020 5176.51 1941.51 80.43 4.00 147.20 3362.10
   06:42:14.400.08-Aug-2020 5176.51 1943.20 80.43 4.00 147.40 3362.10
   06:42:14.600.08-Aug-2020 5176.51 1944.08 80.43 4.00 147.60 3362.10
   06:42:14.800.08-Aug-2020 5176.51 1944.89 80.43 4.00 147.80 3362.10
   06:42:15.000.08-Aug-2020 5176.51 1945.56 80.43 4.00 148.00 3362.10
   06:42:15.200.08-Aug-2020 5176.51 1946.97 80.43 4.00 148.20 3362.10
   06:42:15.400.08-Aug-2020 5176.51 1947.87 80.43 4.00 148.40 3362.10
   06:42:15.600.08-Aug-2020 5176.51 1948.43 80.43 4.00 148.60 3362.10
   06:42:15.800.08-Aug-2020 5176.51 1949.29 80.43 4.00 148.80 3362.10
   06:42:16.000.08-Aug-2020 5176.51 1950.07 80.43 4.00 149.00 3362.10
   06:42:16.200.08-Aug-2020 5176.51 1950.07 80.43 4.00 149.20 3362.10
   06:42:16.400.08-Aug-2020 5176.51 1951.60 80.43 4.00 149.40 3362.10
   06:42:16.600.08-Aug-2020 5176.51 1952.32 80.43 4.00 149.60 3362.10
   06:42:16.800.08-Aug-2020 5176.51 1953.00 80.43 4.00 149.80 3362.10
   06:42:17.000.08-Aug-2020 5176.51 1953.90 80.43 4.00 150.00 3362.10
   06:42:17.200.08-Aug-2020 5176.51 1953.90 80.43 4.00 150.20 3362.10
   06:42:17.400.08-Aug-2020 5176.51 1955.66 80.43 4.00 150.40 3362.10
   06:42:17.600.08-Aug-2020 5176.51 1956.52 80.43 4.00 150.60 3362.10
   06:42:17.800.08-Aug-2020 5176.51 1957.32 80.43 4.00 150.80 3362.10
   06:42:18.000.08-Aug-2020 5176.51 1958.14 80.43 4.00 151.00 3362.10
   06:42:18.200.08-Aug-2020 5176.51 1958.14 80.43 4.00 151.20 3362.10
   06:42:18.400.08-Aug-2020 5176.51 1959.70 80.43 4.00 151.40 3362.10
   06:42:18.600.08-Aug-2020 5176.51 1960.37 80.43 4.00 151.60 3362.10
   06:42:18.800.08-Aug-2020 5176.51 1961.25 80.43 4.00 151.80 3362.10
   06:42:19.000.08-Aug-2020 5176.51 1961.92 80.43 4.00 152.00 3362.10
   06:42:19.200.08-Aug-2020 5176.51 1961.92 80.43 4.00 152.20 3362.10
   06:42:19.400.08-Aug-2020 5176.51 1963.33 80.43 4.00 152.40 3362.10
   06:42:19.600.08-Aug-2020 5176.51 1964.06 80.43 4.00 152.60 3362.10
   06:42:19.800.08-Aug-2020 5176.51 1964.80 80.43 4.00 152.80 3362.10
   06:42:20.000.08-Aug-2020 5176.51 1965.58 80.43 4.00 153.00 3362.10
   06:42:20.200.08-Aug-2020 5176.51 1965.58 80.43 4.00 153.20 3362.10
   06:42:20.400.08-Aug-2020 5176.51 1967.15 80.43 4.00 153.40 3362.10
   06:42:20.600.08-Aug-2020 5176.51 1967.87 80.43 4.00 153.60 3362.10
   06:42:20.800.08-Aug-2020 5176.51 1968.68 80.43 4.00 153.80 3362.10
   06:42:21.000.08-Aug-2020 5176.51 1969.47 80.43 4.00 154.00 3362.10
   06:42:21.200.08-Aug-2020 5176.51 1969.47 80.43 4.00 154.20 3362.10
   06:42:21.400.08-Aug-2020 5176.51 1970.91 80.43 4.00 154.40 3362.10
   06:42:21.600.08-Aug-2020 5176.51 1971.53 80.43 4.00 154.60 3362.10
   06:42:21.800.08-Aug-2020 5176.51 1972.63 80.43 4.00 154.80 3362.10
   06:42:22.000.08-Aug-2020 5176.51 1973.57 80.43 4.00 155.00 3362.10
   06:42:22.200.08-Aug-2020 5176.51 1973.57 80.43 4.00 155.20 3362.10
   06:42:22.400.08-Aug-2020 5176.51 1975.70 80.43 4.00 155.40 3362.10
   06:42:22.600.08-Aug-2020 5176.51 1976.59 80.43 4.00 155.60 3362.10
   06:42:22.800.08-Aug-2020 5176.51 1977.21 80.43 4.00 155.80 3362.10
   06:42:23.000.08-Aug-2020 5176.51 1977.99 80.43 4.00 156.00 3362.10
   06:42:23.200.08-Aug-2020 5176.51 1977.99 80.43 4.00 156.20 3362.10
   06:42:23.400.08-Aug-2020 5176.51 1979.63 80.43 4.00 156.40 3362.10
   06:42:23.600.08-Aug-2020 5176.51 1981.03 80.43 4.00 156.60 3362.10
   06:42:23.800.08-Aug-2020 5176.51 1981.50 80.43 4.00 156.80 3362.10
   06:42:24.000.08-Aug-2020 5176.51 1982.25 80.43 4.00 157.00 3362.10
   06:42:24.200.08-Aug-2020 5176.51 1982.25 80.43 4.00 157.20 3362.10
   06:42:24.400.08-Aug-2020 5176.51 1984.19 80.43 4.00 157.40 3362.10
   06:42:24.600.08-Aug-2020 5176.51 1984.80 80.43 4.00 157.60 3362.10
   06:42:24.800.08-Aug-2020 5176.51 1985.57 80.43 4.00 157.80 3362.10
   06:42:25.000.08-Aug-2020 5176.51 1986.92 80.43 4.00 158.00 3362.10
   06:42:25.200.08-Aug-2020 5176.51 1986.92 80.43 4.00 158.20 3362.10
   06:42:25.400.08-Aug-2020 5176.51 1988.15 80.43 4.00 158.40 3362.10
   06:42:25.600.08-Aug-2020 5176.51 1989.20 80.43 4.00 158.60 3362.10
   06:42:25.800.08-Aug-2020 5176.51 1989.95 80.42 4.00 158.80 3362.10
   06:42:26.000.08-Aug-2020 5176.51 1990.89 80.42 4.00 159.00 3362.10
   06:42:26.200.08-Aug-2020 5176.51 1990.89 80.42 4.00 159.20 3362.10
   06:42:26.400.08-Aug-2020 5176.51 1992.46 80.42 4.00 159.40 3362.10
   06:42:26.600.08-Aug-2020 5176.51 1993.24 80.42 4.00 159.60 3362.10
   06:42:26.800.08-Aug-2020 5176.51 1993.98 80.42 4.00 159.80 3362.10
   06:42:27.000.08-Aug-2020 5176.51 1994.73 80.42 4.00 160.00 3362.10
   06:42:27.200.08-Aug-2020 5176.51 1994.73 80.42 4.00 160.20 3362.10
   06:42:27.400.08-Aug-2020 5176.51 1996.15 80.42 4.00 160.40 3362.10
   06:42:27.600.08-Aug-2020 5176.51 1996.85 80.42 4.00 160.60 3362.10
   06:42:27.800.08-Aug-2020 5176.51 1997.62 80.42 4.00 160.80 3362.10
