~Version Information
 VERS.                  2.0:   CWLS log ASCII Standard -VERSION 2.0
 WRAP.                   NO:   One line per depth step
~Well Information Block
#MNEM.UNIT     VALUE/NAME     DESCRIPTION
#---------     -----------    ---------------------------
 STRT.S             08:45:48 08-Aug-20: START TIME 08:45:48 08-Aug-20
 STOP.S             08:54:16 08-Aug-20: STOP TIME  08:54:16 08-Aug-20
 STEP.S                   0.00: STEP TIME
 NULL.                 -999.25: NULL VALUE
 DFWT.                        :  DIST FWL TEXT
 DFST.                        :  DIST FSL TEXT
 DMF .             Drill Floor:  DRILL MEAS FROM
 STIM.      13.47.44 07-Jun-20:  START TIME
 DATE.      13.47.44 27-Jul-20:  END TIME
 SPUD.               07-Jun-20:  SPUD DATE
 NREF.                    Grid:  NORTH REFERENCE
 HPTY.       Minimum Curvature:  HOLE POS TYPE
 DMOD.             Drill Model:  DRILL MOD DESC
 SVYD.                  Survey:  SURVEY DESC
 ILTD.               Lithology:  INTERP LTH DESC
 FTOP.          Formation Tops:  FORM TOPS DESC
 RIG .             West Chirag:  RIG NAME
 PDAT.          Mean Sea Level:  PERMANENT DATUM
 FLD .                     ACG:  FIELD NAME
 SON .        AZ-XX-0906363612:  JOB NUMBER
 CTRY.              Azerbaijan:  COUNTRY NAME
 WELL.           J25 (Slot 35):  WELL NAME
 SRVC.          Turan Drilling:  CONTRACTOR
 COMP.     BP Exploration (Caspian Sea) Ltd:  COMPANY
 UWI .                     N/A:  UNIQUE WELL IDENTIFIER
 API .                     N/A:  API NUMBER
 BASE.              Azerbaijan:  LOGGING EQUIPMENT BASE LOCATION
 REGN.                   EESSA:  REGION
 PROV.                    Baku:  PROVINCE
 STAT.                    Baku:  STATE NAME
 MWDS.                     N/A:  MWD SHOP
 DOE .                     N/A:  DOE NUMBER
 DCON.         Sperry Drilling:  DIRECTNL CONTR
 UNIT.                     N/A:  LOGGING EQUIPMENT ID
 MDS .        Operator Entered:  MAG DATA SOURCE
 JOBN.        AZ-XX-0906363612:  JOB TICKET NUMB
 WTYP.                Deviated:  WELL TYPE
 CNTY.                        :  COUNTY
 LOC .                        :  LOCATION
 LMF .             Drill Floor:  LOG MEASURED FROM
 TVDS.m                  43.00:  TVDSS CORRECTN
 LATI.deg                40.13:  LATITUDE
 LONG.deg                51.22:  LONGITUDE
 WHNS.m                  -7.90:  WELL HEAD N/S
 WHEW.m                  -3.35:  WELL HEAD E/W
 UTMX.m              519005.06:  UTM X
 UTMY.m             4443793.85:  UTM Y
 DFWL.m                   0.00:  DISTANCE FWL
 DFSL.m                   0.00:  DISTANCE FSL
 SDEP.m                   0.00:  START DEPTH
 TDD .m                   0.00:  TOTAL DEPTH (DRILLER)
 VSDR.deg               308.97:  VERT SEC DIRECT
 GVFD.g                   1.00:  GRAVITY FIELD
 MFLD.nT              50350.00:  MAGNETIC FIELD
 MDIP.deg                59.62:  MAGNETIC DIP
 MDEC.deg                 6.44:  MAGNETIC DECL
 GRDC.deg                 0.13:  GRID CORRECTION
 AZTC.deg                 6.32:  AZM TOTAL CORR
 EPD .m                   0.00:  ELEVATION
 EGL .m                   0.00:  GROUND ELEVATION
 WDMS.m                 169.80:  WD ELEV
 APD .m                  43.00:  DEPTH ABOVE PD
 DEP .m                 356.43:  DEPTH
 AGAP.m                  43.00:  AIR GAP
 VSEW.m                  -3.35:  VERT SEC E/W
 VSNS.m                  -7.90:  VERT SEC N/S
 EKB .m                  43.00:  KB ELEVATION
 EDF .m                  43.00:  DF ELEVATION
 TDL .m                 934.00:  TOTAL DEPTH (LOGGER)
 VSC .                       0:  VS TO CLOSURE
 MAGU.                 1852825:  MAGUTM CHECKSUM
~Parameter Information Block
#MNEM.UNIT       Value        Description
#---------     -----------    ---------------------------
 AV  .mps                 0.80:  Ann Velocity 
 AVMX.mps                 1.70:  Max Ann Veloc 
 AZIF.deg               311.41:  Azm, Final 
 BHAT.        Rotary Steerable:  BHA Type 
 BROT.°/30m               0.09:  Build Rotating 
 BS  .in                 12.25:  Bit Size 
 BSZ .in                 12.25:  Bit Size 
 BTPL.psig              800.00:  Bit Press Loss 
 CABU.                      No:  Customer Abuse 
 COMM.                     ôS:  Run Comments 1 
 TCS .hr                 96.00:  Time Ciculation Ended 
 CV  .mps                 2.03:  Crit Velocity 
 CVMX.mps                 2.42:  Max Crit Veloc 
 DD1 .          Taghi Taghiyev:  Direct Drillr 1 
 DD2 .      Tariel Pirmammadov:  Direct Drillr 2 
 DD3 .          Teymur Aghayev:  Direct Drillr 3 
 DDSV.                 iCruise:  DD Service 
 DEFF.%                  98.70:  % Det Eff 
 DLRX.°/30m               1.00:  Dogleg Rot Max 
 DLSO.°/30m               1.80:  Dogleg Oriented 
 DLSX.°/30m               3.16:  Dogleg Str Max 
 DRET.      15.00.00 07-Aug-20:  Drill End Time 
 DRST.      17.00.00 02-Aug-20:  Drill Start Tim 
 DTIM.hr                 45.90:  Time Drilling 
 EDEP.m                5298.01:  End Depth 
 ENG1.       Seymur Iskandarov:  Engineer 1 
 ENG2.         Yevgeniy Ulikov:  Engineer 2 
 ENG3.      Artemiy Matviyanov:  Engineer 3 
 ENG4.         Bahruz Mehdiyev:  Engineer 4 
 ETIM.      05.00.00 10-Aug-20:  End Time 
 FLOI.gpm              1150.00:  Flow In 
 FLON.gpm               900.00:  Flow In Min 
 FLOS.cptm                0.00:  Fluid Loss 
 FLOX.gpm              1200.00:  Flow In Max 
 FTRO.     Connectivity, Formation Presure:  FTWD Run Obj 
 HFLO.                      No:  High Flow 
 HPRE.                     Yes:  High Pressure 
 HTEM.                      No:  High Temp 
 HYDO.m                   1.80:  Hydro Offset 
 IFIN.deg                 9.71:  Inc, Final 
 IMAX.deg                63.81:  Inc Max 
 IMIN.deg                 9.53:  Inc Min 
 IMND.m                5075.52:  Inc Min Depth 
 IMXD.m                4367.08:  Inc Max Depth 
 JARR.                      No:  Jarring 
 LETM.      15.00.00 07-Aug-20:  Log End Time 
 LOST.hr                     2:  Lost Rig Time 
 LSTM.      17.00.00 02-Aug-20:  Log Start Time 
 MDCL.ppm             42500.00:  Mud Chlorides 
 MDES.     Inversion Oil/Synthetic:  Mud Desc 
 DFD .sg                  1.46:  Mud Density 
 MDMN.sg                  1.46:  Dens Mud Min 
 MDMX.sg                  1.46:  Dens Mud Max 
 MOIL.                      56:  Run Mud Oil % 
 MOWR.                   70:30:  Run Mud OWR 
 MSND.                     0.1:  Run Mud Sand % 
 MSOL.                      19:  Run Mud Solids% 
 DFV .spqt               83.00:  Mud Viscosity 
 MWOD.in                  8.00:  MWD Tool OD 
 MWSI.                     Yes:  Serv Intrp, MWD 
 OTIM.hr                196.57:  Time Operating 
 PCON.           Look Like New:  Pad Condition 
 PMAX.psia             7400.00:  Press Op, Max 
 PV  .cP                 36.00:  Mud PV 
 RUN .                    1000:  Run Number 
 ROPA.m/hr               25.00:  ROP Avg 
 ROPN.m/hr               10.00:  ROP Min 
 ROPX.m/hr               32.00:  ROP Max 
 RPMA.rpm               120.00:  RPM Surface Avg 
 RPMN.rpm               100.00:  RPM Surface Min 
 RPMX.rpm               140.00:  RPM Surface Max 
 RRUN.                    L504:  Rig Run Number 
 SAZI.deg               308.25:  Azm, Start 
 SDEP.m                4364.01:  Start Depth 
 SIDD.                      No:  Serv Intrp, DD 
 SINC.deg                63.81:  Inc, Start 
 SPPA.psig             5800.00:  SPP Avg 
 SPPN.psig             4200.00:  SPP Min 
 SPPX.psig             5950.00:  SPP Max 
 STIM.      18.00.00 01-Aug-20:  Start Time 
 SVCS.                 DD, MWD:  Services 
 SVER.                    9.20:  Sperry Version 
 TDAT.m                 934.00:  Tot Depth Attmp 
 TDDF.                      No:  Trip for DD 
 TDLG.m                 934.00:  Tot Depth Loggd 
 TFF .                      No:  Trip for Fail 
 TQAA.f-kp               31.00:  Torque Abs Avg 
 TQAN.f-kp               25.00:  Torque Abs Min 
 TQAX.f-kp               35.00:  Torque Abs Max 
 TRRT.°/30m              -0.75:  Turn Rotating 
 MRT .                  EWR-M5:  Maximum Recorded Temperature 
 TTMX.degC               95.00:  Max Tool Temp 
 VS01.                90516060:  Virtual Str1 SN 
 VS02.                90528488:  Virtual Str2 SN 
 VS03.                90577970:  Virtual Str3 SN 
 VS04.                12385033:  Virtual Str4 SN 
 VS05.                90522069:  Virtual Str5 SN 
 VS06.                13124134:  Virtual Str6 SN 
 WBMN.klb                20.00:  WOB Min 
 WITN.         Alistair Sprott:  Customer Rep 
 WITN.     Ronal van der Kraan:  Customer Rep 2 
 WOBA.klb                25.00:  WOB Avg 
 WOBX.klb                31.00:  WOB Max 
 YP  .lhf2               32.00:  Yield Point 
~Curve Information Block
#MNEM.UNIT                 API CODE     Curve Description
#---------               -----------    ---------------------------
 TIME.HHMMSS            00 000 000 000:  GT Time & Date
 GTDEPTH.m              00 000 000 000:  GT Depth
 GTPQH.psia             00 000 000 000:  GT HR Quartz Pressure
 GTTQ.degC              00 000 000 000:  GT Quartz Temperature
 GTTN.NONE              00 000 000 000:  GT Test Number
 GTET.sec               00 000 000 000:  GT Elapsed Test Time
 GTTVD.m                00 000 000 000:  GT True Vertical Depth
#Other Information
#
#WARRANTY: Halliburton will use its best efforts to furnish customers with 
#accurate information and interpretations that are part of, and incident to, the services 
#provided.  However, Halliburton cannot and does not warrant the accuracy 
#or correctness of such information and interpretations.  Under no circumstances should any 
#such information or interpretation be relied upon as the sole basis for any drilling, 
#completion, production, or financial decision or any procedure involving any risk to the 
#safety of any drilling venture, drilling rig or its crew or any other third party.  The 
#Customer has full responsibility for all drilling, completion and production operation.  
#Halliburton makes no representations or warranties, either expressed or 
#implied, including, but not limited to, the implied warranties of merchantability or fitness 
#for a particular purpose, with respect to the services rendered.  In no event will 
#Halliburton be liable for failure to obtain any particular results or for 
#any damages, including, but not limited to, indirect, special or consequential damages, 
#resulting from the use of any information or interpretation provided by Halliburton.
#
~A           TIME           GTDEPTH  GTPQH  GTTQ  GTTN  GTET   GTTVD  
# ...
   08:53:29.051.08-Aug-2020 5134.01 2203.83 75.93 7.00 460.24 3320.21
   08:53:29.251.08-Aug-2020 5134.01 2203.83 75.93 7.00 460.44 3320.21
   08:53:29.451.08-Aug-2020 5134.01 2206.70 75.93 7.00 460.64 3320.21
   08:53:29.651.08-Aug-2020 5134.01 2208.18 75.93 7.00 460.84 3320.21
   08:53:29.851.08-Aug-2020 5134.01 2209.52 75.93 7.00 461.04 3320.21
   08:53:30.051.08-Aug-2020 5134.01 2210.83 75.93 7.00 461.24 3320.21
   08:53:30.251.08-Aug-2020 5134.01 2210.83 75.93 7.00 461.44 3320.21
   08:53:30.451.08-Aug-2020 5134.01 2213.52 75.93 7.00 461.64 3320.21
   08:53:30.652.08-Aug-2020 5134.01 2214.86 75.93 7.00 461.84 3320.21
   08:53:30.852.08-Aug-2020 5134.01 2216.23 75.93 7.00 462.04 3320.21
   08:53:31.052.08-Aug-2020 5134.01 2217.53 75.93 7.00 462.24 3320.21
   08:53:31.252.08-Aug-2020 5134.01 2217.53 75.93 7.00 462.44 3320.21
   08:53:31.452.08-Aug-2020 5134.01 2220.29 75.93 7.00 462.64 3320.21
   08:53:31.652.08-Aug-2020 5134.01 2221.69 75.93 7.00 462.84 3320.21
   08:53:31.852.08-Aug-2020 5134.01 2223.07 75.93 7.00 463.04 3320.21
   08:53:32.052.08-Aug-2020 5134.01 2224.44 75.93 7.00 463.25 3320.21
   08:53:32.252.08-Aug-2020 5134.01 2224.44 75.93 7.00 463.45 3320.21
   08:53:32.452.08-Aug-2020 5134.01 2227.25 75.93 7.00 463.65 3320.21
   08:53:32.653.08-Aug-2020 5134.01 2228.69 75.93 7.00 463.85 3320.21
   08:53:32.853.08-Aug-2020 5134.01 2230.03 75.93 7.00 464.05 3320.21
   08:53:33.053.08-Aug-2020 5134.01 2231.44 75.93 7.00 464.25 3320.21
   08:53:33.253.08-Aug-2020 5134.01 2232.89 75.93 7.00 464.45 3320.21
   08:53:33.453.08-Aug-2020 5134.01 2234.25 75.93 7.00 464.65 3320.21
   08:53:33.653.08-Aug-2020 5134.01 2235.49 75.93 7.00 464.85 3320.21
   08:53:33.853.08-Aug-2020 5134.01 2236.92 75.93 7.00 465.05 3320.21
   08:53:34.053.08-Aug-2020 5134.01 2238.39 75.93 7.00 465.25 3320.21
   08:53:34.253.08-Aug-2020 5134.01 2238.39 75.93 7.00 465.45 3320.21
   08:53:34.454.08-Aug-2020 5134.01 2241.02 75.93 7.00 465.65 3320.21
   08:53:34.654.08-Aug-2020 5134.01 2242.32 75.93 7.00 465.85 3320.21
   08:53:34.854.08-Aug-2020 5134.01 2243.73 75.93 7.00 466.05 3320.21
   08:53:35.054.08-Aug-2020 5134.01 2245.14 75.93 7.00 466.25 3320.21
   08:53:35.254.08-Aug-2020 5134.01 2246.69 75.93 7.00 466.45 3320.21
   08:53:35.454.08-Aug-2020 5134.01 2247.88 75.93 7.00 466.65 3320.21
   08:53:35.654.08-Aug-2020 5134.01 2249.34 75.93 7.00 466.85 3320.21
   08:53:35.854.08-Aug-2020 5134.01 2250.65 75.93 7.00 467.05 3320.21
   08:53:36.054.08-Aug-2020 5134.01 2251.02 75.93 7.00 467.25 3320.21
   08:53:36.254.08-Aug-2020 5134.01 2251.99 75.93 7.00 467.45 3320.21
   08:53:36.455.08-Aug-2020 5134.01 2253.25 75.93 7.00 467.65 3320.21
   08:53:36.655.08-Aug-2020 5134.01 2254.56 75.93 7.00 467.85 3320.21
   08:53:36.855.08-Aug-2020 5134.01 2255.93 75.93 7.00 468.05 3320.21
   08:53:37.055.08-Aug-2020 5134.01 2257.31 75.93 7.00 468.25 3320.21
   08:53:37.255.08-Aug-2020 5134.01 2258.60 75.93 7.00 468.45 3320.21
   08:53:37.455.08-Aug-2020 5134.01 2260.01 75.93 7.00 468.65 3320.21
   08:53:37.655.08-Aug-2020 5134.01 2261.37 75.93 7.00 468.85 3320.21
   08:53:37.855.08-Aug-2020 5134.01 2262.72 75.93 7.00 469.05 3320.21
   08:53:38.055.08-Aug-2020 5134.01 2264.08 75.93 7.00 469.25 3320.21
   08:53:38.256.08-Aug-2020 5134.01 2264.08 75.93 7.00 469.45 3320.21
   08:53:38.456.08-Aug-2020 5134.01 2266.79 75.93 7.00 469.65 3320.21
   08:53:38.656.08-Aug-2020 5134.01 2268.14 75.93 7.00 469.85 3320.21
   08:53:38.856.08-Aug-2020 5134.01 2269.48 75.93 7.00 470.05 3320.21
   08:53:39.056.08-Aug-2020 5134.01 2270.87 75.93 7.00 470.25 3320.21
   08:53:39.256.08-Aug-2020 5134.01 2270.87 75.93 7.00 470.45 3320.21
   08:53:39.456.08-Aug-2020 5134.01 2273.72 75.93 7.00 470.65 3320.21
   08:53:39.656.08-Aug-2020 5134.01 2274.95 75.93 7.00 470.85 3320.21
   08:53:39.856.08-Aug-2020 5134.01 2276.27 75.93 7.00 471.05 3320.21
   08:53:40.056.08-Aug-2020 5134.01 2277.57 75.93 7.00 471.25 3320.21
   08:53:40.257.08-Aug-2020 5134.01 2277.57 75.93 7.00 471.45 3320.21
   08:53:40.457.08-Aug-2020 5134.01 2280.21 75.93 7.00 471.65 3320.21
   08:53:40.657.08-Aug-2020 5134.01 2281.51 75.93 7.00 471.85 3320.21
   08:53:40.857.08-Aug-2020 5134.01 2282.86 75.93 7.00 472.05 3320.21
   08:53:41.057.08-Aug-2020 5134.01 2284.15 75.93 7.00 472.25 3320.21
   08:53:41.257.08-Aug-2020 5134.01 2284.15 75.93 7.00 472.45 3320.21
   08:53:41.457.08-Aug-2020 5134.01 2286.88 75.93 7.00 472.65 3320.21
   08:53:41.657.08-Aug-2020 5134.01 2288.23 75.93 7.00 472.85 3320.21
   08:53:41.857.08-Aug-2020 5134.01 2289.56 75.92 7.00 473.05 3320.21
   08:53:42.058.08-Aug-2020 5134.01 2290.93 75.92 7.00 473.25 3320.21
   08:53:42.258.08-Aug-2020 5134.01 2292.39 75.92 7.00 473.45 3320.21
   08:53:42.458.08-Aug-2020 5134.01 2293.71 75.92 7.00 473.65 3320.21
   08:53:42.658.08-Aug-2020 5134.01 2294.98 75.92 7.00 473.85 3320.21
   08:53:42.858.08-Aug-2020 5134.01 2296.45 75.92 7.00 474.05 3320.21
   08:53:43.058.08-Aug-2020 5134.01 2297.80 75.92 7.00 474.25 3320.21
   08:53:43.258.08-Aug-2020 5134.01 2297.80 75.92 7.00 474.45 3320.21
   08:53:43.458.08-Aug-2020 5134.01 2300.26 75.92 7.00 474.65 3320.21
   08:53:43.658.08-Aug-2020 5134.01 2301.55 75.92 7.00 474.85 3320.21
   08:53:43.858.08-Aug-2020 5134.01 2302.86 75.92 7.00 475.05 3320.21
   08:53:44.059.08-Aug-2020 5134.01 2304.26 75.92 7.00 475.25 3320.21
   08:53:44.259.08-Aug-2020 5134.01 2304.26 75.92 7.00 475.45 3320.21
   08:53:44.459.08-Aug-2020 5134.01 2307.03 75.92 7.00 475.65 3320.21
   08:53:44.659.08-Aug-2020 5134.01 2308.07 75.92 7.00 475.85 3320.21
   08:53:44.859.08-Aug-2020 5134.01 2308.75 75.92 7.00 476.05 3320.21
   08:53:45.059.08-Aug-2020 5134.01 2309.91 75.92 7.00 476.25 3320.21
   08:53:45.259.08-Aug-2020 5134.01 2309.91 75.92 7.00 476.45 3320.21
   08:53:45.459.08-Aug-2020 5134.01 2312.42 75.92 7.00 476.65 3320.21
   08:53:45.659.08-Aug-2020 5134.01 2313.68 75.92 7.00 476.85 3320.21
   08:53:45.860.08-Aug-2020 5134.01 2315.05 75.92 7.00 477.05 3320.21
   08:53:46.060.08-Aug-2020 5134.01 2316.56 75.92 7.00 477.25 3320.21
   08:53:46.260.08-Aug-2020 5134.01 2316.56 75.92 7.00 477.45 3320.21
   08:53:46.460.08-Aug-2020 5134.01 2319.28 75.92 7.00 477.65 3320.21
   08:53:46.660.08-Aug-2020 5134.01 2320.52 75.92 7.00 477.85 3320.21
   08:53:46.860.08-Aug-2020 5134.01 2321.79 75.92 7.00 478.05 3320.21
   08:53:47.060.08-Aug-2020 5134.01 2323.14 75.92 7.00 478.25 3320.21
   08:53:47.260.08-Aug-2020 5134.01 2323.14 75.92 7.00 478.45 3320.21
   08:53:47.460.08-Aug-2020 5134.01 2418.50 75.92 7.00 478.65 3320.21
   08:53:47.661.08-Aug-2020 5134.01 5642.61 75.92 7.00 478.85 3320.21
   08:53:47.861.08-Aug-2020 5134.01 7084.92 75.92 7.00 479.05 3320.21
   08:53:48.061.08-Aug-2020 5134.01 7110.99 75.92 7.00 479.25 3320.21
   08:53:48.261.08-Aug-2020 5134.01 7110.99 75.92 7.00 479.45 3320.21
   08:53:48.461.08-Aug-2020 5134.01 7110.53 75.92 7.00 479.65 3320.21
   08:53:48.661.08-Aug-2020 5134.01 7111.64 75.92 7.00 479.85 3320.21
   08:53:48.861.08-Aug-2020 5134.01 7112.51 75.92 7.00 480.05 3320.21
   08:53:49.061.08-Aug-2020 5134.01 7113.24 75.92 7.00 480.25 3320.21
   08:53:49.261.08-Aug-2020 5134.01 7113.24 75.92 7.00 480.45 3320.21
   08:53:49.461.08-Aug-2020 5134.01 7120.87 75.93 7.00 480.65 3320.21
   08:53:49.662.08-Aug-2020 5134.01 7114.32 75.93 7.00 480.85 3320.21
   08:53:49.862.08-Aug-2020 5134.01 7118.80 75.93 7.00 481.05 3320.21
   08:53:50.062.08-Aug-2020 5134.01 7117.94 75.93 7.00 481.25 3320.21
   08:53:50.262.08-Aug-2020 5134.01 7117.94 75.93 7.00 481.45 3320.21
   08:53:50.462.08-Aug-2020 5134.01 7118.46 75.94 7.00 481.65 3320.21
   08:53:50.662.08-Aug-2020 5134.01 7118.08 75.94 7.00 481.85 3320.21
   08:53:50.862.08-Aug-2020 5134.01 7118.56 75.94 7.00 482.06 3320.21
   08:53:51.062.08-Aug-2020 5134.01 7118.98 75.94 7.00 482.26 3320.21
   08:53:51.262.08-Aug-2020 5134.01 7118.98 75.94 7.00 482.46 3320.21
   08:53:51.463.08-Aug-2020 5134.01 7119.62 75.95 7.00 482.66 3320.21
   08:53:51.663.08-Aug-2020 5134.01 7121.50 75.95 7.00 482.86 3320.21
   08:53:51.863.08-Aug-2020 5134.01 7121.42 75.95 7.00 483.06 3320.21
