~Version Information
 VERS.                  2.0:   CWLS log ASCII Standard -VERSION 2.0
 WRAP.                   NO:   One line per depth step
~Well Information Block
#MNEM.UNIT     VALUE/NAME     DESCRIPTION
#---------     -----------    ---------------------------
 STRT.S             03:17:15 08-Aug-20: START TIME 03:17:15 08-Aug-20
 STOP.S             03:24:06 08-Aug-20: STOP TIME  03:24:06 08-Aug-20
 STEP.S                   0.00: STEP TIME
 NULL.                 -999.25: NULL VALUE
 DFWT.                        :  DIST FWL TEXT
 DFST.                        :  DIST FSL TEXT
 DMF .             Drill Floor:  DRILL MEAS FROM
 STIM.      13.47.44 07-Jun-20:  START TIME
 DATE.      13.47.44 27-Jul-20:  END TIME
 SPUD.               07-Jun-20:  SPUD DATE
 NREF.                    Grid:  NORTH REFERENCE
 HPTY.       Minimum Curvature:  HOLE POS TYPE
 DMOD.             Drill Model:  DRILL MOD DESC
 SVYD.                  Survey:  SURVEY DESC
 ILTD.               Lithology:  INTERP LTH DESC
 FTOP.          Formation Tops:  FORM TOPS DESC
 RIG .             West Chirag:  RIG NAME
 PDAT.          Mean Sea Level:  PERMANENT DATUM
 FLD .                     ACG:  FIELD NAME
 SON .        AZ-XX-0906363612:  JOB NUMBER
 CTRY.              Azerbaijan:  COUNTRY NAME
 WELL.           J25 (Slot 35):  WELL NAME
 SRVC.          Turan Drilling:  CONTRACTOR
 COMP.     BP Exploration (Caspian Sea) Ltd:  COMPANY
 UWI .                     N/A:  UNIQUE WELL IDENTIFIER
 API .                     N/A:  API NUMBER
 BASE.              Azerbaijan:  LOGGING EQUIPMENT BASE LOCATION
 REGN.                   EESSA:  REGION
 PROV.                    Baku:  PROVINCE
 STAT.                    Baku:  STATE NAME
 MWDS.                     N/A:  MWD SHOP
 DOE .                     N/A:  DOE NUMBER
 DCON.         Sperry Drilling:  DIRECTNL CONTR
 UNIT.                     N/A:  LOGGING EQUIPMENT ID
 MDS .        Operator Entered:  MAG DATA SOURCE
 JOBN.        AZ-XX-0906363612:  JOB TICKET NUMB
 WTYP.                Deviated:  WELL TYPE
 CNTY.                        :  COUNTY
 LOC .                        :  LOCATION
 LMF .             Drill Floor:  LOG MEASURED FROM
 TVDS.m                  43.00:  TVDSS CORRECTN
 LATI.deg                40.13:  LATITUDE
 LONG.deg                51.22:  LONGITUDE
 WHNS.m                  -7.90:  WELL HEAD N/S
 WHEW.m                  -3.35:  WELL HEAD E/W
 UTMX.m              519005.06:  UTM X
 UTMY.m             4443793.85:  UTM Y
 DFWL.m                   0.00:  DISTANCE FWL
 DFSL.m                   0.00:  DISTANCE FSL
 SDEP.m                   0.00:  START DEPTH
 TDD .m                   0.00:  TOTAL DEPTH (DRILLER)
 VSDR.deg               308.97:  VERT SEC DIRECT
 GVFD.g                   1.00:  GRAVITY FIELD
 MFLD.nT              50350.00:  MAGNETIC FIELD
 MDIP.deg                59.62:  MAGNETIC DIP
 MDEC.deg                 6.44:  MAGNETIC DECL
 GRDC.deg                 0.13:  GRID CORRECTION
 AZTC.deg                 6.32:  AZM TOTAL CORR
 EPD .m                   0.00:  ELEVATION
 EGL .m                   0.00:  GROUND ELEVATION
 WDMS.m                 169.80:  WD ELEV
 APD .m                  43.00:  DEPTH ABOVE PD
 DEP .m                 356.43:  DEPTH
 AGAP.m                  43.00:  AIR GAP
 VSEW.m                  -3.35:  VERT SEC E/W
 VSNS.m                  -7.90:  VERT SEC N/S
 EKB .m                  43.00:  KB ELEVATION
 EDF .m                  43.00:  DF ELEVATION
 TDL .m                 934.00:  TOTAL DEPTH (LOGGER)
 VSC .                       0:  VS TO CLOSURE
 MAGU.                 1852825:  MAGUTM CHECKSUM
~Parameter Information Block
#MNEM.UNIT       Value        Description
#---------     -----------    ---------------------------
 AV  .mps                 0.80:  Ann Velocity 
 AVMX.mps                 1.70:  Max Ann Veloc 
 AZIF.deg               311.41:  Azm, Final 
 BHAT.        Rotary Steerable:  BHA Type 
 BROT.°/30m               0.09:  Build Rotating 
 BS  .in                 12.25:  Bit Size 
 BSZ .in                 12.25:  Bit Size 
 BTPL.psig              800.00:  Bit Press Loss 
 CABU.                      No:  Customer Abuse 
 COMM.                     k:  Run Comments 1 
 TCS .hr                 96.00:  Time Ciculation Ended 
 CV  .mps                 2.03:  Crit Velocity 
 CVMX.mps                 2.42:  Max Crit Veloc 
 DD1 .          Taghi Taghiyev:  Direct Drillr 1 
 DD2 .      Tariel Pirmammadov:  Direct Drillr 2 
 DD3 .          Teymur Aghayev:  Direct Drillr 3 
 DDSV.                 iCruise:  DD Service 
 DEFF.%                  98.70:  % Det Eff 
 DLRX.°/30m               1.00:  Dogleg Rot Max 
 DLSO.°/30m               1.80:  Dogleg Oriented 
 DLSX.°/30m               3.16:  Dogleg Str Max 
 DRET.      15.00.00 07-Aug-20:  Drill End Time 
 DRST.      17.00.00 02-Aug-20:  Drill Start Tim 
 DTIM.hr                 45.90:  Time Drilling 
 EDEP.m                5298.01:  End Depth 
 ENG1.       Seymur Iskandarov:  Engineer 1 
 ENG2.         Yevgeniy Ulikov:  Engineer 2 
 ENG3.      Artemiy Matviyanov:  Engineer 3 
 ENG4.         Bahruz Mehdiyev:  Engineer 4 
 ETIM.      05.00.00 10-Aug-20:  End Time 
 FLOI.gpm              1150.00:  Flow In 
 FLON.gpm               900.00:  Flow In Min 
 FLOS.cptm                0.00:  Fluid Loss 
 FLOX.gpm              1200.00:  Flow In Max 
 FTRO.     Connectivity, Formation Presure:  FTWD Run Obj 
 HFLO.                      No:  High Flow 
 HPRE.                     Yes:  High Pressure 
 HTEM.                      No:  High Temp 
 HYDO.m                   1.80:  Hydro Offset 
 IFIN.deg                 9.71:  Inc, Final 
 IMAX.deg                63.81:  Inc Max 
 IMIN.deg                 9.53:  Inc Min 
 IMND.m                5075.52:  Inc Min Depth 
 IMXD.m                4367.08:  Inc Max Depth 
 JARR.                      No:  Jarring 
 LETM.      15.00.00 07-Aug-20:  Log End Time 
 LOST.hr                     2:  Lost Rig Time 
 LSTM.      17.00.00 02-Aug-20:  Log Start Time 
 MDCL.ppm             42500.00:  Mud Chlorides 
 MDES.     Inversion Oil/Synthetic:  Mud Desc 
 DFD .sg                  1.46:  Mud Density 
 MDMN.sg                  1.46:  Dens Mud Min 
 MDMX.sg                  1.46:  Dens Mud Max 
 MOIL.                      56:  Run Mud Oil % 
 MOWR.                   70:30:  Run Mud OWR 
 MSND.                     0.1:  Run Mud Sand % 
 MSOL.                      19:  Run Mud Solids% 
 DFV .spqt               83.00:  Mud Viscosity 
 MWOD.in                  8.00:  MWD Tool OD 
 MWSI.                     Yes:  Serv Intrp, MWD 
 OTIM.hr                196.57:  Time Operating 
 PCON.           Look Like New:  Pad Condition 
 PMAX.psia             7400.00:  Press Op, Max 
 PV  .cP                 36.00:  Mud PV 
 RUN .                    1000:  Run Number 
 ROPA.m/hr               25.00:  ROP Avg 
 ROPN.m/hr               10.00:  ROP Min 
 ROPX.m/hr               32.00:  ROP Max 
 RPMA.rpm               120.00:  RPM Surface Avg 
 RPMN.rpm               100.00:  RPM Surface Min 
 RPMX.rpm               140.00:  RPM Surface Max 
 RRUN.                    L504:  Rig Run Number 
 SAZI.deg               308.25:  Azm, Start 
 SDEP.m                4364.01:  Start Depth 
 SIDD.                      No:  Serv Intrp, DD 
 SINC.deg                63.81:  Inc, Start 
 SPPA.psig             5800.00:  SPP Avg 
 SPPN.psig             4200.00:  SPP Min 
 SPPX.psig             5950.00:  SPP Max 
 STIM.      18.00.00 01-Aug-20:  Start Time 
 SVCS.                 DD, MWD:  Services 
 SVER.                    9.20:  Sperry Version 
 TDAT.m                 934.00:  Tot Depth Attmp 
 TDDF.                      No:  Trip for DD 
 TDLG.m                 934.00:  Tot Depth Loggd 
 TFF .                      No:  Trip for Fail 
 TQAA.f-kp               31.00:  Torque Abs Avg 
 TQAN.f-kp               25.00:  Torque Abs Min 
 TQAX.f-kp               35.00:  Torque Abs Max 
 TRRT.°/30m              -0.75:  Turn Rotating 
 MRT .                  EWR-M5:  Maximum Recorded Temperature 
 TTMX.degC               95.00:  Max Tool Temp 
 VS01.                90516060:  Virtual Str1 SN 
 VS02.                90528488:  Virtual Str2 SN 
 VS03.                90577970:  Virtual Str3 SN 
 VS04.                12385033:  Virtual Str4 SN 
 VS05.                90522069:  Virtual Str5 SN 
 VS06.                13124134:  Virtual Str6 SN 
 WBMN.klb                20.00:  WOB Min 
 WITN.         Alistair Sprott:  Customer Rep 
 WITN.     Ronal van der Kraan:  Customer Rep 2 
 WOBA.klb                25.00:  WOB Avg 
 WOBX.klb                31.00:  WOB Max 
 YP  .lhf2               32.00:  Yield Point 
~Curve Information Block
#MNEM.UNIT                 API CODE     Curve Description
#---------               -----------    ---------------------------
 TIME.HHMMSS            00 000 000 000:  GT Time & Date
 GTDEPTH.m              00 000 000 000:  GT Depth
 GTPQH.psia             00 000 000 000:  GT HR Quartz Pressure
 GTTQ.degC              00 000 000 000:  GT Quartz Temperature
 GTTN.NONE              00 000 000 000:  GT Test Number
 GTET.sec               00 000 000 000:  GT Elapsed Test Time
 GTTVD.m                00 000 000 000:  GT True Vertical Depth
#Other Information
#
#WARRANTY: Halliburton will use its best efforts to furnish customers with 
#accurate information and interpretations that are part of, and incident to, the services 
#provided.  However, Halliburton cannot and does not warrant the accuracy 
#or correctness of such information and interpretations.  Under no circumstances should any 
#such information or interpretation be relied upon as the sole basis for any drilling, 
#completion, production, or financial decision or any procedure involving any risk to the 
#safety of any drilling venture, drilling rig or its crew or any other third party.  The 
#Customer has full responsibility for all drilling, completion and production operation.  
#Halliburton makes no representations or warranties, either expressed or 
#implied, including, but not limited to, the implied warranties of merchantability or fitness 
#for a particular purpose, with respect to the services rendered.  In no event will 
#Halliburton be liable for failure to obtain any particular results or for 
#any damages, including, but not limited to, indirect, special or consequential damages, 
#resulting from the use of any information or interpretation provided by Halliburton.
#
~A           TIME           GTDEPTH  GTPQH  GTTQ  GTTN  GTET   GTTVD  
# ...
   03:21:05.479.08-Aug-2020 5190.56 3645.39 85.87 1.00 229.88 3375.95
   03:21:05.679.08-Aug-2020 5190.56 3645.39 85.87 1.00 230.08 3375.95
   03:21:05.879.08-Aug-2020 5190.56 3657.46 85.87 1.00 230.28 3375.95
   03:21:06.079.08-Aug-2020 5190.56 3663.15 85.87 1.00 230.48 3375.95
   03:21:06.279.08-Aug-2020 5190.56 3668.94 85.87 1.00 230.68 3375.95
   03:21:06.478.08-Aug-2020 5190.56 3674.97 85.87 1.00 230.88 3375.95
   03:21:06.678.08-Aug-2020 5190.56 3674.97 85.87 1.00 231.08 3375.95
   03:21:06.878.08-Aug-2020 5190.56 3686.71 85.87 1.00 231.28 3375.95
   03:21:07.078.08-Aug-2020 5190.56 3692.63 85.87 1.00 231.48 3375.95
   03:21:07.278.08-Aug-2020 5190.56 3698.60 85.87 1.00 231.68 3375.95
   03:21:07.478.08-Aug-2020 5190.56 3703.93 85.87 1.00 231.88 3375.95
   03:21:07.678.08-Aug-2020 5190.56 3709.51 85.87 1.00 232.08 3375.95
   03:21:07.878.08-Aug-2020 5190.56 3714.98 85.87 1.00 232.28 3375.95
   03:21:08.078.08-Aug-2020 5190.56 3720.63 85.87 1.00 232.48 3375.95
   03:21:08.278.08-Aug-2020 5190.56 3726.85 85.87 1.00 232.68 3375.95
   03:21:08.477.08-Aug-2020 5190.56 3732.78 85.87 1.00 232.88 3375.95
   03:21:08.677.08-Aug-2020 5190.56 3732.78 85.87 1.00 233.08 3375.95
   03:21:08.877.08-Aug-2020 5190.56 3744.50 85.87 1.00 233.28 3375.95
   03:21:09.077.08-Aug-2020 5190.56 3750.39 85.87 1.00 233.48 3375.95
   03:21:09.277.08-Aug-2020 5190.56 3756.32 85.87 1.00 233.68 3375.95
   03:21:09.477.08-Aug-2020 5190.56 3761.81 85.88 1.00 233.88 3375.95
   03:21:09.677.08-Aug-2020 5190.56 3767.06 85.88 1.00 234.08 3375.95
   03:21:09.877.08-Aug-2020 5190.56 3772.91 85.88 1.00 234.28 3375.95
   03:21:10.077.08-Aug-2020 5190.56 3778.26 85.88 1.00 234.48 3375.95
   03:21:10.276.08-Aug-2020 5190.56 3783.48 85.88 1.00 234.68 3375.95
   03:21:10.476.08-Aug-2020 5190.56 3788.82 85.88 1.00 234.88 3375.95
   03:21:10.676.08-Aug-2020 5190.56 3788.82 85.88 1.00 235.08 3375.95
   03:21:10.876.08-Aug-2020 5190.56 3799.39 85.88 1.00 235.28 3375.95
   03:21:11.076.08-Aug-2020 5190.56 3804.77 85.88 1.00 235.48 3375.95
   03:21:11.276.08-Aug-2020 5190.56 3810.30 85.88 1.00 235.68 3375.95
   03:21:11.476.08-Aug-2020 5190.56 3815.53 85.88 1.00 235.88 3375.95
   03:21:11.676.08-Aug-2020 5190.56 3821.11 85.88 1.00 236.08 3375.95
   03:21:11.876.08-Aug-2020 5190.56 3826.54 85.88 1.00 236.28 3375.95
   03:21:12.076.08-Aug-2020 5190.56 3831.68 85.88 1.00 236.48 3375.95
   03:21:12.275.08-Aug-2020 5190.56 3837.65 85.88 1.00 236.68 3375.95
   03:21:12.475.08-Aug-2020 5190.56 3842.85 85.88 1.00 236.88 3375.95
   03:21:12.675.08-Aug-2020 5190.56 3842.85 85.88 1.00 237.08 3375.95
   03:21:12.875.08-Aug-2020 5190.56 3853.36 85.88 1.00 237.28 3375.95
   03:21:13.075.08-Aug-2020 5190.56 3858.41 85.88 1.00 237.48 3375.95
   03:21:13.275.08-Aug-2020 5190.56 3863.65 85.88 1.00 237.68 3375.95
   03:21:13.475.08-Aug-2020 5190.56 3869.57 85.88 1.00 237.88 3375.95
   03:21:13.675.08-Aug-2020 5190.56 3869.57 85.88 1.00 238.08 3375.95
   03:21:13.875.08-Aug-2020 5190.56 3880.40 85.88 1.00 238.28 3375.95
   03:21:14.075.08-Aug-2020 5190.56 3885.53 85.88 1.00 238.48 3375.95
   03:21:14.274.08-Aug-2020 5190.56 3891.38 85.88 1.00 238.68 3375.95
   03:21:14.474.08-Aug-2020 5190.56 3896.99 85.88 1.00 238.88 3375.95
   03:21:14.674.08-Aug-2020 5190.56 3896.99 85.88 1.00 239.08 3375.95
   03:21:14.874.08-Aug-2020 5190.56 3907.85 85.88 1.00 239.28 3375.95
   03:21:15.074.08-Aug-2020 5190.56 3913.15 85.88 1.00 239.48 3375.95
   03:21:15.274.08-Aug-2020 5190.56 3918.36 85.88 1.00 239.68 3375.95
   03:21:15.474.08-Aug-2020 5190.56 3923.91 85.88 1.00 239.88 3375.95
   03:21:15.674.08-Aug-2020 5190.56 3929.52 85.88 1.00 240.08 3375.95
   03:21:15.874.08-Aug-2020 5190.56 3934.26 85.88 1.00 240.28 3375.95
   03:21:16.074.08-Aug-2020 5190.56 3939.23 85.88 1.00 240.48 3375.95
   03:21:16.273.08-Aug-2020 5190.56 3944.58 85.88 1.00 240.68 3375.95
   03:21:16.473.08-Aug-2020 5190.56 3949.82 85.88 1.00 240.88 3375.95
   03:21:16.673.08-Aug-2020 5190.56 3949.82 85.88 1.00 241.08 3375.95
   03:21:16.873.08-Aug-2020 5190.56 3959.84 85.88 1.00 241.28 3375.95
   03:21:17.073.08-Aug-2020 5190.56 3964.51 85.88 1.00 241.48 3375.95
   03:21:17.273.08-Aug-2020 5190.56 3969.35 85.88 1.00 241.68 3375.95
   03:21:17.473.08-Aug-2020 5190.56 3974.18 85.88 1.00 241.88 3375.95
   03:21:17.673.08-Aug-2020 5190.56 3974.18 85.88 1.00 242.08 3375.95
   03:21:17.873.08-Aug-2020 5190.56 3984.58 85.88 1.00 242.28 3375.95
   03:21:18.073.08-Aug-2020 5190.56 3989.58 85.88 1.00 242.48 3375.95
   03:21:18.272.08-Aug-2020 5190.56 3995.32 85.88 1.00 242.68 3375.95
   03:21:18.472.08-Aug-2020 5190.56 4000.63 85.88 1.00 242.88 3375.95
   03:21:18.672.08-Aug-2020 5190.56 4000.63 85.88 1.00 243.08 3375.95
   03:21:18.872.08-Aug-2020 5190.56 4011.22 85.88 1.00 243.28 3375.95
   03:21:19.072.08-Aug-2020 5190.56 4015.84 85.88 1.00 243.48 3375.95
   03:21:19.272.08-Aug-2020 5190.56 4021.17 85.88 1.00 243.68 3375.95
   03:21:19.472.08-Aug-2020 5190.56 4026.22 85.88 1.00 243.88 3375.95
   03:21:19.672.08-Aug-2020 5190.56 4031.35 85.88 1.00 244.08 3375.95
   03:21:19.872.08-Aug-2020 5190.56 4035.97 85.88 1.00 244.28 3375.95
   03:21:20.072.08-Aug-2020 5190.56 4041.04 85.88 1.00 244.48 3375.95
   03:21:20.271.08-Aug-2020 5190.56 4045.69 85.88 1.00 244.68 3375.95
   03:21:20.471.08-Aug-2020 5190.56 4050.14 85.88 1.00 244.88 3375.95
   03:21:20.671.08-Aug-2020 5190.56 4050.14 85.88 1.00 245.08 3375.95
   03:21:20.871.08-Aug-2020 5190.56 4060.18 85.88 1.00 245.28 3375.95
   03:21:21.071.08-Aug-2020 5190.56 4065.03 85.88 1.00 245.48 3375.95
   03:21:21.271.08-Aug-2020 5190.56 4069.05 85.88 1.00 245.67 3375.95
   03:21:21.471.08-Aug-2020 5190.56 4073.95 85.88 1.00 245.87 3375.95
   03:21:21.671.08-Aug-2020 5190.56 4073.95 85.88 1.00 246.07 3375.95
   03:21:21.871.08-Aug-2020 5190.56 4083.92 85.88 1.00 246.27 3375.95
   03:21:22.070.08-Aug-2020 5190.56 4088.75 85.88 1.00 246.47 3375.95
   03:21:22.270.08-Aug-2020 5190.56 4092.82 85.88 1.00 246.67 3375.95
   03:21:22.470.08-Aug-2020 5190.56 4097.22 85.88 1.00 246.87 3375.95
   03:21:22.670.08-Aug-2020 5190.56 4097.22 85.88 1.00 247.07 3375.95
   03:21:22.870.08-Aug-2020 5190.56 4107.01 85.88 1.00 247.27 3375.95
   03:21:23.070.08-Aug-2020 5190.56 4111.84 85.88 1.00 247.47 3375.95
   03:21:23.270.08-Aug-2020 5190.56 4116.38 85.88 1.00 247.67 3375.95
   03:21:23.470.08-Aug-2020 5190.56 4120.60 85.88 1.00 247.87 3375.95
   03:21:23.670.08-Aug-2020 5190.56 4125.33 85.88 1.00 248.07 3375.95
   03:21:23.870.08-Aug-2020 5190.56 4130.28 85.88 1.00 248.27 3375.95
   03:21:24.069.08-Aug-2020 5190.56 4135.32 85.88 1.00 248.47 3375.95
   03:21:24.269.08-Aug-2020 5190.56 4140.13 85.88 1.00 248.67 3375.95
   03:21:24.469.08-Aug-2020 5190.56 4145.16 85.88 1.00 248.87 3375.95
   03:21:24.669.08-Aug-2020 5190.56 4145.16 85.88 1.00 249.07 3375.95
   03:21:24.869.08-Aug-2020 5190.56 4154.10 85.88 1.00 249.27 3375.95
   03:21:25.069.08-Aug-2020 5190.56 4158.87 85.88 1.00 249.47 3375.95
   03:21:25.269.08-Aug-2020 5190.56 4163.81 85.88 1.00 249.67 3375.95
   03:21:25.469.08-Aug-2020 5190.56 4168.71 85.88 1.00 249.87 3375.95
   03:21:25.669.08-Aug-2020 5190.56 4168.71 85.88 1.00 250.07 3375.95
   03:21:25.869.08-Aug-2020 5190.56 4177.98 85.88 1.00 250.27 3375.95
   03:21:26.068.08-Aug-2020 5190.56 4182.73 85.88 1.00 250.47 3375.95
   03:21:26.268.08-Aug-2020 5190.56 4187.46 85.88 1.00 250.67 3375.95
   03:21:26.468.08-Aug-2020 5190.56 4192.15 85.89 1.00 250.87 3375.95
   03:21:26.668.08-Aug-2020 5190.56 4192.15 85.89 1.00 251.07 3375.95
   03:21:26.868.08-Aug-2020 5190.56 4201.23 85.89 1.00 251.27 3375.95
   03:21:27.068.08-Aug-2020 5190.56 4205.40 85.89 1.00 251.47 3375.95
   03:21:27.268.08-Aug-2020 5190.56 4209.68 85.89 1.00 251.67 3375.95
   03:21:27.468.08-Aug-2020 5190.56 4214.23 85.89 1.00 251.87 3375.95
   03:21:27.668.08-Aug-2020 5190.56 4219.12 85.89 1.00 252.07 3375.95
   03:21:27.868.08-Aug-2020 5190.56 4223.66 85.89 1.00 252.27 3375.95
   03:21:28.067.08-Aug-2020 5190.56 4227.98 85.89 1.00 252.47 3375.95
   03:21:28.267.08-Aug-2020 5190.56 4232.73 85.89 1.00 252.67 3375.95
