~Version Information
 VERS.                  2.0:   CWLS log ASCII Standard -VERSION 2.0
 WRAP.                   NO:   One line per depth step
~Well Information Block
#MNEM.UNIT     VALUE/NAME     DESCRIPTION
#---------     -----------    ---------------------------
 STRT.S             08:27:32 08-Aug-20: START TIME 08:27:32 08-Aug-20
 STOP.S             08:36:05 08-Aug-20: STOP TIME  08:36:05 08-Aug-20
 STEP.S                   0.00: STEP TIME
 NULL.                 -999.25: NULL VALUE
 DFWT.                        :  DIST FWL TEXT
 DFST.                        :  DIST FSL TEXT
 DMF .             Drill Floor:  DRILL MEAS FROM
 STIM.      13.47.44 07-Jun-20:  START TIME
 DATE.      13.47.44 27-Jul-20:  END TIME
 SPUD.               07-Jun-20:  SPUD DATE
 NREF.                    Grid:  NORTH REFERENCE
 HPTY.       Minimum Curvature:  HOLE POS TYPE
 DMOD.             Drill Model:  DRILL MOD DESC
 SVYD.                  Survey:  SURVEY DESC
 ILTD.               Lithology:  INTERP LTH DESC
 FTOP.          Formation Tops:  FORM TOPS DESC
 RIG .             West Chirag:  RIG NAME
 PDAT.          Mean Sea Level:  PERMANENT DATUM
 FLD .                     ACG:  FIELD NAME
 SON .        AZ-XX-0906363612:  JOB NUMBER
 CTRY.              Azerbaijan:  COUNTRY NAME
 WELL.           J25 (Slot 35):  WELL NAME
 SRVC.          Turan Drilling:  CONTRACTOR
 COMP.     BP Exploration (Caspian Sea) Ltd:  COMPANY
 UWI .                     N/A:  UNIQUE WELL IDENTIFIER
 API .                     N/A:  API NUMBER
 BASE.              Azerbaijan:  LOGGING EQUIPMENT BASE LOCATION
 REGN.                   EESSA:  REGION
 PROV.                    Baku:  PROVINCE
 STAT.                    Baku:  STATE NAME
 MWDS.                     N/A:  MWD SHOP
 DOE .                     N/A:  DOE NUMBER
 DCON.         Sperry Drilling:  DIRECTNL CONTR
 UNIT.                     N/A:  LOGGING EQUIPMENT ID
 MDS .        Operator Entered:  MAG DATA SOURCE
 JOBN.        AZ-XX-0906363612:  JOB TICKET NUMB
 WTYP.                Deviated:  WELL TYPE
 CNTY.                        :  COUNTY
 LOC .                        :  LOCATION
 LMF .             Drill Floor:  LOG MEASURED FROM
 TVDS.m                  43.00:  TVDSS CORRECTN
 LATI.deg                40.13:  LATITUDE
 LONG.deg                51.22:  LONGITUDE
 WHNS.m                  -7.90:  WELL HEAD N/S
 WHEW.m                  -3.35:  WELL HEAD E/W
 UTMX.m              519005.06:  UTM X
 UTMY.m             4443793.85:  UTM Y
 DFWL.m                   0.00:  DISTANCE FWL
 DFSL.m                   0.00:  DISTANCE FSL
 SDEP.m                   0.00:  START DEPTH
 TDD .m                   0.00:  TOTAL DEPTH (DRILLER)
 VSDR.deg               308.97:  VERT SEC DIRECT
 GVFD.g                   1.00:  GRAVITY FIELD
 MFLD.nT              50350.00:  MAGNETIC FIELD
 MDIP.deg                59.62:  MAGNETIC DIP
 MDEC.deg                 6.44:  MAGNETIC DECL
 GRDC.deg                 0.13:  GRID CORRECTION
 AZTC.deg                 6.32:  AZM TOTAL CORR
 EPD .m                   0.00:  ELEVATION
 EGL .m                   0.00:  GROUND ELEVATION
 WDMS.m                 169.80:  WD ELEV
 APD .m                  43.00:  DEPTH ABOVE PD
 DEP .m                 356.43:  DEPTH
 AGAP.m                  43.00:  AIR GAP
 VSEW.m                  -3.35:  VERT SEC E/W
 VSNS.m                  -7.90:  VERT SEC N/S
 EKB .m                  43.00:  KB ELEVATION
 EDF .m                  43.00:  DF ELEVATION
 TDL .m                 934.00:  TOTAL DEPTH (LOGGER)
 VSC .                       0:  VS TO CLOSURE
 MAGU.                 1852825:  MAGUTM CHECKSUM
~Parameter Information Block
#MNEM.UNIT       Value        Description
#---------     -----------    ---------------------------
 AV  .mps                 0.80:  Ann Velocity 
 AVMX.mps                 1.70:  Max Ann Veloc 
 AZIF.deg               311.41:  Azm, Final 
 BHAT.        Rotary Steerable:  BHA Type 
 BROT.°/30m               0.09:  Build Rotating 
 BS  .in                 12.25:  Bit Size 
 BSZ .in                 12.25:  Bit Size 
 BTPL.psig              800.00:  Bit Press Loss 
 CABU.                      No:  Customer Abuse 
 COMM.                     ¼’n:  Run Comments 1 
 TCS .hr                 96.00:  Time Ciculation Ended 
 CV  .mps                 2.03:  Crit Velocity 
 CVMX.mps                 2.42:  Max Crit Veloc 
 DD1 .          Taghi Taghiyev:  Direct Drillr 1 
 DD2 .      Tariel Pirmammadov:  Direct Drillr 2 
 DD3 .          Teymur Aghayev:  Direct Drillr 3 
 DDSV.                 iCruise:  DD Service 
 DEFF.%                  98.70:  % Det Eff 
 DLRX.°/30m               1.00:  Dogleg Rot Max 
 DLSO.°/30m               1.80:  Dogleg Oriented 
 DLSX.°/30m               3.16:  Dogleg Str Max 
 DRET.      15.00.00 07-Aug-20:  Drill End Time 
 DRST.      17.00.00 02-Aug-20:  Drill Start Tim 
 DTIM.hr                 45.90:  Time Drilling 
 EDEP.m                5298.01:  End Depth 
 ENG1.       Seymur Iskandarov:  Engineer 1 
 ENG2.         Yevgeniy Ulikov:  Engineer 2 
 ENG3.      Artemiy Matviyanov:  Engineer 3 
 ENG4.         Bahruz Mehdiyev:  Engineer 4 
 ETIM.      05.00.00 10-Aug-20:  End Time 
 FLOI.gpm              1150.00:  Flow In 
 FLON.gpm               900.00:  Flow In Min 
 FLOS.cptm                0.00:  Fluid Loss 
 FLOX.gpm              1200.00:  Flow In Max 
 FTRO.     Connectivity, Formation Presure:  FTWD Run Obj 
 HFLO.                      No:  High Flow 
 HPRE.                     Yes:  High Pressure 
 HTEM.                      No:  High Temp 
 HYDO.m                   1.80:  Hydro Offset 
 IFIN.deg                 9.71:  Inc, Final 
 IMAX.deg                63.81:  Inc Max 
 IMIN.deg                 9.53:  Inc Min 
 IMND.m                5075.52:  Inc Min Depth 
 IMXD.m                4367.08:  Inc Max Depth 
 JARR.                      No:  Jarring 
 LETM.      15.00.00 07-Aug-20:  Log End Time 
 LOST.hr                     2:  Lost Rig Time 
 LSTM.      17.00.00 02-Aug-20:  Log Start Time 
 MDCL.ppm             42500.00:  Mud Chlorides 
 MDES.     Inversion Oil/Synthetic:  Mud Desc 
 DFD .sg                  1.46:  Mud Density 
 MDMN.sg                  1.46:  Dens Mud Min 
 MDMX.sg                  1.46:  Dens Mud Max 
 MOIL.                      56:  Run Mud Oil % 
 MOWR.                   70:30:  Run Mud OWR 
 MSND.                     0.1:  Run Mud Sand % 
 MSOL.                      19:  Run Mud Solids% 
 DFV .spqt               83.00:  Mud Viscosity 
 MWOD.in                  8.00:  MWD Tool OD 
 MWSI.                     Yes:  Serv Intrp, MWD 
 OTIM.hr                196.57:  Time Operating 
 PCON.           Look Like New:  Pad Condition 
 PMAX.psia             7400.00:  Press Op, Max 
 PV  .cP                 36.00:  Mud PV 
 RUN .                    1000:  Run Number 
 ROPA.m/hr               25.00:  ROP Avg 
 ROPN.m/hr               10.00:  ROP Min 
 ROPX.m/hr               32.00:  ROP Max 
 RPMA.rpm               120.00:  RPM Surface Avg 
 RPMN.rpm               100.00:  RPM Surface Min 
 RPMX.rpm               140.00:  RPM Surface Max 
 RRUN.                    L504:  Rig Run Number 
 SAZI.deg               308.25:  Azm, Start 
 SDEP.m                4364.01:  Start Depth 
 SIDD.                      No:  Serv Intrp, DD 
 SINC.deg                63.81:  Inc, Start 
 SPPA.psig             5800.00:  SPP Avg 
 SPPN.psig             4200.00:  SPP Min 
 SPPX.psig             5950.00:  SPP Max 
 STIM.      18.00.00 01-Aug-20:  Start Time 
 SVCS.                 DD, MWD:  Services 
 SVER.                    9.20:  Sperry Version 
 TDAT.m                 934.00:  Tot Depth Attmp 
 TDDF.                      No:  Trip for DD 
 TDLG.m                 934.00:  Tot Depth Loggd 
 TFF .                      No:  Trip for Fail 
 TQAA.f-kp               31.00:  Torque Abs Avg 
 TQAN.f-kp               25.00:  Torque Abs Min 
 TQAX.f-kp               35.00:  Torque Abs Max 
 TRRT.°/30m              -0.75:  Turn Rotating 
 MRT .                  EWR-M5:  Maximum Recorded Temperature 
 TTMX.degC               95.00:  Max Tool Temp 
 VS01.                90516060:  Virtual Str1 SN 
 VS02.                90528488:  Virtual Str2 SN 
 VS03.                90577970:  Virtual Str3 SN 
 VS04.                12385033:  Virtual Str4 SN 
 VS05.                90522069:  Virtual Str5 SN 
 VS06.                13124134:  Virtual Str6 SN 
 WBMN.klb                20.00:  WOB Min 
 WITN.         Alistair Sprott:  Customer Rep 
 WITN.     Ronal van der Kraan:  Customer Rep 2 
 WOBA.klb                25.00:  WOB Avg 
 WOBX.klb                31.00:  WOB Max 
 YP  .lhf2               32.00:  Yield Point 
~Curve Information Block
#MNEM.UNIT                 API CODE     Curve Description
#---------               -----------    ---------------------------
 TIME.HHMMSS            00 000 000 000:  GT Time & Date
 GTDEPTH.m              00 000 000 000:  GT Depth
 GTPQH.psia             00 000 000 000:  GT HR Quartz Pressure
 GTTQ.degC              00 000 000 000:  GT Quartz Temperature
 GTTN.NONE              00 000 000 000:  GT Test Number
 GTET.sec               00 000 000 000:  GT Elapsed Test Time
 GTTVD.m                00 000 000 000:  GT True Vertical Depth
#Other Information
#
#WARRANTY: Halliburton will use its best efforts to furnish customers with 
#accurate information and interpretations that are part of, and incident to, the services 
#provided.  However, Halliburton cannot and does not warrant the accuracy 
#or correctness of such information and interpretations.  Under no circumstances should any 
#such information or interpretation be relied upon as the sole basis for any drilling, 
#completion, production, or financial decision or any procedure involving any risk to the 
#safety of any drilling venture, drilling rig or its crew or any other third party.  The 
#Customer has full responsibility for all drilling, completion and production operation.  
#Halliburton makes no representations or warranties, either expressed or 
#implied, including, but not limited to, the implied warranties of merchantability or fitness 
#for a particular purpose, with respect to the services rendered.  In no event will 
#Halliburton be liable for failure to obtain any particular results or for 
#any damages, including, but not limited to, indirect, special or consequential damages, 
#resulting from the use of any information or interpretation provided by Halliburton.
#
~A           TIME           GTDEPTH  GTPQH  GTTQ  GTTN  GTET   GTTVD  
# ...
   08:31:45.361.08-Aug-2020 5149.01 4344.36 76.74 6.00 253.13 3335.00
   08:31:45.561.08-Aug-2020 5149.01 4344.36 76.74 6.00 253.33 3335.00
   08:31:45.761.08-Aug-2020 5149.01 4344.32 76.74 6.00 253.53 3335.00
   08:31:45.961.08-Aug-2020 5149.01 4344.96 76.74 6.00 253.73 3335.00
   08:31:46.161.08-Aug-2020 5149.01 4344.62 76.74 6.00 253.93 3335.00
   08:31:46.362.08-Aug-2020 5149.01 4344.57 76.74 6.00 254.13 3335.00
   08:31:46.562.08-Aug-2020 5149.01 4344.57 76.74 6.00 254.33 3335.00
   08:31:46.762.08-Aug-2020 5149.01 4344.75 76.74 6.00 254.53 3335.00
   08:31:46.962.08-Aug-2020 5149.01 4344.78 76.74 6.00 254.73 3335.00
   08:31:47.162.08-Aug-2020 5149.01 4344.47 76.74 6.00 254.93 3335.00
   08:31:47.362.08-Aug-2020 5149.01 4344.70 76.74 6.00 255.13 3335.00
   08:31:47.562.08-Aug-2020 5149.01 4344.87 76.74 6.00 255.34 3335.00
   08:31:47.762.08-Aug-2020 5149.01 4344.79 76.74 6.00 255.54 3335.00
   08:31:47.962.08-Aug-2020 5149.01 4345.30 76.74 6.00 255.74 3335.00
   08:31:48.162.08-Aug-2020 5149.01 4345.07 76.74 6.00 255.94 3335.00
   08:31:48.363.08-Aug-2020 5149.01 4345.59 76.74 6.00 256.14 3335.00
   08:31:48.563.08-Aug-2020 5149.01 4345.59 76.74 6.00 256.34 3335.00
   08:31:48.763.08-Aug-2020 5149.01 4345.84 76.74 6.00 256.54 3335.00
   08:31:48.963.08-Aug-2020 5149.01 4345.65 76.74 6.00 256.74 3335.00
   08:31:49.163.08-Aug-2020 5149.01 4345.45 76.74 6.00 256.94 3335.00
   08:31:49.363.08-Aug-2020 5149.01 4345.64 76.74 6.00 257.14 3335.00
   08:31:49.563.08-Aug-2020 5149.01 4345.64 76.74 6.00 257.34 3335.00
   08:31:49.763.08-Aug-2020 5149.01 4345.47 76.74 6.00 257.54 3335.00
   08:31:49.963.08-Aug-2020 5149.01 4345.36 76.74 6.00 257.74 3335.00
   08:31:50.164.08-Aug-2020 5149.01 4345.92 76.74 6.00 257.94 3335.00
   08:31:50.364.08-Aug-2020 5149.01 4345.62 76.74 6.00 258.14 3335.00
   08:31:50.564.08-Aug-2020 5149.01 4345.62 76.74 6.00 258.34 3335.00
   08:31:50.764.08-Aug-2020 5149.01 4345.27 76.74 6.00 258.54 3335.00
   08:31:50.964.08-Aug-2020 5149.01 4345.25 76.74 6.00 258.74 3335.00
   08:31:51.164.08-Aug-2020 5149.01 4345.12 76.74 6.00 258.94 3335.00
   08:31:51.364.08-Aug-2020 5149.01 4345.14 76.74 6.00 259.14 3335.00
   08:31:51.564.08-Aug-2020 5149.01 4345.14 76.74 6.00 259.34 3335.00
   08:31:51.764.08-Aug-2020 5149.01 4345.06 76.74 6.00 259.54 3335.00
   08:31:51.964.08-Aug-2020 5149.01 4345.07 76.74 6.00 259.74 3335.00
   08:31:52.165.08-Aug-2020 5149.01 4345.03 76.74 6.00 259.94 3335.00
   08:31:52.365.08-Aug-2020 5149.01 4345.06 76.74 6.00 260.14 3335.00
   08:31:52.565.08-Aug-2020 5149.01 4345.06 76.74 6.00 260.34 3335.00
   08:31:52.765.08-Aug-2020 5149.01 4345.04 76.74 6.00 260.54 3335.00
   08:31:52.965.08-Aug-2020 5149.01 4345.09 76.74 6.00 260.74 3335.00
   08:31:53.165.08-Aug-2020 5149.01 4345.04 76.74 6.00 260.94 3335.00
   08:31:53.365.08-Aug-2020 5149.01 4345.42 76.74 6.00 261.14 3335.00
   08:31:53.565.08-Aug-2020 5149.01 4345.42 76.74 6.00 261.34 3335.00
   08:31:53.765.08-Aug-2020 5149.01 4344.96 76.74 6.00 261.54 3335.00
   08:31:53.966.08-Aug-2020 5149.01 4345.30 76.74 6.00 261.74 3335.00
   08:31:54.166.08-Aug-2020 5149.01 4345.22 76.74 6.00 261.94 3335.00
   08:31:54.366.08-Aug-2020 5149.01 4344.90 76.74 6.00 262.14 3335.00
   08:31:54.566.08-Aug-2020 5149.01 4344.90 76.74 6.00 262.34 3335.00
   08:31:54.766.08-Aug-2020 5149.01 4344.88 76.74 6.00 262.54 3335.00
   08:31:54.966.08-Aug-2020 5149.01 4344.82 76.74 6.00 262.74 3335.00
   08:31:55.166.08-Aug-2020 5149.01 4345.00 76.74 6.00 262.94 3335.00
   08:31:55.366.08-Aug-2020 5149.01 4345.09 76.74 6.00 263.14 3335.00
   08:31:55.566.08-Aug-2020 5149.01 4345.09 76.74 6.00 263.34 3335.00
   08:31:55.767.08-Aug-2020 5149.01 4345.27 76.74 6.00 263.54 3335.00
   08:31:55.967.08-Aug-2020 5149.01 4344.83 76.74 6.00 263.74 3335.00
   08:31:56.167.08-Aug-2020 5149.01 4344.82 76.74 6.00 263.94 3335.00
   08:31:56.367.08-Aug-2020 5149.01 4344.87 76.74 6.00 264.14 3335.00
   08:31:56.567.08-Aug-2020 5149.01 4344.87 76.74 6.00 264.34 3335.00
   08:31:56.767.08-Aug-2020 5149.01 4344.76 76.74 6.00 264.54 3335.00
   08:31:56.967.08-Aug-2020 5149.01 4344.76 76.74 6.00 264.74 3335.00
   08:31:57.167.08-Aug-2020 5149.01 4344.82 76.74 6.00 264.94 3335.00
   08:31:57.367.08-Aug-2020 5149.01 4344.94 76.74 6.00 265.14 3335.00
   08:31:57.567.08-Aug-2020 5149.01 4344.84 76.74 6.00 265.34 3335.00
   08:31:57.768.08-Aug-2020 5149.01 4344.76 76.74 6.00 265.54 3335.00
   08:31:57.968.08-Aug-2020 5149.01 4344.76 76.74 6.00 265.74 3335.00
   08:31:58.168.08-Aug-2020 5149.01 4344.78 76.74 6.00 265.94 3335.00
   08:31:58.368.08-Aug-2020 5149.01 4344.68 76.74 6.00 266.14 3335.00
   08:31:58.568.08-Aug-2020 5149.01 4344.68 76.74 6.00 266.34 3335.00
   08:31:58.768.08-Aug-2020 5149.01 4344.61 76.74 6.00 266.54 3335.00
   08:31:58.968.08-Aug-2020 5149.01 4344.91 76.74 6.00 266.74 3335.00
   08:31:59.168.08-Aug-2020 5149.01 4344.56 76.74 6.00 266.94 3335.00
   08:31:59.368.08-Aug-2020 5149.01 4344.86 76.74 6.00 267.14 3335.00
   08:31:59.569.08-Aug-2020 5149.01 4344.86 76.74 6.00 267.34 3335.00
   08:31:59.769.08-Aug-2020 5149.01 4344.73 76.74 6.00 267.54 3335.00
   08:31:59.969.08-Aug-2020 5149.01 4344.71 76.74 6.00 267.74 3335.00
   08:32:00.169.08-Aug-2020 5149.01 4344.66 76.74 6.00 267.94 3335.00
   08:32:00.369.08-Aug-2020 5149.01 4344.76 76.74 6.00 268.14 3335.00
   08:32:00.569.08-Aug-2020 5149.01 4344.76 76.74 6.00 268.34 3335.00
   08:32:00.769.08-Aug-2020 5149.01 4344.77 76.74 6.00 268.54 3335.00
   08:32:00.969.08-Aug-2020 5149.01 4344.82 76.74 6.00 268.74 3335.00
   08:32:01.169.08-Aug-2020 5149.01 4344.72 76.74 6.00 268.94 3335.00
   08:32:01.369.08-Aug-2020 5149.01 4344.81 76.74 6.00 269.14 3335.00
   08:32:01.570.08-Aug-2020 5149.01 4344.81 76.74 6.00 269.34 3335.00
   08:32:01.770.08-Aug-2020 5149.01 4344.69 76.74 6.00 269.54 3335.00
   08:32:01.970.08-Aug-2020 5149.01 4344.73 76.74 6.00 269.74 3335.00
   08:32:02.170.08-Aug-2020 5149.01 4344.68 76.74 6.00 269.94 3335.00
   08:32:02.370.08-Aug-2020 5149.01 4344.68 76.74 6.00 270.14 3335.00
   08:32:02.570.08-Aug-2020 5149.01 4344.68 76.74 6.00 270.34 3335.00
   08:32:02.770.08-Aug-2020 5149.01 4344.72 76.74 6.00 270.54 3335.00
   08:32:02.970.08-Aug-2020 5149.01 4344.72 76.74 6.00 270.74 3335.00
   08:32:03.170.08-Aug-2020 5149.01 4344.68 76.74 6.00 270.94 3335.00
   08:32:03.371.08-Aug-2020 5149.01 4344.71 76.74 6.00 271.14 3335.00
   08:32:03.571.08-Aug-2020 5149.01 4344.71 76.74 6.00 271.34 3335.00
   08:32:03.771.08-Aug-2020 5149.01 4344.80 76.74 6.00 271.54 3335.00
   08:32:03.971.08-Aug-2020 5149.01 4344.70 76.74 6.00 271.74 3335.00
   08:32:04.171.08-Aug-2020 5149.01 4344.78 76.74 6.00 271.94 3335.00
   08:32:04.371.08-Aug-2020 5149.01 4344.79 76.74 6.00 272.14 3335.00
   08:32:04.571.08-Aug-2020 5149.01 4344.79 76.74 6.00 272.34 3335.00
   08:32:04.771.08-Aug-2020 5149.01 4344.80 76.74 6.00 272.54 3335.00
   08:32:04.971.08-Aug-2020 5149.01 4344.74 76.74 6.00 272.74 3335.00
   08:32:05.171.08-Aug-2020 5149.01 4344.72 76.74 6.00 272.94 3335.00
   08:32:05.372.08-Aug-2020 5149.01 4344.71 76.74 6.00 273.14 3335.00
   08:32:05.572.08-Aug-2020 5149.01 4344.71 76.74 6.00 273.34 3335.00
   08:32:05.772.08-Aug-2020 5149.01 4344.82 76.74 6.00 273.54 3335.00
   08:32:05.972.08-Aug-2020 5149.01 4344.91 76.74 6.00 273.74 3335.00
   08:32:06.172.08-Aug-2020 5149.01 4344.74 76.74 6.00 273.94 3335.00
   08:32:06.372.08-Aug-2020 5149.01 4344.69 76.74 6.00 274.15 3335.00
   08:32:06.572.08-Aug-2020 5149.01 4344.69 76.74 6.00 274.35 3335.00
   08:32:06.772.08-Aug-2020 5149.01 4344.72 76.74 6.00 274.55 3335.00
   08:32:06.972.08-Aug-2020 5149.01 4344.74 76.74 6.00 274.75 3335.00
   08:32:07.173.08-Aug-2020 5149.01 4344.86 76.74 6.00 274.95 3335.00
   08:32:07.373.08-Aug-2020 5149.01 4344.81 76.74 6.00 275.15 3335.00
   08:32:07.573.08-Aug-2020 5149.01 4344.81 76.74 6.00 275.35 3335.00
   08:32:07.773.08-Aug-2020 5149.01 4344.79 76.74 6.00 275.55 3335.00
   08:32:07.973.08-Aug-2020 5149.01 4344.89 76.74 6.00 275.75 3335.00
   08:32:08.173.08-Aug-2020 5149.01 4344.78 76.74 6.00 275.95 3335.00
