~Version Information
 VERS.                  2.0:   CWLS log ASCII Standard -VERSION 2.0
 WRAP.                   NO:   One line per depth step
~Well Information Block
#MNEM.UNIT     VALUE/NAME     DESCRIPTION
#---------     -----------    ---------------------------
 STRT.S             07:09:07 08-Aug-20: START TIME 07:09:07 08-Aug-20
 STOP.S             07:17:38 08-Aug-20: STOP TIME  07:17:38 08-Aug-20
 STEP.S                   0.00: STEP TIME
 NULL.                 -999.25: NULL VALUE
 DFWT.                        :  DIST FWL TEXT
 DFST.                        :  DIST FSL TEXT
 DMF .             Drill Floor:  DRILL MEAS FROM
 STIM.      13.47.44 07-Jun-20:  START TIME
 DATE.      13.47.44 27-Jul-20:  END TIME
 SPUD.               07-Jun-20:  SPUD DATE
 NREF.                    Grid:  NORTH REFERENCE
 HPTY.       Minimum Curvature:  HOLE POS TYPE
 DMOD.             Drill Model:  DRILL MOD DESC
 SVYD.                  Survey:  SURVEY DESC
 ILTD.               Lithology:  INTERP LTH DESC
 FTOP.          Formation Tops:  FORM TOPS DESC
 RIG .             West Chirag:  RIG NAME
 PDAT.          Mean Sea Level:  PERMANENT DATUM
 FLD .                     ACG:  FIELD NAME
 SON .        AZ-XX-0906363612:  JOB NUMBER
 CTRY.              Azerbaijan:  COUNTRY NAME
 WELL.           J25 (Slot 35):  WELL NAME
 SRVC.          Turan Drilling:  CONTRACTOR
 COMP.     BP Exploration (Caspian Sea) Ltd:  COMPANY
 UWI .                     N/A:  UNIQUE WELL IDENTIFIER
 API .                     N/A:  API NUMBER
 BASE.              Azerbaijan:  LOGGING EQUIPMENT BASE LOCATION
 REGN.                   EESSA:  REGION
 PROV.                    Baku:  PROVINCE
 STAT.                    Baku:  STATE NAME
 MWDS.                     N/A:  MWD SHOP
 DOE .                     N/A:  DOE NUMBER
 DCON.         Sperry Drilling:  DIRECTNL CONTR
 UNIT.                     N/A:  LOGGING EQUIPMENT ID
 MDS .        Operator Entered:  MAG DATA SOURCE
 JOBN.        AZ-XX-0906363612:  JOB TICKET NUMB
 WTYP.                Deviated:  WELL TYPE
 CNTY.                        :  COUNTY
 LOC .                        :  LOCATION
 LMF .             Drill Floor:  LOG MEASURED FROM
 TVDS.m                  43.00:  TVDSS CORRECTN
 LATI.deg                40.13:  LATITUDE
 LONG.deg                51.22:  LONGITUDE
 WHNS.m                  -7.90:  WELL HEAD N/S
 WHEW.m                  -3.35:  WELL HEAD E/W
 UTMX.m              519005.06:  UTM X
 UTMY.m             4443793.85:  UTM Y
 DFWL.m                   0.00:  DISTANCE FWL
 DFSL.m                   0.00:  DISTANCE FSL
 SDEP.m                   0.00:  START DEPTH
 TDD .m                   0.00:  TOTAL DEPTH (DRILLER)
 VSDR.deg               308.97:  VERT SEC DIRECT
 GVFD.g                   1.00:  GRAVITY FIELD
 MFLD.nT              50350.00:  MAGNETIC FIELD
 MDIP.deg                59.62:  MAGNETIC DIP
 MDEC.deg                 6.44:  MAGNETIC DECL
 GRDC.deg                 0.13:  GRID CORRECTION
 AZTC.deg                 6.32:  AZM TOTAL CORR
 EPD .m                   0.00:  ELEVATION
 EGL .m                   0.00:  GROUND ELEVATION
 WDMS.m                 169.80:  WD ELEV
 APD .m                  43.00:  DEPTH ABOVE PD
 DEP .m                 356.43:  DEPTH
 AGAP.m                  43.00:  AIR GAP
 VSEW.m                  -3.35:  VERT SEC E/W
 VSNS.m                  -7.90:  VERT SEC N/S
 EKB .m                  43.00:  KB ELEVATION
 EDF .m                  43.00:  DF ELEVATION
 TDL .m                 934.00:  TOTAL DEPTH (LOGGER)
 VSC .                       0:  VS TO CLOSURE
 MAGU.                 1852825:  MAGUTM CHECKSUM
~Parameter Information Block
#MNEM.UNIT       Value        Description
#---------     -----------    ---------------------------
 AV  .mps                 0.80:  Ann Velocity 
 AVMX.mps                 1.70:  Max Ann Veloc 
 AZIF.deg               311.41:  Azm, Final 
 BHAT.        Rotary Steerable:  BHA Type 
 BROT.°/30m               0.09:  Build Rotating 
 BS  .in                 12.25:  Bit Size 
 BSZ .in                 12.25:  Bit Size 
 BTPL.psig              800.00:  Bit Press Loss 
 CABU.                      No:  Customer Abuse 
 COMM.                     „Òs:  Run Comments 1 
 TCS .hr                 96.00:  Time Ciculation Ended 
 CV  .mps                 2.03:  Crit Velocity 
 CVMX.mps                 2.42:  Max Crit Veloc 
 DD1 .          Taghi Taghiyev:  Direct Drillr 1 
 DD2 .      Tariel Pirmammadov:  Direct Drillr 2 
 DD3 .          Teymur Aghayev:  Direct Drillr 3 
 DDSV.                 iCruise:  DD Service 
 DEFF.%                  98.70:  % Det Eff 
 DLRX.°/30m               1.00:  Dogleg Rot Max 
 DLSO.°/30m               1.80:  Dogleg Oriented 
 DLSX.°/30m               3.16:  Dogleg Str Max 
 DRET.      15.00.00 07-Aug-20:  Drill End Time 
 DRST.      17.00.00 02-Aug-20:  Drill Start Tim 
 DTIM.hr                 45.90:  Time Drilling 
 EDEP.m                5298.01:  End Depth 
 ENG1.       Seymur Iskandarov:  Engineer 1 
 ENG2.         Yevgeniy Ulikov:  Engineer 2 
 ENG3.      Artemiy Matviyanov:  Engineer 3 
 ENG4.         Bahruz Mehdiyev:  Engineer 4 
 ETIM.      05.00.00 10-Aug-20:  End Time 
 FLOI.gpm              1150.00:  Flow In 
 FLON.gpm               900.00:  Flow In Min 
 FLOS.cptm                0.00:  Fluid Loss 
 FLOX.gpm              1200.00:  Flow In Max 
 FTRO.     Connectivity, Formation Presure:  FTWD Run Obj 
 HFLO.                      No:  High Flow 
 HPRE.                     Yes:  High Pressure 
 HTEM.                      No:  High Temp 
 HYDO.m                   1.80:  Hydro Offset 
 IFIN.deg                 9.71:  Inc, Final 
 IMAX.deg                63.81:  Inc Max 
 IMIN.deg                 9.53:  Inc Min 
 IMND.m                5075.52:  Inc Min Depth 
 IMXD.m                4367.08:  Inc Max Depth 
 JARR.                      No:  Jarring 
 LETM.      15.00.00 07-Aug-20:  Log End Time 
 LOST.hr                     2:  Lost Rig Time 
 LSTM.      17.00.00 02-Aug-20:  Log Start Time 
 MDCL.ppm             42500.00:  Mud Chlorides 
 MDES.     Inversion Oil/Synthetic:  Mud Desc 
 DFD .sg                  1.46:  Mud Density 
 MDMN.sg                  1.46:  Dens Mud Min 
 MDMX.sg                  1.46:  Dens Mud Max 
 MOIL.                      56:  Run Mud Oil % 
 MOWR.                   70:30:  Run Mud OWR 
 MSND.                     0.1:  Run Mud Sand % 
 MSOL.                      19:  Run Mud Solids% 
 DFV .spqt               83.00:  Mud Viscosity 
 MWOD.in                  8.00:  MWD Tool OD 
 MWSI.                     Yes:  Serv Intrp, MWD 
 OTIM.hr                196.57:  Time Operating 
 PCON.           Look Like New:  Pad Condition 
 PMAX.psia             7400.00:  Press Op, Max 
 PV  .cP                 36.00:  Mud PV 
 RUN .                    1000:  Run Number 
 ROPA.m/hr               25.00:  ROP Avg 
 ROPN.m/hr               10.00:  ROP Min 
 ROPX.m/hr               32.00:  ROP Max 
 RPMA.rpm               120.00:  RPM Surface Avg 
 RPMN.rpm               100.00:  RPM Surface Min 
 RPMX.rpm               140.00:  RPM Surface Max 
 RRUN.                    L504:  Rig Run Number 
 SAZI.deg               308.25:  Azm, Start 
 SDEP.m                4364.01:  Start Depth 
 SIDD.                      No:  Serv Intrp, DD 
 SINC.deg                63.81:  Inc, Start 
 SPPA.psig             5800.00:  SPP Avg 
 SPPN.psig             4200.00:  SPP Min 
 SPPX.psig             5950.00:  SPP Max 
 STIM.      18.00.00 01-Aug-20:  Start Time 
 SVCS.                 DD, MWD:  Services 
 SVER.                    9.20:  Sperry Version 
 TDAT.m                 934.00:  Tot Depth Attmp 
 TDDF.                      No:  Trip for DD 
 TDLG.m                 934.00:  Tot Depth Loggd 
 TFF .                      No:  Trip for Fail 
 TQAA.f-kp               31.00:  Torque Abs Avg 
 TQAN.f-kp               25.00:  Torque Abs Min 
 TQAX.f-kp               35.00:  Torque Abs Max 
 TRRT.°/30m              -0.75:  Turn Rotating 
 MRT .                  EWR-M5:  Maximum Recorded Temperature 
 TTMX.degC               95.00:  Max Tool Temp 
 VS01.                90516060:  Virtual Str1 SN 
 VS02.                90528488:  Virtual Str2 SN 
 VS03.                90577970:  Virtual Str3 SN 
 VS04.                12385033:  Virtual Str4 SN 
 VS05.                90522069:  Virtual Str5 SN 
 VS06.                13124134:  Virtual Str6 SN 
 WBMN.klb                20.00:  WOB Min 
 WITN.         Alistair Sprott:  Customer Rep 
 WITN.     Ronal van der Kraan:  Customer Rep 2 
 WOBA.klb                25.00:  WOB Avg 
 WOBX.klb                31.00:  WOB Max 
 YP  .lhf2               32.00:  Yield Point 
~Curve Information Block
#MNEM.UNIT                 API CODE     Curve Description
#---------               -----------    ---------------------------
 TIME.HHMMSS            00 000 000 000:  GT Time & Date
 GTDEPTH.m              00 000 000 000:  GT Depth
 GTPQH.psia             00 000 000 000:  GT HR Quartz Pressure
 GTTQ.degC              00 000 000 000:  GT Quartz Temperature
 GTTN.NONE              00 000 000 000:  GT Test Number
 GTET.sec               00 000 000 000:  GT Elapsed Test Time
 GTTVD.m                00 000 000 000:  GT True Vertical Depth
#Other Information
#
#WARRANTY: Halliburton will use its best efforts to furnish customers with 
#accurate information and interpretations that are part of, and incident to, the services 
#provided.  However, Halliburton cannot and does not warrant the accuracy 
#or correctness of such information and interpretations.  Under no circumstances should any 
#such information or interpretation be relied upon as the sole basis for any drilling, 
#completion, production, or financial decision or any procedure involving any risk to the 
#safety of any drilling venture, drilling rig or its crew or any other third party.  The 
#Customer has full responsibility for all drilling, completion and production operation.  
#Halliburton makes no representations or warranties, either expressed or 
#implied, including, but not limited to, the implied warranties of merchantability or fitness 
#for a particular purpose, with respect to the services rendered.  In no event will 
#Halliburton be liable for failure to obtain any particular results or for 
#any damages, including, but not limited to, indirect, special or consequential damages, 
#resulting from the use of any information or interpretation provided by Halliburton.
#
~A           TIME           GTDEPTH  GTPQH  GTTQ  GTTN  GTET   GTTVD  
# ...
   07:13:20.000.08-Aug-2020 5163.51 4258.56 78.18 5.00 253.00 3349.29
   07:13:20.200.08-Aug-2020 5163.51 4258.56 78.18 5.00 253.20 3349.29
   07:13:20.400.08-Aug-2020 5163.51 4258.55 78.18 5.00 253.40 3349.29
   07:13:20.600.08-Aug-2020 5163.51 4258.52 78.18 5.00 253.60 3349.29
   07:13:20.800.08-Aug-2020 5163.51 4258.56 78.18 5.00 253.80 3349.29
   07:13:21.000.08-Aug-2020 5163.51 4258.33 78.18 5.00 254.00 3349.29
   07:13:21.200.08-Aug-2020 5163.51 4258.33 78.18 5.00 254.20 3349.29
   07:13:21.400.08-Aug-2020 5163.51 4258.95 78.18 5.00 254.40 3349.29
   07:13:21.600.08-Aug-2020 5163.51 4258.37 78.18 5.00 254.60 3349.29
   07:13:21.800.08-Aug-2020 5163.51 4259.10 78.18 5.00 254.80 3349.29
   07:13:22.000.08-Aug-2020 5163.51 4258.94 78.18 5.00 255.00 3349.29
   07:13:22.200.08-Aug-2020 5163.51 4258.94 78.18 5.00 255.20 3349.29
   07:13:22.400.08-Aug-2020 5163.51 4258.79 78.18 5.00 255.40 3349.29
   07:13:22.600.08-Aug-2020 5163.51 4258.77 78.18 5.00 255.60 3349.29
   07:13:22.800.08-Aug-2020 5163.51 4258.38 78.18 5.00 255.80 3349.29
   07:13:23.000.08-Aug-2020 5163.51 4258.91 78.18 5.00 256.00 3349.29
   07:13:23.200.08-Aug-2020 5163.51 4258.91 78.18 5.00 256.20 3349.29
   07:13:23.400.08-Aug-2020 5163.51 4258.77 78.18 5.00 256.40 3349.29
   07:13:23.600.08-Aug-2020 5163.51 4259.13 78.18 5.00 256.60 3349.29
   07:13:23.800.08-Aug-2020 5163.51 4259.34 78.18 5.00 256.80 3349.29
   07:13:24.000.08-Aug-2020 5163.51 4258.90 78.18 5.00 257.00 3349.29
   07:13:24.200.08-Aug-2020 5163.51 4258.90 78.18 5.00 257.20 3349.29
   07:13:24.400.08-Aug-2020 5163.51 4258.64 78.18 5.00 257.40 3349.29
   07:13:24.600.08-Aug-2020 5163.51 4259.19 78.18 5.00 257.60 3349.29
   07:13:24.800.08-Aug-2020 5163.51 4259.07 78.18 5.00 257.80 3349.29
   07:13:25.000.08-Aug-2020 5163.51 4259.27 78.18 5.00 258.00 3349.29
   07:13:25.200.08-Aug-2020 5163.51 4259.27 78.18 5.00 258.20 3349.29
   07:13:25.400.08-Aug-2020 5163.51 4259.02 78.17 5.00 258.40 3349.29
   07:13:25.600.08-Aug-2020 5163.51 4259.13 78.18 5.00 258.60 3349.29
   07:13:25.800.08-Aug-2020 5163.51 4259.17 78.17 5.00 258.80 3349.29
   07:13:26.000.08-Aug-2020 5163.51 4259.09 78.17 5.00 259.00 3349.29
   07:13:26.200.08-Aug-2020 5163.51 4259.09 78.17 5.00 259.20 3349.29
   07:13:26.400.08-Aug-2020 5163.51 4259.21 78.17 5.00 259.40 3349.29
   07:13:26.600.08-Aug-2020 5163.51 4259.22 78.17 5.00 259.60 3349.29
   07:13:26.800.08-Aug-2020 5163.51 4258.97 78.17 5.00 259.80 3349.29
   07:13:27.000.08-Aug-2020 5163.51 4259.11 78.17 5.00 260.00 3349.29
   07:13:27.200.08-Aug-2020 5163.51 4259.11 78.17 5.00 260.20 3349.29
   07:13:27.400.08-Aug-2020 5163.51 4259.10 78.17 5.00 260.40 3349.29
   07:13:27.600.08-Aug-2020 5163.51 4259.14 78.17 5.00 260.60 3349.29
   07:13:27.800.08-Aug-2020 5163.51 4258.69 78.17 5.00 260.80 3349.29
   07:13:28.000.08-Aug-2020 5163.51 4259.57 78.17 5.00 261.00 3349.29
   07:13:28.200.08-Aug-2020 5163.51 4259.57 78.17 5.00 261.20 3349.29
   07:13:28.400.08-Aug-2020 5163.51 4259.12 78.17 5.00 261.40 3349.29
   07:13:28.600.08-Aug-2020 5163.51 4259.19 78.17 5.00 261.60 3349.29
   07:13:28.800.08-Aug-2020 5163.51 4259.10 78.17 5.00 261.80 3349.29
   07:13:29.000.08-Aug-2020 5163.51 4259.05 78.17 5.00 262.00 3349.29
   07:13:29.200.08-Aug-2020 5163.51 4259.05 78.17 5.00 262.20 3349.29
   07:13:29.400.08-Aug-2020 5163.51 4259.20 78.17 5.00 262.40 3349.29
   07:13:29.600.08-Aug-2020 5163.51 4259.15 78.17 5.00 262.60 3349.29
   07:13:29.800.08-Aug-2020 5163.51 4259.15 78.17 5.00 262.80 3349.29
   07:13:30.000.08-Aug-2020 5163.51 4259.13 78.17 5.00 263.00 3349.29
   07:13:30.200.08-Aug-2020 5163.51 4259.13 78.17 5.00 263.20 3349.29
   07:13:30.400.08-Aug-2020 5163.51 4259.08 78.17 5.00 263.40 3349.29
   07:13:30.600.08-Aug-2020 5163.51 4259.15 78.17 5.00 263.60 3349.29
   07:13:30.800.08-Aug-2020 5163.51 4259.11 78.17 5.00 263.80 3349.29
   07:13:31.000.08-Aug-2020 5163.51 4258.85 78.17 5.00 264.00 3349.29
   07:13:31.200.08-Aug-2020 5163.51 4258.85 78.17 5.00 264.20 3349.29
   07:13:31.400.08-Aug-2020 5163.51 4259.61 78.17 5.00 264.40 3349.29
   07:13:31.600.08-Aug-2020 5163.51 4258.92 78.17 5.00 264.60 3349.29
   07:13:31.800.08-Aug-2020 5163.51 4259.60 78.17 5.00 264.80 3349.29
   07:13:32.000.08-Aug-2020 5163.51 4259.51 78.17 5.00 265.00 3349.29
   07:13:32.200.08-Aug-2020 5163.51 4259.51 78.17 5.00 265.20 3349.29
   07:13:32.400.08-Aug-2020 5163.51 4259.25 78.17 5.00 265.40 3349.29
   07:13:32.600.08-Aug-2020 5163.51 4259.31 78.17 5.00 265.60 3349.29
   07:13:32.800.08-Aug-2020 5163.51 4259.03 78.17 5.00 265.80 3349.29
   07:13:33.000.08-Aug-2020 5163.51 4259.04 78.17 5.00 266.00 3349.29
   07:13:33.200.08-Aug-2020 5163.51 4259.04 78.17 5.00 266.20 3349.29
   07:13:33.400.08-Aug-2020 5163.51 4259.19 78.17 5.00 266.40 3349.29
   07:13:33.600.08-Aug-2020 5163.51 4259.57 78.17 5.00 266.60 3349.29
   07:13:33.800.08-Aug-2020 5163.51 4259.82 78.17 5.00 266.80 3349.29
   07:13:34.000.08-Aug-2020 5163.51 4259.28 78.17 5.00 267.00 3349.29
   07:13:34.200.08-Aug-2020 5163.51 4259.28 78.17 5.00 267.20 3349.29
   07:13:34.400.08-Aug-2020 5163.51 4259.38 78.17 5.00 267.40 3349.29
   07:13:34.600.08-Aug-2020 5163.51 4259.41 78.17 5.00 267.60 3349.29
   07:13:34.800.08-Aug-2020 5163.51 4259.42 78.17 5.00 267.80 3349.29
   07:13:35.000.08-Aug-2020 5163.51 4259.45 78.17 5.00 268.00 3349.29
   07:13:35.200.08-Aug-2020 5163.51 4259.45 78.17 5.00 268.20 3349.29
   07:13:35.400.08-Aug-2020 5163.51 4259.37 78.17 5.00 268.40 3349.29
   07:13:35.600.08-Aug-2020 5163.51 4259.35 78.17 5.00 268.60 3349.29
   07:13:35.800.08-Aug-2020 5163.51 4259.22 78.17 5.00 268.80 3349.29
   07:13:36.000.08-Aug-2020 5163.51 4259.36 78.17 5.00 269.00 3349.29
   07:13:36.200.08-Aug-2020 5163.51 4259.36 78.17 5.00 269.20 3349.29
   07:13:36.400.08-Aug-2020 5163.51 4259.41 78.17 5.00 269.40 3349.29
   07:13:36.600.08-Aug-2020 5163.51 4259.51 78.17 5.00 269.60 3349.29
   07:13:36.800.08-Aug-2020 5163.51 4259.51 78.17 5.00 269.80 3349.29
   07:13:37.000.08-Aug-2020 5163.51 4259.49 78.17 5.00 270.00 3349.29
   07:13:37.200.08-Aug-2020 5163.51 4259.49 78.17 5.00 270.20 3349.29
   07:13:37.400.08-Aug-2020 5163.51 4259.38 78.17 5.00 270.40 3349.29
   07:13:37.600.08-Aug-2020 5163.51 4259.40 78.17 5.00 270.60 3349.29
   07:13:37.800.08-Aug-2020 5163.51 4259.49 78.16 5.00 270.80 3349.29
   07:13:38.000.08-Aug-2020 5163.51 4259.69 78.16 5.00 271.00 3349.29
   07:13:38.200.08-Aug-2020 5163.51 4259.69 78.16 5.00 271.20 3349.29
   07:13:38.400.08-Aug-2020 5163.51 4259.57 78.16 5.00 271.40 3349.29
   07:13:38.600.08-Aug-2020 5163.51 4259.54 78.16 5.00 271.60 3349.29
   07:13:38.800.08-Aug-2020 5163.51 4259.54 78.16 5.00 271.80 3349.29
   07:13:39.000.08-Aug-2020 5163.51 4259.49 78.16 5.00 272.00 3349.29
   07:13:39.200.08-Aug-2020 5163.51 4259.49 78.16 5.00 272.20 3349.29
   07:13:39.400.08-Aug-2020 5163.51 4259.51 78.16 5.00 272.40 3349.29
   07:13:39.600.08-Aug-2020 5163.51 4259.40 78.16 5.00 272.60 3349.29
   07:13:39.800.08-Aug-2020 5163.51 4259.44 78.16 5.00 272.80 3349.29
   07:13:40.000.08-Aug-2020 5163.51 4259.47 78.16 5.00 273.00 3349.29
   07:13:40.200.08-Aug-2020 5163.51 4259.47 78.16 5.00 273.20 3349.29
   07:13:40.400.08-Aug-2020 5163.51 4259.52 78.16 5.00 273.40 3349.29
   07:13:40.600.08-Aug-2020 5163.51 4259.60 78.16 5.00 273.60 3349.29
   07:13:40.800.08-Aug-2020 5163.51 4259.68 78.16 5.00 273.80 3349.29
   07:13:41.000.08-Aug-2020 5163.51 4259.70 78.16 5.00 274.00 3349.29
   07:13:41.200.08-Aug-2020 5163.51 4259.70 78.16 5.00 274.20 3349.29
   07:13:41.400.08-Aug-2020 5163.51 4259.65 78.16 5.00 274.40 3349.29
   07:13:41.600.08-Aug-2020 5163.51 4259.65 78.16 5.00 274.60 3349.29
   07:13:41.800.08-Aug-2020 5163.51 4259.75 78.16 5.00 274.80 3349.29
   07:13:42.000.08-Aug-2020 5163.51 4259.70 78.16 5.00 275.00 3349.29
   07:13:42.200.08-Aug-2020 5163.51 4259.70 78.16 5.00 275.20 3349.29
   07:13:42.400.08-Aug-2020 5163.51 4259.54 78.16 5.00 275.40 3349.29
   07:13:42.600.08-Aug-2020 5163.51 4259.54 78.16 5.00 275.60 3349.29
   07:13:42.800.08-Aug-2020 5163.51 4259.81 78.16 5.00 275.80 3349.29
