~Version Information
 VERS.                  2.0:   CWLS log ASCII Standard -VERSION 2.0
 WRAP.                   NO:   One line per depth step
~Well Information Block
#MNEM.UNIT     VALUE/NAME     DESCRIPTION
#---------     -----------    ---------------------------
 STRT.S             09:23:14 08-Aug-20: START TIME 09:23:14 08-Aug-20
 STOP.S             09:28:51 08-Aug-20: STOP TIME  09:28:51 08-Aug-20
 STEP.S                   0.00: STEP TIME
 NULL.                 -999.25: NULL VALUE
 DFWT.                        :  DIST FWL TEXT
 DFST.                        :  DIST FSL TEXT
 DMF .             Drill Floor:  DRILL MEAS FROM
 STIM.      13.47.44 07-Jun-20:  START TIME
 DATE.      13.47.44 27-Jul-20:  END TIME
 SPUD.               07-Jun-20:  SPUD DATE
 NREF.                    Grid:  NORTH REFERENCE
 HPTY.       Minimum Curvature:  HOLE POS TYPE
 DMOD.             Drill Model:  DRILL MOD DESC
 SVYD.                  Survey:  SURVEY DESC
 ILTD.               Lithology:  INTERP LTH DESC
 FTOP.          Formation Tops:  FORM TOPS DESC
 RIG .             West Chirag:  RIG NAME
 PDAT.          Mean Sea Level:  PERMANENT DATUM
 FLD .                     ACG:  FIELD NAME
 SON .        AZ-XX-0906363612:  JOB NUMBER
 CTRY.              Azerbaijan:  COUNTRY NAME
 WELL.           J25 (Slot 35):  WELL NAME
 SRVC.          Turan Drilling:  CONTRACTOR
 COMP.     BP Exploration (Caspian Sea) Ltd:  COMPANY
 UWI .                     N/A:  UNIQUE WELL IDENTIFIER
 API .                     N/A:  API NUMBER
 BASE.              Azerbaijan:  LOGGING EQUIPMENT BASE LOCATION
 REGN.                   EESSA:  REGION
 PROV.                    Baku:  PROVINCE
 STAT.                    Baku:  STATE NAME
 MWDS.                     N/A:  MWD SHOP
 DOE .                     N/A:  DOE NUMBER
 DCON.         Sperry Drilling:  DIRECTNL CONTR
 UNIT.                     N/A:  LOGGING EQUIPMENT ID
 MDS .        Operator Entered:  MAG DATA SOURCE
 JOBN.        AZ-XX-0906363612:  JOB TICKET NUMB
 WTYP.                Deviated:  WELL TYPE
 CNTY.                        :  COUNTY
 LOC .                        :  LOCATION
 LMF .             Drill Floor:  LOG MEASURED FROM
 TVDS.m                  43.00:  TVDSS CORRECTN
 LATI.deg                40.13:  LATITUDE
 LONG.deg                51.22:  LONGITUDE
 WHNS.m                  -7.90:  WELL HEAD N/S
 WHEW.m                  -3.35:  WELL HEAD E/W
 UTMX.m              519005.06:  UTM X
 UTMY.m             4443793.85:  UTM Y
 DFWL.m                   0.00:  DISTANCE FWL
 DFSL.m                   0.00:  DISTANCE FSL
 SDEP.m                   0.00:  START DEPTH
 TDD .m                   0.00:  TOTAL DEPTH (DRILLER)
 VSDR.deg               308.97:  VERT SEC DIRECT
 GVFD.g                   1.00:  GRAVITY FIELD
 MFLD.nT              50350.00:  MAGNETIC FIELD
 MDIP.deg                59.62:  MAGNETIC DIP
 MDEC.deg                 6.44:  MAGNETIC DECL
 GRDC.deg                 0.13:  GRID CORRECTION
 AZTC.deg                 6.32:  AZM TOTAL CORR
 EPD .m                   0.00:  ELEVATION
 EGL .m                   0.00:  GROUND ELEVATION
 WDMS.m                 169.80:  WD ELEV
 APD .m                  43.00:  DEPTH ABOVE PD
 DEP .m                 356.43:  DEPTH
 AGAP.m                  43.00:  AIR GAP
 VSEW.m                  -3.35:  VERT SEC E/W
 VSNS.m                  -7.90:  VERT SEC N/S
 EKB .m                  43.00:  KB ELEVATION
 EDF .m                  43.00:  DF ELEVATION
 TDL .m                 934.00:  TOTAL DEPTH (LOGGER)
 VSC .                       0:  VS TO CLOSURE
 MAGU.                 1852825:  MAGUTM CHECKSUM
~Parameter Information Block
#MNEM.UNIT       Value        Description
#---------     -----------    ---------------------------
 AV  .mps                 0.80:  Ann Velocity 
 AVMX.mps                 1.70:  Max Ann Veloc 
 AZIF.deg               311.41:  Azm, Final 
 BHAT.        Rotary Steerable:  BHA Type 
 BROT.°/30m               0.09:  Build Rotating 
 BS  .in                 12.25:  Bit Size 
 BSZ .in                 12.25:  Bit Size 
 BTPL.psig              800.00:  Bit Press Loss 
 CABU.                      No:  Customer Abuse 
 TCS .hr                 96.00:  Time Ciculation Ended 
 CV  .mps                 2.03:  Crit Velocity 
 CVMX.mps                 2.42:  Max Crit Veloc 
 DD1 .          Taghi Taghiyev:  Direct Drillr 1 
 DD2 .      Tariel Pirmammadov:  Direct Drillr 2 
 DD3 .          Teymur Aghayev:  Direct Drillr 3 
 DDSV.                 iCruise:  DD Service 
 DEFF.%                  98.70:  % Det Eff 
 DLRX.°/30m               1.00:  Dogleg Rot Max 
 DLSO.°/30m               1.80:  Dogleg Oriented 
 DLSX.°/30m               3.16:  Dogleg Str Max 
 DRET.      15.00.00 07-Aug-20:  Drill End Time 
 DRST.      17.00.00 02-Aug-20:  Drill Start Tim 
 DTIM.hr                 45.90:  Time Drilling 
 EDEP.m                5298.01:  End Depth 
 ENG1.       Seymur Iskandarov:  Engineer 1 
 ENG2.         Yevgeniy Ulikov:  Engineer 2 
 ENG3.      Artemiy Matviyanov:  Engineer 3 
 ENG4.         Bahruz Mehdiyev:  Engineer 4 
 ETIM.      05.00.00 10-Aug-20:  End Time 
 FLOI.gpm              1150.00:  Flow In 
 FLON.gpm               900.00:  Flow In Min 
 FLOS.cptm                0.00:  Fluid Loss 
 FLOX.gpm              1200.00:  Flow In Max 
 FTRO.     Connectivity, Formation Presure:  FTWD Run Obj 
 HFLO.                      No:  High Flow 
 HPRE.                     Yes:  High Pressure 
 HTEM.                      No:  High Temp 
 HYDO.m                   1.80:  Hydro Offset 
 IFIN.deg                 9.71:  Inc, Final 
 IMAX.deg                63.81:  Inc Max 
 IMIN.deg                 9.53:  Inc Min 
 IMND.m                5075.52:  Inc Min Depth 
 IMXD.m                4367.08:  Inc Max Depth 
 JARR.                      No:  Jarring 
 LETM.      15.00.00 07-Aug-20:  Log End Time 
 LOST.hr                     2:  Lost Rig Time 
 LSTM.      17.00.00 02-Aug-20:  Log Start Time 
 MDCL.ppm             42500.00:  Mud Chlorides 
 MDES.     Inversion Oil/Synthetic:  Mud Desc 
 DFD .sg                  1.46:  Mud Density 
 MDMN.sg                  1.46:  Dens Mud Min 
 MDMX.sg                  1.46:  Dens Mud Max 
 MOIL.                      56:  Run Mud Oil % 
 MOWR.                   70:30:  Run Mud OWR 
 MSND.                     0.1:  Run Mud Sand % 
 MSOL.                      19:  Run Mud Solids% 
 DFV .spqt               83.00:  Mud Viscosity 
 MWOD.in                  8.00:  MWD Tool OD 
 MWSI.                     Yes:  Serv Intrp, MWD 
 OTIM.hr                196.57:  Time Operating 
 PCON.           Look Like New:  Pad Condition 
 PMAX.psia             7400.00:  Press Op, Max 
 PV  .cP                 36.00:  Mud PV 
 RUN .                    1000:  Run Number 
 ROPA.m/hr               25.00:  ROP Avg 
 ROPN.m/hr               10.00:  ROP Min 
 ROPX.m/hr               32.00:  ROP Max 
 RPMA.rpm               120.00:  RPM Surface Avg 
 RPMN.rpm               100.00:  RPM Surface Min 
 RPMX.rpm               140.00:  RPM Surface Max 
 RRUN.                    L504:  Rig Run Number 
 SAZI.deg               308.25:  Azm, Start 
 SDEP.m                4364.01:  Start Depth 
 SIDD.                      No:  Serv Intrp, DD 
 SINC.deg                63.81:  Inc, Start 
 SPPA.psig             5800.00:  SPP Avg 
 SPPN.psig             4200.00:  SPP Min 
 SPPX.psig             5950.00:  SPP Max 
 STIM.      18.00.00 01-Aug-20:  Start Time 
 SVCS.                 DD, MWD:  Services 
 SVER.                    9.20:  Sperry Version 
 TDAT.m                 934.00:  Tot Depth Attmp 
 TDDF.                      No:  Trip for DD 
 TDLG.m                 934.00:  Tot Depth Loggd 
 TFF .                      No:  Trip for Fail 
 TQAA.f-kp               31.00:  Torque Abs Avg 
 TQAN.f-kp               25.00:  Torque Abs Min 
 TQAX.f-kp               35.00:  Torque Abs Max 
 TRRT.°/30m              -0.75:  Turn Rotating 
 MRT .                  EWR-M5:  Maximum Recorded Temperature 
 TTMX.degC               95.00:  Max Tool Temp 
 VS01.                90516060:  Virtual Str1 SN 
 VS02.                90528488:  Virtual Str2 SN 
 VS03.                90577970:  Virtual Str3 SN 
 VS04.                12385033:  Virtual Str4 SN 
 VS05.                90522069:  Virtual Str5 SN 
 VS06.                13124134:  Virtual Str6 SN 
 WBMN.klb                20.00:  WOB Min 
 WITN.         Alistair Sprott:  Customer Rep 
 WITN.     Ronal van der Kraan:  Customer Rep 2 
 WOBA.klb                25.00:  WOB Avg 
 WOBX.klb                31.00:  WOB Max 
 YP  .lhf2               32.00:  Yield Point 
~Curve Information Block
#MNEM.UNIT                 API CODE     Curve Description
#---------               -----------    ---------------------------
 TIME.HHMMSS            00 000 000 000:  GT Time & Date
 GTDEPTH.m              00 000 000 000:  GT Depth
 GTPQH.psia             00 000 000 000:  GT HR Quartz Pressure
 GTTQ.degC              00 000 000 000:  GT Quartz Temperature
 GTTN.NONE              00 000 000 000:  GT Test Number
 GTET.sec               00 000 000 000:  GT Elapsed Test Time
 GTTVD.m                00 000 000 000:  GT True Vertical Depth
#Other Information
#
#WARRANTY: Halliburton will use its best efforts to furnish customers with 
#accurate information and interpretations that are part of, and incident to, the services 
#provided.  However, Halliburton cannot and does not warrant the accuracy 
#or correctness of such information and interpretations.  Under no circumstances should any 
#such information or interpretation be relied upon as the sole basis for any drilling, 
#completion, production, or financial decision or any procedure involving any risk to the 
#safety of any drilling venture, drilling rig or its crew or any other third party.  The 
#Customer has full responsibility for all drilling, completion and production operation.  
#Halliburton makes no representations or warranties, either expressed or 
#implied, including, but not limited to, the implied warranties of merchantability or fitness 
#for a particular purpose, with respect to the services rendered.  In no event will 
#Halliburton be liable for failure to obtain any particular results or for 
#any damages, including, but not limited to, indirect, special or consequential damages, 
#resulting from the use of any information or interpretation provided by Halliburton.
#
~A           TIME           GTDEPTH  GTPQH  GTTQ  GTTN  GTET   GTTVD  
# ...
   09:24:01.020.08-Aug-2020 5133.51 7137.11 75.17 8.00  46.02 3319.72
   09:24:01.220.08-Aug-2020 5133.51 7137.11 75.17 8.00  46.22 3319.72
   09:24:01.420.08-Aug-2020 5133.51 7134.96 75.17 8.00  46.42 3319.72
   09:24:01.620.08-Aug-2020 5133.51 7134.42 75.17 8.00  46.62 3319.72
   09:24:01.820.08-Aug-2020 5133.51 7134.05 75.17 8.00  46.82 3319.72
   09:24:02.020.08-Aug-2020 5133.51 7135.29 75.17 8.00  47.02 3319.72
   09:24:02.220.08-Aug-2020 5133.51 7138.63 75.17 8.00  47.22 3319.72
   09:24:02.421.08-Aug-2020 5133.51 7134.11 75.17 8.00  47.43 3319.72
   09:24:02.621.08-Aug-2020 5133.51 7136.92 75.17 8.00  47.63 3319.72
   09:24:02.821.08-Aug-2020 5133.51 7135.44 75.17 8.00  47.83 3319.72
   09:24:03.021.08-Aug-2020 5133.51 7135.81 75.17 8.00  48.03 3319.72
   09:24:03.221.08-Aug-2020 5133.51 7135.64 75.17 8.00  48.23 3319.72
   09:24:03.421.08-Aug-2020 5133.51 7134.65 75.17 8.00  48.43 3319.72
   09:24:03.621.08-Aug-2020 5133.51 7134.99 75.17 8.00  48.63 3319.72
   09:24:03.821.08-Aug-2020 5133.51 7133.69 75.17 8.00  48.83 3319.72
   09:24:04.021.08-Aug-2020 5133.51 7135.45 75.17 8.00  49.03 3319.72
   09:24:04.221.08-Aug-2020 5133.51 7134.04 75.17 8.00  49.23 3319.72
   09:24:04.422.08-Aug-2020 5133.51 7134.86 75.17 8.00  49.43 3319.72
   09:24:04.622.08-Aug-2020 5133.51 7134.35 75.17 8.00  49.63 3319.72
   09:24:04.822.08-Aug-2020 5133.51 7134.23 75.17 8.00  49.83 3319.72
   09:24:05.022.08-Aug-2020 5133.51 7133.82 75.17 8.00  50.03 3319.72
   09:24:05.222.08-Aug-2020 5133.51 7133.82 75.17 8.00  50.23 3319.72
   09:24:05.422.08-Aug-2020 5133.51 7133.55 75.17 8.00  50.43 3319.72
   09:24:05.622.08-Aug-2020 5133.51 7123.22 75.17 8.00  50.63 3319.72
   09:24:05.822.08-Aug-2020 5133.51 7085.44 75.17 8.00  50.83 3319.72
   09:24:06.022.08-Aug-2020 5133.51 7056.64 75.17 8.00  51.03 3319.72
   09:24:06.223.08-Aug-2020 5133.51 7056.64 75.17 8.00  51.23 3319.72
   09:24:06.423.08-Aug-2020 5133.51 6834.27 75.17 8.00  51.43 3319.72
   09:24:06.623.08-Aug-2020 5133.51 6782.63 75.17 8.00  51.63 3319.72
   09:24:06.823.08-Aug-2020 5133.51 6718.68 75.17 8.00  51.83 3319.72
   09:24:07.023.08-Aug-2020 5133.51 6620.63 75.17 8.00  52.03 3319.72
   09:24:07.223.08-Aug-2020 5133.51 6620.63 75.17 8.00  52.23 3319.72
   09:24:07.423.08-Aug-2020 5133.51 6631.39 75.17 8.00  52.43 3319.72
   09:24:07.623.08-Aug-2020 5133.51 6672.70 75.17 8.00  52.63 3319.72
   09:24:07.823.08-Aug-2020 5133.51 6655.87 75.17 8.00  52.83 3319.72
   09:24:08.023.08-Aug-2020 5133.51 6703.76 75.17 8.00  53.03 3319.72
   09:24:08.224.08-Aug-2020 5133.51 6703.76 75.17 8.00  53.23 3319.72
   09:24:08.424.08-Aug-2020 5133.51 6764.84 75.16 8.00  53.43 3319.72
   09:24:08.624.08-Aug-2020 5133.51 6830.44 75.16 8.00  53.63 3319.72
   09:24:08.824.08-Aug-2020 5133.51 6972.81 75.16 8.00  53.83 3319.72
   09:24:09.024.08-Aug-2020 5133.51 6897.27 75.16 8.00  54.03 3319.72
   09:24:09.224.08-Aug-2020 5133.51 6897.27 75.16 8.00  54.23 3319.72
   09:24:09.424.08-Aug-2020 5133.51 6899.87 75.16 8.00  54.43 3319.72
   09:24:09.624.08-Aug-2020 5133.51 6937.36 75.16 8.00  54.63 3319.72
   09:24:09.824.08-Aug-2020 5133.51 6927.48 75.16 8.00  54.83 3319.72
   09:24:10.025.08-Aug-2020 5133.51 6977.97 75.16 8.00  55.03 3319.72
   09:24:10.225.08-Aug-2020 5133.51 6977.97 75.16 8.00  55.23 3319.72
   09:24:10.425.08-Aug-2020 5133.51 6984.08 75.16 8.00  55.43 3319.72
   09:24:10.625.08-Aug-2020 5133.51 7002.99 75.16 8.00  55.63 3319.72
   09:24:10.825.08-Aug-2020 5133.51 7038.78 75.16 8.00  55.83 3319.72
   09:24:11.025.08-Aug-2020 5133.51 7028.66 75.16 8.00  56.03 3319.72
   09:24:11.225.08-Aug-2020 5133.51 7028.66 75.16 8.00  56.23 3319.72
   09:24:11.425.08-Aug-2020 5133.51 7051.83 75.16 8.00  56.43 3319.72
   09:24:11.625.08-Aug-2020 5133.51 7056.75 75.16 8.00  56.63 3319.72
   09:24:11.826.08-Aug-2020 5133.51 7071.43 75.16 8.00  56.83 3319.72
   09:24:12.026.08-Aug-2020 5133.51 7080.61 75.16 8.00  57.03 3319.72
   09:24:12.226.08-Aug-2020 5133.51 7080.61 75.16 8.00  57.23 3319.72
   09:24:12.426.08-Aug-2020 5133.51 7105.40 75.16 8.00  57.43 3319.72
   09:24:12.626.08-Aug-2020 5133.51 7129.60 75.16 8.00  57.63 3319.72
   09:24:12.826.08-Aug-2020 5133.51 7127.86 75.16 8.00  57.83 3319.72
   09:24:13.026.08-Aug-2020 5133.51 7144.50 75.16 8.00  58.03 3319.72
   09:24:13.226.08-Aug-2020 5133.51 7144.50 75.16 8.00  58.23 3319.72
   09:24:13.426.08-Aug-2020 5133.51 7155.32 75.16 8.00  58.43 3319.72
   09:24:13.626.08-Aug-2020 5133.51 7159.90 75.16 8.00  58.63 3319.72
   09:24:13.827.08-Aug-2020 5133.51 7161.58 75.16 8.00  58.83 3319.72
   09:24:14.027.08-Aug-2020 5133.51 7166.19 75.16 8.00  59.03 3319.72
   09:24:14.227.08-Aug-2020 5133.51 7168.91 75.16 8.00  59.23 3319.72
   09:24:14.427.08-Aug-2020 5133.51 7172.28 75.16 8.00  59.43 3319.72
   09:24:14.627.08-Aug-2020 5133.51 7176.21 75.16 8.00  59.63 3319.72
   09:24:14.827.08-Aug-2020 5133.51 7179.80 75.16 8.00  59.83 3319.72
   09:24:15.027.08-Aug-2020 5133.51 7183.20 75.16 8.00  60.03 3319.72
   09:24:15.227.08-Aug-2020 5133.51 7183.20 75.16 8.00  60.23 3319.72
   09:24:15.427.08-Aug-2020 5133.51 7190.17 75.16 8.00  60.43 3319.72
   09:24:15.628.08-Aug-2020 5133.51 7193.34 75.16 8.00  60.63 3319.72
   09:24:15.828.08-Aug-2020 5133.51 7197.58 75.16 8.00  60.83 3319.72
   09:24:16.028.08-Aug-2020 5133.51 7204.57 75.16 8.00  61.03 3319.72
   09:24:16.228.08-Aug-2020 5133.51 7204.57 75.16 8.00  61.23 3319.72
   09:24:16.428.08-Aug-2020 5133.51 7092.17 75.16 8.00  61.43 3319.72
   09:24:16.628.08-Aug-2020 5133.51 6635.29 75.16 8.00  61.63 3319.72
   09:24:16.828.08-Aug-2020 5133.51 6542.32 75.16 8.00  61.83 3319.72
   09:24:17.028.08-Aug-2020 5133.51 6416.30 75.16 8.00  62.03 3319.72
   09:24:17.228.08-Aug-2020 5133.51 6416.30 75.16 8.00  62.23 3319.72
   09:24:17.428.08-Aug-2020 5133.51 6136.31 75.16 8.00  62.43 3319.72
   09:24:17.629.08-Aug-2020 5133.51 5994.27 75.16 8.00  62.63 3319.72
   09:24:17.829.08-Aug-2020 5133.51 5858.70 75.16 8.00  62.83 3319.72
   09:24:18.029.08-Aug-2020 5133.51 5728.29 75.15 8.00  63.03 3319.72
   09:24:18.229.08-Aug-2020 5133.51 5607.33 75.15 8.00  63.23 3319.72
   09:24:18.429.08-Aug-2020 5133.51 5497.01 75.15 8.00  63.43 3319.72
   09:24:18.629.08-Aug-2020 5133.51 5400.86 75.15 8.00  63.63 3319.72
   09:24:18.829.08-Aug-2020 5133.51 5308.99 75.15 8.00  63.83 3319.72
   09:24:19.029.08-Aug-2020 5133.51 5224.67 75.15 8.00  64.03 3319.72
   09:24:19.229.08-Aug-2020 5133.51 5224.67 75.15 8.00  64.23 3319.72
   09:24:19.430.08-Aug-2020 5133.51 5058.23 75.15 8.00  64.43 3319.72
   09:24:19.630.08-Aug-2020 5133.51 4978.86 75.15 8.00  64.63 3319.72
   09:24:19.830.08-Aug-2020 5133.51 4892.93 75.15 8.00  64.83 3319.72
   09:24:20.030.08-Aug-2020 5133.51 4811.36 75.15 8.00  65.03 3319.72
   09:24:20.230.08-Aug-2020 5133.51 4811.36 75.15 8.00  65.23 3319.72
   09:24:20.430.08-Aug-2020 5133.51 4624.84 75.15 8.00  65.43 3319.72
   09:24:20.630.08-Aug-2020 5133.51 4524.90 75.15 8.00  65.63 3319.72
   09:24:20.830.08-Aug-2020 5133.51 4412.35 75.15 8.00  65.83 3319.72
   09:24:21.030.08-Aug-2020 5133.51 4289.24 75.14 8.00  66.03 3319.72
   09:24:21.230.08-Aug-2020 5133.51 4289.24 75.14 8.00  66.24 3319.72
   09:24:21.431.08-Aug-2020 5133.51 4113.38 75.14 8.00  66.44 3319.72
   09:24:21.631.08-Aug-2020 5133.51 4110.82 75.14 8.00  66.64 3319.72
   09:24:21.831.08-Aug-2020 5133.51 4109.94 75.14 8.00  66.84 3319.72
   09:24:22.031.08-Aug-2020 5133.51 4109.61 75.14 8.00  67.04 3319.72
   09:24:22.231.08-Aug-2020 5133.51 4108.40 75.13 8.00  67.24 3319.72
   09:24:22.431.08-Aug-2020 5133.51 4108.10 75.13 8.00  67.44 3319.72
   09:24:22.631.08-Aug-2020 5133.51 4107.79 75.13 8.00  67.64 3319.72
   09:24:22.831.08-Aug-2020 5133.51 4106.65 75.13 8.00  67.84 3319.72
   09:24:23.031.08-Aug-2020 5133.51 4107.14 75.13 8.00  68.04 3319.72
   09:24:23.232.08-Aug-2020 5133.51 4107.14 75.13 8.00  68.24 3319.72
   09:24:23.432.08-Aug-2020 5133.51 4106.40 75.12 8.00  68.44 3319.72
   09:24:23.632.08-Aug-2020 5133.51 4106.26 75.12 8.00  68.64 3319.72
   09:24:23.832.08-Aug-2020 5133.51 4105.58 75.12 8.00  68.84 3319.72
