~Version Information
 VERS.                  2.0:   CWLS log ASCII Standard -VERSION 2.0
 WRAP.                   NO:   One line per depth step
~Well Information Block
#MNEM.UNIT     VALUE/NAME     DESCRIPTION
#---------     -----------    ---------------------------
 STRT.S             09:23:14 08-Aug-20: START TIME 09:23:14 08-Aug-20
 STOP.S             09:28:51 08-Aug-20: STOP TIME  09:28:51 08-Aug-20
 STEP.S                   0.00: STEP TIME
 NULL.                 -999.25: NULL VALUE
 DFWT.                        :  DIST FWL TEXT
 DFST.                        :  DIST FSL TEXT
 DMF .             Drill Floor:  DRILL MEAS FROM
 STIM.      13.47.44 07-Jun-20:  START TIME
 DATE.      13.47.44 27-Jul-20:  END TIME
 SPUD.               07-Jun-20:  SPUD DATE
 NREF.                    Grid:  NORTH REFERENCE
 HPTY.       Minimum Curvature:  HOLE POS TYPE
 DMOD.             Drill Model:  DRILL MOD DESC
 SVYD.                  Survey:  SURVEY DESC
 ILTD.               Lithology:  INTERP LTH DESC
 FTOP.          Formation Tops:  FORM TOPS DESC
 RIG .             West Chirag:  RIG NAME
 PDAT.          Mean Sea Level:  PERMANENT DATUM
 FLD .                     ACG:  FIELD NAME
 SON .        AZ-XX-0906363612:  JOB NUMBER
 CTRY.              Azerbaijan:  COUNTRY NAME
 WELL.           J25 (Slot 35):  WELL NAME
 SRVC.          Turan Drilling:  CONTRACTOR
 COMP.     BP Exploration (Caspian Sea) Ltd:  COMPANY
 UWI .                     N/A:  UNIQUE WELL IDENTIFIER
 API .                     N/A:  API NUMBER
 BASE.              Azerbaijan:  LOGGING EQUIPMENT BASE LOCATION
 REGN.                   EESSA:  REGION
 PROV.                    Baku:  PROVINCE
 STAT.                    Baku:  STATE NAME
 MWDS.                     N/A:  MWD SHOP
 DOE .                     N/A:  DOE NUMBER
 DCON.         Sperry Drilling:  DIRECTNL CONTR
 UNIT.                     N/A:  LOGGING EQUIPMENT ID
 MDS .        Operator Entered:  MAG DATA SOURCE
 JOBN.        AZ-XX-0906363612:  JOB TICKET NUMB
 WTYP.                Deviated:  WELL TYPE
 CNTY.                        :  COUNTY
 LOC .                        :  LOCATION
 LMF .             Drill Floor:  LOG MEASURED FROM
 TVDS.m                  43.00:  TVDSS CORRECTN
 LATI.deg                40.13:  LATITUDE
 LONG.deg                51.22:  LONGITUDE
 WHNS.m                  -7.90:  WELL HEAD N/S
 WHEW.m                  -3.35:  WELL HEAD E/W
 UTMX.m              519005.06:  UTM X
 UTMY.m             4443793.85:  UTM Y
 DFWL.m                   0.00:  DISTANCE FWL
 DFSL.m                   0.00:  DISTANCE FSL
 SDEP.m                   0.00:  START DEPTH
 TDD .m                   0.00:  TOTAL DEPTH (DRILLER)
 VSDR.deg               308.97:  VERT SEC DIRECT
 GVFD.g                   1.00:  GRAVITY FIELD
 MFLD.nT              50350.00:  MAGNETIC FIELD
 MDIP.deg                59.62:  MAGNETIC DIP
 MDEC.deg                 6.44:  MAGNETIC DECL
 GRDC.deg                 0.13:  GRID CORRECTION
 AZTC.deg                 6.32:  AZM TOTAL CORR
 EPD .m                   0.00:  ELEVATION
 EGL .m                   0.00:  GROUND ELEVATION
 WDMS.m                 169.80:  WD ELEV
 APD .m                  43.00:  DEPTH ABOVE PD
 DEP .m                 356.43:  DEPTH
 AGAP.m                  43.00:  AIR GAP
 VSEW.m                  -3.35:  VERT SEC E/W
 VSNS.m                  -7.90:  VERT SEC N/S
 EKB .m                  43.00:  KB ELEVATION
 EDF .m                  43.00:  DF ELEVATION
 TDL .m                 934.00:  TOTAL DEPTH (LOGGER)
 VSC .                       0:  VS TO CLOSURE
 MAGU.                 1852825:  MAGUTM CHECKSUM
~Parameter Information Block
#MNEM.UNIT       Value        Description
#---------     -----------    ---------------------------
 AV  .mps                 0.80:  Ann Velocity 
 AVMX.mps                 1.70:  Max Ann Veloc 
 AZIF.deg               311.41:  Azm, Final 
 BHAT.        Rotary Steerable:  BHA Type 
 BROT.°/30m               0.09:  Build Rotating 
 BS  .in                 12.25:  Bit Size 
 BSZ .in                 12.25:  Bit Size 
 BTPL.psig              800.00:  Bit Press Loss 
 CABU.                      No:  Customer Abuse 
 TCS .hr                 96.00:  Time Ciculation Ended 
 CV  .mps                 2.03:  Crit Velocity 
 CVMX.mps                 2.42:  Max Crit Veloc 
 DD1 .          Taghi Taghiyev:  Direct Drillr 1 
 DD2 .      Tariel Pirmammadov:  Direct Drillr 2 
 DD3 .          Teymur Aghayev:  Direct Drillr 3 
 DDSV.                 iCruise:  DD Service 
 DEFF.%                  98.70:  % Det Eff 
 DLRX.°/30m               1.00:  Dogleg Rot Max 
 DLSO.°/30m               1.80:  Dogleg Oriented 
 DLSX.°/30m               3.16:  Dogleg Str Max 
 DRET.      15.00.00 07-Aug-20:  Drill End Time 
 DRST.      17.00.00 02-Aug-20:  Drill Start Tim 
 DTIM.hr                 45.90:  Time Drilling 
 EDEP.m                5298.01:  End Depth 
 ENG1.       Seymur Iskandarov:  Engineer 1 
 ENG2.         Yevgeniy Ulikov:  Engineer 2 
 ENG3.      Artemiy Matviyanov:  Engineer 3 
 ENG4.         Bahruz Mehdiyev:  Engineer 4 
 ETIM.      05.00.00 10-Aug-20:  End Time 
 FLOI.gpm              1150.00:  Flow In 
 FLON.gpm               900.00:  Flow In Min 
 FLOS.cptm                0.00:  Fluid Loss 
 FLOX.gpm              1200.00:  Flow In Max 
 FTRO.     Connectivity, Formation Presure:  FTWD Run Obj 
 HFLO.                      No:  High Flow 
 HPRE.                     Yes:  High Pressure 
 HTEM.                      No:  High Temp 
 HYDO.m                   1.80:  Hydro Offset 
 IFIN.deg                 9.71:  Inc, Final 
 IMAX.deg                63.81:  Inc Max 
 IMIN.deg                 9.53:  Inc Min 
 IMND.m                5075.52:  Inc Min Depth 
 IMXD.m                4367.08:  Inc Max Depth 
 JARR.                      No:  Jarring 
 LETM.      15.00.00 07-Aug-20:  Log End Time 
 LOST.hr                     2:  Lost Rig Time 
 LSTM.      17.00.00 02-Aug-20:  Log Start Time 
 MDCL.ppm             42500.00:  Mud Chlorides 
 MDES.     Inversion Oil/Synthetic:  Mud Desc 
 DFD .sg                  1.46:  Mud Density 
 MDMN.sg                  1.46:  Dens Mud Min 
 MDMX.sg                  1.46:  Dens Mud Max 
 MOIL.                      56:  Run Mud Oil % 
 MOWR.                   70:30:  Run Mud OWR 
 MSND.                     0.1:  Run Mud Sand % 
 MSOL.                      19:  Run Mud Solids% 
 DFV .spqt               83.00:  Mud Viscosity 
 MWOD.in                  8.00:  MWD Tool OD 
 MWSI.                     Yes:  Serv Intrp, MWD 
 OTIM.hr                196.57:  Time Operating 
 PCON.           Look Like New:  Pad Condition 
 PMAX.psia             7400.00:  Press Op, Max 
 PV  .cP                 36.00:  Mud PV 
 RUN .                    1000:  Run Number 
 ROPA.m/hr               25.00:  ROP Avg 
 ROPN.m/hr               10.00:  ROP Min 
 ROPX.m/hr               32.00:  ROP Max 
 RPMA.rpm               120.00:  RPM Surface Avg 
 RPMN.rpm               100.00:  RPM Surface Min 
 RPMX.rpm               140.00:  RPM Surface Max 
 RRUN.                    L504:  Rig Run Number 
 SAZI.deg               308.25:  Azm, Start 
 SDEP.m                4364.01:  Start Depth 
 SIDD.                      No:  Serv Intrp, DD 
 SINC.deg                63.81:  Inc, Start 
 SPPA.psig             5800.00:  SPP Avg 
 SPPN.psig             4200.00:  SPP Min 
 SPPX.psig             5950.00:  SPP Max 
 STIM.      18.00.00 01-Aug-20:  Start Time 
 SVCS.                 DD, MWD:  Services 
 SVER.                    9.20:  Sperry Version 
 TDAT.m                 934.00:  Tot Depth Attmp 
 TDDF.                      No:  Trip for DD 
 TDLG.m                 934.00:  Tot Depth Loggd 
 TFF .                      No:  Trip for Fail 
 TQAA.f-kp               31.00:  Torque Abs Avg 
 TQAN.f-kp               25.00:  Torque Abs Min 
 TQAX.f-kp               35.00:  Torque Abs Max 
 TRRT.°/30m              -0.75:  Turn Rotating 
 MRT .                  EWR-M5:  Maximum Recorded Temperature 
 TTMX.degC               95.00:  Max Tool Temp 
 VS01.                90516060:  Virtual Str1 SN 
 VS02.                90528488:  Virtual Str2 SN 
 VS03.                90577970:  Virtual Str3 SN 
 VS04.                12385033:  Virtual Str4 SN 
 VS05.                90522069:  Virtual Str5 SN 
 VS06.                13124134:  Virtual Str6 SN 
 WBMN.klb                20.00:  WOB Min 
 WITN.         Alistair Sprott:  Customer Rep 
 WITN.     Ronal van der Kraan:  Customer Rep 2 
 WOBA.klb                25.00:  WOB Avg 
 WOBX.klb                31.00:  WOB Max 
 YP  .lhf2               32.00:  Yield Point 
~Curve Information Block
#MNEM.UNIT                 API CODE     Curve Description
#---------               -----------    ---------------------------
 TIME.HHMMSS            00 000 000 000:  GT Time & Date
 GTDEPTH.m              00 000 000 000:  GT Depth
 GTPQH.psia             00 000 000 000:  GT HR Quartz Pressure
 GTTQ.degC              00 000 000 000:  GT Quartz Temperature
 GTTN.NONE              00 000 000 000:  GT Test Number
 GTET.sec               00 000 000 000:  GT Elapsed Test Time
 GTTVD.m                00 000 000 000:  GT True Vertical Depth
#Other Information
#
#WARRANTY: Halliburton will use its best efforts to furnish customers with 
#accurate information and interpretations that are part of, and incident to, the services 
#provided.  However, Halliburton cannot and does not warrant the accuracy 
#or correctness of such information and interpretations.  Under no circumstances should any 
#such information or interpretation be relied upon as the sole basis for any drilling, 
#completion, production, or financial decision or any procedure involving any risk to the 
#safety of any drilling venture, drilling rig or its crew or any other third party.  The 
#Customer has full responsibility for all drilling, completion and production operation.  
#Halliburton makes no representations or warranties, either expressed or 
#implied, including, but not limited to, the implied warranties of merchantability or fitness 
#for a particular purpose, with respect to the services rendered.  In no event will 
#Halliburton be liable for failure to obtain any particular results or for 
#any damages, including, but not limited to, indirect, special or consequential damages, 
#resulting from the use of any information or interpretation provided by Halliburton.
#
~A           TIME           GTDEPTH  GTPQH  GTTQ  GTTN  GTET   GTTVD  
# ...
   09:27:28.129.08-Aug-2020 5133.51 4124.51 75.04 8.00 253.13 3319.72
   09:27:28.329.08-Aug-2020 5133.51 4124.73 75.04 8.00 253.33 3319.72
   09:27:28.530.08-Aug-2020 5133.51 4124.57 75.04 8.00 253.53 3319.72
   09:27:28.730.08-Aug-2020 5133.51 4124.68 75.04 8.00 253.73 3319.72
   09:27:28.930.08-Aug-2020 5133.51 4124.60 75.04 8.00 253.93 3319.72
   09:27:29.130.08-Aug-2020 5133.51 4124.66 75.04 8.00 254.13 3319.72
   09:27:29.330.08-Aug-2020 5133.51 4124.66 75.04 8.00 254.33 3319.72
   09:27:29.530.08-Aug-2020 5133.51 4124.65 75.04 8.00 254.53 3319.72
   09:27:29.730.08-Aug-2020 5133.51 4124.61 75.04 8.00 254.73 3319.72
   09:27:29.930.08-Aug-2020 5133.51 4124.63 75.04 8.00 254.93 3319.72
   09:27:30.130.08-Aug-2020 5133.51 4124.66 75.04 8.00 255.13 3319.72
   09:27:30.331.08-Aug-2020 5133.51 4124.65 75.04 8.00 255.34 3319.72
   09:27:30.531.08-Aug-2020 5133.51 4124.61 75.04 8.00 255.54 3319.72
   09:27:30.731.08-Aug-2020 5133.51 4124.68 75.04 8.00 255.74 3319.72
   09:27:30.931.08-Aug-2020 5133.51 4124.58 75.04 8.00 255.94 3319.72
   09:27:31.131.08-Aug-2020 5133.51 4124.77 75.04 8.00 256.14 3319.72
   09:27:31.331.08-Aug-2020 5133.51 4124.77 75.04 8.00 256.34 3319.72
   09:27:31.531.08-Aug-2020 5133.51 4124.61 75.04 8.00 256.54 3319.72
   09:27:31.731.08-Aug-2020 5133.51 4124.68 75.04 8.00 256.74 3319.72
   09:27:31.931.08-Aug-2020 5133.51 4124.59 75.04 8.00 256.94 3319.72
   09:27:32.131.08-Aug-2020 5133.51 4124.65 75.04 8.00 257.14 3319.72
   09:27:32.332.08-Aug-2020 5133.51 4124.65 75.04 8.00 257.34 3319.72
   09:27:32.532.08-Aug-2020 5133.51 4124.73 75.04 8.00 257.54 3319.72
   09:27:32.732.08-Aug-2020 5133.51 4124.61 75.04 8.00 257.74 3319.72
   09:27:32.932.08-Aug-2020 5133.51 4124.62 75.04 8.00 257.94 3319.72
   09:27:33.132.08-Aug-2020 5133.51 4124.67 75.04 8.00 258.14 3319.72
   09:27:33.332.08-Aug-2020 5133.51 4124.67 75.04 8.00 258.34 3319.72
   09:27:33.532.08-Aug-2020 5133.51 4124.54 75.04 8.00 258.54 3319.72
   09:27:33.732.08-Aug-2020 5133.51 4124.69 75.04 8.00 258.74 3319.72
   09:27:33.932.08-Aug-2020 5133.51 4124.42 75.04 8.00 258.94 3319.72
   09:27:34.133.08-Aug-2020 5133.51 4124.71 75.04 8.00 259.14 3319.72
   09:27:34.333.08-Aug-2020 5133.51 4124.58 75.04 8.00 259.34 3319.72
   09:27:34.533.08-Aug-2020 5133.51 4124.64 75.04 8.00 259.54 3319.72
   09:27:34.733.08-Aug-2020 5133.51 4124.70 75.04 8.00 259.74 3319.72
   09:27:34.933.08-Aug-2020 5133.51 4124.61 75.04 8.00 259.94 3319.72
   09:27:35.133.08-Aug-2020 5133.51 4124.65 75.04 8.00 260.14 3319.72
   09:27:35.333.08-Aug-2020 5133.51 4124.65 75.04 8.00 260.34 3319.72
   09:27:35.533.08-Aug-2020 5133.51 4124.66 75.04 8.00 260.54 3319.72
   09:27:35.733.08-Aug-2020 5133.51 4124.63 75.04 8.00 260.74 3319.72
   09:27:35.933.08-Aug-2020 5133.51 4124.64 75.04 8.00 260.94 3319.72
   09:27:36.134.08-Aug-2020 5133.51 4124.65 75.04 8.00 261.14 3319.72
   09:27:36.334.08-Aug-2020 5133.51 4124.65 75.04 8.00 261.34 3319.72
   09:27:36.534.08-Aug-2020 5133.51 4124.63 75.04 8.00 261.54 3319.72
   09:27:36.734.08-Aug-2020 5133.51 4124.63 75.04 8.00 261.74 3319.72
   09:27:36.934.08-Aug-2020 5133.51 4124.67 75.04 8.00 261.94 3319.72
   09:27:37.134.08-Aug-2020 5133.51 4124.66 75.04 8.00 262.14 3319.72
   09:27:37.334.08-Aug-2020 5133.51 4124.66 75.04 8.00 262.34 3319.72
   09:27:37.534.08-Aug-2020 5133.51 4124.68 75.04 8.00 262.54 3319.72
   09:27:37.734.08-Aug-2020 5133.51 4124.60 75.04 8.00 262.74 3319.72
   09:27:37.935.08-Aug-2020 5133.51 4124.64 75.04 8.00 262.94 3319.72
   09:27:38.135.08-Aug-2020 5133.51 4124.65 75.04 8.00 263.14 3319.72
   09:27:38.335.08-Aug-2020 5133.51 4124.58 75.04 8.00 263.34 3319.72
   09:27:38.535.08-Aug-2020 5133.51 4124.66 75.04 8.00 263.54 3319.72
   09:27:38.735.08-Aug-2020 5133.51 4124.63 75.04 8.00 263.74 3319.72
   09:27:38.935.08-Aug-2020 5133.51 4124.66 75.04 8.00 263.94 3319.72
   09:27:39.135.08-Aug-2020 5133.51 4124.65 75.04 8.00 264.14 3319.72
   09:27:39.335.08-Aug-2020 5133.51 4124.65 75.04 8.00 264.34 3319.72
   09:27:39.535.08-Aug-2020 5133.51 4124.62 75.04 8.00 264.54 3319.72
   09:27:39.735.08-Aug-2020 5133.51 4124.67 75.04 8.00 264.74 3319.72
   09:27:39.936.08-Aug-2020 5133.51 4124.63 75.04 8.00 264.94 3319.72
   09:27:40.136.08-Aug-2020 5133.51 4124.65 75.04 8.00 265.14 3319.72
   09:27:40.336.08-Aug-2020 5133.51 4124.65 75.04 8.00 265.34 3319.72
   09:27:40.536.08-Aug-2020 5133.51 4124.50 75.04 8.00 265.54 3319.72
   09:27:40.736.08-Aug-2020 5133.51 4124.73 75.04 8.00 265.74 3319.72
   09:27:40.936.08-Aug-2020 5133.51 4124.67 75.03 8.00 265.94 3319.72
   09:27:41.136.08-Aug-2020 5133.51 4124.55 75.03 8.00 266.14 3319.72
   09:27:41.336.08-Aug-2020 5133.51 4124.55 75.03 8.00 266.34 3319.72
   09:27:41.536.08-Aug-2020 5133.51 4124.60 75.03 8.00 266.54 3319.72
   09:27:41.737.08-Aug-2020 5133.51 4124.48 75.03 8.00 266.74 3319.72
   09:27:41.937.08-Aug-2020 5133.51 4124.78 75.03 8.00 266.94 3319.72
   09:27:42.137.08-Aug-2020 5133.51 4124.42 75.03 8.00 267.14 3319.72
   09:27:42.337.08-Aug-2020 5133.51 4124.76 75.03 8.00 267.34 3319.72
   09:27:42.537.08-Aug-2020 5133.51 4124.64 75.03 8.00 267.54 3319.72
   09:27:42.737.08-Aug-2020 5133.51 4124.58 75.03 8.00 267.74 3319.72
   09:27:42.937.08-Aug-2020 5133.51 4124.67 75.03 8.00 267.94 3319.72
   09:27:43.137.08-Aug-2020 5133.51 4124.65 75.03 8.00 268.14 3319.72
   09:27:43.337.08-Aug-2020 5133.51 4124.65 75.03 8.00 268.34 3319.72
   09:27:43.538.08-Aug-2020 5133.51 4124.81 75.03 8.00 268.54 3319.72
   09:27:43.738.08-Aug-2020 5133.51 4124.48 75.03 8.00 268.74 3319.72
   09:27:43.938.08-Aug-2020 5133.51 4124.71 75.03 8.00 268.94 3319.72
   09:27:44.138.08-Aug-2020 5133.51 4124.59 75.03 8.00 269.14 3319.72
   09:27:44.338.08-Aug-2020 5133.51 4124.59 75.03 8.00 269.34 3319.72
   09:27:44.538.08-Aug-2020 5133.51 4124.63 75.03 8.00 269.54 3319.72
   09:27:44.738.08-Aug-2020 5133.51 4124.65 75.03 8.00 269.74 3319.72
   09:27:44.938.08-Aug-2020 5133.51 4124.62 75.03 8.00 269.94 3319.72
   09:27:45.138.08-Aug-2020 5133.51 4124.67 75.03 8.00 270.14 3319.72
   09:27:45.338.08-Aug-2020 5133.51 4124.67 75.03 8.00 270.34 3319.72
   09:27:45.539.08-Aug-2020 5133.51 4124.65 75.03 8.00 270.54 3319.72
   09:27:45.739.08-Aug-2020 5133.51 4124.67 75.03 8.00 270.74 3319.72
   09:27:45.939.08-Aug-2020 5133.51 4124.63 75.03 8.00 270.94 3319.72
   09:27:46.139.08-Aug-2020 5133.51 4124.65 75.03 8.00 271.14 3319.72
   09:27:46.339.08-Aug-2020 5133.51 4124.65 75.03 8.00 271.34 3319.72
   09:27:46.539.08-Aug-2020 5133.51 4124.69 75.03 8.00 271.54 3319.72
   09:27:46.739.08-Aug-2020 5133.51 4124.50 75.03 8.00 271.74 3319.72
   09:27:46.939.08-Aug-2020 5133.51 4124.77 75.03 8.00 271.94 3319.72
   09:27:47.139.08-Aug-2020 5133.51 4124.53 75.03 8.00 272.14 3319.72
   09:27:47.340.08-Aug-2020 5133.51 4124.73 75.03 8.00 272.34 3319.72
   09:27:47.540.08-Aug-2020 5133.51 4124.53 75.03 8.00 272.54 3319.72
   09:27:47.740.08-Aug-2020 5133.51 4124.71 75.03 8.00 272.74 3319.72
   09:27:47.940.08-Aug-2020 5133.51 4124.63 75.03 8.00 272.94 3319.72
   09:27:48.140.08-Aug-2020 5133.51 4124.66 75.03 8.00 273.14 3319.72
   09:27:48.340.08-Aug-2020 5133.51 4124.66 75.03 8.00 273.34 3319.72
   09:27:48.540.08-Aug-2020 5133.51 4124.64 75.03 8.00 273.54 3319.72
   09:27:48.740.08-Aug-2020 5133.51 4124.67 75.03 8.00 273.74 3319.72
   09:27:48.940.08-Aug-2020 5133.51 4124.64 75.03 8.00 273.94 3319.72
   09:27:49.140.08-Aug-2020 5133.51 4124.63 75.03 8.00 274.15 3319.72
   09:27:49.341.08-Aug-2020 5133.51 4124.63 75.03 8.00 274.35 3319.72
   09:27:49.541.08-Aug-2020 5133.51 4124.65 75.03 8.00 274.55 3319.72
   09:27:49.741.08-Aug-2020 5133.51 4124.67 75.03 8.00 274.75 3319.72
   09:27:49.941.08-Aug-2020 5133.51 4124.52 75.03 8.00 274.95 3319.72
   09:27:50.141.08-Aug-2020 5133.51 4124.77 75.03 8.00 275.15 3319.72
   09:27:50.341.08-Aug-2020 5133.51 4124.77 75.03 8.00 275.35 3319.72
   09:27:50.541.08-Aug-2020 5133.51 4124.62 75.03 8.00 275.55 3319.72
   09:27:50.741.08-Aug-2020 5133.51 4124.69 75.03 8.00 275.75 3319.72
   09:27:50.941.08-Aug-2020 5133.51 4124.57 75.03 8.00 275.95 3319.72
