~Version Information
 VERS.                  2.0:   CWLS log ASCII Standard -VERSION 2.0
 WRAP.                   NO:   One line per depth step
~Well Information Block
#MNEM.UNIT     VALUE/NAME     DESCRIPTION
#---------     -----------    ---------------------------
 STRT.S             08:27:32 08-Aug-20: START TIME 08:27:32 08-Aug-20
 STOP.S             08:36:05 08-Aug-20: STOP TIME  08:36:05 08-Aug-20
 STEP.S                   0.00: STEP TIME
 NULL.                 -999.25: NULL VALUE
 DFWT.                        :  DIST FWL TEXT
 DFST.                        :  DIST FSL TEXT
 DMF .             Drill Floor:  DRILL MEAS FROM
 STIM.      13.47.44 07-Jun-20:  START TIME
 DATE.      13.47.44 27-Jul-20:  END TIME
 SPUD.               07-Jun-20:  SPUD DATE
 NREF.                    Grid:  NORTH REFERENCE
 HPTY.       Minimum Curvature:  HOLE POS TYPE
 DMOD.             Drill Model:  DRILL MOD DESC
 SVYD.                  Survey:  SURVEY DESC
 ILTD.               Lithology:  INTERP LTH DESC
 FTOP.          Formation Tops:  FORM TOPS DESC
 RIG .             West Chirag:  RIG NAME
 PDAT.          Mean Sea Level:  PERMANENT DATUM
 FLD .                     ACG:  FIELD NAME
 SON .        AZ-XX-0906363612:  JOB NUMBER
 CTRY.              Azerbaijan:  COUNTRY NAME
 WELL.           J25 (Slot 35):  WELL NAME
 SRVC.          Turan Drilling:  CONTRACTOR
 COMP.     BP Exploration (Caspian Sea) Ltd:  COMPANY
 UWI .                     N/A:  UNIQUE WELL IDENTIFIER
 API .                     N/A:  API NUMBER
 BASE.              Azerbaijan:  LOGGING EQUIPMENT BASE LOCATION
 REGN.                   EESSA:  REGION
 PROV.                    Baku:  PROVINCE
 STAT.                    Baku:  STATE NAME
 MWDS.                     N/A:  MWD SHOP
 DOE .                     N/A:  DOE NUMBER
 DCON.         Sperry Drilling:  DIRECTNL CONTR
 UNIT.                     N/A:  LOGGING EQUIPMENT ID
 MDS .        Operator Entered:  MAG DATA SOURCE
 JOBN.        AZ-XX-0906363612:  JOB TICKET NUMB
 WTYP.                Deviated:  WELL TYPE
 CNTY.                        :  COUNTY
 LOC .                        :  LOCATION
 LMF .             Drill Floor:  LOG MEASURED FROM
 TVDS.m                  43.00:  TVDSS CORRECTN
 LATI.deg                40.13:  LATITUDE
 LONG.deg                51.22:  LONGITUDE
 WHNS.m                  -7.90:  WELL HEAD N/S
 WHEW.m                  -3.35:  WELL HEAD E/W
 UTMX.m              519005.06:  UTM X
 UTMY.m             4443793.85:  UTM Y
 DFWL.m                   0.00:  DISTANCE FWL
 DFSL.m                   0.00:  DISTANCE FSL
 SDEP.m                   0.00:  START DEPTH
 TDD .m                   0.00:  TOTAL DEPTH (DRILLER)
 VSDR.deg               308.97:  VERT SEC DIRECT
 GVFD.g                   1.00:  GRAVITY FIELD
 MFLD.nT              50350.00:  MAGNETIC FIELD
 MDIP.deg                59.62:  MAGNETIC DIP
 MDEC.deg                 6.44:  MAGNETIC DECL
 GRDC.deg                 0.13:  GRID CORRECTION
 AZTC.deg                 6.32:  AZM TOTAL CORR
 EPD .m                   0.00:  ELEVATION
 EGL .m                   0.00:  GROUND ELEVATION
 WDMS.m                 169.80:  WD ELEV
 APD .m                  43.00:  DEPTH ABOVE PD
 DEP .m                 356.43:  DEPTH
 AGAP.m                  43.00:  AIR GAP
 VSEW.m                  -3.35:  VERT SEC E/W
 VSNS.m                  -7.90:  VERT SEC N/S
 EKB .m                  43.00:  KB ELEVATION
 EDF .m                  43.00:  DF ELEVATION
 TDL .m                 934.00:  TOTAL DEPTH (LOGGER)
 VSC .                       0:  VS TO CLOSURE
 MAGU.                 1852825:  MAGUTM CHECKSUM
~Parameter Information Block
#MNEM.UNIT       Value        Description
#---------     -----------    ---------------------------
 AV  .mps                 0.80:  Ann Velocity 
 AVMX.mps                 1.70:  Max Ann Veloc 
 AZIF.deg               311.41:  Azm, Final 
 BHAT.        Rotary Steerable:  BHA Type 
 BROT.°/30m               0.09:  Build Rotating 
 BS  .in                 12.25:  Bit Size 
 BSZ .in                 12.25:  Bit Size 
 BTPL.psig              800.00:  Bit Press Loss 
 CABU.                      No:  Customer Abuse 
 COMM.                     ¼’n:  Run Comments 1 
 TCS .hr                 96.00:  Time Ciculation Ended 
 CV  .mps                 2.03:  Crit Velocity 
 CVMX.mps                 2.42:  Max Crit Veloc 
 DD1 .          Taghi Taghiyev:  Direct Drillr 1 
 DD2 .      Tariel Pirmammadov:  Direct Drillr 2 
 DD3 .          Teymur Aghayev:  Direct Drillr 3 
 DDSV.                 iCruise:  DD Service 
 DEFF.%                  98.70:  % Det Eff 
 DLRX.°/30m               1.00:  Dogleg Rot Max 
 DLSO.°/30m               1.80:  Dogleg Oriented 
 DLSX.°/30m               3.16:  Dogleg Str Max 
 DRET.      15.00.00 07-Aug-20:  Drill End Time 
 DRST.      17.00.00 02-Aug-20:  Drill Start Tim 
 DTIM.hr                 45.90:  Time Drilling 
 EDEP.m                5298.01:  End Depth 
 ENG1.       Seymur Iskandarov:  Engineer 1 
 ENG2.         Yevgeniy Ulikov:  Engineer 2 
 ENG3.      Artemiy Matviyanov:  Engineer 3 
 ENG4.         Bahruz Mehdiyev:  Engineer 4 
 ETIM.      05.00.00 10-Aug-20:  End Time 
 FLOI.gpm              1150.00:  Flow In 
 FLON.gpm               900.00:  Flow In Min 
 FLOS.cptm                0.00:  Fluid Loss 
 FLOX.gpm              1200.00:  Flow In Max 
 FTRO.     Connectivity, Formation Presure:  FTWD Run Obj 
 HFLO.                      No:  High Flow 
 HPRE.                     Yes:  High Pressure 
 HTEM.                      No:  High Temp 
 HYDO.m                   1.80:  Hydro Offset 
 IFIN.deg                 9.71:  Inc, Final 
 IMAX.deg                63.81:  Inc Max 
 IMIN.deg                 9.53:  Inc Min 
 IMND.m                5075.52:  Inc Min Depth 
 IMXD.m                4367.08:  Inc Max Depth 
 JARR.                      No:  Jarring 
 LETM.      15.00.00 07-Aug-20:  Log End Time 
 LOST.hr                     2:  Lost Rig Time 
 LSTM.      17.00.00 02-Aug-20:  Log Start Time 
 MDCL.ppm             42500.00:  Mud Chlorides 
 MDES.     Inversion Oil/Synthetic:  Mud Desc 
 DFD .sg                  1.46:  Mud Density 
 MDMN.sg                  1.46:  Dens Mud Min 
 MDMX.sg                  1.46:  Dens Mud Max 
 MOIL.                      56:  Run Mud Oil % 
 MOWR.                   70:30:  Run Mud OWR 
 MSND.                     0.1:  Run Mud Sand % 
 MSOL.                      19:  Run Mud Solids% 
 DFV .spqt               83.00:  Mud Viscosity 
 MWOD.in                  8.00:  MWD Tool OD 
 MWSI.                     Yes:  Serv Intrp, MWD 
 OTIM.hr                196.57:  Time Operating 
 PCON.           Look Like New:  Pad Condition 
 PMAX.psia             7400.00:  Press Op, Max 
 PV  .cP                 36.00:  Mud PV 
 RUN .                    1000:  Run Number 
 ROPA.m/hr               25.00:  ROP Avg 
 ROPN.m/hr               10.00:  ROP Min 
 ROPX.m/hr               32.00:  ROP Max 
 RPMA.rpm               120.00:  RPM Surface Avg 
 RPMN.rpm               100.00:  RPM Surface Min 
 RPMX.rpm               140.00:  RPM Surface Max 
 RRUN.                    L504:  Rig Run Number 
 SAZI.deg               308.25:  Azm, Start 
 SDEP.m                4364.01:  Start Depth 
 SIDD.                      No:  Serv Intrp, DD 
 SINC.deg                63.81:  Inc, Start 
 SPPA.psig             5800.00:  SPP Avg 
 SPPN.psig             4200.00:  SPP Min 
 SPPX.psig             5950.00:  SPP Max 
 STIM.      18.00.00 01-Aug-20:  Start Time 
 SVCS.                 DD, MWD:  Services 
 SVER.                    9.20:  Sperry Version 
 TDAT.m                 934.00:  Tot Depth Attmp 
 TDDF.                      No:  Trip for DD 
 TDLG.m                 934.00:  Tot Depth Loggd 
 TFF .                      No:  Trip for Fail 
 TQAA.f-kp               31.00:  Torque Abs Avg 
 TQAN.f-kp               25.00:  Torque Abs Min 
 TQAX.f-kp               35.00:  Torque Abs Max 
 TRRT.°/30m              -0.75:  Turn Rotating 
 MRT .                  EWR-M5:  Maximum Recorded Temperature 
 TTMX.degC               95.00:  Max Tool Temp 
 VS01.                90516060:  Virtual Str1 SN 
 VS02.                90528488:  Virtual Str2 SN 
 VS03.                90577970:  Virtual Str3 SN 
 VS04.                12385033:  Virtual Str4 SN 
 VS05.                90522069:  Virtual Str5 SN 
 VS06.                13124134:  Virtual Str6 SN 
 WBMN.klb                20.00:  WOB Min 
 WITN.         Alistair Sprott:  Customer Rep 
 WITN.     Ronal van der Kraan:  Customer Rep 2 
 WOBA.klb                25.00:  WOB Avg 
 WOBX.klb                31.00:  WOB Max 
 YP  .lhf2               32.00:  Yield Point 
~Curve Information Block
#MNEM.UNIT                 API CODE     Curve Description
#---------               -----------    ---------------------------
 TIME.HHMMSS            00 000 000 000:  GT Time & Date
 GTDEPTH.m              00 000 000 000:  GT Depth
 GTPQH.psia             00 000 000 000:  GT HR Quartz Pressure
 GTTQ.degC              00 000 000 000:  GT Quartz Temperature
 GTTN.NONE              00 000 000 000:  GT Test Number
 GTET.sec               00 000 000 000:  GT Elapsed Test Time
 GTTVD.m                00 000 000 000:  GT True Vertical Depth
#Other Information
#
#WARRANTY: Halliburton will use its best efforts to furnish customers with 
#accurate information and interpretations that are part of, and incident to, the services 
#provided.  However, Halliburton cannot and does not warrant the accuracy 
#or correctness of such information and interpretations.  Under no circumstances should any 
#such information or interpretation be relied upon as the sole basis for any drilling, 
#completion, production, or financial decision or any procedure involving any risk to the 
#safety of any drilling venture, drilling rig or its crew or any other third party.  The 
#Customer has full responsibility for all drilling, completion and production operation.  
#Halliburton makes no representations or warranties, either expressed or 
#implied, including, but not limited to, the implied warranties of merchantability or fitness 
#for a particular purpose, with respect to the services rendered.  In no event will 
#Halliburton be liable for failure to obtain any particular results or for 
#any damages, including, but not limited to, indirect, special or consequential damages, 
#resulting from the use of any information or interpretation provided by Halliburton.
#
~A           TIME           GTDEPTH  GTPQH  GTTQ  GTTN  GTET   GTTVD  
# ...
   08:34:03.434.08-Aug-2020 5149.01 4344.49 76.73 6.00 391.21 3335.00
   08:34:03.634.08-Aug-2020 5149.01 4344.49 76.73 6.00 391.41 3335.00
   08:34:03.834.08-Aug-2020 5149.01 4344.53 76.73 6.00 391.61 3335.00
   08:34:04.034.08-Aug-2020 5149.01 4344.75 76.73 6.00 391.81 3335.00
   08:34:04.234.08-Aug-2020 5149.01 4344.69 76.73 6.00 392.01 3335.00
   08:34:04.435.08-Aug-2020 5149.01 4344.54 76.73 6.00 392.21 3335.00
   08:34:04.635.08-Aug-2020 5149.01 4344.54 76.73 6.00 392.41 3335.00
   08:34:04.835.08-Aug-2020 5149.01 4344.79 76.73 6.00 392.61 3335.00
   08:34:05.035.08-Aug-2020 5149.01 4344.71 76.73 6.00 392.81 3335.00
   08:34:05.235.08-Aug-2020 5149.01 4344.56 76.73 6.00 393.01 3335.00
   08:34:05.435.08-Aug-2020 5149.01 4344.54 76.73 6.00 393.21 3335.00
   08:34:05.635.08-Aug-2020 5149.01 4344.52 76.73 6.00 393.41 3335.00
   08:34:05.835.08-Aug-2020 5149.01 4344.68 76.73 6.00 393.61 3335.00
   08:34:06.035.08-Aug-2020 5149.01 4344.68 76.73 6.00 393.81 3335.00
   08:34:06.236.08-Aug-2020 5149.01 4344.64 76.73 6.00 394.01 3335.00
   08:34:06.436.08-Aug-2020 5149.01 4344.58 76.73 6.00 394.21 3335.00
   08:34:06.636.08-Aug-2020 5149.01 4344.77 76.73 6.00 394.41 3335.00
   08:34:06.836.08-Aug-2020 5149.01 4344.45 76.73 6.00 394.61 3335.00
   08:34:07.036.08-Aug-2020 5149.01 4344.63 76.73 6.00 394.81 3335.00
   08:34:07.236.08-Aug-2020 5149.01 4344.60 76.73 6.00 395.01 3335.00
   08:34:07.436.08-Aug-2020 5149.01 4344.63 76.73 6.00 395.21 3335.00
   08:34:07.636.08-Aug-2020 5149.01 4344.63 76.73 6.00 395.41 3335.00
   08:34:07.836.08-Aug-2020 5149.01 4344.67 76.73 6.00 395.61 3335.00
   08:34:08.036.08-Aug-2020 5149.01 4344.57 76.73 6.00 395.81 3335.00
   08:34:08.237.08-Aug-2020 5149.01 4344.87 76.73 6.00 396.01 3335.00
   08:34:08.437.08-Aug-2020 5149.01 4344.83 76.73 6.00 396.21 3335.00
   08:34:08.637.08-Aug-2020 5149.01 4344.83 76.73 6.00 396.41 3335.00
   08:34:08.837.08-Aug-2020 5149.01 4344.66 76.73 6.00 396.61 3335.00
   08:34:09.037.08-Aug-2020 5149.01 4344.51 76.73 6.00 396.81 3335.00
   08:34:09.237.08-Aug-2020 5149.01 4344.73 76.73 6.00 397.01 3335.00
   08:34:09.437.08-Aug-2020 5149.01 4344.51 76.73 6.00 397.21 3335.00
   08:34:09.637.08-Aug-2020 5149.01 4344.51 76.73 6.00 397.41 3335.00
   08:34:09.837.08-Aug-2020 5149.01 4344.47 76.73 6.00 397.61 3335.00
   08:34:10.038.08-Aug-2020 5149.01 4344.64 76.73 6.00 397.81 3335.00
   08:34:10.238.08-Aug-2020 5149.01 4344.76 76.73 6.00 398.01 3335.00
   08:34:10.438.08-Aug-2020 5149.01 4344.59 76.73 6.00 398.21 3335.00
   08:34:10.638.08-Aug-2020 5149.01 4344.59 76.73 6.00 398.41 3335.00
   08:34:10.838.08-Aug-2020 5149.01 4344.68 76.73 6.00 398.61 3335.00
   08:34:11.038.08-Aug-2020 5149.01 4344.56 76.73 6.00 398.81 3335.00
   08:34:11.238.08-Aug-2020 5149.01 4344.71 76.73 6.00 399.01 3335.00
   08:34:11.438.08-Aug-2020 5149.01 4344.78 76.73 6.00 399.21 3335.00
   08:34:11.638.08-Aug-2020 5149.01 4344.78 76.73 6.00 399.41 3335.00
   08:34:11.838.08-Aug-2020 5149.01 4344.69 76.73 6.00 399.61 3335.00
   08:34:12.039.08-Aug-2020 5149.01 4344.72 76.73 6.00 399.81 3335.00
   08:34:12.239.08-Aug-2020 5149.01 4344.78 76.73 6.00 400.01 3335.00
   08:34:12.439.08-Aug-2020 5149.01 4344.63 76.73 6.00 400.21 3335.00
   08:34:12.639.08-Aug-2020 5149.01 4344.63 76.73 6.00 400.41 3335.00
   08:34:12.839.08-Aug-2020 5149.01 4344.71 76.72 6.00 400.61 3335.00
   08:34:13.039.08-Aug-2020 5149.01 4344.64 76.72 6.00 400.81 3335.00
   08:34:13.239.08-Aug-2020 5149.01 4344.73 76.73 6.00 401.01 3335.00
   08:34:13.439.08-Aug-2020 5149.01 4344.73 76.72 6.00 401.21 3335.00
   08:34:13.639.08-Aug-2020 5149.01 4344.73 76.72 6.00 401.41 3335.00
   08:34:13.840.08-Aug-2020 5149.01 4344.62 76.72 6.00 401.61 3335.00
   08:34:14.040.08-Aug-2020 5149.01 4344.77 76.73 6.00 401.81 3335.00
   08:34:14.240.08-Aug-2020 5149.01 4344.61 76.72 6.00 402.01 3335.00
   08:34:14.440.08-Aug-2020 5149.01 4344.76 76.72 6.00 402.21 3335.00
   08:34:14.640.08-Aug-2020 5149.01 4344.76 76.72 6.00 402.41 3335.00
   08:34:14.840.08-Aug-2020 5149.01 4344.77 76.72 6.00 402.61 3335.00
   08:34:15.040.08-Aug-2020 5149.01 4344.71 76.72 6.00 402.81 3335.00
   08:34:15.240.08-Aug-2020 5149.01 4344.70 76.72 6.00 403.01 3335.00
   08:34:15.440.08-Aug-2020 5149.01 4344.59 76.72 6.00 403.21 3335.00
   08:34:15.641.08-Aug-2020 5149.01 4344.59 76.72 6.00 403.41 3335.00
   08:34:15.841.08-Aug-2020 5149.01 4344.64 76.72 6.00 403.61 3335.00
   08:34:16.041.08-Aug-2020 5149.01 4344.63 76.72 6.00 403.81 3335.00
   08:34:16.241.08-Aug-2020 5149.01 4344.76 76.72 6.00 404.01 3335.00
   08:34:16.441.08-Aug-2020 5149.01 4344.71 76.72 6.00 404.21 3335.00
   08:34:16.641.08-Aug-2020 5149.01 4344.71 76.72 6.00 404.41 3335.00
   08:34:16.841.08-Aug-2020 5149.01 4344.66 76.72 6.00 404.61 3335.00
   08:34:17.041.08-Aug-2020 5149.01 4344.74 76.72 6.00 404.81 3335.00
   08:34:17.241.08-Aug-2020 5149.01 4344.67 76.72 6.00 405.01 3335.00
   08:34:17.441.08-Aug-2020 5149.01 4344.66 76.72 6.00 405.21 3335.00
   08:34:17.642.08-Aug-2020 5149.01 4344.66 76.72 6.00 405.41 3335.00
   08:34:17.842.08-Aug-2020 5149.01 4344.71 76.72 6.00 405.61 3335.00
   08:34:18.042.08-Aug-2020 5149.01 4344.65 76.72 6.00 405.81 3335.00
   08:34:18.242.08-Aug-2020 5149.01 4344.63 76.72 6.00 406.01 3335.00
   08:34:18.442.08-Aug-2020 5149.01 4344.71 76.72 6.00 406.21 3335.00
   08:34:18.642.08-Aug-2020 5149.01 4344.71 76.72 6.00 406.41 3335.00
   08:34:18.842.08-Aug-2020 5149.01 4344.64 76.72 6.00 406.62 3335.00
   08:34:19.042.08-Aug-2020 5149.01 4344.74 76.72 6.00 406.82 3335.00
   08:34:19.242.08-Aug-2020 5149.01 4344.69 76.72 6.00 407.02 3335.00
   08:34:19.443.08-Aug-2020 5149.01 4344.68 76.72 6.00 407.22 3335.00
   08:34:19.643.08-Aug-2020 5149.01 4344.68 76.72 6.00 407.42 3335.00
   08:34:19.843.08-Aug-2020 5149.01 4344.65 76.72 6.00 407.62 3335.00
   08:34:20.043.08-Aug-2020 5149.01 4344.72 76.72 6.00 407.82 3335.00
   08:34:20.243.08-Aug-2020 5149.01 4344.65 76.72 6.00 408.02 3335.00
   08:34:20.443.08-Aug-2020 5149.01 4344.68 76.72 6.00 408.22 3335.00
   08:34:20.643.08-Aug-2020 5149.01 4344.68 76.72 6.00 408.42 3335.00
   08:34:20.843.08-Aug-2020 5149.01 4344.65 76.72 6.00 408.62 3335.00
   08:34:21.043.08-Aug-2020 5149.01 4344.69 76.72 6.00 408.82 3335.00
   08:34:21.243.08-Aug-2020 5149.01 4344.72 76.72 6.00 409.02 3335.00
   08:34:21.444.08-Aug-2020 5149.01 4344.63 76.72 6.00 409.22 3335.00
   08:34:21.644.08-Aug-2020 5149.01 4344.63 76.72 6.00 409.42 3335.00
   08:34:21.844.08-Aug-2020 5149.01 4344.73 76.72 6.00 409.62 3335.00
   08:34:22.044.08-Aug-2020 5149.01 4344.61 76.72 6.00 409.82 3335.00
   08:34:22.244.08-Aug-2020 5149.01 4344.79 76.72 6.00 410.02 3335.00
   08:34:22.444.08-Aug-2020 5149.01 4344.75 76.72 6.00 410.22 3335.00
   08:34:22.644.08-Aug-2020 5149.01 4344.75 76.72 6.00 410.42 3335.00
   08:34:22.844.08-Aug-2020 5149.01 4344.72 76.72 6.00 410.62 3335.00
   08:34:23.044.08-Aug-2020 5149.01 4344.71 76.72 6.00 410.82 3335.00
   08:34:23.245.08-Aug-2020 5149.01 4344.73 76.72 6.00 411.02 3335.00
   08:34:23.445.08-Aug-2020 5149.01 4344.67 76.72 6.00 411.22 3335.00
   08:34:23.645.08-Aug-2020 5149.01 4344.67 76.72 6.00 411.42 3335.00
   08:34:23.845.08-Aug-2020 5149.01 4344.77 76.72 6.00 411.62 3335.00
   08:34:24.045.08-Aug-2020 5149.01 4344.84 76.72 6.00 411.82 3335.00
   08:34:24.245.08-Aug-2020 5149.01 4344.73 76.72 6.00 412.02 3335.00
   08:34:24.445.08-Aug-2020 5149.01 4344.66 76.72 6.00 412.22 3335.00
   08:34:24.645.08-Aug-2020 5149.01 4344.66 76.72 6.00 412.42 3335.00
   08:34:24.845.08-Aug-2020 5149.01 4344.69 76.72 6.00 412.62 3335.00
   08:34:25.045.08-Aug-2020 5149.01 4344.84 76.72 6.00 412.82 3335.00
   08:34:25.246.08-Aug-2020 5149.01 4344.81 76.72 6.00 413.02 3335.00
   08:34:25.446.08-Aug-2020 5149.01 4344.72 76.72 6.00 413.22 3335.00
   08:34:25.646.08-Aug-2020 5149.01 4344.72 76.72 6.00 413.42 3335.00
   08:34:25.846.08-Aug-2020 5149.01 4344.87 76.72 6.00 413.62 3335.00
   08:34:26.046.08-Aug-2020 5149.01 4344.92 76.72 6.00 413.82 3335.00
   08:34:26.246.08-Aug-2020 5149.01 4344.51 76.72 6.00 414.02 3335.00
