~Version Information
 VERS.                  2.0:   CWLS log ASCII Standard -VERSION 2.0
 WRAP.                   NO:   One line per depth step
~Well Information Block
#MNEM.UNIT     VALUE/NAME     DESCRIPTION
#---------     -----------    ---------------------------
 STRT.S             08:45:48 08-Aug-20: START TIME 08:45:48 08-Aug-20
 STOP.S             08:54:16 08-Aug-20: STOP TIME  08:54:16 08-Aug-20
 STEP.S                   0.00: STEP TIME
 NULL.                 -999.25: NULL VALUE
 DFWT.                        :  DIST FWL TEXT
 DFST.                        :  DIST FSL TEXT
 DMF .             Drill Floor:  DRILL MEAS FROM
 STIM.      13.47.44 07-Jun-20:  START TIME
 DATE.      13.47.44 27-Jul-20:  END TIME
 SPUD.               07-Jun-20:  SPUD DATE
 NREF.                    Grid:  NORTH REFERENCE
 HPTY.       Minimum Curvature:  HOLE POS TYPE
 DMOD.             Drill Model:  DRILL MOD DESC
 SVYD.                  Survey:  SURVEY DESC
 ILTD.               Lithology:  INTERP LTH DESC
 FTOP.          Formation Tops:  FORM TOPS DESC
 RIG .             West Chirag:  RIG NAME
 PDAT.          Mean Sea Level:  PERMANENT DATUM
 FLD .                     ACG:  FIELD NAME
 SON .        AZ-XX-0906363612:  JOB NUMBER
 CTRY.              Azerbaijan:  COUNTRY NAME
 WELL.           J25 (Slot 35):  WELL NAME
 SRVC.          Turan Drilling:  CONTRACTOR
 COMP.     BP Exploration (Caspian Sea) Ltd:  COMPANY
 UWI .                     N/A:  UNIQUE WELL IDENTIFIER
 API .                     N/A:  API NUMBER
 BASE.              Azerbaijan:  LOGGING EQUIPMENT BASE LOCATION
 REGN.                   EESSA:  REGION
 PROV.                    Baku:  PROVINCE
 STAT.                    Baku:  STATE NAME
 MWDS.                     N/A:  MWD SHOP
 DOE .                     N/A:  DOE NUMBER
 DCON.         Sperry Drilling:  DIRECTNL CONTR
 UNIT.                     N/A:  LOGGING EQUIPMENT ID
 MDS .        Operator Entered:  MAG DATA SOURCE
 JOBN.        AZ-XX-0906363612:  JOB TICKET NUMB
 WTYP.                Deviated:  WELL TYPE
 CNTY.                        :  COUNTY
 LOC .                        :  LOCATION
 LMF .             Drill Floor:  LOG MEASURED FROM
 TVDS.m                  43.00:  TVDSS CORRECTN
 LATI.deg                40.13:  LATITUDE
 LONG.deg                51.22:  LONGITUDE
 WHNS.m                  -7.90:  WELL HEAD N/S
 WHEW.m                  -3.35:  WELL HEAD E/W
 UTMX.m              519005.06:  UTM X
 UTMY.m             4443793.85:  UTM Y
 DFWL.m                   0.00:  DISTANCE FWL
 DFSL.m                   0.00:  DISTANCE FSL
 SDEP.m                   0.00:  START DEPTH
 TDD .m                   0.00:  TOTAL DEPTH (DRILLER)
 VSDR.deg               308.97:  VERT SEC DIRECT
 GVFD.g                   1.00:  GRAVITY FIELD
 MFLD.nT              50350.00:  MAGNETIC FIELD
 MDIP.deg                59.62:  MAGNETIC DIP
 MDEC.deg                 6.44:  MAGNETIC DECL
 GRDC.deg                 0.13:  GRID CORRECTION
 AZTC.deg                 6.32:  AZM TOTAL CORR
 EPD .m                   0.00:  ELEVATION
 EGL .m                   0.00:  GROUND ELEVATION
 WDMS.m                 169.80:  WD ELEV
 APD .m                  43.00:  DEPTH ABOVE PD
 DEP .m                 356.43:  DEPTH
 AGAP.m                  43.00:  AIR GAP
 VSEW.m                  -3.35:  VERT SEC E/W
 VSNS.m                  -7.90:  VERT SEC N/S
 EKB .m                  43.00:  KB ELEVATION
 EDF .m                  43.00:  DF ELEVATION
 TDL .m                 934.00:  TOTAL DEPTH (LOGGER)
 VSC .                       0:  VS TO CLOSURE
 MAGU.                 1852825:  MAGUTM CHECKSUM
~Parameter Information Block
#MNEM.UNIT       Value        Description
#---------     -----------    ---------------------------
 AV  .mps                 0.80:  Ann Velocity 
 AVMX.mps                 1.70:  Max Ann Veloc 
 AZIF.deg               311.41:  Azm, Final 
 BHAT.        Rotary Steerable:  BHA Type 
 BROT.°/30m               0.09:  Build Rotating 
 BS  .in                 12.25:  Bit Size 
 BSZ .in                 12.25:  Bit Size 
 BTPL.psig              800.00:  Bit Press Loss 
 CABU.                      No:  Customer Abuse 
 COMM.                     ôS:  Run Comments 1 
 TCS .hr                 96.00:  Time Ciculation Ended 
 CV  .mps                 2.03:  Crit Velocity 
 CVMX.mps                 2.42:  Max Crit Veloc 
 DD1 .          Taghi Taghiyev:  Direct Drillr 1 
 DD2 .      Tariel Pirmammadov:  Direct Drillr 2 
 DD3 .          Teymur Aghayev:  Direct Drillr 3 
 DDSV.                 iCruise:  DD Service 
 DEFF.%                  98.70:  % Det Eff 
 DLRX.°/30m               1.00:  Dogleg Rot Max 
 DLSO.°/30m               1.80:  Dogleg Oriented 
 DLSX.°/30m               3.16:  Dogleg Str Max 
 DRET.      15.00.00 07-Aug-20:  Drill End Time 
 DRST.      17.00.00 02-Aug-20:  Drill Start Tim 
 DTIM.hr                 45.90:  Time Drilling 
 EDEP.m                5298.01:  End Depth 
 ENG1.       Seymur Iskandarov:  Engineer 1 
 ENG2.         Yevgeniy Ulikov:  Engineer 2 
 ENG3.      Artemiy Matviyanov:  Engineer 3 
 ENG4.         Bahruz Mehdiyev:  Engineer 4 
 ETIM.      05.00.00 10-Aug-20:  End Time 
 FLOI.gpm              1150.00:  Flow In 
 FLON.gpm               900.00:  Flow In Min 
 FLOS.cptm                0.00:  Fluid Loss 
 FLOX.gpm              1200.00:  Flow In Max 
 FTRO.     Connectivity, Formation Presure:  FTWD Run Obj 
 HFLO.                      No:  High Flow 
 HPRE.                     Yes:  High Pressure 
 HTEM.                      No:  High Temp 
 HYDO.m                   1.80:  Hydro Offset 
 IFIN.deg                 9.71:  Inc, Final 
 IMAX.deg                63.81:  Inc Max 
 IMIN.deg                 9.53:  Inc Min 
 IMND.m                5075.52:  Inc Min Depth 
 IMXD.m                4367.08:  Inc Max Depth 
 JARR.                      No:  Jarring 
 LETM.      15.00.00 07-Aug-20:  Log End Time 
 LOST.hr                     2:  Lost Rig Time 
 LSTM.      17.00.00 02-Aug-20:  Log Start Time 
 MDCL.ppm             42500.00:  Mud Chlorides 
 MDES.     Inversion Oil/Synthetic:  Mud Desc 
 DFD .sg                  1.46:  Mud Density 
 MDMN.sg                  1.46:  Dens Mud Min 
 MDMX.sg                  1.46:  Dens Mud Max 
 MOIL.                      56:  Run Mud Oil % 
 MOWR.                   70:30:  Run Mud OWR 
 MSND.                     0.1:  Run Mud Sand % 
 MSOL.                      19:  Run Mud Solids% 
 DFV .spqt               83.00:  Mud Viscosity 
 MWOD.in                  8.00:  MWD Tool OD 
 MWSI.                     Yes:  Serv Intrp, MWD 
 OTIM.hr                196.57:  Time Operating 
 PCON.           Look Like New:  Pad Condition 
 PMAX.psia             7400.00:  Press Op, Max 
 PV  .cP                 36.00:  Mud PV 
 RUN .                    1000:  Run Number 
 ROPA.m/hr               25.00:  ROP Avg 
 ROPN.m/hr               10.00:  ROP Min 
 ROPX.m/hr               32.00:  ROP Max 
 RPMA.rpm               120.00:  RPM Surface Avg 
 RPMN.rpm               100.00:  RPM Surface Min 
 RPMX.rpm               140.00:  RPM Surface Max 
 RRUN.                    L504:  Rig Run Number 
 SAZI.deg               308.25:  Azm, Start 
 SDEP.m                4364.01:  Start Depth 
 SIDD.                      No:  Serv Intrp, DD 
 SINC.deg                63.81:  Inc, Start 
 SPPA.psig             5800.00:  SPP Avg 
 SPPN.psig             4200.00:  SPP Min 
 SPPX.psig             5950.00:  SPP Max 
 STIM.      18.00.00 01-Aug-20:  Start Time 
 SVCS.                 DD, MWD:  Services 
 SVER.                    9.20:  Sperry Version 
 TDAT.m                 934.00:  Tot Depth Attmp 
 TDDF.                      No:  Trip for DD 
 TDLG.m                 934.00:  Tot Depth Loggd 
 TFF .                      No:  Trip for Fail 
 TQAA.f-kp               31.00:  Torque Abs Avg 
 TQAN.f-kp               25.00:  Torque Abs Min 
 TQAX.f-kp               35.00:  Torque Abs Max 
 TRRT.°/30m              -0.75:  Turn Rotating 
 MRT .                  EWR-M5:  Maximum Recorded Temperature 
 TTMX.degC               95.00:  Max Tool Temp 
 VS01.                90516060:  Virtual Str1 SN 
 VS02.                90528488:  Virtual Str2 SN 
 VS03.                90577970:  Virtual Str3 SN 
 VS04.                12385033:  Virtual Str4 SN 
 VS05.                90522069:  Virtual Str5 SN 
 VS06.                13124134:  Virtual Str6 SN 
 WBMN.klb                20.00:  WOB Min 
 WITN.         Alistair Sprott:  Customer Rep 
 WITN.     Ronal van der Kraan:  Customer Rep 2 
 WOBA.klb                25.00:  WOB Avg 
 WOBX.klb                31.00:  WOB Max 
 YP  .lhf2               32.00:  Yield Point 
~Curve Information Block
#MNEM.UNIT                 API CODE     Curve Description
#---------               -----------    ---------------------------
 TIME.HHMMSS            00 000 000 000:  GT Time & Date
 GTDEPTH.m              00 000 000 000:  GT Depth
 GTPQH.psia             00 000 000 000:  GT HR Quartz Pressure
 GTTQ.degC              00 000 000 000:  GT Quartz Temperature
 GTTN.NONE              00 000 000 000:  GT Test Number
 GTET.sec               00 000 000 000:  GT Elapsed Test Time
 GTTVD.m                00 000 000 000:  GT True Vertical Depth
#Other Information
#
#WARRANTY: Halliburton will use its best efforts to furnish customers with 
#accurate information and interpretations that are part of, and incident to, the services 
#provided.  However, Halliburton cannot and does not warrant the accuracy 
#or correctness of such information and interpretations.  Under no circumstances should any 
#such information or interpretation be relied upon as the sole basis for any drilling, 
#completion, production, or financial decision or any procedure involving any risk to the 
#safety of any drilling venture, drilling rig or its crew or any other third party.  The 
#Customer has full responsibility for all drilling, completion and production operation.  
#Halliburton makes no representations or warranties, either expressed or 
#implied, including, but not limited to, the implied warranties of merchantability or fitness 
#for a particular purpose, with respect to the services rendered.  In no event will 
#Halliburton be liable for failure to obtain any particular results or for 
#any damages, including, but not limited to, indirect, special or consequential damages, 
#resulting from the use of any information or interpretation provided by Halliburton.
#
~A           TIME           GTDEPTH  GTPQH  GTTQ  GTTN  GTET   GTTVD  
# ...
   08:48:52.905.08-Aug-2020 5134.01 2914.43 76.13 7.00 184.10 3320.21
   08:48:53.105.08-Aug-2020 5134.01 2915.99 76.13 7.00 184.30 3320.21
   08:48:53.305.08-Aug-2020 5134.01 2917.62 76.13 7.00 184.50 3320.21
   08:48:53.505.08-Aug-2020 5134.01 2919.43 76.13 7.00 184.70 3320.21
   08:48:53.705.08-Aug-2020 5134.01 2921.03 76.13 7.00 184.90 3320.21
   08:48:53.905.08-Aug-2020 5134.01 2922.57 76.13 7.00 185.10 3320.21
   08:48:54.105.08-Aug-2020 5134.01 2922.57 76.13 7.00 185.30 3320.21
   08:48:54.305.08-Aug-2020 5134.01 2924.29 76.13 7.00 185.50 3320.21
   08:48:54.505.08-Aug-2020 5134.01 2926.09 76.13 7.00 185.70 3320.21
   08:48:54.706.08-Aug-2020 5134.01 2927.71 76.13 7.00 185.90 3320.21
   08:48:54.906.08-Aug-2020 5134.01 2929.44 76.13 7.00 186.10 3320.21
   08:48:55.106.08-Aug-2020 5134.01 2929.44 76.13 7.00 186.30 3320.21
   08:48:55.306.08-Aug-2020 5134.01 2932.59 76.13 7.00 186.50 3320.21
   08:48:55.506.08-Aug-2020 5134.01 2934.22 76.13 7.00 186.70 3320.21
   08:48:55.706.08-Aug-2020 5134.01 2935.90 76.13 7.00 186.90 3320.21
   08:48:55.906.08-Aug-2020 5134.01 2937.58 76.13 7.00 187.10 3320.21
   08:48:56.106.08-Aug-2020 5134.01 2937.58 76.13 7.00 187.30 3320.21
   08:48:56.306.08-Aug-2020 5134.01 2940.90 76.13 7.00 187.50 3320.21
   08:48:56.506.08-Aug-2020 5134.01 2942.45 76.13 7.00 187.70 3320.21
   08:48:56.707.08-Aug-2020 5134.01 2944.17 76.13 7.00 187.90 3320.21
   08:48:56.907.08-Aug-2020 5134.01 2945.78 76.13 7.00 188.10 3320.21
   08:48:57.107.08-Aug-2020 5134.01 2945.78 76.13 7.00 188.30 3320.21
   08:48:57.307.08-Aug-2020 5134.01 2949.03 76.13 7.00 188.50 3320.21
   08:48:57.507.08-Aug-2020 5134.01 2950.63 76.13 7.00 188.70 3320.21
   08:48:57.707.08-Aug-2020 5134.01 2952.27 76.13 7.00 188.90 3320.21
   08:48:57.907.08-Aug-2020 5134.01 2953.86 76.13 7.00 189.10 3320.21
   08:48:58.107.08-Aug-2020 5134.01 2953.86 76.13 7.00 189.30 3320.21
   08:48:58.307.08-Aug-2020 5134.01 2957.27 76.13 7.00 189.50 3320.21
   08:48:58.508.08-Aug-2020 5134.01 2958.79 76.13 7.00 189.70 3320.21
   08:48:58.708.08-Aug-2020 5134.01 2960.31 76.13 7.00 189.90 3320.21
   08:48:58.908.08-Aug-2020 5134.01 2961.85 76.13 7.00 190.10 3320.21
   08:48:59.108.08-Aug-2020 5134.01 2961.85 76.13 7.00 190.30 3320.21
   08:48:59.308.08-Aug-2020 5134.01 2965.11 76.13 7.00 190.50 3320.21
   08:48:59.508.08-Aug-2020 5134.01 2966.74 76.13 7.00 190.70 3320.21
   08:48:59.708.08-Aug-2020 5134.01 2968.30 76.13 7.00 190.90 3320.21
   08:48:59.908.08-Aug-2020 5134.01 2969.96 76.13 7.00 191.10 3320.21
   08:49:00.108.08-Aug-2020 5134.01 2969.96 76.13 7.00 191.30 3320.21
   08:49:00.308.08-Aug-2020 5134.01 2973.18 76.13 7.00 191.50 3320.21
   08:49:00.509.08-Aug-2020 5134.01 2974.79 76.13 7.00 191.70 3320.21
   08:49:00.709.08-Aug-2020 5134.01 2976.39 76.13 7.00 191.90 3320.21
   08:49:00.909.08-Aug-2020 5134.01 2977.95 76.13 7.00 192.10 3320.21
   08:49:01.109.08-Aug-2020 5134.01 2979.65 76.13 7.00 192.30 3320.21
   08:49:01.309.08-Aug-2020 5134.01 2980.19 76.13 7.00 192.50 3320.21
   08:49:01.509.08-Aug-2020 5134.01 2981.47 76.13 7.00 192.70 3320.21
   08:49:01.709.08-Aug-2020 5134.01 2983.00 76.13 7.00 192.90 3320.21
   08:49:01.909.08-Aug-2020 5134.01 2984.49 76.13 7.00 193.10 3320.21
   08:49:02.109.08-Aug-2020 5134.01 2986.14 76.13 7.00 193.30 3320.21
   08:49:02.310.08-Aug-2020 5134.01 2987.66 76.13 7.00 193.50 3320.21
   08:49:02.510.08-Aug-2020 5134.01 2989.36 76.13 7.00 193.70 3320.21
   08:49:02.710.08-Aug-2020 5134.01 2990.98 76.13 7.00 193.90 3320.21
   08:49:02.910.08-Aug-2020 5134.01 2992.54 76.13 7.00 194.10 3320.21
   08:49:03.110.08-Aug-2020 5134.01 2994.10 76.13 7.00 194.30 3320.21
   08:49:03.310.08-Aug-2020 5134.01 2995.76 76.13 7.00 194.50 3320.21
   08:49:03.510.08-Aug-2020 5134.01 2997.56 76.13 7.00 194.70 3320.21
   08:49:03.710.08-Aug-2020 5134.01 2999.15 76.13 7.00 194.90 3320.21
   08:49:03.910.08-Aug-2020 5134.01 3000.65 76.13 7.00 195.10 3320.21
   08:49:04.111.08-Aug-2020 5134.01 3000.65 76.13 7.00 195.30 3320.21
   08:49:04.311.08-Aug-2020 5134.01 3004.04 76.13 7.00 195.50 3320.21
   08:49:04.511.08-Aug-2020 5134.01 3005.56 76.13 7.00 195.70 3320.21
   08:49:04.711.08-Aug-2020 5134.01 3007.13 76.13 7.00 195.90 3320.21
   08:49:04.911.08-Aug-2020 5134.01 3008.66 76.13 7.00 196.10 3320.21
   08:49:05.111.08-Aug-2020 5134.01 3010.23 76.13 7.00 196.30 3320.21
   08:49:05.311.08-Aug-2020 5134.01 3011.76 76.13 7.00 196.50 3320.21
   08:49:05.511.08-Aug-2020 5134.01 3013.40 76.13 7.00 196.70 3320.21
   08:49:05.711.08-Aug-2020 5134.01 3014.97 76.13 7.00 196.90 3320.21
   08:49:05.911.08-Aug-2020 5134.01 3016.51 76.13 7.00 197.10 3320.21
   08:49:06.112.08-Aug-2020 5134.01 3018.14 76.13 7.00 197.30 3320.21
   08:49:06.312.08-Aug-2020 5134.01 3019.73 76.13 7.00 197.50 3320.21
   08:49:06.512.08-Aug-2020 5134.01 3021.26 76.13 7.00 197.70 3320.21
   08:49:06.712.08-Aug-2020 5134.01 3022.82 76.13 7.00 197.90 3320.21
   08:49:06.912.08-Aug-2020 5134.01 3024.36 76.13 7.00 198.10 3320.21
   08:49:07.112.08-Aug-2020 5134.01 3024.36 76.13 7.00 198.30 3320.21
   08:49:07.312.08-Aug-2020 5134.01 3027.47 76.13 7.00 198.51 3320.21
   08:49:07.512.08-Aug-2020 5134.01 3029.15 76.13 7.00 198.71 3320.21
   08:49:07.712.08-Aug-2020 5134.01 3030.58 76.13 7.00 198.91 3320.21
   08:49:07.913.08-Aug-2020 5134.01 3032.18 76.13 7.00 199.11 3320.21
   08:49:08.113.08-Aug-2020 5134.01 3032.18 76.13 7.00 199.31 3320.21
   08:49:08.313.08-Aug-2020 5134.01 3035.11 76.13 7.00 199.51 3320.21
   08:49:08.513.08-Aug-2020 5134.01 3036.65 76.13 7.00 199.71 3320.21
   08:49:08.713.08-Aug-2020 5134.01 3038.16 76.13 7.00 199.91 3320.21
   08:49:08.913.08-Aug-2020 5134.01 3039.70 76.13 7.00 200.11 3320.21
   08:49:09.113.08-Aug-2020 5134.01 3039.70 76.13 7.00 200.31 3320.21
   08:49:09.313.08-Aug-2020 5134.01 3042.81 76.13 7.00 200.51 3320.21
   08:49:09.513.08-Aug-2020 5134.01 3044.29 76.13 7.00 200.71 3320.21
   08:49:09.713.08-Aug-2020 5134.01 3045.89 76.12 7.00 200.91 3320.21
   08:49:09.914.08-Aug-2020 5134.01 3047.42 76.13 7.00 201.11 3320.21
   08:49:10.114.08-Aug-2020 5134.01 3047.42 76.13 7.00 201.31 3320.21
   08:49:10.314.08-Aug-2020 5134.01 3050.30 76.12 7.00 201.51 3320.21
   08:49:10.514.08-Aug-2020 5134.01 3050.62 76.12 7.00 201.71 3320.21
   08:49:10.714.08-Aug-2020 5134.01 3052.04 76.12 7.00 201.91 3320.21
   08:49:10.914.08-Aug-2020 5134.01 3053.61 76.12 7.00 202.11 3320.21
   08:49:11.114.08-Aug-2020 5134.01 3053.61 76.12 7.00 202.31 3320.21
   08:49:11.314.08-Aug-2020 5134.01 2308.70 76.12 7.00 202.51 3320.21
   08:49:11.514.08-Aug-2020 5134.01 2120.75 76.12 7.00 202.71 3320.21
   08:49:11.715.08-Aug-2020 5134.01 2013.61 76.12 7.00 202.91 3320.21
   08:49:11.915.08-Aug-2020 5134.01 1922.73 76.12 7.00 203.11 3320.21
   08:49:12.115.08-Aug-2020 5134.01 1922.73 76.12 7.00 203.31 3320.21
   08:49:12.315.08-Aug-2020 5134.01 1762.87 76.12 7.00 203.51 3320.21
   08:49:12.515.08-Aug-2020 5134.01 1678.96 76.12 7.00 203.71 3320.21
   08:49:12.715.08-Aug-2020 5134.01 1585.82 76.12 7.00 203.91 3320.21
   08:49:12.915.08-Aug-2020 5134.01 1498.44 76.12 7.00 204.11 3320.21
   08:49:13.115.08-Aug-2020 5134.01 1498.44 76.12 7.00 204.31 3320.21
   08:49:13.315.08-Aug-2020 5134.01 1324.36 76.12 7.00 204.51 3320.21
   08:49:13.515.08-Aug-2020 5134.01 1290.14 76.12 7.00 204.71 3320.21
   08:49:13.716.08-Aug-2020 5134.01 1296.99 76.12 7.00 204.91 3320.21
   08:49:13.916.08-Aug-2020 5134.01 1303.01 76.12 7.00 205.11 3320.21
   08:49:14.116.08-Aug-2020 5134.01 1303.01 76.12 7.00 205.31 3320.21
   08:49:14.316.08-Aug-2020 5134.01 1308.51 76.12 7.00 205.51 3320.21
   08:49:14.516.08-Aug-2020 5134.01 1311.21 76.12 7.00 205.71 3320.21
   08:49:14.716.08-Aug-2020 5134.01 1315.47 76.12 7.00 205.91 3320.21
   08:49:14.916.08-Aug-2020 5134.01 1316.60 76.11 7.00 206.11 3320.21
   08:49:15.116.08-Aug-2020 5134.01 1316.60 76.11 7.00 206.31 3320.21
   08:49:15.316.08-Aug-2020 5134.01 1320.38 76.11 7.00 206.51 3320.21
   08:49:15.517.08-Aug-2020 5134.01 1317.49 76.11 7.00 206.71 3320.21
   08:49:15.717.08-Aug-2020 5134.01 1316.15 76.11 7.00 206.91 3320.21
