~Version Information
 VERS.                  2.0:   CWLS log ASCII Standard -VERSION 2.0
 WRAP.                   NO:   One line per depth step
~Well Information Block
#MNEM.UNIT     VALUE/NAME     DESCRIPTION
#---------     -----------    ---------------------------
 STRT.S             06:39:47 08-Aug-20: START TIME 06:39:47 08-Aug-20
 STOP.S             06:48:06 08-Aug-20: STOP TIME  06:48:06 08-Aug-20
 STEP.S                   0.00: STEP TIME
 NULL.                 -999.25: NULL VALUE
 DFWT.                        :  DIST FWL TEXT
 DFST.                        :  DIST FSL TEXT
 DMF .             Drill Floor:  DRILL MEAS FROM
 STIM.      13.47.44 07-Jun-20:  START TIME
 DATE.      13.47.44 27-Jul-20:  END TIME
 SPUD.               07-Jun-20:  SPUD DATE
 NREF.                    Grid:  NORTH REFERENCE
 HPTY.       Minimum Curvature:  HOLE POS TYPE
 DMOD.             Drill Model:  DRILL MOD DESC
 SVYD.                  Survey:  SURVEY DESC
 ILTD.               Lithology:  INTERP LTH DESC
 FTOP.          Formation Tops:  FORM TOPS DESC
 RIG .             West Chirag:  RIG NAME
 PDAT.          Mean Sea Level:  PERMANENT DATUM
 FLD .                     ACG:  FIELD NAME
 SON .        AZ-XX-0906363612:  JOB NUMBER
 CTRY.              Azerbaijan:  COUNTRY NAME
 WELL.           J25 (Slot 35):  WELL NAME
 SRVC.          Turan Drilling:  CONTRACTOR
 COMP.     BP Exploration (Caspian Sea) Ltd:  COMPANY
 UWI .                     N/A:  UNIQUE WELL IDENTIFIER
 API .                     N/A:  API NUMBER
 BASE.              Azerbaijan:  LOGGING EQUIPMENT BASE LOCATION
 REGN.                   EESSA:  REGION
 PROV.                    Baku:  PROVINCE
 STAT.                    Baku:  STATE NAME
 MWDS.                     N/A:  MWD SHOP
 DOE .                     N/A:  DOE NUMBER
 DCON.         Sperry Drilling:  DIRECTNL CONTR
 UNIT.                     N/A:  LOGGING EQUIPMENT ID
 MDS .        Operator Entered:  MAG DATA SOURCE
 JOBN.        AZ-XX-0906363612:  JOB TICKET NUMB
 WTYP.                Deviated:  WELL TYPE
 CNTY.                        :  COUNTY
 LOC .                        :  LOCATION
 LMF .             Drill Floor:  LOG MEASURED FROM
 TVDS.m                  43.00:  TVDSS CORRECTN
 LATI.deg                40.13:  LATITUDE
 LONG.deg                51.22:  LONGITUDE
 WHNS.m                  -7.90:  WELL HEAD N/S
 WHEW.m                  -3.35:  WELL HEAD E/W
 UTMX.m              519005.06:  UTM X
 UTMY.m             4443793.85:  UTM Y
 DFWL.m                   0.00:  DISTANCE FWL
 DFSL.m                   0.00:  DISTANCE FSL
 SDEP.m                   0.00:  START DEPTH
 TDD .m                   0.00:  TOTAL DEPTH (DRILLER)
 VSDR.deg               308.97:  VERT SEC DIRECT
 GVFD.g                   1.00:  GRAVITY FIELD
 MFLD.nT              50350.00:  MAGNETIC FIELD
 MDIP.deg                59.62:  MAGNETIC DIP
 MDEC.deg                 6.44:  MAGNETIC DECL
 GRDC.deg                 0.13:  GRID CORRECTION
 AZTC.deg                 6.32:  AZM TOTAL CORR
 EPD .m                   0.00:  ELEVATION
 EGL .m                   0.00:  GROUND ELEVATION
 WDMS.m                 169.80:  WD ELEV
 APD .m                  43.00:  DEPTH ABOVE PD
 DEP .m                 356.43:  DEPTH
 AGAP.m                  43.00:  AIR GAP
 VSEW.m                  -3.35:  VERT SEC E/W
 VSNS.m                  -7.90:  VERT SEC N/S
 EKB .m                  43.00:  KB ELEVATION
 EDF .m                  43.00:  DF ELEVATION
 TDL .m                 934.00:  TOTAL DEPTH (LOGGER)
 VSC .                       0:  VS TO CLOSURE
 MAGU.                 1852825:  MAGUTM CHECKSUM
~Parameter Information Block
#MNEM.UNIT       Value        Description
#---------     -----------    ---------------------------
 AV  .mps                 0.80:  Ann Velocity 
 AVMX.mps                 1.70:  Max Ann Veloc 
 AZIF.deg               311.41:  Azm, Final 
 BHAT.        Rotary Steerable:  BHA Type 
 BROT.°/30m               0.09:  Build Rotating 
 BS  .in                 12.25:  Bit Size 
 BSZ .in                 12.25:  Bit Size 
 BTPL.psig              800.00:  Bit Press Loss 
 CABU.                      No:  Customer Abuse 
 COMM.                     ´
n:  Run Comments 1 
 TCS .hr                 96.00:  Time Ciculation Ended 
 CV  .mps                 2.03:  Crit Velocity 
 CVMX.mps                 2.42:  Max Crit Veloc 
 DD1 .          Taghi Taghiyev:  Direct Drillr 1 
 DD2 .      Tariel Pirmammadov:  Direct Drillr 2 
 DD3 .          Teymur Aghayev:  Direct Drillr 3 
 DDSV.                 iCruise:  DD Service 
 DEFF.%                  98.70:  % Det Eff 
 DLRX.°/30m               1.00:  Dogleg Rot Max 
 DLSO.°/30m               1.80:  Dogleg Oriented 
 DLSX.°/30m               3.16:  Dogleg Str Max 
 DRET.      15.00.00 07-Aug-20:  Drill End Time 
 DRST.      17.00.00 02-Aug-20:  Drill Start Tim 
 DTIM.hr                 45.90:  Time Drilling 
 EDEP.m                5298.01:  End Depth 
 ENG1.       Seymur Iskandarov:  Engineer 1 
 ENG2.         Yevgeniy Ulikov:  Engineer 2 
 ENG3.      Artemiy Matviyanov:  Engineer 3 
 ENG4.         Bahruz Mehdiyev:  Engineer 4 
 ETIM.      05.00.00 10-Aug-20:  End Time 
 FLOI.gpm              1150.00:  Flow In 
 FLON.gpm               900.00:  Flow In Min 
 FLOS.cptm                0.00:  Fluid Loss 
 FLOX.gpm              1200.00:  Flow In Max 
 FTRO.     Connectivity, Formation Presure:  FTWD Run Obj 
 HFLO.                      No:  High Flow 
 HPRE.                     Yes:  High Pressure 
 HTEM.                      No:  High Temp 
 HYDO.m                   1.80:  Hydro Offset 
 IFIN.deg                 9.71:  Inc, Final 
 IMAX.deg                63.81:  Inc Max 
 IMIN.deg                 9.53:  Inc Min 
 IMND.m                5075.52:  Inc Min Depth 
 IMXD.m                4367.08:  Inc Max Depth 
 JARR.                      No:  Jarring 
 LETM.      15.00.00 07-Aug-20:  Log End Time 
 LOST.hr                     2:  Lost Rig Time 
 LSTM.      17.00.00 02-Aug-20:  Log Start Time 
 MDCL.ppm             42500.00:  Mud Chlorides 
 MDES.     Inversion Oil/Synthetic:  Mud Desc 
 DFD .sg                  1.46:  Mud Density 
 MDMN.sg                  1.46:  Dens Mud Min 
 MDMX.sg                  1.46:  Dens Mud Max 
 MOIL.                      56:  Run Mud Oil % 
 MOWR.                   70:30:  Run Mud OWR 
 MSND.                     0.1:  Run Mud Sand % 
 MSOL.                      19:  Run Mud Solids% 
 DFV .spqt               83.00:  Mud Viscosity 
 MWOD.in                  8.00:  MWD Tool OD 
 MWSI.                     Yes:  Serv Intrp, MWD 
 OTIM.hr                196.57:  Time Operating 
 PCON.           Look Like New:  Pad Condition 
 PMAX.psia             7400.00:  Press Op, Max 
 PV  .cP                 36.00:  Mud PV 
 RUN .                    1000:  Run Number 
 ROPA.m/hr               25.00:  ROP Avg 
 ROPN.m/hr               10.00:  ROP Min 
 ROPX.m/hr               32.00:  ROP Max 
 RPMA.rpm               120.00:  RPM Surface Avg 
 RPMN.rpm               100.00:  RPM Surface Min 
 RPMX.rpm               140.00:  RPM Surface Max 
 RRUN.                    L504:  Rig Run Number 
 SAZI.deg               308.25:  Azm, Start 
 SDEP.m                4364.01:  Start Depth 
 SIDD.                      No:  Serv Intrp, DD 
 SINC.deg                63.81:  Inc, Start 
 SPPA.psig             5800.00:  SPP Avg 
 SPPN.psig             4200.00:  SPP Min 
 SPPX.psig             5950.00:  SPP Max 
 STIM.      18.00.00 01-Aug-20:  Start Time 
 SVCS.                 DD, MWD:  Services 
 SVER.                    9.20:  Sperry Version 
 TDAT.m                 934.00:  Tot Depth Attmp 
 TDDF.                      No:  Trip for DD 
 TDLG.m                 934.00:  Tot Depth Loggd 
 TFF .                      No:  Trip for Fail 
 TQAA.f-kp               31.00:  Torque Abs Avg 
 TQAN.f-kp               25.00:  Torque Abs Min 
 TQAX.f-kp               35.00:  Torque Abs Max 
 TRRT.°/30m              -0.75:  Turn Rotating 
 MRT .                  EWR-M5:  Maximum Recorded Temperature 
 TTMX.degC               95.00:  Max Tool Temp 
 VS01.                90516060:  Virtual Str1 SN 
 VS02.                90528488:  Virtual Str2 SN 
 VS03.                90577970:  Virtual Str3 SN 
 VS04.                12385033:  Virtual Str4 SN 
 VS05.                90522069:  Virtual Str5 SN 
 VS06.                13124134:  Virtual Str6 SN 
 WBMN.klb                20.00:  WOB Min 
 WITN.         Alistair Sprott:  Customer Rep 
 WITN.     Ronal van der Kraan:  Customer Rep 2 
 WOBA.klb                25.00:  WOB Avg 
 WOBX.klb                31.00:  WOB Max 
 YP  .lhf2               32.00:  Yield Point 
~Curve Information Block
#MNEM.UNIT                 API CODE     Curve Description
#---------               -----------    ---------------------------
 TIME.HHMMSS            00 000 000 000:  GT Time & Date
 GTDEPTH.m              00 000 000 000:  GT Depth
 GTPQH.psia             00 000 000 000:  GT HR Quartz Pressure
 GTTQ.degC              00 000 000 000:  GT Quartz Temperature
 GTTN.NONE              00 000 000 000:  GT Test Number
 GTET.sec               00 000 000 000:  GT Elapsed Test Time
 GTTVD.m                00 000 000 000:  GT True Vertical Depth
#Other Information
#
#WARRANTY: Halliburton will use its best efforts to furnish customers with 
#accurate information and interpretations that are part of, and incident to, the services 
#provided.  However, Halliburton cannot and does not warrant the accuracy 
#or correctness of such information and interpretations.  Under no circumstances should any 
#such information or interpretation be relied upon as the sole basis for any drilling, 
#completion, production, or financial decision or any procedure involving any risk to the 
#safety of any drilling venture, drilling rig or its crew or any other third party.  The 
#Customer has full responsibility for all drilling, completion and production operation.  
#Halliburton makes no representations or warranties, either expressed or 
#implied, including, but not limited to, the implied warranties of merchantability or fitness 
#for a particular purpose, with respect to the services rendered.  In no event will 
#Halliburton be liable for failure to obtain any particular results or for 
#any damages, including, but not limited to, indirect, special or consequential damages, 
#resulting from the use of any information or interpretation provided by Halliburton.
#
~A           TIME           GTDEPTH  GTPQH  GTTQ  GTTN  GTET   GTTVD  
# ...
   06:43:37.000.08-Aug-2020 5176.51 1428.99 80.36 4.00 230.00 3362.10
   06:43:37.200.08-Aug-2020 5176.51 1428.99 80.36 4.00 230.20 3362.10
   06:43:37.400.08-Aug-2020 5176.51 1430.16 80.36 4.00 230.40 3362.10
   06:43:37.600.08-Aug-2020 5176.51 1430.78 80.36 4.00 230.60 3362.10
   06:43:37.800.08-Aug-2020 5176.51 1431.40 80.36 4.00 230.80 3362.10
   06:43:38.000.08-Aug-2020 5176.51 1431.93 80.36 4.00 231.00 3362.10
   06:43:38.200.08-Aug-2020 5176.51 1431.93 80.36 4.00 231.20 3362.10
   06:43:38.400.08-Aug-2020 5176.51 1433.18 80.36 4.00 231.40 3362.10
   06:43:38.600.08-Aug-2020 5176.51 1433.81 80.36 4.00 231.60 3362.10
   06:43:38.800.08-Aug-2020 5176.51 1434.39 80.35 4.00 231.80 3362.10
   06:43:39.000.08-Aug-2020 5176.51 1434.94 80.35 4.00 232.00 3362.10
   06:43:39.200.08-Aug-2020 5176.51 1434.94 80.35 4.00 232.20 3362.10
   06:43:39.400.08-Aug-2020 5176.51 1436.08 80.35 4.00 232.40 3362.10
   06:43:39.600.08-Aug-2020 5176.51 1436.53 80.35 4.00 232.60 3362.10
   06:43:39.800.08-Aug-2020 5176.51 1437.64 80.35 4.00 232.80 3362.10
   06:43:40.000.08-Aug-2020 5176.51 1438.44 80.35 4.00 233.00 3362.10
   06:43:40.200.08-Aug-2020 5176.51 1438.44 80.35 4.00 233.20 3362.10
   06:43:40.400.08-Aug-2020 5176.51 1439.46 80.35 4.00 233.40 3362.10
   06:43:40.600.08-Aug-2020 5176.51 1439.94 80.35 4.00 233.60 3362.10
   06:43:40.800.08-Aug-2020 5176.51 1440.41 80.35 4.00 233.80 3362.10
   06:43:41.000.08-Aug-2020 5176.51 1440.93 80.35 4.00 234.00 3362.10
   06:43:41.200.08-Aug-2020 5176.51 1440.93 80.35 4.00 234.20 3362.10
   06:43:41.400.08-Aug-2020 5176.51 1441.93 80.35 4.00 234.40 3362.10
   06:43:41.600.08-Aug-2020 5176.51 1442.52 80.35 4.00 234.60 3362.10
   06:43:41.800.08-Aug-2020 5176.51 1443.03 80.35 4.00 234.80 3362.10
   06:43:42.000.08-Aug-2020 5176.51 1443.55 80.35 4.00 235.00 3362.10
   06:43:42.200.08-Aug-2020 5176.51 1443.55 80.35 4.00 235.20 3362.10
   06:43:42.400.08-Aug-2020 5176.51 1444.56 80.35 4.00 235.40 3362.10
   06:43:42.600.08-Aug-2020 5176.51 1445.26 80.35 4.00 235.60 3362.10
   06:43:42.800.08-Aug-2020 5176.51 1445.66 80.35 4.00 235.80 3362.10
   06:43:43.000.08-Aug-2020 5176.51 1446.82 80.35 4.00 236.00 3362.10
   06:43:43.200.08-Aug-2020 5176.51 1446.82 80.35 4.00 236.20 3362.10
   06:43:43.400.08-Aug-2020 5176.51 1447.94 80.35 4.00 236.40 3362.10
   06:43:43.600.08-Aug-2020 5176.51 1449.37 80.35 4.00 236.60 3362.10
   06:43:43.800.08-Aug-2020 5176.51 1450.04 80.35 4.00 236.80 3362.10
   06:43:44.000.08-Aug-2020 5176.51 1450.67 80.35 4.00 237.00 3362.10
   06:43:44.200.08-Aug-2020 5176.51 1450.67 80.35 4.00 237.20 3362.10
   06:43:44.400.08-Aug-2020 5176.51 1451.71 80.35 4.00 237.40 3362.10
   06:43:44.600.08-Aug-2020 5176.51 1452.95 80.35 4.00 237.60 3362.10
   06:43:44.800.08-Aug-2020 5176.51 1453.41 80.35 4.00 237.80 3362.10
   06:43:45.000.08-Aug-2020 5176.51 1454.07 80.35 4.00 238.00 3362.10
   06:43:45.200.08-Aug-2020 5176.51 1454.07 80.35 4.00 238.20 3362.10
   06:43:45.400.08-Aug-2020 5176.51 1455.09 80.35 4.00 238.40 3362.10
   06:43:45.600.08-Aug-2020 5176.51 1455.60 80.35 4.00 238.60 3362.10
   06:43:45.800.08-Aug-2020 5176.51 1456.66 80.35 4.00 238.80 3362.10
   06:43:46.000.08-Aug-2020 5176.51 1457.65 80.35 4.00 239.00 3362.10
   06:43:46.200.08-Aug-2020 5176.51 1457.65 80.35 4.00 239.20 3362.10
   06:43:46.400.08-Aug-2020 5176.51 1459.40 80.35 4.00 239.40 3362.10
   06:43:46.600.08-Aug-2020 5176.51 1460.64 80.35 4.00 239.60 3362.10
   06:43:46.800.08-Aug-2020 5176.51 1461.33 80.35 4.00 239.80 3362.10
   06:43:47.000.08-Aug-2020 5176.51 1461.96 80.35 4.00 240.00 3362.10
   06:43:47.200.08-Aug-2020 5176.51 1461.96 80.35 4.00 240.20 3362.10
   06:43:47.400.08-Aug-2020 5176.51 1463.05 80.35 4.00 240.40 3362.10
   06:43:47.600.08-Aug-2020 5176.51 1463.64 80.35 4.00 240.60 3362.10
   06:43:47.800.08-Aug-2020 5176.51 1464.20 80.35 4.00 240.80 3362.10
   06:43:48.000.08-Aug-2020 5176.51 1464.77 80.35 4.00 241.00 3362.10
   06:43:48.200.08-Aug-2020 5176.51 1464.77 80.35 4.00 241.20 3362.10
   06:43:48.400.08-Aug-2020 5176.51 1465.84 80.35 4.00 241.40 3362.10
   06:43:48.600.08-Aug-2020 5176.51 1466.39 80.35 4.00 241.60 3362.10
   06:43:48.800.08-Aug-2020 5176.51 1466.92 80.35 4.00 241.80 3362.10
   06:43:49.000.08-Aug-2020 5176.51 1467.41 80.35 4.00 242.00 3362.10
   06:43:49.200.08-Aug-2020 5176.51 1467.41 80.35 4.00 242.20 3362.10
   06:43:49.400.08-Aug-2020 5176.51 1468.45 80.35 4.00 242.40 3362.10
   06:43:49.600.08-Aug-2020 5176.51 1468.94 80.35 4.00 242.60 3362.10
   06:43:49.800.08-Aug-2020 5176.51 1469.59 80.35 4.00 242.80 3362.10
   06:43:50.000.08-Aug-2020 5176.51 1470.59 80.35 4.00 243.00 3362.10
   06:43:50.200.08-Aug-2020 5176.51 1470.59 80.35 4.00 243.20 3362.10
   06:43:50.400.08-Aug-2020 5176.51 1471.62 80.35 4.00 243.40 3362.10
   06:43:50.600.08-Aug-2020 5176.51 1472.13 80.35 4.00 243.60 3362.10
   06:43:50.800.08-Aug-2020 5176.51 1472.61 80.35 4.00 243.80 3362.10
   06:43:51.000.08-Aug-2020 5176.51 1473.11 80.35 4.00 244.00 3362.10
   06:43:51.200.08-Aug-2020 5176.51 1473.11 80.35 4.00 244.20 3362.10
   06:43:51.400.08-Aug-2020 5176.51 1474.06 80.35 4.00 244.40 3362.10
   06:43:51.600.08-Aug-2020 5176.51 1474.59 80.35 4.00 244.60 3362.10
   06:43:51.800.08-Aug-2020 5176.51 1475.06 80.35 4.00 244.80 3362.10
   06:43:52.000.08-Aug-2020 5176.51 1475.59 80.35 4.00 245.00 3362.10
   06:43:52.200.08-Aug-2020 5176.51 1475.59 80.35 4.00 245.20 3362.10
   06:43:52.400.08-Aug-2020 5176.51 1476.57 80.35 4.00 245.40 3362.10
   06:43:52.600.08-Aug-2020 5176.51 1477.02 80.35 4.00 245.60 3362.10
   06:43:52.800.08-Aug-2020 5176.51 1477.39 80.35 4.00 245.80 3362.10
   06:43:53.000.08-Aug-2020 5176.51 1478.63 80.35 4.00 246.00 3362.10
   06:43:53.200.08-Aug-2020 5176.51 1478.63 80.35 4.00 246.20 3362.10
   06:43:53.400.08-Aug-2020 5176.51 1479.91 80.35 4.00 246.40 3362.10
   06:43:53.600.08-Aug-2020 5176.51 1481.34 80.35 4.00 246.60 3362.10
   06:43:53.800.08-Aug-2020 5176.51 1482.17 80.35 4.00 246.80 3362.10
   06:43:54.000.08-Aug-2020 5176.51 1482.60 80.35 4.00 247.00 3362.10
   06:43:54.200.08-Aug-2020 5176.51 1482.60 80.35 4.00 247.20 3362.10
   06:43:54.400.08-Aug-2020 5176.51 1483.80 80.35 4.00 247.40 3362.10
   06:43:54.600.08-Aug-2020 5176.51 1484.17 80.35 4.00 247.60 3362.10
   06:43:54.800.08-Aug-2020 5176.51 1484.81 80.35 4.00 247.80 3362.10
   06:43:55.000.08-Aug-2020 5176.51 1485.72 80.35 4.00 248.00 3362.10
   06:43:55.200.08-Aug-2020 5176.51 1486.17 80.35 4.00 248.20 3362.10
   06:43:55.400.08-Aug-2020 5176.51 1486.70 80.35 4.00 248.40 3362.10
   06:43:55.600.08-Aug-2020 5176.51 1487.65 80.34 4.00 248.60 3362.10
   06:43:55.800.08-Aug-2020 5176.51 1488.11 80.34 4.00 248.80 3362.10
   06:43:56.000.08-Aug-2020 5176.51 1488.60 80.34 4.00 249.00 3362.10
   06:43:56.200.08-Aug-2020 5176.51 1488.60 80.34 4.00 249.20 3362.10
   06:43:56.400.08-Aug-2020 5176.51 1490.01 80.34 4.00 249.40 3362.10
   06:43:56.600.08-Aug-2020 5176.51 1490.47 80.34 4.00 249.60 3362.10
   06:43:56.800.08-Aug-2020 5176.51 1490.92 80.34 4.00 249.80 3362.10
   06:43:57.000.08-Aug-2020 5176.51 1491.39 80.34 4.00 250.00 3362.10
   06:43:57.200.08-Aug-2020 5176.51 1491.87 80.34 4.00 250.20 3362.10
   06:43:57.400.08-Aug-2020 5176.51 1492.28 80.34 4.00 250.40 3362.10
   06:43:57.600.08-Aug-2020 5176.51 1492.80 80.34 4.00 250.60 3362.10
   06:43:57.800.08-Aug-2020 5176.51 1493.21 80.34 4.00 250.80 3362.10
   06:43:58.000.08-Aug-2020 5176.51 1493.54 80.34 4.00 251.00 3362.10
   06:43:58.200.08-Aug-2020 5176.51 1493.54 80.34 4.00 251.20 3362.10
   06:43:58.400.08-Aug-2020 5176.51 1494.50 80.34 4.00 251.40 3362.10
   06:43:58.600.08-Aug-2020 5176.51 1494.92 80.34 4.00 251.60 3362.10
   06:43:58.800.08-Aug-2020 5176.51 1495.28 80.34 4.00 251.80 3362.10
   06:43:59.000.08-Aug-2020 5176.51 1495.66 80.34 4.00 252.00 3362.10
   06:43:59.200.08-Aug-2020 5176.51 1495.66 80.34 4.00 252.20 3362.10
   06:43:59.400.08-Aug-2020 5176.51 1496.45 80.34 4.00 252.40 3362.10
   06:43:59.600.08-Aug-2020 5176.51 1496.78 80.34 4.00 252.60 3362.10
   06:43:59.800.08-Aug-2020 5176.51 1497.55 80.34 4.00 252.80 3362.10
