~Version Information
 VERS.                  2.0:   CWLS log ASCII Standard -VERSION 2.0
 WRAP.                   NO:   One line per depth step
~Well Information Block
#MNEM.UNIT     VALUE/NAME     DESCRIPTION
#---------     -----------    ---------------------------
 STRT.S             07:09:07 08-Aug-20: START TIME 07:09:07 08-Aug-20
 STOP.S             07:17:38 08-Aug-20: STOP TIME  07:17:38 08-Aug-20
 STEP.S                   0.00: STEP TIME
 NULL.                 -999.25: NULL VALUE
 DFWT.                        :  DIST FWL TEXT
 DFST.                        :  DIST FSL TEXT
 DMF .             Drill Floor:  DRILL MEAS FROM
 STIM.      13.47.44 07-Jun-20:  START TIME
 DATE.      13.47.44 27-Jul-20:  END TIME
 SPUD.               07-Jun-20:  SPUD DATE
 NREF.                    Grid:  NORTH REFERENCE
 HPTY.       Minimum Curvature:  HOLE POS TYPE
 DMOD.             Drill Model:  DRILL MOD DESC
 SVYD.                  Survey:  SURVEY DESC
 ILTD.               Lithology:  INTERP LTH DESC
 FTOP.          Formation Tops:  FORM TOPS DESC
 RIG .             West Chirag:  RIG NAME
 PDAT.          Mean Sea Level:  PERMANENT DATUM
 FLD .                     ACG:  FIELD NAME
 SON .        AZ-XX-0906363612:  JOB NUMBER
 CTRY.              Azerbaijan:  COUNTRY NAME
 WELL.           J25 (Slot 35):  WELL NAME
 SRVC.          Turan Drilling:  CONTRACTOR
 COMP.     BP Exploration (Caspian Sea) Ltd:  COMPANY
 UWI .                     N/A:  UNIQUE WELL IDENTIFIER
 API .                     N/A:  API NUMBER
 BASE.              Azerbaijan:  LOGGING EQUIPMENT BASE LOCATION
 REGN.                   EESSA:  REGION
 PROV.                    Baku:  PROVINCE
 STAT.                    Baku:  STATE NAME
 MWDS.                     N/A:  MWD SHOP
 DOE .                     N/A:  DOE NUMBER
 DCON.         Sperry Drilling:  DIRECTNL CONTR
 UNIT.                     N/A:  LOGGING EQUIPMENT ID
 MDS .        Operator Entered:  MAG DATA SOURCE
 JOBN.        AZ-XX-0906363612:  JOB TICKET NUMB
 WTYP.                Deviated:  WELL TYPE
 CNTY.                        :  COUNTY
 LOC .                        :  LOCATION
 LMF .             Drill Floor:  LOG MEASURED FROM
 TVDS.m                  43.00:  TVDSS CORRECTN
 LATI.deg                40.13:  LATITUDE
 LONG.deg                51.22:  LONGITUDE
 WHNS.m                  -7.90:  WELL HEAD N/S
 WHEW.m                  -3.35:  WELL HEAD E/W
 UTMX.m              519005.06:  UTM X
 UTMY.m             4443793.85:  UTM Y
 DFWL.m                   0.00:  DISTANCE FWL
 DFSL.m                   0.00:  DISTANCE FSL
 SDEP.m                   0.00:  START DEPTH
 TDD .m                   0.00:  TOTAL DEPTH (DRILLER)
 VSDR.deg               308.97:  VERT SEC DIRECT
 GVFD.g                   1.00:  GRAVITY FIELD
 MFLD.nT              50350.00:  MAGNETIC FIELD
 MDIP.deg                59.62:  MAGNETIC DIP
 MDEC.deg                 6.44:  MAGNETIC DECL
 GRDC.deg                 0.13:  GRID CORRECTION
 AZTC.deg                 6.32:  AZM TOTAL CORR
 EPD .m                   0.00:  ELEVATION
 EGL .m                   0.00:  GROUND ELEVATION
 WDMS.m                 169.80:  WD ELEV
 APD .m                  43.00:  DEPTH ABOVE PD
 DEP .m                 356.43:  DEPTH
 AGAP.m                  43.00:  AIR GAP
 VSEW.m                  -3.35:  VERT SEC E/W
 VSNS.m                  -7.90:  VERT SEC N/S
 EKB .m                  43.00:  KB ELEVATION
 EDF .m                  43.00:  DF ELEVATION
 TDL .m                 934.00:  TOTAL DEPTH (LOGGER)
 VSC .                       0:  VS TO CLOSURE
 MAGU.                 1852825:  MAGUTM CHECKSUM
~Parameter Information Block
#MNEM.UNIT       Value        Description
#---------     -----------    ---------------------------
 AV  .mps                 0.80:  Ann Velocity 
 AVMX.mps                 1.70:  Max Ann Veloc 
 AZIF.deg               311.41:  Azm, Final 
 BHAT.        Rotary Steerable:  BHA Type 
 BROT.°/30m               0.09:  Build Rotating 
 BS  .in                 12.25:  Bit Size 
 BSZ .in                 12.25:  Bit Size 
 BTPL.psig              800.00:  Bit Press Loss 
 CABU.                      No:  Customer Abuse 
 COMM.                     „Òs:  Run Comments 1 
 TCS .hr                 96.00:  Time Ciculation Ended 
 CV  .mps                 2.03:  Crit Velocity 
 CVMX.mps                 2.42:  Max Crit Veloc 
 DD1 .          Taghi Taghiyev:  Direct Drillr 1 
 DD2 .      Tariel Pirmammadov:  Direct Drillr 2 
 DD3 .          Teymur Aghayev:  Direct Drillr 3 
 DDSV.                 iCruise:  DD Service 
 DEFF.%                  98.70:  % Det Eff 
 DLRX.°/30m               1.00:  Dogleg Rot Max 
 DLSO.°/30m               1.80:  Dogleg Oriented 
 DLSX.°/30m               3.16:  Dogleg Str Max 
 DRET.      15.00.00 07-Aug-20:  Drill End Time 
 DRST.      17.00.00 02-Aug-20:  Drill Start Tim 
 DTIM.hr                 45.90:  Time Drilling 
 EDEP.m                5298.01:  End Depth 
 ENG1.       Seymur Iskandarov:  Engineer 1 
 ENG2.         Yevgeniy Ulikov:  Engineer 2 
 ENG3.      Artemiy Matviyanov:  Engineer 3 
 ENG4.         Bahruz Mehdiyev:  Engineer 4 
 ETIM.      05.00.00 10-Aug-20:  End Time 
 FLOI.gpm              1150.00:  Flow In 
 FLON.gpm               900.00:  Flow In Min 
 FLOS.cptm                0.00:  Fluid Loss 
 FLOX.gpm              1200.00:  Flow In Max 
 FTRO.     Connectivity, Formation Presure:  FTWD Run Obj 
 HFLO.                      No:  High Flow 
 HPRE.                     Yes:  High Pressure 
 HTEM.                      No:  High Temp 
 HYDO.m                   1.80:  Hydro Offset 
 IFIN.deg                 9.71:  Inc, Final 
 IMAX.deg                63.81:  Inc Max 
 IMIN.deg                 9.53:  Inc Min 
 IMND.m                5075.52:  Inc Min Depth 
 IMXD.m                4367.08:  Inc Max Depth 
 JARR.                      No:  Jarring 
 LETM.      15.00.00 07-Aug-20:  Log End Time 
 LOST.hr                     2:  Lost Rig Time 
 LSTM.      17.00.00 02-Aug-20:  Log Start Time 
 MDCL.ppm             42500.00:  Mud Chlorides 
 MDES.     Inversion Oil/Synthetic:  Mud Desc 
 DFD .sg                  1.46:  Mud Density 
 MDMN.sg                  1.46:  Dens Mud Min 
 MDMX.sg                  1.46:  Dens Mud Max 
 MOIL.                      56:  Run Mud Oil % 
 MOWR.                   70:30:  Run Mud OWR 
 MSND.                     0.1:  Run Mud Sand % 
 MSOL.                      19:  Run Mud Solids% 
 DFV .spqt               83.00:  Mud Viscosity 
 MWOD.in                  8.00:  MWD Tool OD 
 MWSI.                     Yes:  Serv Intrp, MWD 
 OTIM.hr                196.57:  Time Operating 
 PCON.           Look Like New:  Pad Condition 
 PMAX.psia             7400.00:  Press Op, Max 
 PV  .cP                 36.00:  Mud PV 
 RUN .                    1000:  Run Number 
 ROPA.m/hr               25.00:  ROP Avg 
 ROPN.m/hr               10.00:  ROP Min 
 ROPX.m/hr               32.00:  ROP Max 
 RPMA.rpm               120.00:  RPM Surface Avg 
 RPMN.rpm               100.00:  RPM Surface Min 
 RPMX.rpm               140.00:  RPM Surface Max 
 RRUN.                    L504:  Rig Run Number 
 SAZI.deg               308.25:  Azm, Start 
 SDEP.m                4364.01:  Start Depth 
 SIDD.                      No:  Serv Intrp, DD 
 SINC.deg                63.81:  Inc, Start 
 SPPA.psig             5800.00:  SPP Avg 
 SPPN.psig             4200.00:  SPP Min 
 SPPX.psig             5950.00:  SPP Max 
 STIM.      18.00.00 01-Aug-20:  Start Time 
 SVCS.                 DD, MWD:  Services 
 SVER.                    9.20:  Sperry Version 
 TDAT.m                 934.00:  Tot Depth Attmp 
 TDDF.                      No:  Trip for DD 
 TDLG.m                 934.00:  Tot Depth Loggd 
 TFF .                      No:  Trip for Fail 
 TQAA.f-kp               31.00:  Torque Abs Avg 
 TQAN.f-kp               25.00:  Torque Abs Min 
 TQAX.f-kp               35.00:  Torque Abs Max 
 TRRT.°/30m              -0.75:  Turn Rotating 
 MRT .                  EWR-M5:  Maximum Recorded Temperature 
 TTMX.degC               95.00:  Max Tool Temp 
 VS01.                90516060:  Virtual Str1 SN 
 VS02.                90528488:  Virtual Str2 SN 
 VS03.                90577970:  Virtual Str3 SN 
 VS04.                12385033:  Virtual Str4 SN 
 VS05.                90522069:  Virtual Str5 SN 
 VS06.                13124134:  Virtual Str6 SN 
 WBMN.klb                20.00:  WOB Min 
 WITN.         Alistair Sprott:  Customer Rep 
 WITN.     Ronal van der Kraan:  Customer Rep 2 
 WOBA.klb                25.00:  WOB Avg 
 WOBX.klb                31.00:  WOB Max 
 YP  .lhf2               32.00:  Yield Point 
~Curve Information Block
#MNEM.UNIT                 API CODE     Curve Description
#---------               -----------    ---------------------------
 TIME.HHMMSS            00 000 000 000:  GT Time & Date
 GTDEPTH.m              00 000 000 000:  GT Depth
 GTPQH.psia             00 000 000 000:  GT HR Quartz Pressure
 GTTQ.degC              00 000 000 000:  GT Quartz Temperature
 GTTN.NONE              00 000 000 000:  GT Test Number
 GTET.sec               00 000 000 000:  GT Elapsed Test Time
 GTTVD.m                00 000 000 000:  GT True Vertical Depth
#Other Information
#
#WARRANTY: Halliburton will use its best efforts to furnish customers with 
#accurate information and interpretations that are part of, and incident to, the services 
#provided.  However, Halliburton cannot and does not warrant the accuracy 
#or correctness of such information and interpretations.  Under no circumstances should any 
#such information or interpretation be relied upon as the sole basis for any drilling, 
#completion, production, or financial decision or any procedure involving any risk to the 
#safety of any drilling venture, drilling rig or its crew or any other third party.  The 
#Customer has full responsibility for all drilling, completion and production operation.  
#Halliburton makes no representations or warranties, either expressed or 
#implied, including, but not limited to, the implied warranties of merchantability or fitness 
#for a particular purpose, with respect to the services rendered.  In no event will 
#Halliburton be liable for failure to obtain any particular results or for 
#any damages, including, but not limited to, indirect, special or consequential damages, 
#resulting from the use of any information or interpretation provided by Halliburton.
#
~A           TIME           GTDEPTH  GTPQH  GTTQ  GTTN  GTET   GTTVD  
# ...
   07:10:16.000.08-Aug-2020 5163.51 5506.99 78.40 5.00  69.00 3349.29
   07:10:16.200.08-Aug-2020 5163.51 5506.99 78.40 5.00  69.20 3349.29
   07:10:16.400.08-Aug-2020 5163.51 5225.80 78.40 5.00  69.40 3349.29
   07:10:16.600.08-Aug-2020 5163.51 5115.01 78.40 5.00  69.60 3349.29
   07:10:16.800.08-Aug-2020 5163.51 5030.64 78.40 5.00  69.80 3349.29
   07:10:17.000.08-Aug-2020 5163.51 4914.97 78.40 5.00  70.00 3349.29
   07:10:17.200.08-Aug-2020 5163.51 4772.11 78.39 5.00  70.20 3349.29
   07:10:17.400.08-Aug-2020 5163.51 4619.32 78.39 5.00  70.40 3349.29
   07:10:17.600.08-Aug-2020 5163.51 4462.38 78.39 5.00  70.60 3349.29
   07:10:17.800.08-Aug-2020 5163.51 4312.37 78.39 5.00  70.80 3349.29
   07:10:18.000.08-Aug-2020 5163.51 4171.79 78.39 5.00  71.00 3349.29
   07:10:18.200.08-Aug-2020 5163.51 4171.79 78.39 5.00  71.20 3349.29
   07:10:18.400.08-Aug-2020 5163.51 4000.84 78.38 5.00  71.40 3349.29
   07:10:18.600.08-Aug-2020 5163.51 3944.55 78.38 5.00  71.60 3349.29
   07:10:18.800.08-Aug-2020 5163.51 3910.63 78.38 5.00  71.80 3349.29
   07:10:19.000.08-Aug-2020 5163.51 3884.44 78.38 5.00  72.00 3349.29
   07:10:19.200.08-Aug-2020 5163.51 3884.44 78.38 5.00  72.20 3349.29
   07:10:19.400.08-Aug-2020 5163.51 3856.15 78.38 5.00  72.40 3349.29
   07:10:19.600.08-Aug-2020 5163.51 3849.47 78.37 5.00  72.60 3349.29
   07:10:19.800.08-Aug-2020 5163.51 3844.97 78.37 5.00  72.80 3349.29
   07:10:20.000.08-Aug-2020 5163.51 3838.55 78.37 5.00  73.00 3349.29
   07:10:20.200.08-Aug-2020 5163.51 3838.55 78.37 5.00  73.20 3349.29
   07:10:20.400.08-Aug-2020 5163.51 3833.27 78.36 5.00  73.40 3349.29
   07:10:20.600.08-Aug-2020 5163.51 3829.97 78.36 5.00  73.60 3349.29
   07:10:20.800.08-Aug-2020 5163.51 3836.69 78.36 5.00  73.80 3349.29
   07:10:21.000.08-Aug-2020 5163.51 3836.41 78.36 5.00  74.00 3349.29
   07:10:21.200.08-Aug-2020 5163.51 3836.15 78.36 5.00  74.20 3349.29
   07:10:21.400.08-Aug-2020 5163.51 3873.45 78.35 5.00  74.40 3349.29
   07:10:21.600.08-Aug-2020 5163.51 4029.65 78.35 5.00  74.60 3349.29
   07:10:21.800.08-Aug-2020 5163.51 4122.77 78.35 5.00  74.80 3349.29
   07:10:22.000.08-Aug-2020 5163.51 4173.61 78.35 5.00  75.00 3349.29
   07:10:22.200.08-Aug-2020 5163.51 4173.61 78.35 5.00  75.20 3349.29
   07:10:22.400.08-Aug-2020 5163.51 4220.80 78.34 5.00  75.40 3349.29
   07:10:22.600.08-Aug-2020 5163.51 4231.46 78.34 5.00  75.60 3349.29
   07:10:22.800.08-Aug-2020 5163.51 4240.08 78.34 5.00  75.80 3349.29
   07:10:23.000.08-Aug-2020 5163.51 4243.90 78.34 5.00  76.00 3349.29
   07:10:23.200.08-Aug-2020 5163.51 4243.90 78.34 5.00  76.20 3349.29
   07:10:23.400.08-Aug-2020 5163.51 4248.05 78.33 5.00  76.40 3349.29
   07:10:23.600.08-Aug-2020 5163.51 4249.76 78.33 5.00  76.60 3349.29
   07:10:23.800.08-Aug-2020 5163.51 4250.97 78.33 5.00  76.80 3349.29
   07:10:24.000.08-Aug-2020 5163.51 4254.24 78.33 5.00  77.00 3349.29
   07:10:24.200.08-Aug-2020 5163.51 4254.24 78.33 5.00  77.20 3349.29
   07:10:24.400.08-Aug-2020 5163.51 4255.24 78.32 5.00  77.40 3349.29
   07:10:24.600.08-Aug-2020 5163.51 4254.50 78.32 5.00  77.60 3349.29
   07:10:24.800.08-Aug-2020 5163.51 4254.79 78.32 5.00  77.80 3349.29
   07:10:25.000.08-Aug-2020 5163.51 4255.09 78.32 5.00  78.00 3349.29
   07:10:25.200.08-Aug-2020 5163.51 4255.09 78.32 5.00  78.20 3349.29
   07:10:25.400.08-Aug-2020 5163.51 4257.54 78.31 5.00  78.40 3349.29
   07:10:25.600.08-Aug-2020 5163.51 4256.75 78.31 5.00  78.60 3349.29
   07:10:25.800.08-Aug-2020 5163.51 4257.45 78.31 5.00  78.80 3349.29
   07:10:26.000.08-Aug-2020 5163.51 4257.69 78.31 5.00  79.00 3349.29
   07:10:26.200.08-Aug-2020 5163.51 4257.69 78.31 5.00  79.20 3349.29
   07:10:26.400.08-Aug-2020 5163.51 4256.43 78.31 5.00  79.40 3349.29
   07:10:26.600.08-Aug-2020 5163.51 4256.03 78.31 5.00  79.60 3349.29
   07:10:26.800.08-Aug-2020 5163.51 4255.78 78.31 5.00  79.80 3349.29
   07:10:27.000.08-Aug-2020 5163.51 4255.78 78.30 5.00  80.00 3349.29
   07:10:27.200.08-Aug-2020 5163.51 4255.78 78.30 5.00  80.20 3349.29
   07:10:27.400.08-Aug-2020 5163.51 4255.70 78.30 5.00  80.40 3349.29
   07:10:27.600.08-Aug-2020 5163.51 4255.74 78.30 5.00  80.60 3349.29
   07:10:27.800.08-Aug-2020 5163.51 4255.82 78.30 5.00  80.80 3349.29
   07:10:28.000.08-Aug-2020 5163.51 4255.86 78.30 5.00  81.00 3349.29
   07:10:28.200.08-Aug-2020 5163.51 4255.86 78.30 5.00  81.20 3349.29
   07:10:28.400.08-Aug-2020 5163.51 4255.95 78.30 5.00  81.40 3349.29
   07:10:28.600.08-Aug-2020 5163.51 4255.99 78.30 5.00  81.60 3349.29
   07:10:28.800.08-Aug-2020 5163.51 4256.14 78.30 5.00  81.80 3349.29
   07:10:29.000.08-Aug-2020 5163.51 4256.03 78.30 5.00  82.00 3349.29
   07:10:29.200.08-Aug-2020 5163.51 4256.03 78.30 5.00  82.20 3349.29
   07:10:29.400.08-Aug-2020 5163.51 4256.85 78.30 5.00  82.40 3349.29
   07:10:29.600.08-Aug-2020 5163.51 4256.71 78.30 5.00  82.60 3349.29
   07:10:29.800.08-Aug-2020 5163.51 4256.85 78.30 5.00  82.80 3349.29
   07:10:30.000.08-Aug-2020 5163.51 4256.64 78.29 5.00  83.00 3349.29
   07:10:30.200.08-Aug-2020 5163.51 4256.69 78.29 5.00  83.20 3349.29
   07:10:30.400.08-Aug-2020 5163.51 4256.53 78.29 5.00  83.40 3349.29
   07:10:30.600.08-Aug-2020 5163.51 4256.55 78.29 5.00  83.60 3349.29
   07:10:30.800.08-Aug-2020 5163.51 4256.58 78.29 5.00  83.80 3349.29
   07:10:31.000.08-Aug-2020 5163.51 4256.67 78.29 5.00  84.00 3349.29
   07:10:31.200.08-Aug-2020 5163.51 4256.67 78.29 5.00  84.20 3349.29
   07:10:31.400.08-Aug-2020 5163.51 4256.88 78.29 5.00  84.40 3349.29
   07:10:31.600.08-Aug-2020 5163.51 4256.88 78.29 5.00  84.60 3349.29
   07:10:31.800.08-Aug-2020 5163.51 4256.86 78.29 5.00  84.80 3349.29
   07:10:32.000.08-Aug-2020 5163.51 4256.81 78.29 5.00  85.00 3349.29
   07:10:32.200.08-Aug-2020 5163.51 4256.81 78.29 5.00  85.20 3349.29
   07:10:32.400.08-Aug-2020 5163.51 4257.13 78.29 5.00  85.40 3349.29
   07:10:32.600.08-Aug-2020 5163.51 4257.71 78.29 5.00  85.60 3349.29
   07:10:32.800.08-Aug-2020 5163.51 4257.03 78.29 5.00  85.80 3349.29
   07:10:33.000.08-Aug-2020 5163.51 4257.82 78.29 5.00  86.00 3349.29
   07:10:33.200.08-Aug-2020 5163.51 4258.05 78.29 5.00  86.20 3349.29
   07:10:33.400.08-Aug-2020 5163.51 4257.48 78.29 5.00  86.40 3349.29
   07:10:33.600.08-Aug-2020 5163.51 4257.35 78.29 5.00  86.60 3349.29
   07:10:33.800.08-Aug-2020 5163.51 4257.27 78.29 5.00  86.80 3349.29
   07:10:34.000.08-Aug-2020 5163.51 4257.28 78.29 5.00  87.00 3349.29
   07:10:34.200.08-Aug-2020 5163.51 4257.28 78.29 5.00  87.20 3349.29
   07:10:34.400.08-Aug-2020 5163.51 4257.80 78.29 5.00  87.40 3349.29
   07:10:34.600.08-Aug-2020 5163.51 4257.69 78.29 5.00  87.60 3349.29
   07:10:34.800.08-Aug-2020 5163.51 4257.66 78.29 5.00  87.80 3349.29
   07:10:35.000.08-Aug-2020 5163.51 4257.51 78.29 5.00  88.00 3349.29
   07:10:35.200.08-Aug-2020 5163.51 4257.51 78.29 5.00  88.20 3349.29
   07:10:35.400.08-Aug-2020 5163.51 4257.23 78.29 5.00  88.40 3349.29
   07:10:35.600.08-Aug-2020 5163.51 4257.69 78.29 5.00  88.60 3349.29
   07:10:35.800.08-Aug-2020 5163.51 4257.92 78.29 5.00  88.80 3349.29
   07:10:36.000.08-Aug-2020 5163.51 4257.54 78.29 5.00  89.00 3349.29
   07:10:36.200.08-Aug-2020 5163.51 4257.54 78.29 5.00  89.20 3349.29
   07:10:36.400.08-Aug-2020 5163.51 4258.48 78.29 5.00  89.40 3349.29
   07:10:36.600.08-Aug-2020 5163.51 4258.01 78.29 5.00  89.60 3349.29
   07:10:36.800.08-Aug-2020 5163.51 4258.00 78.29 5.00  89.80 3349.29
   07:10:37.000.08-Aug-2020 5163.51 4257.86 78.29 5.00  90.00 3349.29
   07:10:37.200.08-Aug-2020 5163.51 4257.86 78.29 5.00  90.20 3349.29
   07:10:37.400.08-Aug-2020 5163.51 4257.70 78.29 5.00  90.40 3349.29
   07:10:37.600.08-Aug-2020 5163.51 4257.70 78.29 5.00  90.60 3349.29
   07:10:37.800.08-Aug-2020 5163.51 4257.68 78.29 5.00  90.80 3349.29
   07:10:38.000.08-Aug-2020 5163.51 4257.75 78.29 5.00  91.00 3349.29
   07:10:38.200.08-Aug-2020 5163.51 4257.75 78.29 5.00  91.20 3349.29
   07:10:38.400.08-Aug-2020 5163.51 4257.80 78.29 5.00  91.40 3349.29
   07:10:38.600.08-Aug-2020 5163.51 4257.80 78.29 5.00  91.60 3349.29
   07:10:38.800.08-Aug-2020 5163.51 4257.81 78.29 5.00  91.80 3349.29
