~Version Information
 VERS.                  2.0:   CWLS log ASCII Standard -VERSION 2.0
 WRAP.                   NO:   One line per depth step
~Well Information Block
#MNEM.UNIT     VALUE/NAME     DESCRIPTION
#---------     -----------    ---------------------------
 STRT.S             06:39:47 08-Aug-20: START TIME 06:39:47 08-Aug-20
 STOP.S             06:48:06 08-Aug-20: STOP TIME  06:48:06 08-Aug-20
 STEP.S                   0.00: STEP TIME
 NULL.                 -999.25: NULL VALUE
 DFWT.                        :  DIST FWL TEXT
 DFST.                        :  DIST FSL TEXT
 DMF .             Drill Floor:  DRILL MEAS FROM
 STIM.      13.47.44 07-Jun-20:  START TIME
 DATE.      13.47.44 27-Jul-20:  END TIME
 SPUD.               07-Jun-20:  SPUD DATE
 NREF.                    Grid:  NORTH REFERENCE
 HPTY.       Minimum Curvature:  HOLE POS TYPE
 DMOD.             Drill Model:  DRILL MOD DESC
 SVYD.                  Survey:  SURVEY DESC
 ILTD.               Lithology:  INTERP LTH DESC
 FTOP.          Formation Tops:  FORM TOPS DESC
 RIG .             West Chirag:  RIG NAME
 PDAT.          Mean Sea Level:  PERMANENT DATUM
 FLD .                     ACG:  FIELD NAME
 SON .        AZ-XX-0906363612:  JOB NUMBER
 CTRY.              Azerbaijan:  COUNTRY NAME
 WELL.           J25 (Slot 35):  WELL NAME
 SRVC.          Turan Drilling:  CONTRACTOR
 COMP.     BP Exploration (Caspian Sea) Ltd:  COMPANY
 UWI .                     N/A:  UNIQUE WELL IDENTIFIER
 API .                     N/A:  API NUMBER
 BASE.              Azerbaijan:  LOGGING EQUIPMENT BASE LOCATION
 REGN.                   EESSA:  REGION
 PROV.                    Baku:  PROVINCE
 STAT.                    Baku:  STATE NAME
 MWDS.                     N/A:  MWD SHOP
 DOE .                     N/A:  DOE NUMBER
 DCON.         Sperry Drilling:  DIRECTNL CONTR
 UNIT.                     N/A:  LOGGING EQUIPMENT ID
 MDS .        Operator Entered:  MAG DATA SOURCE
 JOBN.        AZ-XX-0906363612:  JOB TICKET NUMB
 WTYP.                Deviated:  WELL TYPE
 CNTY.                        :  COUNTY
 LOC .                        :  LOCATION
 LMF .             Drill Floor:  LOG MEASURED FROM
 TVDS.m                  43.00:  TVDSS CORRECTN
 LATI.deg                40.13:  LATITUDE
 LONG.deg                51.22:  LONGITUDE
 WHNS.m                  -7.90:  WELL HEAD N/S
 WHEW.m                  -3.35:  WELL HEAD E/W
 UTMX.m              519005.06:  UTM X
 UTMY.m             4443793.85:  UTM Y
 DFWL.m                   0.00:  DISTANCE FWL
 DFSL.m                   0.00:  DISTANCE FSL
 SDEP.m                   0.00:  START DEPTH
 TDD .m                   0.00:  TOTAL DEPTH (DRILLER)
 VSDR.deg               308.97:  VERT SEC DIRECT
 GVFD.g                   1.00:  GRAVITY FIELD
 MFLD.nT              50350.00:  MAGNETIC FIELD
 MDIP.deg                59.62:  MAGNETIC DIP
 MDEC.deg                 6.44:  MAGNETIC DECL
 GRDC.deg                 0.13:  GRID CORRECTION
 AZTC.deg                 6.32:  AZM TOTAL CORR
 EPD .m                   0.00:  ELEVATION
 EGL .m                   0.00:  GROUND ELEVATION
 WDMS.m                 169.80:  WD ELEV
 APD .m                  43.00:  DEPTH ABOVE PD
 DEP .m                 356.43:  DEPTH
 AGAP.m                  43.00:  AIR GAP
 VSEW.m                  -3.35:  VERT SEC E/W
 VSNS.m                  -7.90:  VERT SEC N/S
 EKB .m                  43.00:  KB ELEVATION
 EDF .m                  43.00:  DF ELEVATION
 TDL .m                 934.00:  TOTAL DEPTH (LOGGER)
 VSC .                       0:  VS TO CLOSURE
 MAGU.                 1852825:  MAGUTM CHECKSUM
~Parameter Information Block
#MNEM.UNIT       Value        Description
#---------     -----------    ---------------------------
 AV  .mps                 0.80:  Ann Velocity 
 AVMX.mps                 1.70:  Max Ann Veloc 
 AZIF.deg               311.41:  Azm, Final 
 BHAT.        Rotary Steerable:  BHA Type 
 BROT.°/30m               0.09:  Build Rotating 
 BS  .in                 12.25:  Bit Size 
 BSZ .in                 12.25:  Bit Size 
 BTPL.psig              800.00:  Bit Press Loss 
 CABU.                      No:  Customer Abuse 
 COMM.                     ´
n:  Run Comments 1 
 TCS .hr                 96.00:  Time Ciculation Ended 
 CV  .mps                 2.03:  Crit Velocity 
 CVMX.mps                 2.42:  Max Crit Veloc 
 DD1 .          Taghi Taghiyev:  Direct Drillr 1 
 DD2 .      Tariel Pirmammadov:  Direct Drillr 2 
 DD3 .          Teymur Aghayev:  Direct Drillr 3 
 DDSV.                 iCruise:  DD Service 
 DEFF.%                  98.70:  % Det Eff 
 DLRX.°/30m               1.00:  Dogleg Rot Max 
 DLSO.°/30m               1.80:  Dogleg Oriented 
 DLSX.°/30m               3.16:  Dogleg Str Max 
 DRET.      15.00.00 07-Aug-20:  Drill End Time 
 DRST.      17.00.00 02-Aug-20:  Drill Start Tim 
 DTIM.hr                 45.90:  Time Drilling 
 EDEP.m                5298.01:  End Depth 
 ENG1.       Seymur Iskandarov:  Engineer 1 
 ENG2.         Yevgeniy Ulikov:  Engineer 2 
 ENG3.      Artemiy Matviyanov:  Engineer 3 
 ENG4.         Bahruz Mehdiyev:  Engineer 4 
 ETIM.      05.00.00 10-Aug-20:  End Time 
 FLOI.gpm              1150.00:  Flow In 
 FLON.gpm               900.00:  Flow In Min 
 FLOS.cptm                0.00:  Fluid Loss 
 FLOX.gpm              1200.00:  Flow In Max 
 FTRO.     Connectivity, Formation Presure:  FTWD Run Obj 
 HFLO.                      No:  High Flow 
 HPRE.                     Yes:  High Pressure 
 HTEM.                      No:  High Temp 
 HYDO.m                   1.80:  Hydro Offset 
 IFIN.deg                 9.71:  Inc, Final 
 IMAX.deg                63.81:  Inc Max 
 IMIN.deg                 9.53:  Inc Min 
 IMND.m                5075.52:  Inc Min Depth 
 IMXD.m                4367.08:  Inc Max Depth 
 JARR.                      No:  Jarring 
 LETM.      15.00.00 07-Aug-20:  Log End Time 
 LOST.hr                     2:  Lost Rig Time 
 LSTM.      17.00.00 02-Aug-20:  Log Start Time 
 MDCL.ppm             42500.00:  Mud Chlorides 
 MDES.     Inversion Oil/Synthetic:  Mud Desc 
 DFD .sg                  1.46:  Mud Density 
 MDMN.sg                  1.46:  Dens Mud Min 
 MDMX.sg                  1.46:  Dens Mud Max 
 MOIL.                      56:  Run Mud Oil % 
 MOWR.                   70:30:  Run Mud OWR 
 MSND.                     0.1:  Run Mud Sand % 
 MSOL.                      19:  Run Mud Solids% 
 DFV .spqt               83.00:  Mud Viscosity 
 MWOD.in                  8.00:  MWD Tool OD 
 MWSI.                     Yes:  Serv Intrp, MWD 
 OTIM.hr                196.57:  Time Operating 
 PCON.           Look Like New:  Pad Condition 
 PMAX.psia             7400.00:  Press Op, Max 
 PV  .cP                 36.00:  Mud PV 
 RUN .                    1000:  Run Number 
 ROPA.m/hr               25.00:  ROP Avg 
 ROPN.m/hr               10.00:  ROP Min 
 ROPX.m/hr               32.00:  ROP Max 
 RPMA.rpm               120.00:  RPM Surface Avg 
 RPMN.rpm               100.00:  RPM Surface Min 
 RPMX.rpm               140.00:  RPM Surface Max 
 RRUN.                    L504:  Rig Run Number 
 SAZI.deg               308.25:  Azm, Start 
 SDEP.m                4364.01:  Start Depth 
 SIDD.                      No:  Serv Intrp, DD 
 SINC.deg                63.81:  Inc, Start 
 SPPA.psig             5800.00:  SPP Avg 
 SPPN.psig             4200.00:  SPP Min 
 SPPX.psig             5950.00:  SPP Max 
 STIM.      18.00.00 01-Aug-20:  Start Time 
 SVCS.                 DD, MWD:  Services 
 SVER.                    9.20:  Sperry Version 
 TDAT.m                 934.00:  Tot Depth Attmp 
 TDDF.                      No:  Trip for DD 
 TDLG.m                 934.00:  Tot Depth Loggd 
 TFF .                      No:  Trip for Fail 
 TQAA.f-kp               31.00:  Torque Abs Avg 
 TQAN.f-kp               25.00:  Torque Abs Min 
 TQAX.f-kp               35.00:  Torque Abs Max 
 TRRT.°/30m              -0.75:  Turn Rotating 
 MRT .                  EWR-M5:  Maximum Recorded Temperature 
 TTMX.degC               95.00:  Max Tool Temp 
 VS01.                90516060:  Virtual Str1 SN 
 VS02.                90528488:  Virtual Str2 SN 
 VS03.                90577970:  Virtual Str3 SN 
 VS04.                12385033:  Virtual Str4 SN 
 VS05.                90522069:  Virtual Str5 SN 
 VS06.                13124134:  Virtual Str6 SN 
 WBMN.klb                20.00:  WOB Min 
 WITN.         Alistair Sprott:  Customer Rep 
 WITN.     Ronal van der Kraan:  Customer Rep 2 
 WOBA.klb                25.00:  WOB Avg 
 WOBX.klb                31.00:  WOB Max 
 YP  .lhf2               32.00:  Yield Point 
~Curve Information Block
#MNEM.UNIT                 API CODE     Curve Description
#---------               -----------    ---------------------------
 TIME.HHMMSS            00 000 000 000:  GT Time & Date
 GTDEPTH.m              00 000 000 000:  GT Depth
 GTPQH.psia             00 000 000 000:  GT HR Quartz Pressure
 GTTQ.degC              00 000 000 000:  GT Quartz Temperature
 GTTN.NONE              00 000 000 000:  GT Test Number
 GTET.sec               00 000 000 000:  GT Elapsed Test Time
 GTTVD.m                00 000 000 000:  GT True Vertical Depth
#Other Information
#
#WARRANTY: Halliburton will use its best efforts to furnish customers with 
#accurate information and interpretations that are part of, and incident to, the services 
#provided.  However, Halliburton cannot and does not warrant the accuracy 
#or correctness of such information and interpretations.  Under no circumstances should any 
#such information or interpretation be relied upon as the sole basis for any drilling, 
#completion, production, or financial decision or any procedure involving any risk to the 
#safety of any drilling venture, drilling rig or its crew or any other third party.  The 
#Customer has full responsibility for all drilling, completion and production operation.  
#Halliburton makes no representations or warranties, either expressed or 
#implied, including, but not limited to, the implied warranties of merchantability or fitness 
#for a particular purpose, with respect to the services rendered.  In no event will 
#Halliburton be liable for failure to obtain any particular results or for 
#any damages, including, but not limited to, indirect, special or consequential damages, 
#resulting from the use of any information or interpretation provided by Halliburton.
#
~A           TIME           GTDEPTH  GTPQH  GTTQ  GTTN  GTET   GTTVD  
# ...
   06:40:10.000.08-Aug-2020 5176.51 7182.43 80.64 4.00  23.00 3362.10
   06:40:10.200.08-Aug-2020 5176.51 7180.48 80.64 4.00  23.20 3362.10
   06:40:10.400.08-Aug-2020 5176.51 7179.09 80.64 4.00  23.40 3362.10
   06:40:10.600.08-Aug-2020 5176.51 7179.22 80.64 4.00  23.60 3362.10
   06:40:10.800.08-Aug-2020 5176.51 7179.81 80.64 4.00  23.80 3362.10
   06:40:11.000.08-Aug-2020 5176.51 7181.06 80.64 4.00  24.00 3362.10
   06:40:11.200.08-Aug-2020 5176.51 7181.06 80.64 4.00  24.20 3362.10
   06:40:11.400.08-Aug-2020 5176.51 7179.21 80.64 4.00  24.40 3362.10
   06:40:11.600.08-Aug-2020 5176.51 7177.94 80.64 4.00  24.60 3362.10
   06:40:11.800.08-Aug-2020 5176.51 7178.98 80.64 4.00  24.80 3362.10
   06:40:12.000.08-Aug-2020 5176.51 7177.54 80.64 4.00  25.00 3362.10
   06:40:12.200.08-Aug-2020 5176.51 7177.54 80.64 4.00  25.20 3362.10
   06:40:12.400.08-Aug-2020 5176.51 7177.76 80.64 4.00  25.40 3362.10
   06:40:12.600.08-Aug-2020 5176.51 7176.19 80.64 4.00  25.60 3362.10
   06:40:12.800.08-Aug-2020 5176.51 7176.82 80.64 4.00  25.80 3362.10
   06:40:13.000.08-Aug-2020 5176.51 7176.85 80.64 4.00  26.00 3362.10
   06:40:13.200.08-Aug-2020 5176.51 7176.85 80.64 4.00  26.20 3362.10
   06:40:13.400.08-Aug-2020 5176.51 7177.05 80.64 4.00  26.40 3362.10
   06:40:13.600.08-Aug-2020 5176.51 7176.95 80.64 4.00  26.60 3362.10
   06:40:13.800.08-Aug-2020 5176.51 7177.08 80.64 4.00  26.80 3362.10
   06:40:14.000.08-Aug-2020 5176.51 7177.14 80.64 4.00  27.00 3362.10
   06:40:14.200.08-Aug-2020 5176.51 7177.14 80.64 4.00  27.20 3362.10
   06:40:14.400.08-Aug-2020 5176.51 7183.01 80.64 4.00  27.40 3362.10
   06:40:14.600.08-Aug-2020 5176.51 7176.94 80.64 4.00  27.60 3362.10
   06:40:14.800.08-Aug-2020 5176.51 7179.18 80.64 4.00  27.80 3362.10
   06:40:15.000.08-Aug-2020 5176.51 7177.83 80.64 4.00  28.00 3362.10
   06:40:15.200.08-Aug-2020 5176.51 7177.83 80.64 4.00  28.20 3362.10
   06:40:15.400.08-Aug-2020 5176.51 7178.72 80.64 4.00  28.40 3362.10
   06:40:15.600.08-Aug-2020 5176.51 7178.74 80.64 4.00  28.60 3362.10
   06:40:15.800.08-Aug-2020 5176.51 7178.33 80.64 4.00  28.80 3362.10
   06:40:16.000.08-Aug-2020 5176.51 7178.66 80.64 4.00  29.00 3362.10
   06:40:16.200.08-Aug-2020 5176.51 7178.66 80.64 4.00  29.20 3362.10
   06:40:16.400.08-Aug-2020 5176.51 7178.43 80.64 4.00  29.40 3362.10
   06:40:16.600.08-Aug-2020 5176.51 7179.65 80.64 4.00  29.60 3362.10
   06:40:16.800.08-Aug-2020 5176.51 7180.05 80.63 4.00  29.80 3362.10
   06:40:17.000.08-Aug-2020 5176.51 7180.09 80.63 4.00  30.00 3362.10
   06:40:17.200.08-Aug-2020 5176.51 7180.09 80.63 4.00  30.20 3362.10
   06:40:17.400.08-Aug-2020 5176.51 7180.02 80.63 4.00  30.40 3362.10
   06:40:17.600.08-Aug-2020 5176.51 7180.58 80.63 4.00  30.60 3362.10
   06:40:17.800.08-Aug-2020 5176.51 7183.41 80.63 4.00  30.80 3362.10
   06:40:18.000.08-Aug-2020 5176.51 7182.04 80.63 4.00  31.00 3362.10
   06:40:18.200.08-Aug-2020 5176.51 7181.14 80.63 4.00  31.20 3362.10
   06:40:18.400.08-Aug-2020 5176.51 7183.54 80.63 4.00  31.40 3362.10
   06:40:18.600.08-Aug-2020 5176.51 7182.95 80.63 4.00  31.60 3362.10
   06:40:18.800.08-Aug-2020 5176.51 7180.32 80.63 4.00  31.80 3362.10
   06:40:19.000.08-Aug-2020 5176.51 7184.45 80.63 4.00  32.00 3362.10
   06:40:19.200.08-Aug-2020 5176.51 7184.45 80.63 4.00  32.20 3362.10
   06:40:19.400.08-Aug-2020 5176.51 7180.99 80.63 4.00  32.40 3362.10
   06:40:19.600.08-Aug-2020 5176.51 7180.40 80.63 4.00  32.60 3362.10
   06:40:19.800.08-Aug-2020 5176.51 7183.90 80.63 4.00  32.80 3362.10
   06:40:20.000.08-Aug-2020 5176.51 7181.87 80.63 4.00  33.00 3362.10
   06:40:20.200.08-Aug-2020 5176.51 7181.87 80.63 4.00  33.20 3362.10
   06:40:20.400.08-Aug-2020 5176.51 7180.31 80.63 4.00  33.40 3362.10
   06:40:20.600.08-Aug-2020 5176.51 7181.36 80.63 4.00  33.60 3362.10
   06:40:20.800.08-Aug-2020 5176.51 7179.60 80.63 4.00  33.80 3362.10
   06:40:21.000.08-Aug-2020 5176.51 7185.69 80.63 4.00  34.00 3362.10
   06:40:21.200.08-Aug-2020 5176.51 7185.69 80.63 4.00  34.20 3362.10
   06:40:21.400.08-Aug-2020 5176.51 7180.81 80.63 4.00  34.40 3362.10
   06:40:21.600.08-Aug-2020 5176.51 7179.95 80.63 4.00  34.60 3362.10
   06:40:21.800.08-Aug-2020 5176.51 7180.13 80.63 4.00  34.80 3362.10
   06:40:22.000.08-Aug-2020 5176.51 7180.49 80.63 4.00  35.00 3362.10
   06:40:22.200.08-Aug-2020 5176.51 7180.16 80.63 4.00  35.20 3362.10
   06:40:22.400.08-Aug-2020 5176.51 7179.86 80.63 4.00  35.40 3362.10
   06:40:22.600.08-Aug-2020 5176.51 7179.80 80.63 4.00  35.60 3362.10
   06:40:22.800.08-Aug-2020 5176.51 7179.79 80.63 4.00  35.80 3362.10
   06:40:23.000.08-Aug-2020 5176.51 7179.89 80.63 4.00  36.00 3362.10
   06:40:23.200.08-Aug-2020 5176.51 7179.89 80.63 4.00  36.20 3362.10
   06:40:23.400.08-Aug-2020 5176.51 7181.43 80.63 4.00  36.40 3362.10
   06:40:23.600.08-Aug-2020 5176.51 7181.51 80.63 4.00  36.60 3362.10
   06:40:23.800.08-Aug-2020 5176.51 7181.44 80.63 4.00  36.80 3362.10
   06:40:24.000.08-Aug-2020 5176.51 7181.53 80.63 4.00  37.00 3362.10
   06:40:24.200.08-Aug-2020 5176.51 7181.53 80.63 4.00  37.20 3362.10
   06:40:24.400.08-Aug-2020 5176.51 7187.57 80.63 4.00  37.40 3362.10
   06:40:24.600.08-Aug-2020 5176.51 7181.12 80.63 4.00  37.60 3362.10
   06:40:24.800.08-Aug-2020 5176.51 7183.17 80.62 4.00  37.80 3362.10
   06:40:25.000.08-Aug-2020 5176.51 7181.73 80.62 4.00  38.00 3362.10
   06:40:25.200.08-Aug-2020 5176.51 7181.73 80.62 4.00  38.20 3362.10
   06:40:25.400.08-Aug-2020 5176.51 7182.27 80.62 4.00  38.40 3362.10
   06:40:25.600.08-Aug-2020 5176.51 7181.85 80.62 4.00  38.60 3362.10
   06:40:25.800.08-Aug-2020 5176.51 7181.71 80.62 4.00  38.80 3362.10
   06:40:26.000.08-Aug-2020 5176.51 7181.74 80.62 4.00  39.00 3362.10
   06:40:26.200.08-Aug-2020 5176.51 7181.10 80.62 4.00  39.20 3362.10
   06:40:26.400.08-Aug-2020 5176.51 7181.30 80.62 4.00  39.40 3362.10
   06:40:26.600.08-Aug-2020 5176.51 7182.50 80.62 4.00  39.60 3362.10
   06:40:26.800.08-Aug-2020 5176.51 7182.53 80.62 4.00  39.80 3362.10
   06:40:27.000.08-Aug-2020 5176.51 7182.63 80.62 4.00  40.00 3362.10
   06:40:27.200.08-Aug-2020 5176.51 7182.63 80.62 4.00  40.20 3362.10
   06:40:27.400.08-Aug-2020 5176.51 7182.28 80.62 4.00  40.40 3362.10
   06:40:27.600.08-Aug-2020 5176.51 7182.78 80.62 4.00  40.60 3362.10
   06:40:27.800.08-Aug-2020 5176.51 7185.34 80.62 4.00  40.80 3362.10
   06:40:28.000.08-Aug-2020 5176.51 7184.15 80.62 4.00  41.00 3362.10
   06:40:28.200.08-Aug-2020 5176.51 7184.15 80.62 4.00  41.20 3362.10
   06:40:28.400.08-Aug-2020 5176.51 7181.90 80.62 4.00  41.40 3362.10
   06:40:28.600.08-Aug-2020 5176.51 7182.10 80.62 4.00  41.60 3362.10
   06:40:28.800.08-Aug-2020 5176.51 7186.59 80.62 4.00  41.80 3362.10
   06:40:29.000.08-Aug-2020 5176.51 7180.17 80.62 4.00  42.00 3362.10
   06:40:29.200.08-Aug-2020 5176.51 7180.17 80.62 4.00  42.20 3362.10
   06:40:29.400.08-Aug-2020 5176.51 7179.28 80.62 4.00  42.40 3362.10
   06:40:29.600.08-Aug-2020 5176.51 7180.59 80.62 4.00  42.60 3362.10
   06:40:29.800.08-Aug-2020 5176.51 7184.58 80.62 4.00  42.80 3362.10
   06:40:30.000.08-Aug-2020 5176.51 7180.07 80.62 4.00  43.00 3362.10
   06:40:30.200.08-Aug-2020 5176.51 7180.07 80.62 4.00  43.20 3362.10
   06:40:30.400.08-Aug-2020 5176.51 7180.14 80.62 4.00  43.40 3362.10
   06:40:30.600.08-Aug-2020 5176.51 7179.75 80.62 4.00  43.60 3362.10
   06:40:30.800.08-Aug-2020 5176.51 7183.38 80.62 4.00  43.80 3362.10
   06:40:31.000.08-Aug-2020 5176.51 7179.49 80.62 4.00  44.00 3362.10
   06:40:31.200.08-Aug-2020 5176.51 7179.49 80.62 4.00  44.20 3362.10
   06:40:31.400.08-Aug-2020 5176.51 7180.51 80.62 4.00  44.40 3362.10
   06:40:31.600.08-Aug-2020 5176.51 7182.35 80.62 4.00  44.60 3362.10
   06:40:31.800.08-Aug-2020 5176.51 7181.79 80.62 4.00  44.80 3362.10
   06:40:32.000.08-Aug-2020 5176.51 7180.42 80.62 4.00  45.00 3362.10
   06:40:32.200.08-Aug-2020 5176.51 7180.42 80.62 4.00  45.20 3362.10
   06:40:32.400.08-Aug-2020 5176.51 7180.96 80.62 4.00  45.40 3362.10
   06:40:32.600.08-Aug-2020 5176.51 7178.92 80.61 4.00  45.60 3362.10
   06:40:32.800.08-Aug-2020 5176.51 7185.55 80.61 4.00  45.80 3362.10
