~Version Information
 VERS.                  2.0:   CWLS log ASCII Standard -VERSION 2.0
 WRAP.                   NO:   One line per depth step
~Well Information Block
#MNEM.UNIT     VALUE/NAME     DESCRIPTION
#---------     -----------    ---------------------------
 STRT.S             06:39:47 08-Aug-20: START TIME 06:39:47 08-Aug-20
 STOP.S             06:48:06 08-Aug-20: STOP TIME  06:48:06 08-Aug-20
 STEP.S                   0.00: STEP TIME
 NULL.                 -999.25: NULL VALUE
 DFWT.                        :  DIST FWL TEXT
 DFST.                        :  DIST FSL TEXT
 DMF .             Drill Floor:  DRILL MEAS FROM
 STIM.      13.47.44 07-Jun-20:  START TIME
 DATE.      13.47.44 27-Jul-20:  END TIME
 SPUD.               07-Jun-20:  SPUD DATE
 NREF.                    Grid:  NORTH REFERENCE
 HPTY.       Minimum Curvature:  HOLE POS TYPE
 DMOD.             Drill Model:  DRILL MOD DESC
 SVYD.                  Survey:  SURVEY DESC
 ILTD.               Lithology:  INTERP LTH DESC
 FTOP.          Formation Tops:  FORM TOPS DESC
 RIG .             West Chirag:  RIG NAME
 PDAT.          Mean Sea Level:  PERMANENT DATUM
 FLD .                     ACG:  FIELD NAME
 SON .        AZ-XX-0906363612:  JOB NUMBER
 CTRY.              Azerbaijan:  COUNTRY NAME
 WELL.           J25 (Slot 35):  WELL NAME
 SRVC.          Turan Drilling:  CONTRACTOR
 COMP.     BP Exploration (Caspian Sea) Ltd:  COMPANY
 UWI .                     N/A:  UNIQUE WELL IDENTIFIER
 API .                     N/A:  API NUMBER
 BASE.              Azerbaijan:  LOGGING EQUIPMENT BASE LOCATION
 REGN.                   EESSA:  REGION
 PROV.                    Baku:  PROVINCE
 STAT.                    Baku:  STATE NAME
 MWDS.                     N/A:  MWD SHOP
 DOE .                     N/A:  DOE NUMBER
 DCON.         Sperry Drilling:  DIRECTNL CONTR
 UNIT.                     N/A:  LOGGING EQUIPMENT ID
 MDS .        Operator Entered:  MAG DATA SOURCE
 JOBN.        AZ-XX-0906363612:  JOB TICKET NUMB
 WTYP.                Deviated:  WELL TYPE
 CNTY.                        :  COUNTY
 LOC .                        :  LOCATION
 LMF .             Drill Floor:  LOG MEASURED FROM
 TVDS.m                  43.00:  TVDSS CORRECTN
 LATI.deg                40.13:  LATITUDE
 LONG.deg                51.22:  LONGITUDE
 WHNS.m                  -7.90:  WELL HEAD N/S
 WHEW.m                  -3.35:  WELL HEAD E/W
 UTMX.m              519005.06:  UTM X
 UTMY.m             4443793.85:  UTM Y
 DFWL.m                   0.00:  DISTANCE FWL
 DFSL.m                   0.00:  DISTANCE FSL
 SDEP.m                   0.00:  START DEPTH
 TDD .m                   0.00:  TOTAL DEPTH (DRILLER)
 VSDR.deg               308.97:  VERT SEC DIRECT
 GVFD.g                   1.00:  GRAVITY FIELD
 MFLD.nT              50350.00:  MAGNETIC FIELD
 MDIP.deg                59.62:  MAGNETIC DIP
 MDEC.deg                 6.44:  MAGNETIC DECL
 GRDC.deg                 0.13:  GRID CORRECTION
 AZTC.deg                 6.32:  AZM TOTAL CORR
 EPD .m                   0.00:  ELEVATION
 EGL .m                   0.00:  GROUND ELEVATION
 WDMS.m                 169.80:  WD ELEV
 APD .m                  43.00:  DEPTH ABOVE PD
 DEP .m                 356.43:  DEPTH
 AGAP.m                  43.00:  AIR GAP
 VSEW.m                  -3.35:  VERT SEC E/W
 VSNS.m                  -7.90:  VERT SEC N/S
 EKB .m                  43.00:  KB ELEVATION
 EDF .m                  43.00:  DF ELEVATION
 TDL .m                 934.00:  TOTAL DEPTH (LOGGER)
 VSC .                       0:  VS TO CLOSURE
 MAGU.                 1852825:  MAGUTM CHECKSUM
~Parameter Information Block
#MNEM.UNIT       Value        Description
#---------     -----------    ---------------------------
 AV  .mps                 0.80:  Ann Velocity 
 AVMX.mps                 1.70:  Max Ann Veloc 
 AZIF.deg               311.41:  Azm, Final 
 BHAT.        Rotary Steerable:  BHA Type 
 BROT.°/30m               0.09:  Build Rotating 
 BS  .in                 12.25:  Bit Size 
 BSZ .in                 12.25:  Bit Size 
 BTPL.psig              800.00:  Bit Press Loss 
 CABU.                      No:  Customer Abuse 
 COMM.                     ´
n:  Run Comments 1 
 TCS .hr                 96.00:  Time Ciculation Ended 
 CV  .mps                 2.03:  Crit Velocity 
 CVMX.mps                 2.42:  Max Crit Veloc 
 DD1 .          Taghi Taghiyev:  Direct Drillr 1 
 DD2 .      Tariel Pirmammadov:  Direct Drillr 2 
 DD3 .          Teymur Aghayev:  Direct Drillr 3 
 DDSV.                 iCruise:  DD Service 
 DEFF.%                  98.70:  % Det Eff 
 DLRX.°/30m               1.00:  Dogleg Rot Max 
 DLSO.°/30m               1.80:  Dogleg Oriented 
 DLSX.°/30m               3.16:  Dogleg Str Max 
 DRET.      15.00.00 07-Aug-20:  Drill End Time 
 DRST.      17.00.00 02-Aug-20:  Drill Start Tim 
 DTIM.hr                 45.90:  Time Drilling 
 EDEP.m                5298.01:  End Depth 
 ENG1.       Seymur Iskandarov:  Engineer 1 
 ENG2.         Yevgeniy Ulikov:  Engineer 2 
 ENG3.      Artemiy Matviyanov:  Engineer 3 
 ENG4.         Bahruz Mehdiyev:  Engineer 4 
 ETIM.      05.00.00 10-Aug-20:  End Time 
 FLOI.gpm              1150.00:  Flow In 
 FLON.gpm               900.00:  Flow In Min 
 FLOS.cptm                0.00:  Fluid Loss 
 FLOX.gpm              1200.00:  Flow In Max 
 FTRO.     Connectivity, Formation Presure:  FTWD Run Obj 
 HFLO.                      No:  High Flow 
 HPRE.                     Yes:  High Pressure 
 HTEM.                      No:  High Temp 
 HYDO.m                   1.80:  Hydro Offset 
 IFIN.deg                 9.71:  Inc, Final 
 IMAX.deg                63.81:  Inc Max 
 IMIN.deg                 9.53:  Inc Min 
 IMND.m                5075.52:  Inc Min Depth 
 IMXD.m                4367.08:  Inc Max Depth 
 JARR.                      No:  Jarring 
 LETM.      15.00.00 07-Aug-20:  Log End Time 
 LOST.hr                     2:  Lost Rig Time 
 LSTM.      17.00.00 02-Aug-20:  Log Start Time 
 MDCL.ppm             42500.00:  Mud Chlorides 
 MDES.     Inversion Oil/Synthetic:  Mud Desc 
 DFD .sg                  1.46:  Mud Density 
 MDMN.sg                  1.46:  Dens Mud Min 
 MDMX.sg                  1.46:  Dens Mud Max 
 MOIL.                      56:  Run Mud Oil % 
 MOWR.                   70:30:  Run Mud OWR 
 MSND.                     0.1:  Run Mud Sand % 
 MSOL.                      19:  Run Mud Solids% 
 DFV .spqt               83.00:  Mud Viscosity 
 MWOD.in                  8.00:  MWD Tool OD 
 MWSI.                     Yes:  Serv Intrp, MWD 
 OTIM.hr                196.57:  Time Operating 
 PCON.           Look Like New:  Pad Condition 
 PMAX.psia             7400.00:  Press Op, Max 
 PV  .cP                 36.00:  Mud PV 
 RUN .                    1000:  Run Number 
 ROPA.m/hr               25.00:  ROP Avg 
 ROPN.m/hr               10.00:  ROP Min 
 ROPX.m/hr               32.00:  ROP Max 
 RPMA.rpm               120.00:  RPM Surface Avg 
 RPMN.rpm               100.00:  RPM Surface Min 
 RPMX.rpm               140.00:  RPM Surface Max 
 RRUN.                    L504:  Rig Run Number 
 SAZI.deg               308.25:  Azm, Start 
 SDEP.m                4364.01:  Start Depth 
 SIDD.                      No:  Serv Intrp, DD 
 SINC.deg                63.81:  Inc, Start 
 SPPA.psig             5800.00:  SPP Avg 
 SPPN.psig             4200.00:  SPP Min 
 SPPX.psig             5950.00:  SPP Max 
 STIM.      18.00.00 01-Aug-20:  Start Time 
 SVCS.                 DD, MWD:  Services 
 SVER.                    9.20:  Sperry Version 
 TDAT.m                 934.00:  Tot Depth Attmp 
 TDDF.                      No:  Trip for DD 
 TDLG.m                 934.00:  Tot Depth Loggd 
 TFF .                      No:  Trip for Fail 
 TQAA.f-kp               31.00:  Torque Abs Avg 
 TQAN.f-kp               25.00:  Torque Abs Min 
 TQAX.f-kp               35.00:  Torque Abs Max 
 TRRT.°/30m              -0.75:  Turn Rotating 
 MRT .                  EWR-M5:  Maximum Recorded Temperature 
 TTMX.degC               95.00:  Max Tool Temp 
 VS01.                90516060:  Virtual Str1 SN 
 VS02.                90528488:  Virtual Str2 SN 
 VS03.                90577970:  Virtual Str3 SN 
 VS04.                12385033:  Virtual Str4 SN 
 VS05.                90522069:  Virtual Str5 SN 
 VS06.                13124134:  Virtual Str6 SN 
 WBMN.klb                20.00:  WOB Min 
 WITN.         Alistair Sprott:  Customer Rep 
 WITN.     Ronal van der Kraan:  Customer Rep 2 
 WOBA.klb                25.00:  WOB Avg 
 WOBX.klb                31.00:  WOB Max 
 YP  .lhf2               32.00:  Yield Point 
~Curve Information Block
#MNEM.UNIT                 API CODE     Curve Description
#---------               -----------    ---------------------------
 TIME.HHMMSS            00 000 000 000:  GT Time & Date
 GTDEPTH.m              00 000 000 000:  GT Depth
 GTPQH.psia             00 000 000 000:  GT HR Quartz Pressure
 GTTQ.degC              00 000 000 000:  GT Quartz Temperature
 GTTN.NONE              00 000 000 000:  GT Test Number
 GTET.sec               00 000 000 000:  GT Elapsed Test Time
 GTTVD.m                00 000 000 000:  GT True Vertical Depth
#Other Information
#
#WARRANTY: Halliburton will use its best efforts to furnish customers with 
#accurate information and interpretations that are part of, and incident to, the services 
#provided.  However, Halliburton cannot and does not warrant the accuracy 
#or correctness of such information and interpretations.  Under no circumstances should any 
#such information or interpretation be relied upon as the sole basis for any drilling, 
#completion, production, or financial decision or any procedure involving any risk to the 
#safety of any drilling venture, drilling rig or its crew or any other third party.  The 
#Customer has full responsibility for all drilling, completion and production operation.  
#Halliburton makes no representations or warranties, either expressed or 
#implied, including, but not limited to, the implied warranties of merchantability or fitness 
#for a particular purpose, with respect to the services rendered.  In no event will 
#Halliburton be liable for failure to obtain any particular results or for 
#any damages, including, but not limited to, indirect, special or consequential damages, 
#resulting from the use of any information or interpretation provided by Halliburton.
#
~A           TIME           GTDEPTH  GTPQH  GTTQ  GTTN  GTET   GTTVD  
# ...
   06:40:56.000.08-Aug-2020 5176.51 2512.34 80.57 4.00  69.00 3362.10
   06:40:56.200.08-Aug-2020 5176.51 2512.34 80.57 4.00  69.20 3362.10
   06:40:56.400.08-Aug-2020 5176.51 2355.76 80.56 4.00  69.40 3362.10
   06:40:56.600.08-Aug-2020 5176.51 2274.42 80.56 4.00  69.60 3362.10
   06:40:56.800.08-Aug-2020 5176.51 2195.78 80.56 4.00  69.80 3362.10
   06:40:57.000.08-Aug-2020 5176.51 2118.05 80.56 4.00  70.00 3362.10
   06:40:57.200.08-Aug-2020 5176.51 2118.05 80.56 4.00  70.20 3362.10
   06:40:57.400.08-Aug-2020 5176.51 1959.60 80.55 4.00  70.40 3362.10
   06:40:57.600.08-Aug-2020 5176.51 1882.36 80.55 4.00  70.60 3362.10
   06:40:57.800.08-Aug-2020 5176.51 1807.68 80.54 4.00  70.80 3362.10
   06:40:58.000.08-Aug-2020 5176.51 1731.07 80.54 4.00  71.00 3362.10
   06:40:58.200.08-Aug-2020 5176.51 1731.07 80.54 4.00  71.20 3362.10
   06:40:58.400.08-Aug-2020 5176.51 1572.05 80.53 4.00  71.40 3362.10
   06:40:58.600.08-Aug-2020 5176.51 1494.74 80.53 4.00  71.60 3362.10
   06:40:58.800.08-Aug-2020 5176.51 1419.50 80.53 4.00  71.80 3362.10
   06:40:59.000.08-Aug-2020 5176.51 1382.31 80.52 4.00  72.00 3362.10
   06:40:59.200.08-Aug-2020 5176.51 1382.31 80.52 4.00  72.20 3362.10
   06:40:59.400.08-Aug-2020 5176.51 1371.56 80.52 4.00  72.40 3362.10
   06:40:59.600.08-Aug-2020 5176.51 1368.81 80.51 4.00  72.60 3362.10
   06:40:59.800.08-Aug-2020 5176.51 1358.78 80.51 4.00  72.80 3362.10
   06:41:00.000.08-Aug-2020 5176.51 1355.90 80.51 4.00  73.00 3362.10
   06:41:00.200.08-Aug-2020 5176.51 1352.82 80.50 4.00  73.20 3362.10
   06:41:00.400.08-Aug-2020 5176.51 1353.07 80.50 4.00  73.40 3362.10
   06:41:00.600.08-Aug-2020 5176.51 1363.74 80.50 4.00  73.60 3362.10
   06:41:00.800.08-Aug-2020 5176.51 1369.04 80.49 4.00  73.80 3362.10
   06:41:01.000.08-Aug-2020 5176.51 1374.27 80.49 4.00  74.00 3362.10
   06:41:01.200.08-Aug-2020 5176.51 1374.27 80.49 4.00  74.20 3362.10
   06:41:01.400.08-Aug-2020 5176.51 1383.82 80.48 4.00  74.40 3362.10
   06:41:01.600.08-Aug-2020 5176.51 1389.22 80.48 4.00  74.60 3362.10
   06:41:01.800.08-Aug-2020 5176.51 1395.60 80.48 4.00  74.80 3362.10
   06:41:02.000.08-Aug-2020 5176.51 1400.26 80.47 4.00  75.00 3362.10
   06:41:02.200.08-Aug-2020 5176.51 1404.54 80.47 4.00  75.20 3362.10
   06:41:02.400.08-Aug-2020 5176.51 1408.70 80.47 4.00  75.40 3362.10
   06:41:02.600.08-Aug-2020 5176.51 1412.88 80.47 4.00  75.60 3362.10
   06:41:02.800.08-Aug-2020 5176.51 1417.63 80.46 4.00  75.80 3362.10
   06:41:03.000.08-Aug-2020 5176.51 1422.68 80.46 4.00  76.00 3362.10
   06:41:03.200.08-Aug-2020 5176.51 1422.68 80.46 4.00  76.20 3362.10
   06:41:03.400.08-Aug-2020 5176.51 1430.40 80.46 4.00  76.40 3362.10
   06:41:03.600.08-Aug-2020 5176.51 1434.17 80.45 4.00  76.60 3362.10
   06:41:03.800.08-Aug-2020 5176.51 1438.29 80.45 4.00  76.80 3362.10
   06:41:04.000.08-Aug-2020 5176.51 1442.94 80.45 4.00  77.00 3362.10
   06:41:04.200.08-Aug-2020 5176.51 1442.94 80.45 4.00  77.20 3362.10
   06:41:04.400.08-Aug-2020 5176.51 1450.07 80.44 4.00  77.40 3362.10
   06:41:04.600.08-Aug-2020 5176.51 1453.37 80.44 4.00  77.60 3362.10
   06:41:04.800.08-Aug-2020 5176.51 1456.63 80.44 4.00  77.80 3362.10
   06:41:05.000.08-Aug-2020 5176.51 1459.78 80.44 4.00  78.00 3362.10
   06:41:05.200.08-Aug-2020 5176.51 1459.78 80.44 4.00  78.20 3362.10
   06:41:05.400.08-Aug-2020 5176.51 1465.93 80.43 4.00  78.40 3362.10
   06:41:05.600.08-Aug-2020 5176.51 1469.08 80.43 4.00  78.60 3362.10
   06:41:05.800.08-Aug-2020 5176.51 1472.03 80.43 4.00  78.80 3362.10
   06:41:06.000.08-Aug-2020 5176.51 1475.10 80.43 4.00  79.00 3362.10
   06:41:06.200.08-Aug-2020 5176.51 1478.04 80.43 4.00  79.20 3362.10
   06:41:06.400.08-Aug-2020 5176.51 1481.48 80.43 4.00  79.40 3362.10
   06:41:06.600.08-Aug-2020 5176.51 1484.22 80.42 4.00  79.60 3362.10
   06:41:06.800.08-Aug-2020 5176.51 1487.59 80.42 4.00  79.80 3362.10
   06:41:07.000.08-Aug-2020 5176.51 1490.04 80.42 4.00  80.00 3362.10
   06:41:07.200.08-Aug-2020 5176.51 1493.31 80.42 4.00  80.20 3362.10
   06:41:07.400.08-Aug-2020 5176.51 1497.20 80.42 4.00  80.40 3362.10
   06:41:07.600.08-Aug-2020 5176.51 1499.86 80.42 4.00  80.60 3362.10
   06:41:07.800.08-Aug-2020 5176.51 1502.54 80.42 4.00  80.80 3362.10
   06:41:08.000.08-Aug-2020 5176.51 1505.10 80.42 4.00  81.00 3362.10
   06:41:08.200.08-Aug-2020 5176.51 1505.10 80.42 4.00  81.20 3362.10
   06:41:08.400.08-Aug-2020 5176.51 1510.15 80.42 4.00  81.40 3362.10
   06:41:08.600.08-Aug-2020 5176.51 1512.87 80.41 4.00  81.60 3362.10
   06:41:08.800.08-Aug-2020 5176.51 1515.39 80.41 4.00  81.80 3362.10
   06:41:09.000.08-Aug-2020 5176.51 1517.85 80.41 4.00  82.00 3362.10
   06:41:09.200.08-Aug-2020 5176.51 1517.85 80.41 4.00  82.20 3362.10
   06:41:09.400.08-Aug-2020 5176.51 1522.64 80.41 4.00  82.40 3362.10
   06:41:09.600.08-Aug-2020 5176.51 1524.94 80.41 4.00  82.60 3362.10
   06:41:09.800.08-Aug-2020 5176.51 1527.34 80.41 4.00  82.80 3362.10
   06:41:10.000.08-Aug-2020 5176.51 1529.63 80.41 4.00  83.00 3362.10
   06:41:10.200.08-Aug-2020 5176.51 1531.87 80.41 4.00  83.20 3362.10
   06:41:10.400.08-Aug-2020 5176.51 1534.82 80.41 4.00  83.40 3362.10
   06:41:10.600.08-Aug-2020 5176.51 1537.62 80.41 4.00  83.60 3362.10
   06:41:10.800.08-Aug-2020 5176.51 1539.77 80.41 4.00  83.80 3362.10
   06:41:11.000.08-Aug-2020 5176.51 1542.65 80.41 4.00  84.00 3362.10
   06:41:11.200.08-Aug-2020 5176.51 1542.65 80.41 4.00  84.20 3362.10
   06:41:11.400.08-Aug-2020 5176.51 1547.64 80.41 4.00  84.40 3362.10
   06:41:11.600.08-Aug-2020 5176.51 1549.87 80.41 4.00  84.60 3362.10
   06:41:11.800.08-Aug-2020 5176.51 1552.18 80.41 4.00  84.80 3362.10
   06:41:12.000.08-Aug-2020 5176.51 1555.00 80.41 4.00  85.00 3362.10
   06:41:12.200.08-Aug-2020 5176.51 1555.00 80.41 4.00  85.20 3362.10
   06:41:12.400.08-Aug-2020 5176.51 1559.20 80.41 4.00  85.40 3362.10
   06:41:12.600.08-Aug-2020 5176.51 1561.24 80.41 4.00  85.60 3362.10
   06:41:12.800.08-Aug-2020 5176.51 1563.36 80.41 4.00  85.80 3362.10
   06:41:13.000.08-Aug-2020 5176.51 1566.11 80.41 4.00  86.00 3362.10
   06:41:13.200.08-Aug-2020 5176.51 1566.11 80.41 4.00  86.20 3362.10
   06:41:13.400.08-Aug-2020 5176.51 1570.49 80.41 4.00  86.40 3362.10
   06:41:13.600.08-Aug-2020 5176.51 1573.20 80.41 4.00  86.60 3362.10
   06:41:13.800.08-Aug-2020 5176.51 1575.64 80.41 4.00  86.80 3362.10
   06:41:14.000.08-Aug-2020 5176.51 1577.62 80.41 4.00  87.00 3362.10
   06:41:14.200.08-Aug-2020 5176.51 1577.62 80.41 4.00  87.20 3362.10
   06:41:14.400.08-Aug-2020 5176.51 1581.44 80.41 4.00  87.40 3362.10
   06:41:14.600.08-Aug-2020 5176.51 1583.22 80.41 4.00  87.60 3362.10
   06:41:14.800.08-Aug-2020 5176.51 1585.15 80.41 4.00  87.80 3362.10
   06:41:15.000.08-Aug-2020 5176.51 1587.04 80.41 4.00  88.00 3362.10
   06:41:15.200.08-Aug-2020 5176.51 1587.04 80.41 4.00  88.20 3362.10
   06:41:15.400.08-Aug-2020 5176.51 1590.75 80.41 4.00  88.40 3362.10
   06:41:15.600.08-Aug-2020 5176.51 1592.57 80.41 4.00  88.60 3362.10
   06:41:15.800.08-Aug-2020 5176.51 1594.37 80.41 4.00  88.80 3362.10
   06:41:16.000.08-Aug-2020 5176.51 1596.10 80.41 4.00  89.00 3362.10
   06:41:16.200.08-Aug-2020 5176.51 1596.10 80.41 4.00  89.20 3362.10
   06:41:16.400.08-Aug-2020 5176.51 1599.55 80.41 4.00  89.40 3362.10
   06:41:16.600.08-Aug-2020 5176.51 1601.31 80.41 4.00  89.60 3362.10
   06:41:16.800.08-Aug-2020 5176.51 1603.08 80.41 4.00  89.80 3362.10
   06:41:17.000.08-Aug-2020 5176.51 1605.34 80.41 4.00  90.00 3362.10
   06:41:17.200.08-Aug-2020 5176.51 1605.34 80.41 4.00  90.20 3362.10
   06:41:17.400.08-Aug-2020 5176.51 1609.10 80.41 4.00  90.40 3362.10
   06:41:17.600.08-Aug-2020 5176.51 1610.80 80.41 4.00  90.60 3362.10
   06:41:17.800.08-Aug-2020 5176.51 1612.40 80.41 4.00  90.80 3362.10
   06:41:18.000.08-Aug-2020 5176.51 1614.01 80.41 4.00  91.00 3362.10
   06:41:18.200.08-Aug-2020 5176.51 1614.01 80.41 4.00  91.20 3362.10
   06:41:18.400.08-Aug-2020 5176.51 1617.28 80.41 4.00  91.40 3362.10
   06:41:18.600.08-Aug-2020 5176.51 1618.86 80.41 4.00  91.60 3362.10
   06:41:18.800.08-Aug-2020 5176.51 1620.57 80.41 4.00  91.80 3362.10
