~Version Information
 VERS.                  2.0:   CWLS log ASCII Standard -VERSION 2.0
 WRAP.                   NO:   One line per depth step
~Well Information Block
#MNEM.UNIT     VALUE/NAME     DESCRIPTION
#---------     -----------    ---------------------------
 STRT.S             05:51:10 08-Aug-20: START TIME 05:51:10 08-Aug-20
 STOP.S             05:59:38 08-Aug-20: STOP TIME  05:59:38 08-Aug-20
 STEP.S                   0.00: STEP TIME
 NULL.                 -999.25: NULL VALUE
 DFWT.                        :  DIST FWL TEXT
 DFST.                        :  DIST FSL TEXT
 DMF .             Drill Floor:  DRILL MEAS FROM
 STIM.      13.47.44 07-Jun-20:  START TIME
 DATE.      13.47.44 27-Jul-20:  END TIME
 SPUD.               07-Jun-20:  SPUD DATE
 NREF.                    Grid:  NORTH REFERENCE
 HPTY.       Minimum Curvature:  HOLE POS TYPE
 DMOD.             Drill Model:  DRILL MOD DESC
 SVYD.                  Survey:  SURVEY DESC
 ILTD.               Lithology:  INTERP LTH DESC
 FTOP.          Formation Tops:  FORM TOPS DESC
 RIG .             West Chirag:  RIG NAME
 PDAT.          Mean Sea Level:  PERMANENT DATUM
 FLD .                     ACG:  FIELD NAME
 SON .        AZ-XX-0906363612:  JOB NUMBER
 CTRY.              Azerbaijan:  COUNTRY NAME
 WELL.           J25 (Slot 35):  WELL NAME
 SRVC.          Turan Drilling:  CONTRACTOR
 COMP.     BP Exploration (Caspian Sea) Ltd:  COMPANY
 UWI .                     N/A:  UNIQUE WELL IDENTIFIER
 API .                     N/A:  API NUMBER
 BASE.              Azerbaijan:  LOGGING EQUIPMENT BASE LOCATION
 REGN.                   EESSA:  REGION
 PROV.                    Baku:  PROVINCE
 STAT.                    Baku:  STATE NAME
 MWDS.                     N/A:  MWD SHOP
 DOE .                     N/A:  DOE NUMBER
 DCON.         Sperry Drilling:  DIRECTNL CONTR
 UNIT.                     N/A:  LOGGING EQUIPMENT ID
 MDS .        Operator Entered:  MAG DATA SOURCE
 JOBN.        AZ-XX-0906363612:  JOB TICKET NUMB
 WTYP.                Deviated:  WELL TYPE
 CNTY.                        :  COUNTY
 LOC .                        :  LOCATION
 LMF .             Drill Floor:  LOG MEASURED FROM
 TVDS.m                  43.00:  TVDSS CORRECTN
 LATI.deg                40.13:  LATITUDE
 LONG.deg                51.22:  LONGITUDE
 WHNS.m                  -7.90:  WELL HEAD N/S
 WHEW.m                  -3.35:  WELL HEAD E/W
 UTMX.m              519005.06:  UTM X
 UTMY.m             4443793.85:  UTM Y
 DFWL.m                   0.00:  DISTANCE FWL
 DFSL.m                   0.00:  DISTANCE FSL
 SDEP.m                   0.00:  START DEPTH
 TDD .m                   0.00:  TOTAL DEPTH (DRILLER)
 VSDR.deg               308.97:  VERT SEC DIRECT
 GVFD.g                   1.00:  GRAVITY FIELD
 MFLD.nT              50350.00:  MAGNETIC FIELD
 MDIP.deg                59.62:  MAGNETIC DIP
 MDEC.deg                 6.44:  MAGNETIC DECL
 GRDC.deg                 0.13:  GRID CORRECTION
 AZTC.deg                 6.32:  AZM TOTAL CORR
 EPD .m                   0.00:  ELEVATION
 EGL .m                   0.00:  GROUND ELEVATION
 WDMS.m                 169.80:  WD ELEV
 APD .m                  43.00:  DEPTH ABOVE PD
 DEP .m                 356.43:  DEPTH
 AGAP.m                  43.00:  AIR GAP
 VSEW.m                  -3.35:  VERT SEC E/W
 VSNS.m                  -7.90:  VERT SEC N/S
 EKB .m                  43.00:  KB ELEVATION
 EDF .m                  43.00:  DF ELEVATION
 TDL .m                 934.00:  TOTAL DEPTH (LOGGER)
 VSC .                       0:  VS TO CLOSURE
 MAGU.                 1852825:  MAGUTM CHECKSUM
~Parameter Information Block
#MNEM.UNIT       Value        Description
#---------     -----------    ---------------------------
 AV  .mps                 0.80:  Ann Velocity 
 AVMX.mps                 1.70:  Max Ann Veloc 
 AZIF.deg               311.41:  Azm, Final 
 BHAT.        Rotary Steerable:  BHA Type 
 BROT.°/30m               0.09:  Build Rotating 
 BS  .in                 12.25:  Bit Size 
 BSZ .in                 12.25:  Bit Size 
 BTPL.psig              800.00:  Bit Press Loss 
 CABU.                      No:  Customer Abuse 
 COMM.                     ¤'V:  Run Comments 1 
 TCS .hr                 96.00:  Time Ciculation Ended 
 CV  .mps                 2.03:  Crit Velocity 
 CVMX.mps                 2.42:  Max Crit Veloc 
 DD1 .          Taghi Taghiyev:  Direct Drillr 1 
 DD2 .      Tariel Pirmammadov:  Direct Drillr 2 
 DD3 .          Teymur Aghayev:  Direct Drillr 3 
 DDSV.                 iCruise:  DD Service 
 DEFF.%                  98.70:  % Det Eff 
 DLRX.°/30m               1.00:  Dogleg Rot Max 
 DLSO.°/30m               1.80:  Dogleg Oriented 
 DLSX.°/30m               3.16:  Dogleg Str Max 
 DRET.      15.00.00 07-Aug-20:  Drill End Time 
 DRST.      17.00.00 02-Aug-20:  Drill Start Tim 
 DTIM.hr                 45.90:  Time Drilling 
 EDEP.m                5298.01:  End Depth 
 ENG1.       Seymur Iskandarov:  Engineer 1 
 ENG2.         Yevgeniy Ulikov:  Engineer 2 
 ENG3.      Artemiy Matviyanov:  Engineer 3 
 ENG4.         Bahruz Mehdiyev:  Engineer 4 
 ETIM.      05.00.00 10-Aug-20:  End Time 
 FLOI.gpm              1150.00:  Flow In 
 FLON.gpm               900.00:  Flow In Min 
 FLOS.cptm                0.00:  Fluid Loss 
 FLOX.gpm              1200.00:  Flow In Max 
 FTRO.     Connectivity, Formation Presure:  FTWD Run Obj 
 HFLO.                      No:  High Flow 
 HPRE.                     Yes:  High Pressure 
 HTEM.                      No:  High Temp 
 HYDO.m                   1.80:  Hydro Offset 
 IFIN.deg                 9.71:  Inc, Final 
 IMAX.deg                63.81:  Inc Max 
 IMIN.deg                 9.53:  Inc Min 
 IMND.m                5075.52:  Inc Min Depth 
 IMXD.m                4367.08:  Inc Max Depth 
 JARR.                      No:  Jarring 
 LETM.      15.00.00 07-Aug-20:  Log End Time 
 LOST.hr                     2:  Lost Rig Time 
 LSTM.      17.00.00 02-Aug-20:  Log Start Time 
 MDCL.ppm             42500.00:  Mud Chlorides 
 MDES.     Inversion Oil/Synthetic:  Mud Desc 
 DFD .sg                  1.46:  Mud Density 
 MDMN.sg                  1.46:  Dens Mud Min 
 MDMX.sg                  1.46:  Dens Mud Max 
 MOIL.                      56:  Run Mud Oil % 
 MOWR.                   70:30:  Run Mud OWR 
 MSND.                     0.1:  Run Mud Sand % 
 MSOL.                      19:  Run Mud Solids% 
 DFV .spqt               83.00:  Mud Viscosity 
 MWOD.in                  8.00:  MWD Tool OD 
 MWSI.                     Yes:  Serv Intrp, MWD 
 OTIM.hr                196.57:  Time Operating 
 PCON.           Look Like New:  Pad Condition 
 PMAX.psia             7400.00:  Press Op, Max 
 PV  .cP                 36.00:  Mud PV 
 RUN .                    1000:  Run Number 
 ROPA.m/hr               25.00:  ROP Avg 
 ROPN.m/hr               10.00:  ROP Min 
 ROPX.m/hr               32.00:  ROP Max 
 RPMA.rpm               120.00:  RPM Surface Avg 
 RPMN.rpm               100.00:  RPM Surface Min 
 RPMX.rpm               140.00:  RPM Surface Max 
 RRUN.                    L504:  Rig Run Number 
 SAZI.deg               308.25:  Azm, Start 
 SDEP.m                4364.01:  Start Depth 
 SIDD.                      No:  Serv Intrp, DD 
 SINC.deg                63.81:  Inc, Start 
 SPPA.psig             5800.00:  SPP Avg 
 SPPN.psig             4200.00:  SPP Min 
 SPPX.psig             5950.00:  SPP Max 
 STIM.      18.00.00 01-Aug-20:  Start Time 
 SVCS.                 DD, MWD:  Services 
 SVER.                    9.20:  Sperry Version 
 TDAT.m                 934.00:  Tot Depth Attmp 
 TDDF.                      No:  Trip for DD 
 TDLG.m                 934.00:  Tot Depth Loggd 
 TFF .                      No:  Trip for Fail 
 TQAA.f-kp               31.00:  Torque Abs Avg 
 TQAN.f-kp               25.00:  Torque Abs Min 
 TQAX.f-kp               35.00:  Torque Abs Max 
 TRRT.°/30m              -0.75:  Turn Rotating 
 MRT .                  EWR-M5:  Maximum Recorded Temperature 
 TTMX.degC               95.00:  Max Tool Temp 
 VS01.                90516060:  Virtual Str1 SN 
 VS02.                90528488:  Virtual Str2 SN 
 VS03.                90577970:  Virtual Str3 SN 
 VS04.                12385033:  Virtual Str4 SN 
 VS05.                90522069:  Virtual Str5 SN 
 VS06.                13124134:  Virtual Str6 SN 
 WBMN.klb                20.00:  WOB Min 
 WITN.         Alistair Sprott:  Customer Rep 
 WITN.     Ronal van der Kraan:  Customer Rep 2 
 WOBA.klb                25.00:  WOB Avg 
 WOBX.klb                31.00:  WOB Max 
 YP  .lhf2               32.00:  Yield Point 
~Curve Information Block
#MNEM.UNIT                 API CODE     Curve Description
#---------               -----------    ---------------------------
 TIME.HHMMSS            00 000 000 000:  GT Time & Date
 GTDEPTH.m              00 000 000 000:  GT Depth
 GTPQH.psia             00 000 000 000:  GT HR Quartz Pressure
 GTTQ.degC              00 000 000 000:  GT Quartz Temperature
 GTTN.NONE              00 000 000 000:  GT Test Number
 GTET.sec               00 000 000 000:  GT Elapsed Test Time
 GTTVD.m                00 000 000 000:  GT True Vertical Depth
#Other Information
#
#WARRANTY: Halliburton will use its best efforts to furnish customers with 
#accurate information and interpretations that are part of, and incident to, the services 
#provided.  However, Halliburton cannot and does not warrant the accuracy 
#or correctness of such information and interpretations.  Under no circumstances should any 
#such information or interpretation be relied upon as the sole basis for any drilling, 
#completion, production, or financial decision or any procedure involving any risk to the 
#safety of any drilling venture, drilling rig or its crew or any other third party.  The 
#Customer has full responsibility for all drilling, completion and production operation.  
#Halliburton makes no representations or warranties, either expressed or 
#implied, including, but not limited to, the implied warranties of merchantability or fitness 
#for a particular purpose, with respect to the services rendered.  In no event will 
#Halliburton be liable for failure to obtain any particular results or for 
#any damages, including, but not limited to, indirect, special or consequential damages, 
#resulting from the use of any information or interpretation provided by Halliburton.
#
~A           TIME           GTDEPTH  GTPQH  GTTQ  GTTN  GTET   GTTVD  
# ...
   05:58:04.683.08-Aug-2020 5190.42 5790.20 82.44 3.00 413.79 3375.81
   05:58:04.883.08-Aug-2020 5190.42 5790.20 82.44 3.00 413.99 3375.81
   05:58:05.083.08-Aug-2020 5190.42 5794.74 82.44 3.00 414.19 3375.81
   05:58:05.283.08-Aug-2020 5190.42 5796.98 82.44 3.00 414.39 3375.81
   05:58:05.483.08-Aug-2020 5190.42 5800.08 82.44 3.00 414.59 3375.81
   05:58:05.683.08-Aug-2020 5190.42 5801.82 82.44 3.00 414.79 3375.81
   05:58:05.883.08-Aug-2020 5190.42 5801.82 82.44 3.00 414.99 3375.81
   05:58:06.083.08-Aug-2020 5190.42 5806.97 82.44 3.00 415.19 3375.81
   05:58:06.283.08-Aug-2020 5190.42 5809.50 82.44 3.00 415.39 3375.81
   05:58:06.482.08-Aug-2020 5190.42 5812.10 82.44 3.00 415.59 3375.81
   05:58:06.682.08-Aug-2020 5190.42 5814.12 82.44 3.00 415.79 3375.81
   05:58:06.882.08-Aug-2020 5190.42 5814.12 82.44 3.00 415.99 3375.81
   05:58:07.082.08-Aug-2020 5190.42 5818.79 82.44 3.00 416.19 3375.81
   05:58:07.282.08-Aug-2020 5190.42 5821.44 82.44 3.00 416.39 3375.81
   05:58:07.482.08-Aug-2020 5190.42 5823.94 82.44 3.00 416.59 3375.81
   05:58:07.682.08-Aug-2020 5190.42 5826.21 82.44 3.00 416.79 3375.81
   05:58:07.882.08-Aug-2020 5190.42 5826.21 82.44 3.00 416.99 3375.81
   05:58:08.082.08-Aug-2020 5190.42 5830.55 82.44 3.00 417.19 3375.81
   05:58:08.282.08-Aug-2020 5190.42 5832.90 82.44 3.00 417.39 3375.81
   05:58:08.481.08-Aug-2020 5190.42 5835.30 82.43 3.00 417.59 3375.81
   05:58:08.681.08-Aug-2020 5190.42 5837.72 82.43 3.00 417.79 3375.81
   05:58:08.881.08-Aug-2020 5190.42 5837.72 82.43 3.00 417.99 3375.81
   05:58:09.081.08-Aug-2020 5190.42 5842.25 82.43 3.00 418.19 3375.81
   05:58:09.281.08-Aug-2020 5190.42 5843.93 82.43 3.00 418.39 3375.81
   05:58:09.481.08-Aug-2020 5190.42 5846.01 82.43 3.00 418.59 3375.81
   05:58:09.681.08-Aug-2020 5190.42 5848.54 82.43 3.00 418.79 3375.81
   05:58:09.881.08-Aug-2020 5190.42 5848.54 82.43 3.00 418.99 3375.81
   05:58:10.081.08-Aug-2020 5190.42 5853.67 82.43 3.00 419.19 3375.81
   05:58:10.281.08-Aug-2020 5190.42 5855.73 82.43 3.00 419.39 3375.81
   05:58:10.480.08-Aug-2020 5190.42 5858.11 82.43 3.00 419.59 3375.81
   05:58:10.680.08-Aug-2020 5190.42 5860.18 82.43 3.00 419.79 3375.81
   05:58:10.880.08-Aug-2020 5190.42 5860.18 82.43 3.00 419.99 3375.81
   05:58:11.080.08-Aug-2020 5190.42 5864.71 82.43 3.00 420.19 3375.81
   05:58:11.280.08-Aug-2020 5190.42 5867.07 82.43 3.00 420.39 3375.81
   05:58:11.480.08-Aug-2020 5190.42 5869.57 82.43 3.00 420.59 3375.81
   05:58:11.680.08-Aug-2020 5190.42 5871.69 82.43 3.00 420.79 3375.81
   05:58:11.880.08-Aug-2020 5190.42 5871.69 82.43 3.00 420.99 3375.81
   05:58:12.080.08-Aug-2020 5190.42 5876.21 82.43 3.00 421.19 3375.81
   05:58:12.280.08-Aug-2020 5190.42 5878.22 82.43 3.00 421.39 3375.81
   05:58:12.479.08-Aug-2020 5190.42 5880.29 82.43 3.00 421.59 3375.81
   05:58:12.679.08-Aug-2020 5190.42 5881.77 82.43 3.00 421.79 3375.81
   05:58:12.879.08-Aug-2020 5190.42 5883.63 82.43 3.00 421.99 3375.81
   05:58:13.079.08-Aug-2020 5190.42 5885.94 82.43 3.00 422.19 3375.81
   05:58:13.279.08-Aug-2020 5190.42 5887.91 82.43 3.00 422.38 3375.81
   05:58:13.479.08-Aug-2020 5190.42 5890.41 82.43 3.00 422.58 3375.81
   05:58:13.679.08-Aug-2020 5190.42 5892.65 82.43 3.00 422.78 3375.81
   05:58:13.879.08-Aug-2020 5190.42 5892.65 82.43 3.00 422.98 3375.81
   05:58:14.079.08-Aug-2020 5190.42 5896.84 82.43 3.00 423.18 3375.81
   05:58:14.279.08-Aug-2020 5190.42 5898.85 82.43 3.00 423.38 3375.81
   05:58:14.478.08-Aug-2020 5190.42 5900.99 82.42 3.00 423.58 3375.81
   05:58:14.678.08-Aug-2020 5190.42 5903.19 82.42 3.00 423.78 3375.81
   05:58:14.878.08-Aug-2020 5190.42 5903.19 82.42 3.00 423.98 3375.81
   05:58:15.078.08-Aug-2020 5190.42 5907.16 82.42 3.00 424.18 3375.81
   05:58:15.278.08-Aug-2020 5190.42 5909.20 82.42 3.00 424.38 3375.81
   05:58:15.478.08-Aug-2020 5190.42 5911.31 82.42 3.00 424.58 3375.81
   05:58:15.678.08-Aug-2020 5190.42 5913.13 82.42 3.00 424.78 3375.81
   05:58:15.878.08-Aug-2020 5190.42 5915.12 82.42 3.00 424.98 3375.81
   05:58:16.078.08-Aug-2020 5190.42 5916.66 82.42 3.00 425.18 3375.81
   05:58:16.278.08-Aug-2020 5190.42 5918.20 82.42 3.00 425.38 3375.81
   05:58:16.477.08-Aug-2020 5190.42 5920.03 82.42 3.00 425.58 3375.81
   05:58:16.677.08-Aug-2020 5190.42 5921.66 82.42 3.00 425.78 3375.81
   05:58:16.877.08-Aug-2020 5190.42 5921.66 82.42 3.00 425.98 3375.81
   05:58:17.077.08-Aug-2020 5190.42 5925.71 82.42 3.00 426.18 3375.81
   05:58:17.277.08-Aug-2020 5190.42 5927.78 82.42 3.00 426.38 3375.81
   05:58:17.477.08-Aug-2020 5190.42 5929.61 82.42 3.00 426.58 3375.81
   05:58:17.677.08-Aug-2020 5190.42 5931.09 82.42 3.00 426.78 3375.81
   05:58:17.877.08-Aug-2020 5190.42 5931.09 82.42 3.00 426.98 3375.81
   05:58:18.077.08-Aug-2020 5190.42 5934.84 82.42 3.00 427.18 3375.81
   05:58:18.276.08-Aug-2020 5190.42 5936.73 82.42 3.00 427.38 3375.81
   05:58:18.476.08-Aug-2020 5190.42 5939.10 82.42 3.00 427.58 3375.81
   05:58:18.676.08-Aug-2020 5190.42 5940.74 82.42 3.00 427.78 3375.81
   05:58:18.876.08-Aug-2020 5190.42 5940.74 82.42 3.00 427.98 3375.81
   05:58:19.076.08-Aug-2020 5190.42 5944.12 82.42 3.00 428.18 3375.81
   05:58:19.276.08-Aug-2020 5190.42 5946.26 82.42 3.00 428.38 3375.81
   05:58:19.476.08-Aug-2020 5190.42 5947.75 82.42 3.00 428.58 3375.81
   05:58:19.676.08-Aug-2020 5190.42 5949.36 82.42 3.00 428.78 3375.81
   05:58:19.876.08-Aug-2020 5190.42 5949.36 82.42 3.00 428.98 3375.81
   05:58:20.076.08-Aug-2020 5190.42 5953.18 82.41 3.00 429.18 3375.81
   05:58:20.275.08-Aug-2020 5190.42 5955.19 82.41 3.00 429.38 3375.81
   05:58:20.475.08-Aug-2020 5190.42 5957.15 82.41 3.00 429.58 3375.81
   05:58:20.675.08-Aug-2020 5190.42 5958.83 82.41 3.00 429.78 3375.81
   05:58:20.875.08-Aug-2020 5190.42 5958.83 82.41 3.00 429.98 3375.81
   05:58:21.075.08-Aug-2020 5190.42 5962.35 82.41 3.00 430.18 3375.81
   05:58:21.275.08-Aug-2020 5190.42 5964.10 82.41 3.00 430.38 3375.81
   05:58:21.475.08-Aug-2020 5190.42 5965.68 82.41 3.00 430.58 3375.81
   05:58:21.675.08-Aug-2020 5190.42 5967.42 82.41 3.00 430.78 3375.81
   05:58:21.875.08-Aug-2020 5190.42 5969.25 82.41 3.00 430.98 3375.81
   05:58:22.075.08-Aug-2020 5190.42 5970.92 82.41 3.00 431.18 3375.81
   05:58:22.274.08-Aug-2020 5190.42 5972.77 82.41 3.00 431.38 3375.81
   05:58:22.474.08-Aug-2020 5190.42 5974.53 82.41 3.00 431.58 3375.81
   05:58:22.674.08-Aug-2020 5190.42 5976.43 82.41 3.00 431.78 3375.81
   05:58:22.874.08-Aug-2020 5190.42 5976.43 82.41 3.00 431.98 3375.81
   05:58:23.074.08-Aug-2020 5190.42 5979.64 82.41 3.00 432.18 3375.81
   05:58:23.274.08-Aug-2020 5190.42 5981.28 82.41 3.00 432.38 3375.81
   05:58:23.474.08-Aug-2020 5190.42 5982.85 82.41 3.00 432.58 3375.81
   05:58:23.674.08-Aug-2020 5190.42 5984.68 82.41 3.00 432.78 3375.81
   05:58:23.874.08-Aug-2020 5190.42 5984.68 82.41 3.00 432.98 3375.81
   05:58:24.074.08-Aug-2020 5190.42 5988.10 82.41 3.00 433.18 3375.81
   05:58:24.273.08-Aug-2020 5190.42 5989.72 82.41 3.00 433.38 3375.81
   05:58:24.473.08-Aug-2020 5190.42 5991.36 82.41 3.00 433.58 3375.81
   05:58:24.673.08-Aug-2020 5190.42 5993.03 82.41 3.00 433.78 3375.81
   05:58:24.873.08-Aug-2020 5190.42 5993.03 82.41 3.00 433.98 3375.81
   05:58:25.073.08-Aug-2020 5190.42 5996.08 82.41 3.00 434.18 3375.81
   05:58:25.273.08-Aug-2020 5190.42 5997.97 82.41 3.00 434.38 3375.81
   05:58:25.473.08-Aug-2020 5190.42 5999.61 82.41 3.00 434.58 3375.81
   05:58:25.673.08-Aug-2020 5190.42 6001.23 82.40 3.00 434.78 3375.81
   05:58:25.873.08-Aug-2020 5190.42 6001.23 82.40 3.00 434.98 3375.81
   05:58:26.073.08-Aug-2020 5190.42 6004.34 82.40 3.00 435.18 3375.81
   05:58:26.272.08-Aug-2020 5190.42 6005.74 82.40 3.00 435.38 3375.81
   05:58:26.472.08-Aug-2020 5190.42 6006.77 82.40 3.00 435.58 3375.81
   05:58:26.672.08-Aug-2020 5190.42 6008.60 82.40 3.00 435.78 3375.81
   05:58:26.872.08-Aug-2020 5190.42 6008.60 82.40 3.00 435.98 3375.81
   05:58:27.072.08-Aug-2020 5190.42 6011.24 82.40 3.00 436.18 3375.81
   05:58:27.272.08-Aug-2020 5190.42 6012.76 82.40 3.00 436.38 3375.81
   05:58:27.472.08-Aug-2020 5190.42 6014.74 82.40 3.00 436.58 3375.81
