~Version Information
 VERS.                  2.0:   CWLS log ASCII Standard -VERSION 2.0
 WRAP.                   NO:   One line per depth step
~Well Information Block
#MNEM.UNIT     VALUE/NAME     DESCRIPTION
#---------     -----------    ---------------------------
 STRT.S             03:17:15 08-Aug-20: START TIME 03:17:15 08-Aug-20
 STOP.S             03:24:06 08-Aug-20: STOP TIME  03:24:06 08-Aug-20
 STEP.S                   0.00: STEP TIME
 NULL.                 -999.25: NULL VALUE
 DFWT.                        :  DIST FWL TEXT
 DFST.                        :  DIST FSL TEXT
 DMF .             Drill Floor:  DRILL MEAS FROM
 STIM.      13.47.44 07-Jun-20:  START TIME
 DATE.      13.47.44 27-Jul-20:  END TIME
 SPUD.               07-Jun-20:  SPUD DATE
 NREF.                    Grid:  NORTH REFERENCE
 HPTY.       Minimum Curvature:  HOLE POS TYPE
 DMOD.             Drill Model:  DRILL MOD DESC
 SVYD.                  Survey:  SURVEY DESC
 ILTD.               Lithology:  INTERP LTH DESC
 FTOP.          Formation Tops:  FORM TOPS DESC
 RIG .             West Chirag:  RIG NAME
 PDAT.          Mean Sea Level:  PERMANENT DATUM
 FLD .                     ACG:  FIELD NAME
 SON .        AZ-XX-0906363612:  JOB NUMBER
 CTRY.              Azerbaijan:  COUNTRY NAME
 WELL.           J25 (Slot 35):  WELL NAME
 SRVC.          Turan Drilling:  CONTRACTOR
 COMP.     BP Exploration (Caspian Sea) Ltd:  COMPANY
 UWI .                     N/A:  UNIQUE WELL IDENTIFIER
 API .                     N/A:  API NUMBER
 BASE.              Azerbaijan:  LOGGING EQUIPMENT BASE LOCATION
 REGN.                   EESSA:  REGION
 PROV.                    Baku:  PROVINCE
 STAT.                    Baku:  STATE NAME
 MWDS.                     N/A:  MWD SHOP
 DOE .                     N/A:  DOE NUMBER
 DCON.         Sperry Drilling:  DIRECTNL CONTR
 UNIT.                     N/A:  LOGGING EQUIPMENT ID
 MDS .        Operator Entered:  MAG DATA SOURCE
 JOBN.        AZ-XX-0906363612:  JOB TICKET NUMB
 WTYP.                Deviated:  WELL TYPE
 CNTY.                        :  COUNTY
 LOC .                        :  LOCATION
 LMF .             Drill Floor:  LOG MEASURED FROM
 TVDS.m                  43.00:  TVDSS CORRECTN
 LATI.deg                40.13:  LATITUDE
 LONG.deg                51.22:  LONGITUDE
 WHNS.m                  -7.90:  WELL HEAD N/S
 WHEW.m                  -3.35:  WELL HEAD E/W
 UTMX.m              519005.06:  UTM X
 UTMY.m             4443793.85:  UTM Y
 DFWL.m                   0.00:  DISTANCE FWL
 DFSL.m                   0.00:  DISTANCE FSL
 SDEP.m                   0.00:  START DEPTH
 TDD .m                   0.00:  TOTAL DEPTH (DRILLER)
 VSDR.deg               308.97:  VERT SEC DIRECT
 GVFD.g                   1.00:  GRAVITY FIELD
 MFLD.nT              50350.00:  MAGNETIC FIELD
 MDIP.deg                59.62:  MAGNETIC DIP
 MDEC.deg                 6.44:  MAGNETIC DECL
 GRDC.deg                 0.13:  GRID CORRECTION
 AZTC.deg                 6.32:  AZM TOTAL CORR
 EPD .m                   0.00:  ELEVATION
 EGL .m                   0.00:  GROUND ELEVATION
 WDMS.m                 169.80:  WD ELEV
 APD .m                  43.00:  DEPTH ABOVE PD
 DEP .m                 356.43:  DEPTH
 AGAP.m                  43.00:  AIR GAP
 VSEW.m                  -3.35:  VERT SEC E/W
 VSNS.m                  -7.90:  VERT SEC N/S
 EKB .m                  43.00:  KB ELEVATION
 EDF .m                  43.00:  DF ELEVATION
 TDL .m                 934.00:  TOTAL DEPTH (LOGGER)
 VSC .                       0:  VS TO CLOSURE
 MAGU.                 1852825:  MAGUTM CHECKSUM
~Parameter Information Block
#MNEM.UNIT       Value        Description
#---------     -----------    ---------------------------
 AV  .mps                 0.80:  Ann Velocity 
 AVMX.mps                 1.70:  Max Ann Veloc 
 AZIF.deg               311.41:  Azm, Final 
 BHAT.        Rotary Steerable:  BHA Type 
 BROT.°/30m               0.09:  Build Rotating 
 BS  .in                 12.25:  Bit Size 
 BSZ .in                 12.25:  Bit Size 
 BTPL.psig              800.00:  Bit Press Loss 
 CABU.                      No:  Customer Abuse 
 COMM.                     k:  Run Comments 1 
 TCS .hr                 96.00:  Time Ciculation Ended 
 CV  .mps                 2.03:  Crit Velocity 
 CVMX.mps                 2.42:  Max Crit Veloc 
 DD1 .          Taghi Taghiyev:  Direct Drillr 1 
 DD2 .      Tariel Pirmammadov:  Direct Drillr 2 
 DD3 .          Teymur Aghayev:  Direct Drillr 3 
 DDSV.                 iCruise:  DD Service 
 DEFF.%                  98.70:  % Det Eff 
 DLRX.°/30m               1.00:  Dogleg Rot Max 
 DLSO.°/30m               1.80:  Dogleg Oriented 
 DLSX.°/30m               3.16:  Dogleg Str Max 
 DRET.      15.00.00 07-Aug-20:  Drill End Time 
 DRST.      17.00.00 02-Aug-20:  Drill Start Tim 
 DTIM.hr                 45.90:  Time Drilling 
 EDEP.m                5298.01:  End Depth 
 ENG1.       Seymur Iskandarov:  Engineer 1 
 ENG2.         Yevgeniy Ulikov:  Engineer 2 
 ENG3.      Artemiy Matviyanov:  Engineer 3 
 ENG4.         Bahruz Mehdiyev:  Engineer 4 
 ETIM.      05.00.00 10-Aug-20:  End Time 
 FLOI.gpm              1150.00:  Flow In 
 FLON.gpm               900.00:  Flow In Min 
 FLOS.cptm                0.00:  Fluid Loss 
 FLOX.gpm              1200.00:  Flow In Max 
 FTRO.     Connectivity, Formation Presure:  FTWD Run Obj 
 HFLO.                      No:  High Flow 
 HPRE.                     Yes:  High Pressure 
 HTEM.                      No:  High Temp 
 HYDO.m                   1.80:  Hydro Offset 
 IFIN.deg                 9.71:  Inc, Final 
 IMAX.deg                63.81:  Inc Max 
 IMIN.deg                 9.53:  Inc Min 
 IMND.m                5075.52:  Inc Min Depth 
 IMXD.m                4367.08:  Inc Max Depth 
 JARR.                      No:  Jarring 
 LETM.      15.00.00 07-Aug-20:  Log End Time 
 LOST.hr                     2:  Lost Rig Time 
 LSTM.      17.00.00 02-Aug-20:  Log Start Time 
 MDCL.ppm             42500.00:  Mud Chlorides 
 MDES.     Inversion Oil/Synthetic:  Mud Desc 
 DFD .sg                  1.46:  Mud Density 
 MDMN.sg                  1.46:  Dens Mud Min 
 MDMX.sg                  1.46:  Dens Mud Max 
 MOIL.                      56:  Run Mud Oil % 
 MOWR.                   70:30:  Run Mud OWR 
 MSND.                     0.1:  Run Mud Sand % 
 MSOL.                      19:  Run Mud Solids% 
 DFV .spqt               83.00:  Mud Viscosity 
 MWOD.in                  8.00:  MWD Tool OD 
 MWSI.                     Yes:  Serv Intrp, MWD 
 OTIM.hr                196.57:  Time Operating 
 PCON.           Look Like New:  Pad Condition 
 PMAX.psia             7400.00:  Press Op, Max 
 PV  .cP                 36.00:  Mud PV 
 RUN .                    1000:  Run Number 
 ROPA.m/hr               25.00:  ROP Avg 
 ROPN.m/hr               10.00:  ROP Min 
 ROPX.m/hr               32.00:  ROP Max 
 RPMA.rpm               120.00:  RPM Surface Avg 
 RPMN.rpm               100.00:  RPM Surface Min 
 RPMX.rpm               140.00:  RPM Surface Max 
 RRUN.                    L504:  Rig Run Number 
 SAZI.deg               308.25:  Azm, Start 
 SDEP.m                4364.01:  Start Depth 
 SIDD.                      No:  Serv Intrp, DD 
 SINC.deg                63.81:  Inc, Start 
 SPPA.psig             5800.00:  SPP Avg 
 SPPN.psig             4200.00:  SPP Min 
 SPPX.psig             5950.00:  SPP Max 
 STIM.      18.00.00 01-Aug-20:  Start Time 
 SVCS.                 DD, MWD:  Services 
 SVER.                    9.20:  Sperry Version 
 TDAT.m                 934.00:  Tot Depth Attmp 
 TDDF.                      No:  Trip for DD 
 TDLG.m                 934.00:  Tot Depth Loggd 
 TFF .                      No:  Trip for Fail 
 TQAA.f-kp               31.00:  Torque Abs Avg 
 TQAN.f-kp               25.00:  Torque Abs Min 
 TQAX.f-kp               35.00:  Torque Abs Max 
 TRRT.°/30m              -0.75:  Turn Rotating 
 MRT .                  EWR-M5:  Maximum Recorded Temperature 
 TTMX.degC               95.00:  Max Tool Temp 
 VS01.                90516060:  Virtual Str1 SN 
 VS02.                90528488:  Virtual Str2 SN 
 VS03.                90577970:  Virtual Str3 SN 
 VS04.                12385033:  Virtual Str4 SN 
 VS05.                90522069:  Virtual Str5 SN 
 VS06.                13124134:  Virtual Str6 SN 
 WBMN.klb                20.00:  WOB Min 
 WITN.         Alistair Sprott:  Customer Rep 
 WITN.     Ronal van der Kraan:  Customer Rep 2 
 WOBA.klb                25.00:  WOB Avg 
 WOBX.klb                31.00:  WOB Max 
 YP  .lhf2               32.00:  Yield Point 
~Curve Information Block
#MNEM.UNIT                 API CODE     Curve Description
#---------               -----------    ---------------------------
 TIME.HHMMSS            00 000 000 000:  GT Time & Date
 GTDEPTH.m              00 000 000 000:  GT Depth
 GTPQH.psia             00 000 000 000:  GT HR Quartz Pressure
 GTTQ.degC              00 000 000 000:  GT Quartz Temperature
 GTTN.NONE              00 000 000 000:  GT Test Number
 GTET.sec               00 000 000 000:  GT Elapsed Test Time
 GTTVD.m                00 000 000 000:  GT True Vertical Depth
#Other Information
#
#WARRANTY: Halliburton will use its best efforts to furnish customers with 
#accurate information and interpretations that are part of, and incident to, the services 
#provided.  However, Halliburton cannot and does not warrant the accuracy 
#or correctness of such information and interpretations.  Under no circumstances should any 
#such information or interpretation be relied upon as the sole basis for any drilling, 
#completion, production, or financial decision or any procedure involving any risk to the 
#safety of any drilling venture, drilling rig or its crew or any other third party.  The 
#Customer has full responsibility for all drilling, completion and production operation.  
#Halliburton makes no representations or warranties, either expressed or 
#implied, including, but not limited to, the implied warranties of merchantability or fitness 
#for a particular purpose, with respect to the services rendered.  In no event will 
#Halliburton be liable for failure to obtain any particular results or for 
#any damages, including, but not limited to, indirect, special or consequential damages, 
#resulting from the use of any information or interpretation provided by Halliburton.
#
~A           TIME           GTDEPTH  GTPQH  GTTQ  GTTN  GTET   GTTVD  
# ...
   03:22:37.432.08-Aug-2020 5190.56 3122.16 85.84 1.00 321.84 3375.95
   03:22:37.632.08-Aug-2020 5190.56 3122.16 85.84 1.00 322.04 3375.95
   03:22:37.832.08-Aug-2020 5190.56 3134.88 85.84 1.00 322.24 3375.95
   03:22:38.032.08-Aug-2020 5190.56 3141.66 85.84 1.00 322.44 3375.95
   03:22:38.232.08-Aug-2020 5190.56 3148.60 85.84 1.00 322.64 3375.95
   03:22:38.432.08-Aug-2020 5190.56 3155.09 85.84 1.00 322.84 3375.95
   03:22:38.632.08-Aug-2020 5190.56 3155.09 85.84 1.00 323.04 3375.95
   03:22:38.831.08-Aug-2020 5190.56 3168.53 85.84 1.00 323.24 3375.95
   03:22:39.031.08-Aug-2020 5190.56 3175.13 85.85 1.00 323.44 3375.95
   03:22:39.231.08-Aug-2020 5190.56 3181.69 85.85 1.00 323.64 3375.95
   03:22:39.431.08-Aug-2020 5190.56 3187.66 85.85 1.00 323.84 3375.95
   03:22:39.631.08-Aug-2020 5190.56 3194.39 85.85 1.00 324.04 3375.95
   03:22:39.831.08-Aug-2020 5190.56 3200.96 85.85 1.00 324.23 3375.95
   03:22:40.031.08-Aug-2020 5190.56 3207.67 85.85 1.00 324.43 3375.95
   03:22:40.231.08-Aug-2020 5190.56 3213.99 85.85 1.00 324.63 3375.95
   03:22:40.431.08-Aug-2020 5190.56 3220.09 85.85 1.00 324.83 3375.95
   03:22:40.630.08-Aug-2020 5190.56 3220.09 85.85 1.00 325.03 3375.95
   03:22:40.830.08-Aug-2020 5190.56 3232.32 85.85 1.00 325.23 3375.95
   03:22:41.030.08-Aug-2020 5190.56 3238.43 85.85 1.00 325.43 3375.95
   03:22:41.230.08-Aug-2020 5190.56 3245.07 85.85 1.00 325.63 3375.95
   03:22:41.430.08-Aug-2020 5190.56 3251.13 85.85 1.00 325.83 3375.95
   03:22:41.630.08-Aug-2020 5190.56 3251.13 85.85 1.00 326.03 3375.95
   03:22:41.830.08-Aug-2020 5190.56 3263.41 85.85 1.00 326.23 3375.95
   03:22:42.030.08-Aug-2020 5190.56 3269.32 85.85 1.00 326.43 3375.95
   03:22:42.230.08-Aug-2020 5190.56 3275.57 85.85 1.00 326.63 3375.95
   03:22:42.430.08-Aug-2020 5190.56 3281.84 85.85 1.00 326.83 3375.95
   03:22:42.629.08-Aug-2020 5190.56 3281.84 85.85 1.00 327.03 3375.95
   03:22:42.829.08-Aug-2020 5190.56 3294.78 85.85 1.00 327.23 3375.95
   03:22:43.029.08-Aug-2020 5190.56 3300.89 85.85 1.00 327.43 3375.95
   03:22:43.229.08-Aug-2020 5190.56 3307.08 85.85 1.00 327.63 3375.95
   03:22:43.429.08-Aug-2020 5190.56 3313.37 85.85 1.00 327.83 3375.95
   03:22:43.629.08-Aug-2020 5190.56 3319.34 85.85 1.00 328.03 3375.95
   03:22:43.829.08-Aug-2020 5190.56 3325.61 85.85 1.00 328.23 3375.95
   03:22:44.029.08-Aug-2020 5190.56 3331.78 85.85 1.00 328.43 3375.95
   03:22:44.229.08-Aug-2020 5190.56 3338.05 85.85 1.00 328.63 3375.95
   03:22:44.429.08-Aug-2020 5190.56 3344.36 85.85 1.00 328.83 3375.95
   03:22:44.628.08-Aug-2020 5190.56 3344.36 85.85 1.00 329.03 3375.95
   03:22:44.828.08-Aug-2020 5190.56 3356.03 85.85 1.00 329.23 3375.95
   03:22:45.028.08-Aug-2020 5190.56 3362.35 85.85 1.00 329.43 3375.95
   03:22:45.228.08-Aug-2020 5190.56 3368.61 85.85 1.00 329.63 3375.95
   03:22:45.428.08-Aug-2020 5190.56 3374.84 85.85 1.00 329.83 3375.95
   03:22:45.628.08-Aug-2020 5190.56 3374.84 85.85 1.00 330.03 3375.95
   03:22:45.828.08-Aug-2020 5190.56 3386.76 85.85 1.00 330.23 3375.95
   03:22:46.028.08-Aug-2020 5190.56 3392.93 85.85 1.00 330.43 3375.95
   03:22:46.228.08-Aug-2020 5190.56 3399.06 85.85 1.00 330.63 3375.95
   03:22:46.428.08-Aug-2020 5190.56 3405.11 85.85 1.00 330.83 3375.95
   03:22:46.627.08-Aug-2020 5190.56 3405.11 85.85 1.00 331.03 3375.95
   03:22:46.827.08-Aug-2020 5190.56 3416.54 85.85 1.00 331.23 3375.95
   03:22:47.027.08-Aug-2020 5190.56 3422.35 85.85 1.00 331.43 3375.95
   03:22:47.227.08-Aug-2020 5190.56 3428.46 85.85 1.00 331.63 3375.95
   03:22:47.427.08-Aug-2020 5190.56 3434.19 85.85 1.00 331.83 3375.95
   03:22:47.627.08-Aug-2020 5190.56 3440.06 85.85 1.00 332.03 3375.95
   03:22:47.827.08-Aug-2020 5190.56 3445.90 85.85 1.00 332.23 3375.95
   03:22:48.027.08-Aug-2020 5190.56 3451.53 85.85 1.00 332.43 3375.95
   03:22:48.227.08-Aug-2020 5190.56 3457.42 85.85 1.00 332.63 3375.95
   03:22:48.427.08-Aug-2020 5190.56 3463.47 85.85 1.00 332.83 3375.95
   03:22:48.626.08-Aug-2020 5190.56 3463.47 85.85 1.00 333.03 3375.95
   03:22:48.826.08-Aug-2020 5190.56 3474.92 85.85 1.00 333.23 3375.95
   03:22:49.026.08-Aug-2020 5190.56 3480.65 85.85 1.00 333.43 3375.95
   03:22:49.226.08-Aug-2020 5190.56 3486.61 85.85 1.00 333.63 3375.95
   03:22:49.426.08-Aug-2020 5190.56 3492.50 85.85 1.00 333.83 3375.95
   03:22:49.626.08-Aug-2020 5190.56 3492.50 85.85 1.00 334.03 3375.95
   03:22:49.826.08-Aug-2020 5190.56 3503.91 85.85 1.00 334.23 3375.95
   03:22:50.026.08-Aug-2020 5190.56 3509.62 85.85 1.00 334.43 3375.95
   03:22:50.226.08-Aug-2020 5190.56 3515.02 85.86 1.00 334.63 3375.95
   03:22:50.426.08-Aug-2020 5190.56 3521.15 85.86 1.00 334.83 3375.95
   03:22:50.625.08-Aug-2020 5190.56 3521.15 85.86 1.00 335.03 3375.95
   03:22:50.825.08-Aug-2020 5190.56 3531.49 85.86 1.00 335.23 3375.95
   03:22:51.025.08-Aug-2020 5190.56 3536.86 85.86 1.00 335.43 3375.95
   03:22:51.225.08-Aug-2020 5190.56 3542.39 85.86 1.00 335.63 3375.95
   03:22:51.425.08-Aug-2020 5190.56 3548.17 85.86 1.00 335.83 3375.95
   03:22:51.625.08-Aug-2020 5190.56 3553.34 85.86 1.00 336.03 3375.95
   03:22:51.825.08-Aug-2020 5190.56 3558.85 85.86 1.00 336.23 3375.95
   03:22:52.025.08-Aug-2020 5190.56 3564.42 85.86 1.00 336.43 3375.95
   03:22:52.225.08-Aug-2020 5190.56 3570.36 85.86 1.00 336.63 3375.95
   03:22:52.424.08-Aug-2020 5190.56 3576.48 85.86 1.00 336.83 3375.95
   03:22:52.624.08-Aug-2020 5190.56 3576.48 85.86 1.00 337.03 3375.95
   03:22:52.824.08-Aug-2020 5190.56 3586.81 85.86 1.00 337.23 3375.95
   03:22:53.024.08-Aug-2020 5190.56 3592.38 85.86 1.00 337.43 3375.95
   03:22:53.224.08-Aug-2020 5190.56 3597.88 85.86 1.00 337.63 3375.95
   03:22:53.424.08-Aug-2020 5190.56 3603.21 85.86 1.00 337.83 3375.95
   03:22:53.624.08-Aug-2020 5190.56 3603.21 85.86 1.00 338.03 3375.95
   03:22:53.824.08-Aug-2020 5190.56 3614.42 85.86 1.00 338.23 3375.95
   03:22:54.024.08-Aug-2020 5190.56 3619.99 85.86 1.00 338.43 3375.95
   03:22:54.224.08-Aug-2020 5190.56 3625.53 85.86 1.00 338.63 3375.95
   03:22:54.423.08-Aug-2020 5190.56 3631.02 85.86 1.00 338.83 3375.95
   03:22:54.623.08-Aug-2020 5190.56 3631.02 85.86 1.00 339.03 3375.95
   03:22:54.823.08-Aug-2020 5190.56 3641.40 85.86 1.00 339.23 3375.95
   03:22:55.023.08-Aug-2020 5190.56 3647.00 85.86 1.00 339.43 3375.95
   03:22:55.223.08-Aug-2020 5190.56 3652.57 85.86 1.00 339.63 3375.95
   03:22:55.423.08-Aug-2020 5190.56 3658.10 85.86 1.00 339.83 3375.95
   03:22:55.623.08-Aug-2020 5190.56 3658.10 85.86 1.00 340.03 3375.95
   03:22:55.823.08-Aug-2020 5190.56 3668.72 85.86 1.00 340.23 3375.95
   03:22:56.023.08-Aug-2020 5190.56 3674.13 85.86 1.00 340.43 3375.95
   03:22:56.223.08-Aug-2020 5190.56 3679.57 85.86 1.00 340.63 3375.95
   03:22:56.422.08-Aug-2020 5190.56 3685.07 85.86 1.00 340.83 3375.95
   03:22:56.622.08-Aug-2020 5190.56 3685.07 85.86 1.00 341.03 3375.95
   03:22:56.822.08-Aug-2020 5190.56 3695.16 85.86 1.00 341.23 3375.95
   03:22:57.022.08-Aug-2020 5190.56 3700.78 85.86 1.00 341.43 3375.95
   03:22:57.222.08-Aug-2020 5190.56 3705.91 85.86 1.00 341.63 3375.95
   03:22:57.422.08-Aug-2020 5190.56 3711.07 85.86 1.00 341.83 3375.95
   03:22:57.622.08-Aug-2020 5190.56 3711.07 85.86 1.00 342.03 3375.95
   03:22:57.822.08-Aug-2020 5190.56 3721.12 85.86 1.00 342.23 3375.95
   03:22:58.022.08-Aug-2020 5190.56 3726.48 85.86 1.00 342.43 3375.95
   03:22:58.222.08-Aug-2020 5190.56 3731.90 85.86 1.00 342.63 3375.95
   03:22:58.421.08-Aug-2020 5190.56 3737.25 85.86 1.00 342.83 3375.95
   03:22:58.621.08-Aug-2020 5190.56 3737.25 85.86 1.00 343.03 3375.95
   03:22:58.821.08-Aug-2020 5190.56 3747.37 85.86 1.00 343.23 3375.95
   03:22:59.021.08-Aug-2020 5190.56 3752.70 85.86 1.00 343.43 3375.95
   03:22:59.221.08-Aug-2020 5190.56 3758.15 85.86 1.00 343.63 3375.95
   03:22:59.421.08-Aug-2020 5190.56 3763.39 85.86 1.00 343.82 3375.95
   03:22:59.621.08-Aug-2020 5190.56 3768.13 85.86 1.00 344.02 3375.95
   03:22:59.821.08-Aug-2020 5190.56 3772.99 85.86 1.00 344.22 3375.95
   03:23:00.021.08-Aug-2020 5190.56 3777.86 85.86 1.00 344.42 3375.95
   03:23:00.221.08-Aug-2020 5190.56 3783.19 85.86 1.00 344.62 3375.95
