~Version Information
 VERS.                  2.0:   CWLS log ASCII Standard -VERSION 2.0
 WRAP.                   NO:   One line per depth step
~Well Information Block
#MNEM.UNIT     VALUE/NAME     DESCRIPTION
#---------     -----------    ---------------------------
 STRT.S             05:51:10 08-Aug-20: START TIME 05:51:10 08-Aug-20
 STOP.S             05:59:38 08-Aug-20: STOP TIME  05:59:38 08-Aug-20
 STEP.S                   0.00: STEP TIME
 NULL.                 -999.25: NULL VALUE
 DFWT.                        :  DIST FWL TEXT
 DFST.                        :  DIST FSL TEXT
 DMF .             Drill Floor:  DRILL MEAS FROM
 STIM.      13.47.44 07-Jun-20:  START TIME
 DATE.      13.47.44 27-Jul-20:  END TIME
 SPUD.               07-Jun-20:  SPUD DATE
 NREF.                    Grid:  NORTH REFERENCE
 HPTY.       Minimum Curvature:  HOLE POS TYPE
 DMOD.             Drill Model:  DRILL MOD DESC
 SVYD.                  Survey:  SURVEY DESC
 ILTD.               Lithology:  INTERP LTH DESC
 FTOP.          Formation Tops:  FORM TOPS DESC
 RIG .             West Chirag:  RIG NAME
 PDAT.          Mean Sea Level:  PERMANENT DATUM
 FLD .                     ACG:  FIELD NAME
 SON .        AZ-XX-0906363612:  JOB NUMBER
 CTRY.              Azerbaijan:  COUNTRY NAME
 WELL.           J25 (Slot 35):  WELL NAME
 SRVC.          Turan Drilling:  CONTRACTOR
 COMP.     BP Exploration (Caspian Sea) Ltd:  COMPANY
 UWI .                     N/A:  UNIQUE WELL IDENTIFIER
 API .                     N/A:  API NUMBER
 BASE.              Azerbaijan:  LOGGING EQUIPMENT BASE LOCATION
 REGN.                   EESSA:  REGION
 PROV.                    Baku:  PROVINCE
 STAT.                    Baku:  STATE NAME
 MWDS.                     N/A:  MWD SHOP
 DOE .                     N/A:  DOE NUMBER
 DCON.         Sperry Drilling:  DIRECTNL CONTR
 UNIT.                     N/A:  LOGGING EQUIPMENT ID
 MDS .        Operator Entered:  MAG DATA SOURCE
 JOBN.        AZ-XX-0906363612:  JOB TICKET NUMB
 WTYP.                Deviated:  WELL TYPE
 CNTY.                        :  COUNTY
 LOC .                        :  LOCATION
 LMF .             Drill Floor:  LOG MEASURED FROM
 TVDS.m                  43.00:  TVDSS CORRECTN
 LATI.deg                40.13:  LATITUDE
 LONG.deg                51.22:  LONGITUDE
 WHNS.m                  -7.90:  WELL HEAD N/S
 WHEW.m                  -3.35:  WELL HEAD E/W
 UTMX.m              519005.06:  UTM X
 UTMY.m             4443793.85:  UTM Y
 DFWL.m                   0.00:  DISTANCE FWL
 DFSL.m                   0.00:  DISTANCE FSL
 SDEP.m                   0.00:  START DEPTH
 TDD .m                   0.00:  TOTAL DEPTH (DRILLER)
 VSDR.deg               308.97:  VERT SEC DIRECT
 GVFD.g                   1.00:  GRAVITY FIELD
 MFLD.nT              50350.00:  MAGNETIC FIELD
 MDIP.deg                59.62:  MAGNETIC DIP
 MDEC.deg                 6.44:  MAGNETIC DECL
 GRDC.deg                 0.13:  GRID CORRECTION
 AZTC.deg                 6.32:  AZM TOTAL CORR
 EPD .m                   0.00:  ELEVATION
 EGL .m                   0.00:  GROUND ELEVATION
 WDMS.m                 169.80:  WD ELEV
 APD .m                  43.00:  DEPTH ABOVE PD
 DEP .m                 356.43:  DEPTH
 AGAP.m                  43.00:  AIR GAP
 VSEW.m                  -3.35:  VERT SEC E/W
 VSNS.m                  -7.90:  VERT SEC N/S
 EKB .m                  43.00:  KB ELEVATION
 EDF .m                  43.00:  DF ELEVATION
 TDL .m                 934.00:  TOTAL DEPTH (LOGGER)
 VSC .                       0:  VS TO CLOSURE
 MAGU.                 1852825:  MAGUTM CHECKSUM
~Parameter Information Block
#MNEM.UNIT       Value        Description
#---------     -----------    ---------------------------
 AV  .mps                 0.80:  Ann Velocity 
 AVMX.mps                 1.70:  Max Ann Veloc 
 AZIF.deg               311.41:  Azm, Final 
 BHAT.        Rotary Steerable:  BHA Type 
 BROT.°/30m               0.09:  Build Rotating 
 BS  .in                 12.25:  Bit Size 
 BSZ .in                 12.25:  Bit Size 
 BTPL.psig              800.00:  Bit Press Loss 
 CABU.                      No:  Customer Abuse 
 COMM.                     ¤'V:  Run Comments 1 
 TCS .hr                 96.00:  Time Ciculation Ended 
 CV  .mps                 2.03:  Crit Velocity 
 CVMX.mps                 2.42:  Max Crit Veloc 
 DD1 .          Taghi Taghiyev:  Direct Drillr 1 
 DD2 .      Tariel Pirmammadov:  Direct Drillr 2 
 DD3 .          Teymur Aghayev:  Direct Drillr 3 
 DDSV.                 iCruise:  DD Service 
 DEFF.%                  98.70:  % Det Eff 
 DLRX.°/30m               1.00:  Dogleg Rot Max 
 DLSO.°/30m               1.80:  Dogleg Oriented 
 DLSX.°/30m               3.16:  Dogleg Str Max 
 DRET.      15.00.00 07-Aug-20:  Drill End Time 
 DRST.      17.00.00 02-Aug-20:  Drill Start Tim 
 DTIM.hr                 45.90:  Time Drilling 
 EDEP.m                5298.01:  End Depth 
 ENG1.       Seymur Iskandarov:  Engineer 1 
 ENG2.         Yevgeniy Ulikov:  Engineer 2 
 ENG3.      Artemiy Matviyanov:  Engineer 3 
 ENG4.         Bahruz Mehdiyev:  Engineer 4 
 ETIM.      05.00.00 10-Aug-20:  End Time 
 FLOI.gpm              1150.00:  Flow In 
 FLON.gpm               900.00:  Flow In Min 
 FLOS.cptm                0.00:  Fluid Loss 
 FLOX.gpm              1200.00:  Flow In Max 
 FTRO.     Connectivity, Formation Presure:  FTWD Run Obj 
 HFLO.                      No:  High Flow 
 HPRE.                     Yes:  High Pressure 
 HTEM.                      No:  High Temp 
 HYDO.m                   1.80:  Hydro Offset 
 IFIN.deg                 9.71:  Inc, Final 
 IMAX.deg                63.81:  Inc Max 
 IMIN.deg                 9.53:  Inc Min 
 IMND.m                5075.52:  Inc Min Depth 
 IMXD.m                4367.08:  Inc Max Depth 
 JARR.                      No:  Jarring 
 LETM.      15.00.00 07-Aug-20:  Log End Time 
 LOST.hr                     2:  Lost Rig Time 
 LSTM.      17.00.00 02-Aug-20:  Log Start Time 
 MDCL.ppm             42500.00:  Mud Chlorides 
 MDES.     Inversion Oil/Synthetic:  Mud Desc 
 DFD .sg                  1.46:  Mud Density 
 MDMN.sg                  1.46:  Dens Mud Min 
 MDMX.sg                  1.46:  Dens Mud Max 
 MOIL.                      56:  Run Mud Oil % 
 MOWR.                   70:30:  Run Mud OWR 
 MSND.                     0.1:  Run Mud Sand % 
 MSOL.                      19:  Run Mud Solids% 
 DFV .spqt               83.00:  Mud Viscosity 
 MWOD.in                  8.00:  MWD Tool OD 
 MWSI.                     Yes:  Serv Intrp, MWD 
 OTIM.hr                196.57:  Time Operating 
 PCON.           Look Like New:  Pad Condition 
 PMAX.psia             7400.00:  Press Op, Max 
 PV  .cP                 36.00:  Mud PV 
 RUN .                    1000:  Run Number 
 ROPA.m/hr               25.00:  ROP Avg 
 ROPN.m/hr               10.00:  ROP Min 
 ROPX.m/hr               32.00:  ROP Max 
 RPMA.rpm               120.00:  RPM Surface Avg 
 RPMN.rpm               100.00:  RPM Surface Min 
 RPMX.rpm               140.00:  RPM Surface Max 
 RRUN.                    L504:  Rig Run Number 
 SAZI.deg               308.25:  Azm, Start 
 SDEP.m                4364.01:  Start Depth 
 SIDD.                      No:  Serv Intrp, DD 
 SINC.deg                63.81:  Inc, Start 
 SPPA.psig             5800.00:  SPP Avg 
 SPPN.psig             4200.00:  SPP Min 
 SPPX.psig             5950.00:  SPP Max 
 STIM.      18.00.00 01-Aug-20:  Start Time 
 SVCS.                 DD, MWD:  Services 
 SVER.                    9.20:  Sperry Version 
 TDAT.m                 934.00:  Tot Depth Attmp 
 TDDF.                      No:  Trip for DD 
 TDLG.m                 934.00:  Tot Depth Loggd 
 TFF .                      No:  Trip for Fail 
 TQAA.f-kp               31.00:  Torque Abs Avg 
 TQAN.f-kp               25.00:  Torque Abs Min 
 TQAX.f-kp               35.00:  Torque Abs Max 
 TRRT.°/30m              -0.75:  Turn Rotating 
 MRT .                  EWR-M5:  Maximum Recorded Temperature 
 TTMX.degC               95.00:  Max Tool Temp 
 VS01.                90516060:  Virtual Str1 SN 
 VS02.                90528488:  Virtual Str2 SN 
 VS03.                90577970:  Virtual Str3 SN 
 VS04.                12385033:  Virtual Str4 SN 
 VS05.                90522069:  Virtual Str5 SN 
 VS06.                13124134:  Virtual Str6 SN 
 WBMN.klb                20.00:  WOB Min 
 WITN.         Alistair Sprott:  Customer Rep 
 WITN.     Ronal van der Kraan:  Customer Rep 2 
 WOBA.klb                25.00:  WOB Avg 
 WOBX.klb                31.00:  WOB Max 
 YP  .lhf2               32.00:  Yield Point 
~Curve Information Block
#MNEM.UNIT                 API CODE     Curve Description
#---------               -----------    ---------------------------
 TIME.HHMMSS            00 000 000 000:  GT Time & Date
 GTDEPTH.m              00 000 000 000:  GT Depth
 GTPQH.psia             00 000 000 000:  GT HR Quartz Pressure
 GTTQ.degC              00 000 000 000:  GT Quartz Temperature
 GTTN.NONE              00 000 000 000:  GT Test Number
 GTET.sec               00 000 000 000:  GT Elapsed Test Time
 GTTVD.m                00 000 000 000:  GT True Vertical Depth
#Other Information
#
#WARRANTY: Halliburton will use its best efforts to furnish customers with 
#accurate information and interpretations that are part of, and incident to, the services 
#provided.  However, Halliburton cannot and does not warrant the accuracy 
#or correctness of such information and interpretations.  Under no circumstances should any 
#such information or interpretation be relied upon as the sole basis for any drilling, 
#completion, production, or financial decision or any procedure involving any risk to the 
#safety of any drilling venture, drilling rig or its crew or any other third party.  The 
#Customer has full responsibility for all drilling, completion and production operation.  
#Halliburton makes no representations or warranties, either expressed or 
#implied, including, but not limited to, the implied warranties of merchantability or fitness 
#for a particular purpose, with respect to the services rendered.  In no event will 
#Halliburton be liable for failure to obtain any particular results or for 
#any damages, including, but not limited to, indirect, special or consequential damages, 
#resulting from the use of any information or interpretation provided by Halliburton.
#
~A           TIME           GTDEPTH  GTPQH  GTTQ  GTTN  GTET   GTTVD  
# ...
   05:57:41.695.08-Aug-2020 5190.42 5375.00 82.47 3.00 390.80 3375.81
   05:57:41.895.08-Aug-2020 5190.42 5375.00 82.47 3.00 391.00 3375.81
   05:57:42.095.08-Aug-2020 5190.42 5385.42 82.47 3.00 391.20 3375.81
   05:57:42.295.08-Aug-2020 5190.42 5390.80 82.47 3.00 391.40 3375.81
   05:57:42.495.08-Aug-2020 5190.42 5395.86 82.47 3.00 391.60 3375.81
   05:57:42.695.08-Aug-2020 5190.42 5400.75 82.47 3.00 391.80 3375.81
   05:57:42.895.08-Aug-2020 5190.42 5400.75 82.47 3.00 392.00 3375.81
   05:57:43.094.08-Aug-2020 5190.42 5410.75 82.47 3.00 392.20 3375.81
   05:57:43.294.08-Aug-2020 5190.42 5415.33 82.47 3.00 392.40 3375.81
   05:57:43.494.08-Aug-2020 5190.42 5420.43 82.47 3.00 392.60 3375.81
   05:57:43.694.08-Aug-2020 5190.42 5425.41 82.47 3.00 392.80 3375.81
   05:57:43.894.08-Aug-2020 5190.42 5425.41 82.47 3.00 393.00 3375.81
   05:57:44.094.08-Aug-2020 5190.42 5434.67 82.47 3.00 393.20 3375.81
   05:57:44.294.08-Aug-2020 5190.42 5438.39 82.47 3.00 393.40 3375.81
   05:57:44.494.08-Aug-2020 5190.42 5442.83 82.47 3.00 393.60 3375.81
   05:57:44.694.08-Aug-2020 5190.42 5447.27 82.47 3.00 393.80 3375.81
   05:57:44.893.08-Aug-2020 5190.42 5447.27 82.47 3.00 394.00 3375.81
   05:57:45.093.08-Aug-2020 5190.42 5456.23 82.47 3.00 394.20 3375.81
   05:57:45.293.08-Aug-2020 5190.42 5461.15 82.47 3.00 394.40 3375.81
   05:57:45.493.08-Aug-2020 5190.42 5465.70 82.47 3.00 394.60 3375.81
   05:57:45.693.08-Aug-2020 5190.42 5470.00 82.47 3.00 394.80 3375.81
   05:57:45.893.08-Aug-2020 5190.42 5470.00 82.47 3.00 395.00 3375.81
   05:57:46.093.08-Aug-2020 5190.42 5478.45 82.47 3.00 395.20 3375.81
   05:57:46.293.08-Aug-2020 5190.42 5482.90 82.47 3.00 395.40 3375.81
   05:57:46.493.08-Aug-2020 5190.42 5487.46 82.47 3.00 395.60 3375.81
   05:57:46.693.08-Aug-2020 5190.42 5491.92 82.47 3.00 395.80 3375.81
   05:57:46.892.08-Aug-2020 5190.42 5491.92 82.47 3.00 396.00 3375.81
   05:57:47.092.08-Aug-2020 5190.42 5500.30 82.47 3.00 396.20 3375.81
   05:57:47.292.08-Aug-2020 5190.42 5504.31 82.47 3.00 396.40 3375.81
   05:57:47.492.08-Aug-2020 5190.42 5508.32 82.47 3.00 396.60 3375.81
   05:57:47.692.08-Aug-2020 5190.42 5512.56 82.47 3.00 396.80 3375.81
   05:57:47.892.08-Aug-2020 5190.42 5512.56 82.47 3.00 397.00 3375.81
   05:57:48.092.08-Aug-2020 5190.42 5521.13 82.47 3.00 397.20 3375.81
   05:57:48.292.08-Aug-2020 5190.42 5524.89 82.47 3.00 397.40 3375.81
   05:57:48.492.08-Aug-2020 5190.42 5528.50 82.47 3.00 397.60 3375.81
   05:57:48.692.08-Aug-2020 5190.42 5532.96 82.46 3.00 397.80 3375.81
   05:57:48.891.08-Aug-2020 5190.42 5532.96 82.46 3.00 398.00 3375.81
   05:57:49.091.08-Aug-2020 5190.42 5541.31 82.46 3.00 398.20 3375.81
   05:57:49.291.08-Aug-2020 5190.42 5545.49 82.46 3.00 398.40 3375.81
   05:57:49.491.08-Aug-2020 5190.42 5549.34 82.46 3.00 398.60 3375.81
   05:57:49.691.08-Aug-2020 5190.42 5553.24 82.46 3.00 398.80 3375.81
   05:57:49.891.08-Aug-2020 5190.42 5553.24 82.46 3.00 399.00 3375.81
   05:57:50.091.08-Aug-2020 5190.42 5561.05 82.46 3.00 399.20 3375.81
   05:57:50.291.08-Aug-2020 5190.42 5565.38 82.46 3.00 399.40 3375.81
   05:57:50.491.08-Aug-2020 5190.42 5569.14 82.46 3.00 399.60 3375.81
   05:57:50.691.08-Aug-2020 5190.42 5572.86 82.46 3.00 399.80 3375.81
   05:57:50.890.08-Aug-2020 5190.42 5572.86 82.46 3.00 400.00 3375.81
   05:57:51.090.08-Aug-2020 5190.42 5580.59 82.46 3.00 400.20 3375.81
   05:57:51.290.08-Aug-2020 5190.42 5584.60 82.46 3.00 400.40 3375.81
   05:57:51.490.08-Aug-2020 5190.42 5587.72 82.46 3.00 400.60 3375.81
   05:57:51.690.08-Aug-2020 5190.42 5591.09 82.46 3.00 400.80 3375.81
   05:57:51.890.08-Aug-2020 5190.42 5591.09 82.46 3.00 401.00 3375.81
   05:57:52.090.08-Aug-2020 5190.42 5598.25 82.46 3.00 401.20 3375.81
   05:57:52.290.08-Aug-2020 5190.42 5601.79 82.46 3.00 401.40 3375.81
   05:57:52.490.08-Aug-2020 5190.42 5605.78 82.46 3.00 401.60 3375.81
   05:57:52.690.08-Aug-2020 5190.42 5609.34 82.46 3.00 401.80 3375.81
   05:57:52.889.08-Aug-2020 5190.42 5612.91 82.46 3.00 402.00 3375.81
   05:57:53.089.08-Aug-2020 5190.42 5616.70 82.46 3.00 402.20 3375.81
   05:57:53.289.08-Aug-2020 5190.42 5620.28 82.46 3.00 402.40 3375.81
   05:57:53.489.08-Aug-2020 5190.42 5624.11 82.46 3.00 402.60 3375.81
   05:57:53.689.08-Aug-2020 5190.42 5627.66 82.46 3.00 402.79 3375.81
   05:57:53.889.08-Aug-2020 5190.42 5627.66 82.46 3.00 402.99 3375.81
   05:57:54.089.08-Aug-2020 5190.42 5634.13 82.46 3.00 403.19 3375.81
   05:57:54.289.08-Aug-2020 5190.42 5637.48 82.46 3.00 403.39 3375.81
   05:57:54.489.08-Aug-2020 5190.42 5641.20 82.46 3.00 403.59 3375.81
   05:57:54.689.08-Aug-2020 5190.42 5644.60 82.46 3.00 403.79 3375.81
   05:57:54.888.08-Aug-2020 5190.42 5644.60 82.46 3.00 403.99 3375.81
   05:57:55.088.08-Aug-2020 5190.42 5650.90 82.46 3.00 404.19 3375.81
   05:57:55.288.08-Aug-2020 5190.42 5653.85 82.46 3.00 404.39 3375.81
   05:57:55.488.08-Aug-2020 5190.42 5656.71 82.46 3.00 404.59 3375.81
   05:57:55.688.08-Aug-2020 5190.42 5659.47 82.46 3.00 404.79 3375.81
   05:57:55.888.08-Aug-2020 5190.42 5659.47 82.46 3.00 404.99 3375.81
   05:57:56.088.08-Aug-2020 5190.42 5666.31 82.45 3.00 405.19 3375.81
   05:57:56.288.08-Aug-2020 5190.42 5669.47 82.45 3.00 405.39 3375.81
   05:57:56.488.08-Aug-2020 5190.42 5672.36 82.45 3.00 405.59 3375.81
   05:57:56.687.08-Aug-2020 5190.42 5675.17 82.45 3.00 405.79 3375.81
   05:57:56.887.08-Aug-2020 5190.42 5675.17 82.45 3.00 405.99 3375.81
   05:57:57.087.08-Aug-2020 5190.42 5681.74 82.45 3.00 406.19 3375.81
   05:57:57.287.08-Aug-2020 5190.42 5684.95 82.45 3.00 406.39 3375.81
   05:57:57.487.08-Aug-2020 5190.42 5688.13 82.45 3.00 406.59 3375.81
   05:57:57.687.08-Aug-2020 5190.42 5691.39 82.45 3.00 406.79 3375.81
   05:57:57.887.08-Aug-2020 5190.42 5691.39 82.45 3.00 406.99 3375.81
   05:57:58.087.08-Aug-2020 5190.42 5697.60 82.45 3.00 407.19 3375.81
   05:57:58.287.08-Aug-2020 5190.42 5700.02 82.45 3.00 407.39 3375.81
   05:57:58.487.08-Aug-2020 5190.42 5703.20 82.45 3.00 407.59 3375.81
   05:57:58.686.08-Aug-2020 5190.42 5706.16 82.45 3.00 407.79 3375.81
   05:57:58.886.08-Aug-2020 5190.42 5706.16 82.45 3.00 407.99 3375.81
   05:57:59.086.08-Aug-2020 5190.42 5712.54 82.45 3.00 408.19 3375.81
   05:57:59.286.08-Aug-2020 5190.42 5715.57 82.45 3.00 408.39 3375.81
   05:57:59.486.08-Aug-2020 5190.42 5718.91 82.45 3.00 408.59 3375.81
   05:57:59.686.08-Aug-2020 5190.42 5721.83 82.45 3.00 408.79 3375.81
   05:57:59.886.08-Aug-2020 5190.42 5721.83 82.45 3.00 408.99 3375.81
   05:58:00.086.08-Aug-2020 5190.42 5727.51 82.45 3.00 409.19 3375.81
   05:58:00.286.08-Aug-2020 5190.42 5730.41 82.45 3.00 409.39 3375.81
   05:58:00.486.08-Aug-2020 5190.42 5733.48 82.45 3.00 409.59 3375.81
   05:58:00.685.08-Aug-2020 5190.42 5736.36 82.45 3.00 409.79 3375.81
   05:58:00.885.08-Aug-2020 5190.42 5739.33 82.45 3.00 409.99 3375.81
   05:58:01.085.08-Aug-2020 5190.42 5742.13 82.45 3.00 410.19 3375.81
   05:58:01.285.08-Aug-2020 5190.42 5744.56 82.45 3.00 410.39 3375.81
   05:58:01.485.08-Aug-2020 5190.42 5747.39 82.45 3.00 410.59 3375.81
   05:58:01.685.08-Aug-2020 5190.42 5749.97 82.45 3.00 410.79 3375.81
   05:58:01.885.08-Aug-2020 5190.42 5749.97 82.45 3.00 410.99 3375.81
   05:58:02.085.08-Aug-2020 5190.42 5755.85 82.45 3.00 411.19 3375.81
   05:58:02.285.08-Aug-2020 5190.42 5758.49 82.45 3.00 411.39 3375.81
   05:58:02.485.08-Aug-2020 5190.42 5761.18 82.44 3.00 411.59 3375.81
   05:58:02.684.08-Aug-2020 5190.42 5763.66 82.44 3.00 411.79 3375.81
   05:58:02.884.08-Aug-2020 5190.42 5763.66 82.44 3.00 411.99 3375.81
   05:58:03.084.08-Aug-2020 5190.42 5768.96 82.44 3.00 412.19 3375.81
   05:58:03.284.08-Aug-2020 5190.42 5771.73 82.44 3.00 412.39 3375.81
   05:58:03.484.08-Aug-2020 5190.42 5774.24 82.44 3.00 412.59 3375.81
   05:58:03.684.08-Aug-2020 5190.42 5777.04 82.44 3.00 412.79 3375.81
   05:58:03.884.08-Aug-2020 5190.42 5780.03 82.44 3.00 412.99 3375.81
   05:58:04.084.08-Aug-2020 5190.42 5782.57 82.44 3.00 413.19 3375.81
   05:58:04.284.08-Aug-2020 5190.42 5785.06 82.44 3.00 413.39 3375.81
   05:58:04.484.08-Aug-2020 5190.42 5787.87 82.44 3.00 413.59 3375.81
