~Version Information
 VERS.                  2.0:   CWLS log ASCII Standard -VERSION 2.0
 WRAP.                   NO:   One line per depth step
~Well Information Block
#MNEM.UNIT     VALUE/NAME     DESCRIPTION
#---------     -----------    ---------------------------
 STRT.S             05:51:10 08-Aug-20: START TIME 05:51:10 08-Aug-20
 STOP.S             05:59:38 08-Aug-20: STOP TIME  05:59:38 08-Aug-20
 STEP.S                   0.00: STEP TIME
 NULL.                 -999.25: NULL VALUE
 DFWT.                        :  DIST FWL TEXT
 DFST.                        :  DIST FSL TEXT
 DMF .             Drill Floor:  DRILL MEAS FROM
 STIM.      13.47.44 07-Jun-20:  START TIME
 DATE.      13.47.44 27-Jul-20:  END TIME
 SPUD.               07-Jun-20:  SPUD DATE
 NREF.                    Grid:  NORTH REFERENCE
 HPTY.       Minimum Curvature:  HOLE POS TYPE
 DMOD.             Drill Model:  DRILL MOD DESC
 SVYD.                  Survey:  SURVEY DESC
 ILTD.               Lithology:  INTERP LTH DESC
 FTOP.          Formation Tops:  FORM TOPS DESC
 RIG .             West Chirag:  RIG NAME
 PDAT.          Mean Sea Level:  PERMANENT DATUM
 FLD .                     ACG:  FIELD NAME
 SON .        AZ-XX-0906363612:  JOB NUMBER
 CTRY.              Azerbaijan:  COUNTRY NAME
 WELL.           J25 (Slot 35):  WELL NAME
 SRVC.          Turan Drilling:  CONTRACTOR
 COMP.     BP Exploration (Caspian Sea) Ltd:  COMPANY
 UWI .                     N/A:  UNIQUE WELL IDENTIFIER
 API .                     N/A:  API NUMBER
 BASE.              Azerbaijan:  LOGGING EQUIPMENT BASE LOCATION
 REGN.                   EESSA:  REGION
 PROV.                    Baku:  PROVINCE
 STAT.                    Baku:  STATE NAME
 MWDS.                     N/A:  MWD SHOP
 DOE .                     N/A:  DOE NUMBER
 DCON.         Sperry Drilling:  DIRECTNL CONTR
 UNIT.                     N/A:  LOGGING EQUIPMENT ID
 MDS .        Operator Entered:  MAG DATA SOURCE
 JOBN.        AZ-XX-0906363612:  JOB TICKET NUMB
 WTYP.                Deviated:  WELL TYPE
 CNTY.                        :  COUNTY
 LOC .                        :  LOCATION
 LMF .             Drill Floor:  LOG MEASURED FROM
 TVDS.m                  43.00:  TVDSS CORRECTN
 LATI.deg                40.13:  LATITUDE
 LONG.deg                51.22:  LONGITUDE
 WHNS.m                  -7.90:  WELL HEAD N/S
 WHEW.m                  -3.35:  WELL HEAD E/W
 UTMX.m              519005.06:  UTM X
 UTMY.m             4443793.85:  UTM Y
 DFWL.m                   0.00:  DISTANCE FWL
 DFSL.m                   0.00:  DISTANCE FSL
 SDEP.m                   0.00:  START DEPTH
 TDD .m                   0.00:  TOTAL DEPTH (DRILLER)
 VSDR.deg               308.97:  VERT SEC DIRECT
 GVFD.g                   1.00:  GRAVITY FIELD
 MFLD.nT              50350.00:  MAGNETIC FIELD
 MDIP.deg                59.62:  MAGNETIC DIP
 MDEC.deg                 6.44:  MAGNETIC DECL
 GRDC.deg                 0.13:  GRID CORRECTION
 AZTC.deg                 6.32:  AZM TOTAL CORR
 EPD .m                   0.00:  ELEVATION
 EGL .m                   0.00:  GROUND ELEVATION
 WDMS.m                 169.80:  WD ELEV
 APD .m                  43.00:  DEPTH ABOVE PD
 DEP .m                 356.43:  DEPTH
 AGAP.m                  43.00:  AIR GAP
 VSEW.m                  -3.35:  VERT SEC E/W
 VSNS.m                  -7.90:  VERT SEC N/S
 EKB .m                  43.00:  KB ELEVATION
 EDF .m                  43.00:  DF ELEVATION
 TDL .m                 934.00:  TOTAL DEPTH (LOGGER)
 VSC .                       0:  VS TO CLOSURE
 MAGU.                 1852825:  MAGUTM CHECKSUM
~Parameter Information Block
#MNEM.UNIT       Value        Description
#---------     -----------    ---------------------------
 AV  .mps                 0.80:  Ann Velocity 
 AVMX.mps                 1.70:  Max Ann Veloc 
 AZIF.deg               311.41:  Azm, Final 
 BHAT.        Rotary Steerable:  BHA Type 
 BROT.°/30m               0.09:  Build Rotating 
 BS  .in                 12.25:  Bit Size 
 BSZ .in                 12.25:  Bit Size 
 BTPL.psig              800.00:  Bit Press Loss 
 CABU.                      No:  Customer Abuse 
 COMM.                     ¤'V:  Run Comments 1 
 TCS .hr                 96.00:  Time Ciculation Ended 
 CV  .mps                 2.03:  Crit Velocity 
 CVMX.mps                 2.42:  Max Crit Veloc 
 DD1 .          Taghi Taghiyev:  Direct Drillr 1 
 DD2 .      Tariel Pirmammadov:  Direct Drillr 2 
 DD3 .          Teymur Aghayev:  Direct Drillr 3 
 DDSV.                 iCruise:  DD Service 
 DEFF.%                  98.70:  % Det Eff 
 DLRX.°/30m               1.00:  Dogleg Rot Max 
 DLSO.°/30m               1.80:  Dogleg Oriented 
 DLSX.°/30m               3.16:  Dogleg Str Max 
 DRET.      15.00.00 07-Aug-20:  Drill End Time 
 DRST.      17.00.00 02-Aug-20:  Drill Start Tim 
 DTIM.hr                 45.90:  Time Drilling 
 EDEP.m                5298.01:  End Depth 
 ENG1.       Seymur Iskandarov:  Engineer 1 
 ENG2.         Yevgeniy Ulikov:  Engineer 2 
 ENG3.      Artemiy Matviyanov:  Engineer 3 
 ENG4.         Bahruz Mehdiyev:  Engineer 4 
 ETIM.      05.00.00 10-Aug-20:  End Time 
 FLOI.gpm              1150.00:  Flow In 
 FLON.gpm               900.00:  Flow In Min 
 FLOS.cptm                0.00:  Fluid Loss 
 FLOX.gpm              1200.00:  Flow In Max 
 FTRO.     Connectivity, Formation Presure:  FTWD Run Obj 
 HFLO.                      No:  High Flow 
 HPRE.                     Yes:  High Pressure 
 HTEM.                      No:  High Temp 
 HYDO.m                   1.80:  Hydro Offset 
 IFIN.deg                 9.71:  Inc, Final 
 IMAX.deg                63.81:  Inc Max 
 IMIN.deg                 9.53:  Inc Min 
 IMND.m                5075.52:  Inc Min Depth 
 IMXD.m                4367.08:  Inc Max Depth 
 JARR.                      No:  Jarring 
 LETM.      15.00.00 07-Aug-20:  Log End Time 
 LOST.hr                     2:  Lost Rig Time 
 LSTM.      17.00.00 02-Aug-20:  Log Start Time 
 MDCL.ppm             42500.00:  Mud Chlorides 
 MDES.     Inversion Oil/Synthetic:  Mud Desc 
 DFD .sg                  1.46:  Mud Density 
 MDMN.sg                  1.46:  Dens Mud Min 
 MDMX.sg                  1.46:  Dens Mud Max 
 MOIL.                      56:  Run Mud Oil % 
 MOWR.                   70:30:  Run Mud OWR 
 MSND.                     0.1:  Run Mud Sand % 
 MSOL.                      19:  Run Mud Solids% 
 DFV .spqt               83.00:  Mud Viscosity 
 MWOD.in                  8.00:  MWD Tool OD 
 MWSI.                     Yes:  Serv Intrp, MWD 
 OTIM.hr                196.57:  Time Operating 
 PCON.           Look Like New:  Pad Condition 
 PMAX.psia             7400.00:  Press Op, Max 
 PV  .cP                 36.00:  Mud PV 
 RUN .                    1000:  Run Number 
 ROPA.m/hr               25.00:  ROP Avg 
 ROPN.m/hr               10.00:  ROP Min 
 ROPX.m/hr               32.00:  ROP Max 
 RPMA.rpm               120.00:  RPM Surface Avg 
 RPMN.rpm               100.00:  RPM Surface Min 
 RPMX.rpm               140.00:  RPM Surface Max 
 RRUN.                    L504:  Rig Run Number 
 SAZI.deg               308.25:  Azm, Start 
 SDEP.m                4364.01:  Start Depth 
 SIDD.                      No:  Serv Intrp, DD 
 SINC.deg                63.81:  Inc, Start 
 SPPA.psig             5800.00:  SPP Avg 
 SPPN.psig             4200.00:  SPP Min 
 SPPX.psig             5950.00:  SPP Max 
 STIM.      18.00.00 01-Aug-20:  Start Time 
 SVCS.                 DD, MWD:  Services 
 SVER.                    9.20:  Sperry Version 
 TDAT.m                 934.00:  Tot Depth Attmp 
 TDDF.                      No:  Trip for DD 
 TDLG.m                 934.00:  Tot Depth Loggd 
 TFF .                      No:  Trip for Fail 
 TQAA.f-kp               31.00:  Torque Abs Avg 
 TQAN.f-kp               25.00:  Torque Abs Min 
 TQAX.f-kp               35.00:  Torque Abs Max 
 TRRT.°/30m              -0.75:  Turn Rotating 
 MRT .                  EWR-M5:  Maximum Recorded Temperature 
 TTMX.degC               95.00:  Max Tool Temp 
 VS01.                90516060:  Virtual Str1 SN 
 VS02.                90528488:  Virtual Str2 SN 
 VS03.                90577970:  Virtual Str3 SN 
 VS04.                12385033:  Virtual Str4 SN 
 VS05.                90522069:  Virtual Str5 SN 
 VS06.                13124134:  Virtual Str6 SN 
 WBMN.klb                20.00:  WOB Min 
 WITN.         Alistair Sprott:  Customer Rep 
 WITN.     Ronal van der Kraan:  Customer Rep 2 
 WOBA.klb                25.00:  WOB Avg 
 WOBX.klb                31.00:  WOB Max 
 YP  .lhf2               32.00:  Yield Point 
~Curve Information Block
#MNEM.UNIT                 API CODE     Curve Description
#---------               -----------    ---------------------------
 TIME.HHMMSS            00 000 000 000:  GT Time & Date
 GTDEPTH.m              00 000 000 000:  GT Depth
 GTPQH.psia             00 000 000 000:  GT HR Quartz Pressure
 GTTQ.degC              00 000 000 000:  GT Quartz Temperature
 GTTN.NONE              00 000 000 000:  GT Test Number
 GTET.sec               00 000 000 000:  GT Elapsed Test Time
 GTTVD.m                00 000 000 000:  GT True Vertical Depth
#Other Information
#
#WARRANTY: Halliburton will use its best efforts to furnish customers with 
#accurate information and interpretations that are part of, and incident to, the services 
#provided.  However, Halliburton cannot and does not warrant the accuracy 
#or correctness of such information and interpretations.  Under no circumstances should any 
#such information or interpretation be relied upon as the sole basis for any drilling, 
#completion, production, or financial decision or any procedure involving any risk to the 
#safety of any drilling venture, drilling rig or its crew or any other third party.  The 
#Customer has full responsibility for all drilling, completion and production operation.  
#Halliburton makes no representations or warranties, either expressed or 
#implied, including, but not limited to, the implied warranties of merchantability or fitness 
#for a particular purpose, with respect to the services rendered.  In no event will 
#Halliburton be liable for failure to obtain any particular results or for 
#any damages, including, but not limited to, indirect, special or consequential damages, 
#resulting from the use of any information or interpretation provided by Halliburton.
#
~A           TIME           GTDEPTH  GTPQH  GTTQ  GTTN  GTET   GTTVD  
# ...
   05:53:28.824.08-Aug-2020 5190.42 6316.67 82.95 3.00 137.93 3375.81
   05:53:29.024.08-Aug-2020 5190.42 6316.67 82.95 3.00 138.13 3375.81
   05:53:29.224.08-Aug-2020 5190.42 6319.75 82.95 3.00 138.33 3375.81
   05:53:29.424.08-Aug-2020 5190.42 6321.01 82.95 3.00 138.53 3375.81
   05:53:29.623.08-Aug-2020 5190.42 6322.54 82.95 3.00 138.73 3375.81
   05:53:29.823.08-Aug-2020 5190.42 6323.53 82.95 3.00 138.93 3375.81
   05:53:30.023.08-Aug-2020 5190.42 6323.53 82.95 3.00 139.13 3375.81
   05:53:30.223.08-Aug-2020 5190.42 6326.53 82.95 3.00 139.33 3375.81
   05:53:30.423.08-Aug-2020 5190.42 6327.24 82.95 3.00 139.53 3375.81
   05:53:30.623.08-Aug-2020 5190.42 6328.23 82.95 3.00 139.73 3375.81
   05:53:30.823.08-Aug-2020 5190.42 6329.74 82.95 3.00 139.93 3375.81
   05:53:31.023.08-Aug-2020 5190.42 6329.74 82.95 3.00 140.13 3375.81
   05:53:31.223.08-Aug-2020 5190.42 6332.20 82.95 3.00 140.33 3375.81
   05:53:31.423.08-Aug-2020 5190.42 6333.36 82.95 3.00 140.53 3375.81
   05:53:31.622.08-Aug-2020 5190.42 6334.49 82.95 3.00 140.73 3375.81
   05:53:31.822.08-Aug-2020 5190.42 6335.31 82.95 3.00 140.93 3375.81
   05:53:32.022.08-Aug-2020 5190.42 6335.31 82.95 3.00 141.13 3375.81
   05:53:32.222.08-Aug-2020 5190.42 6337.80 82.95 3.00 141.33 3375.81
   05:53:32.422.08-Aug-2020 5190.42 6338.80 82.94 3.00 141.53 3375.81
   05:53:32.622.08-Aug-2020 5190.42 6340.24 82.94 3.00 141.73 3375.81
   05:53:32.822.08-Aug-2020 5190.42 6341.26 82.94 3.00 141.93 3375.81
   05:53:33.022.08-Aug-2020 5190.42 6341.26 82.94 3.00 142.13 3375.81
   05:53:33.222.08-Aug-2020 5190.42 6343.98 82.94 3.00 142.33 3375.81
   05:53:33.422.08-Aug-2020 5190.42 6344.91 82.94 3.00 142.53 3375.81
   05:53:33.621.08-Aug-2020 5190.42 6345.99 82.94 3.00 142.73 3375.81
   05:53:33.821.08-Aug-2020 5190.42 6346.97 82.94 3.00 142.93 3375.81
   05:53:34.021.08-Aug-2020 5190.42 6346.97 82.94 3.00 143.13 3375.81
   05:53:34.221.08-Aug-2020 5190.42 6349.56 82.94 3.00 143.33 3375.81
   05:53:34.421.08-Aug-2020 5190.42 6350.65 82.94 3.00 143.53 3375.81
   05:53:34.621.08-Aug-2020 5190.42 6351.64 82.94 3.00 143.73 3375.81
   05:53:34.821.08-Aug-2020 5190.42 6352.83 82.94 3.00 143.93 3375.81
   05:53:35.021.08-Aug-2020 5190.42 6352.83 82.94 3.00 144.13 3375.81
   05:53:35.221.08-Aug-2020 5190.42 6354.45 82.94 3.00 144.33 3375.81
   05:53:35.420.08-Aug-2020 5190.42 6355.21 82.94 3.00 144.53 3375.81
   05:53:35.620.08-Aug-2020 5190.42 6356.62 82.94 3.00 144.73 3375.81
   05:53:35.820.08-Aug-2020 5190.42 6357.75 82.94 3.00 144.93 3375.81
   05:53:36.020.08-Aug-2020 5190.42 6357.75 82.94 3.00 145.13 3375.81
   05:53:36.220.08-Aug-2020 5190.42 6360.00 82.94 3.00 145.33 3375.81
   05:53:36.420.08-Aug-2020 5190.42 6361.00 82.94 3.00 145.53 3375.81
   05:53:36.620.08-Aug-2020 5190.42 6362.18 82.94 3.00 145.73 3375.81
   05:53:36.820.08-Aug-2020 5190.42 6363.39 82.94 3.00 145.93 3375.81
   05:53:37.020.08-Aug-2020 5190.42 6363.39 82.94 3.00 146.13 3375.81
   05:53:37.220.08-Aug-2020 5190.42 6365.20 82.94 3.00 146.33 3375.81
   05:53:37.419.08-Aug-2020 5190.42 6366.00 82.94 3.00 146.53 3375.81
   05:53:37.619.08-Aug-2020 5190.42 6366.82 82.93 3.00 146.73 3375.81
   05:53:37.819.08-Aug-2020 5190.42 6368.12 82.93 3.00 146.93 3375.81
   05:53:38.019.08-Aug-2020 5190.42 6368.95 82.93 3.00 147.13 3375.81
   05:53:38.219.08-Aug-2020 5190.42 6369.78 82.93 3.00 147.32 3375.81
   05:53:38.419.08-Aug-2020 5190.42 6370.00 82.93 3.00 147.52 3375.81
   05:53:38.619.08-Aug-2020 5190.42 6370.34 82.93 3.00 147.72 3375.81
   05:53:38.819.08-Aug-2020 5190.42 6371.71 82.93 3.00 147.92 3375.81
   05:53:39.019.08-Aug-2020 5190.42 6371.71 82.93 3.00 148.12 3375.81
   05:53:39.219.08-Aug-2020 5190.42 6373.42 82.93 3.00 148.32 3375.81
   05:53:39.418.08-Aug-2020 5190.42 6374.58 82.93 3.00 148.52 3375.81
   05:53:39.618.08-Aug-2020 5190.42 6375.63 82.93 3.00 148.72 3375.81
   05:53:39.818.08-Aug-2020 5190.42 6376.84 82.93 3.00 148.92 3375.81
   05:53:40.018.08-Aug-2020 5190.42 6376.84 82.93 3.00 149.12 3375.81
   05:53:40.218.08-Aug-2020 5190.42 6378.56 82.93 3.00 149.32 3375.81
   05:53:40.418.08-Aug-2020 5190.42 6379.44 82.93 3.00 149.52 3375.81
   05:53:40.618.08-Aug-2020 5190.42 6380.94 82.93 3.00 149.72 3375.81
   05:53:40.818.08-Aug-2020 5190.42 6381.76 82.93 3.00 149.92 3375.81
   05:53:41.018.08-Aug-2020 5190.42 6381.76 82.93 3.00 150.12 3375.81
   05:53:41.218.08-Aug-2020 5190.42 6383.26 82.93 3.00 150.32 3375.81
   05:53:41.417.08-Aug-2020 5190.42 6384.54 82.93 3.00 150.52 3375.81
   05:53:41.617.08-Aug-2020 5190.42 6385.84 82.93 3.00 150.72 3375.81
   05:53:41.817.08-Aug-2020 5190.42 6386.58 82.93 3.00 150.92 3375.81
   05:53:42.017.08-Aug-2020 5190.42 6386.58 82.93 3.00 151.12 3375.81
   05:53:42.217.08-Aug-2020 5190.42 6388.16 82.93 3.00 151.32 3375.81
   05:53:42.417.08-Aug-2020 5190.42 6388.90 82.92 3.00 151.52 3375.81
   05:53:42.617.08-Aug-2020 5190.42 6389.85 82.92 3.00 151.72 3375.81
   05:53:42.817.08-Aug-2020 5190.42 6390.79 82.92 3.00 151.92 3375.81
   05:53:43.017.08-Aug-2020 5190.42 6390.79 82.92 3.00 152.12 3375.81
   05:53:43.217.08-Aug-2020 5190.42 6392.92 82.92 3.00 152.32 3375.81
   05:53:43.416.08-Aug-2020 5190.42 6394.06 82.92 3.00 152.52 3375.81
   05:53:43.616.08-Aug-2020 5190.42 6395.18 82.92 3.00 152.72 3375.81
   05:53:43.816.08-Aug-2020 5190.42 6396.29 82.92 3.00 152.92 3375.81
   05:53:44.016.08-Aug-2020 5190.42 6396.29 82.92 3.00 153.12 3375.81
   05:53:44.216.08-Aug-2020 5190.42 6397.97 82.92 3.00 153.32 3375.81
   05:53:44.416.08-Aug-2020 5190.42 6398.74 82.92 3.00 153.52 3375.81
   05:53:44.616.08-Aug-2020 5190.42 6399.31 82.92 3.00 153.72 3375.81
   05:53:44.816.08-Aug-2020 5190.42 6400.24 82.92 3.00 153.92 3375.81
   05:53:45.016.08-Aug-2020 5190.42 6400.24 82.92 3.00 154.12 3375.81
   05:53:45.216.08-Aug-2020 5190.42 6402.21 82.92 3.00 154.32 3375.81
   05:53:45.415.08-Aug-2020 5190.42 6403.00 82.92 3.00 154.52 3375.81
   05:53:45.615.08-Aug-2020 5190.42 6403.55 82.92 3.00 154.72 3375.81
   05:53:45.815.08-Aug-2020 5190.42 6404.25 82.92 3.00 154.92 3375.81
   05:53:46.015.08-Aug-2020 5190.42 6404.25 82.92 3.00 155.12 3375.81
   05:53:46.215.08-Aug-2020 5190.42 6406.13 82.92 3.00 155.32 3375.81
   05:53:46.415.08-Aug-2020 5190.42 6407.07 82.92 3.00 155.52 3375.81
   05:53:46.615.08-Aug-2020 5190.42 6408.05 82.92 3.00 155.72 3375.81
   05:53:46.815.08-Aug-2020 5190.42 6409.28 82.92 3.00 155.92 3375.81
   05:53:47.015.08-Aug-2020 5190.42 6409.90 82.92 3.00 156.12 3375.81
   05:53:47.214.08-Aug-2020 5190.42 6410.69 82.92 3.00 156.32 3375.81
   05:53:47.414.08-Aug-2020 5190.42 6411.74 82.92 3.00 156.52 3375.81
   05:53:47.614.08-Aug-2020 5190.42 6412.45 82.91 3.00 156.72 3375.81
   05:53:47.814.08-Aug-2020 5190.42 6413.33 82.91 3.00 156.92 3375.81
   05:53:48.014.08-Aug-2020 5190.42 6413.33 82.91 3.00 157.12 3375.81
   05:53:48.214.08-Aug-2020 5190.42 6414.75 82.91 3.00 157.32 3375.81
   05:53:48.414.08-Aug-2020 5190.42 6415.08 82.91 3.00 157.52 3375.81
   05:53:48.614.08-Aug-2020 5190.42 6415.28 82.91 3.00 157.72 3375.81
   05:53:48.814.08-Aug-2020 5190.42 6416.39 82.91 3.00 157.92 3375.81
   05:53:49.014.08-Aug-2020 5190.42 6416.39 82.91 3.00 158.12 3375.81
   05:53:49.213.08-Aug-2020 5190.42 6417.79 82.91 3.00 158.32 3375.81
   05:53:49.413.08-Aug-2020 5190.42 6418.50 82.91 3.00 158.52 3375.81
   05:53:49.613.08-Aug-2020 5190.42 6419.51 82.91 3.00 158.72 3375.81
   05:53:49.813.08-Aug-2020 5190.42 6420.15 82.91 3.00 158.92 3375.81
   05:53:50.013.08-Aug-2020 5190.42 6420.15 82.91 3.00 159.12 3375.81
   05:53:50.213.08-Aug-2020 5190.42 6422.25 82.91 3.00 159.32 3375.81
   05:53:50.413.08-Aug-2020 5190.42 6422.89 82.91 3.00 159.52 3375.81
   05:53:50.613.08-Aug-2020 5190.42 6423.81 82.91 3.00 159.72 3375.81
   05:53:50.813.08-Aug-2020 5190.42 6423.91 82.91 3.00 159.92 3375.81
   05:53:51.013.08-Aug-2020 5190.42 6423.91 82.91 3.00 160.12 3375.81
   05:53:51.212.08-Aug-2020 5190.42 6426.00 82.91 3.00 160.32 3375.81
   05:53:51.412.08-Aug-2020 5190.42 6426.69 82.91 3.00 160.52 3375.81
   05:53:51.612.08-Aug-2020 5190.42 6427.60 82.91 3.00 160.72 3375.81
