~Version Information
 VERS.                  2.0:   CWLS log ASCII Standard -VERSION 2.0
 WRAP.                   NO:   One line per depth step
~Well Information Block
#MNEM.UNIT     VALUE/NAME     DESCRIPTION
#---------     -----------    ---------------------------
 STRT.S             08:27:32 08-Aug-20: START TIME 08:27:32 08-Aug-20
 STOP.S             08:36:05 08-Aug-20: STOP TIME  08:36:05 08-Aug-20
 STEP.S                   0.00: STEP TIME
 NULL.                 -999.25: NULL VALUE
 DFWT.                        :  DIST FWL TEXT
 DFST.                        :  DIST FSL TEXT
 DMF .             Drill Floor:  DRILL MEAS FROM
 STIM.      13.47.44 07-Jun-20:  START TIME
 DATE.      13.47.44 27-Jul-20:  END TIME
 SPUD.               07-Jun-20:  SPUD DATE
 NREF.                    Grid:  NORTH REFERENCE
 HPTY.       Minimum Curvature:  HOLE POS TYPE
 DMOD.             Drill Model:  DRILL MOD DESC
 SVYD.                  Survey:  SURVEY DESC
 ILTD.               Lithology:  INTERP LTH DESC
 FTOP.          Formation Tops:  FORM TOPS DESC
 RIG .             West Chirag:  RIG NAME
 PDAT.          Mean Sea Level:  PERMANENT DATUM
 FLD .                     ACG:  FIELD NAME
 SON .        AZ-XX-0906363612:  JOB NUMBER
 CTRY.              Azerbaijan:  COUNTRY NAME
 WELL.           J25 (Slot 35):  WELL NAME
 SRVC.          Turan Drilling:  CONTRACTOR
 COMP.     BP Exploration (Caspian Sea) Ltd:  COMPANY
 UWI .                     N/A:  UNIQUE WELL IDENTIFIER
 API .                     N/A:  API NUMBER
 BASE.              Azerbaijan:  LOGGING EQUIPMENT BASE LOCATION
 REGN.                   EESSA:  REGION
 PROV.                    Baku:  PROVINCE
 STAT.                    Baku:  STATE NAME
 MWDS.                     N/A:  MWD SHOP
 DOE .                     N/A:  DOE NUMBER
 DCON.         Sperry Drilling:  DIRECTNL CONTR
 UNIT.                     N/A:  LOGGING EQUIPMENT ID
 MDS .        Operator Entered:  MAG DATA SOURCE
 JOBN.        AZ-XX-0906363612:  JOB TICKET NUMB
 WTYP.                Deviated:  WELL TYPE
 CNTY.                        :  COUNTY
 LOC .                        :  LOCATION
 LMF .             Drill Floor:  LOG MEASURED FROM
 TVDS.m                  43.00:  TVDSS CORRECTN
 LATI.deg                40.13:  LATITUDE
 LONG.deg                51.22:  LONGITUDE
 WHNS.m                  -7.90:  WELL HEAD N/S
 WHEW.m                  -3.35:  WELL HEAD E/W
 UTMX.m              519005.06:  UTM X
 UTMY.m             4443793.85:  UTM Y
 DFWL.m                   0.00:  DISTANCE FWL
 DFSL.m                   0.00:  DISTANCE FSL
 SDEP.m                   0.00:  START DEPTH
 TDD .m                   0.00:  TOTAL DEPTH (DRILLER)
 VSDR.deg               308.97:  VERT SEC DIRECT
 GVFD.g                   1.00:  GRAVITY FIELD
 MFLD.nT              50350.00:  MAGNETIC FIELD
 MDIP.deg                59.62:  MAGNETIC DIP
 MDEC.deg                 6.44:  MAGNETIC DECL
 GRDC.deg                 0.13:  GRID CORRECTION
 AZTC.deg                 6.32:  AZM TOTAL CORR
 EPD .m                   0.00:  ELEVATION
 EGL .m                   0.00:  GROUND ELEVATION
 WDMS.m                 169.80:  WD ELEV
 APD .m                  43.00:  DEPTH ABOVE PD
 DEP .m                 356.43:  DEPTH
 AGAP.m                  43.00:  AIR GAP
 VSEW.m                  -3.35:  VERT SEC E/W
 VSNS.m                  -7.90:  VERT SEC N/S
 EKB .m                  43.00:  KB ELEVATION
 EDF .m                  43.00:  DF ELEVATION
 TDL .m                 934.00:  TOTAL DEPTH (LOGGER)
 VSC .                       0:  VS TO CLOSURE
 MAGU.                 1852825:  MAGUTM CHECKSUM
~Parameter Information Block
#MNEM.UNIT       Value        Description
#---------     -----------    ---------------------------
 AV  .mps                 0.80:  Ann Velocity 
 AVMX.mps                 1.70:  Max Ann Veloc 
 AZIF.deg               311.41:  Azm, Final 
 BHAT.        Rotary Steerable:  BHA Type 
 BROT.°/30m               0.09:  Build Rotating 
 BS  .in                 12.25:  Bit Size 
 BSZ .in                 12.25:  Bit Size 
 BTPL.psig              800.00:  Bit Press Loss 
 CABU.                      No:  Customer Abuse 
 COMM.                     ¼’n:  Run Comments 1 
 TCS .hr                 96.00:  Time Ciculation Ended 
 CV  .mps                 2.03:  Crit Velocity 
 CVMX.mps                 2.42:  Max Crit Veloc 
 DD1 .          Taghi Taghiyev:  Direct Drillr 1 
 DD2 .      Tariel Pirmammadov:  Direct Drillr 2 
 DD3 .          Teymur Aghayev:  Direct Drillr 3 
 DDSV.                 iCruise:  DD Service 
 DEFF.%                  98.70:  % Det Eff 
 DLRX.°/30m               1.00:  Dogleg Rot Max 
 DLSO.°/30m               1.80:  Dogleg Oriented 
 DLSX.°/30m               3.16:  Dogleg Str Max 
 DRET.      15.00.00 07-Aug-20:  Drill End Time 
 DRST.      17.00.00 02-Aug-20:  Drill Start Tim 
 DTIM.hr                 45.90:  Time Drilling 
 EDEP.m                5298.01:  End Depth 
 ENG1.       Seymur Iskandarov:  Engineer 1 
 ENG2.         Yevgeniy Ulikov:  Engineer 2 
 ENG3.      Artemiy Matviyanov:  Engineer 3 
 ENG4.         Bahruz Mehdiyev:  Engineer 4 
 ETIM.      05.00.00 10-Aug-20:  End Time 
 FLOI.gpm              1150.00:  Flow In 
 FLON.gpm               900.00:  Flow In Min 
 FLOS.cptm                0.00:  Fluid Loss 
 FLOX.gpm              1200.00:  Flow In Max 
 FTRO.     Connectivity, Formation Presure:  FTWD Run Obj 
 HFLO.                      No:  High Flow 
 HPRE.                     Yes:  High Pressure 
 HTEM.                      No:  High Temp 
 HYDO.m                   1.80:  Hydro Offset 
 IFIN.deg                 9.71:  Inc, Final 
 IMAX.deg                63.81:  Inc Max 
 IMIN.deg                 9.53:  Inc Min 
 IMND.m                5075.52:  Inc Min Depth 
 IMXD.m                4367.08:  Inc Max Depth 
 JARR.                      No:  Jarring 
 LETM.      15.00.00 07-Aug-20:  Log End Time 
 LOST.hr                     2:  Lost Rig Time 
 LSTM.      17.00.00 02-Aug-20:  Log Start Time 
 MDCL.ppm             42500.00:  Mud Chlorides 
 MDES.     Inversion Oil/Synthetic:  Mud Desc 
 DFD .sg                  1.46:  Mud Density 
 MDMN.sg                  1.46:  Dens Mud Min 
 MDMX.sg                  1.46:  Dens Mud Max 
 MOIL.                      56:  Run Mud Oil % 
 MOWR.                   70:30:  Run Mud OWR 
 MSND.                     0.1:  Run Mud Sand % 
 MSOL.                      19:  Run Mud Solids% 
 DFV .spqt               83.00:  Mud Viscosity 
 MWOD.in                  8.00:  MWD Tool OD 
 MWSI.                     Yes:  Serv Intrp, MWD 
 OTIM.hr                196.57:  Time Operating 
 PCON.           Look Like New:  Pad Condition 
 PMAX.psia             7400.00:  Press Op, Max 
 PV  .cP                 36.00:  Mud PV 
 RUN .                    1000:  Run Number 
 ROPA.m/hr               25.00:  ROP Avg 
 ROPN.m/hr               10.00:  ROP Min 
 ROPX.m/hr               32.00:  ROP Max 
 RPMA.rpm               120.00:  RPM Surface Avg 
 RPMN.rpm               100.00:  RPM Surface Min 
 RPMX.rpm               140.00:  RPM Surface Max 
 RRUN.                    L504:  Rig Run Number 
 SAZI.deg               308.25:  Azm, Start 
 SDEP.m                4364.01:  Start Depth 
 SIDD.                      No:  Serv Intrp, DD 
 SINC.deg                63.81:  Inc, Start 
 SPPA.psig             5800.00:  SPP Avg 
 SPPN.psig             4200.00:  SPP Min 
 SPPX.psig             5950.00:  SPP Max 
 STIM.      18.00.00 01-Aug-20:  Start Time 
 SVCS.                 DD, MWD:  Services 
 SVER.                    9.20:  Sperry Version 
 TDAT.m                 934.00:  Tot Depth Attmp 
 TDDF.                      No:  Trip for DD 
 TDLG.m                 934.00:  Tot Depth Loggd 
 TFF .                      No:  Trip for Fail 
 TQAA.f-kp               31.00:  Torque Abs Avg 
 TQAN.f-kp               25.00:  Torque Abs Min 
 TQAX.f-kp               35.00:  Torque Abs Max 
 TRRT.°/30m              -0.75:  Turn Rotating 
 MRT .                  EWR-M5:  Maximum Recorded Temperature 
 TTMX.degC               95.00:  Max Tool Temp 
 VS01.                90516060:  Virtual Str1 SN 
 VS02.                90528488:  Virtual Str2 SN 
 VS03.                90577970:  Virtual Str3 SN 
 VS04.                12385033:  Virtual Str4 SN 
 VS05.                90522069:  Virtual Str5 SN 
 VS06.                13124134:  Virtual Str6 SN 
 WBMN.klb                20.00:  WOB Min 
 WITN.         Alistair Sprott:  Customer Rep 
 WITN.     Ronal van der Kraan:  Customer Rep 2 
 WOBA.klb                25.00:  WOB Avg 
 WOBX.klb                31.00:  WOB Max 
 YP  .lhf2               32.00:  Yield Point 
~Curve Information Block
#MNEM.UNIT                 API CODE     Curve Description
#---------               -----------    ---------------------------
 TIME.HHMMSS            00 000 000 000:  GT Time & Date
 GTDEPTH.m              00 000 000 000:  GT Depth
 GTPQH.psia             00 000 000 000:  GT HR Quartz Pressure
 GTTQ.degC              00 000 000 000:  GT Quartz Temperature
 GTTN.NONE              00 000 000 000:  GT Test Number
 GTET.sec               00 000 000 000:  GT Elapsed Test Time
 GTTVD.m                00 000 000 000:  GT True Vertical Depth
#Other Information
#
#WARRANTY: Halliburton will use its best efforts to furnish customers with 
#accurate information and interpretations that are part of, and incident to, the services 
#provided.  However, Halliburton cannot and does not warrant the accuracy 
#or correctness of such information and interpretations.  Under no circumstances should any 
#such information or interpretation be relied upon as the sole basis for any drilling, 
#completion, production, or financial decision or any procedure involving any risk to the 
#safety of any drilling venture, drilling rig or its crew or any other third party.  The 
#Customer has full responsibility for all drilling, completion and production operation.  
#Halliburton makes no representations or warranties, either expressed or 
#implied, including, but not limited to, the implied warranties of merchantability or fitness 
#for a particular purpose, with respect to the services rendered.  In no event will 
#Halliburton be liable for failure to obtain any particular results or for 
#any damages, including, but not limited to, indirect, special or consequential damages, 
#resulting from the use of any information or interpretation provided by Halliburton.
#
~A           TIME           GTDEPTH  GTPQH  GTTQ  GTTN  GTET   GTTVD  
   08:27:32.227.08-Aug-2020 5149.01 7160.92 76.80 6.00   0.00 3335.00
   08:27:32.427.08-Aug-2020 5149.01 7160.92 76.80 6.00   0.20 3335.00
   08:27:32.627.08-Aug-2020 5149.01 7161.92 76.80 6.00   0.40 3335.00
   08:27:32.827.08-Aug-2020 5149.01 7161.65 76.80 6.00   0.60 3335.00
   08:27:33.028.08-Aug-2020 5149.01 7161.43 76.80 6.00   0.80 3335.00
   08:27:33.228.08-Aug-2020 5149.01 7162.21 76.80 6.00   1.00 3335.00
   08:27:33.428.08-Aug-2020 5149.01 7162.21 76.80 6.00   1.20 3335.00
   08:27:33.628.08-Aug-2020 5149.01 7163.57 76.80 6.00   1.40 3335.00
   08:27:33.828.08-Aug-2020 5149.01 7161.85 76.80 6.00   1.60 3335.00
   08:27:34.028.08-Aug-2020 5149.01 7158.87 76.80 6.00   1.80 3335.00
   08:27:34.228.08-Aug-2020 5149.01 7157.48 76.80 6.00   2.00 3335.00
   08:27:34.428.08-Aug-2020 5149.01 7157.48 76.80 6.00   2.20 3335.00
   08:27:34.628.08-Aug-2020 5149.01 7155.70 76.80 6.00   2.40 3335.00
   08:27:34.828.08-Aug-2020 5149.01 7160.25 76.80 6.00   2.60 3335.00
   08:27:35.029.08-Aug-2020 5149.01 7152.36 76.80 6.00   2.80 3335.00
   08:27:35.229.08-Aug-2020 5149.01 7154.97 76.80 6.00   3.00 3335.00
   08:27:35.429.08-Aug-2020 5149.01 7154.97 76.80 6.00   3.20 3335.00
   08:27:35.629.08-Aug-2020 5149.01 7161.43 76.80 6.00   3.40 3335.00
   08:27:35.829.08-Aug-2020 5149.01 7155.44 76.80 6.00   3.60 3335.00
   08:27:36.029.08-Aug-2020 5149.01 7160.49 76.80 6.00   3.80 3335.00
   08:27:36.229.08-Aug-2020 5149.01 7160.85 76.80 6.00   4.00 3335.00
   08:27:36.429.08-Aug-2020 5149.01 7160.85 76.80 6.00   4.20 3335.00
   08:27:36.629.08-Aug-2020 5149.01 7162.98 76.80 6.00   4.40 3335.00
   08:27:36.830.08-Aug-2020 5149.01 7167.32 76.80 6.00   4.60 3335.00
   08:27:37.030.08-Aug-2020 5149.01 7169.25 76.80 6.00   4.80 3335.00
   08:27:37.230.08-Aug-2020 5149.01 7175.14 76.80 6.00   5.00 3335.00
   08:27:37.430.08-Aug-2020 5149.01 7169.90 76.80 6.00   5.20 3335.00
   08:27:37.630.08-Aug-2020 5149.01 7172.71 76.80 6.00   5.40 3335.00
   08:27:37.830.08-Aug-2020 5149.01 7173.30 76.80 6.00   5.60 3335.00
   08:27:38.030.08-Aug-2020 5149.01 7176.00 76.80 6.00   5.80 3335.00
   08:27:38.230.08-Aug-2020 5149.01 7172.80 76.80 6.00   6.00 3335.00
   08:27:38.430.08-Aug-2020 5149.01 7172.80 76.80 6.00   6.20 3335.00
   08:27:38.630.08-Aug-2020 5149.01 7171.92 76.80 6.00   6.40 3335.00
   08:27:38.831.08-Aug-2020 5149.01 7174.42 76.80 6.00   6.60 3335.00
   08:27:39.031.08-Aug-2020 5149.01 7170.97 76.80 6.00   6.80 3335.00
   08:27:39.231.08-Aug-2020 5149.01 7171.70 76.80 6.00   7.00 3335.00
   08:27:39.431.08-Aug-2020 5149.01 7171.70 76.80 6.00   7.20 3335.00
   08:27:39.631.08-Aug-2020 5149.01 7174.61 76.80 6.00   7.40 3335.00
   08:27:39.831.08-Aug-2020 5149.01 7170.04 76.80 6.00   7.60 3335.00
   08:27:40.031.08-Aug-2020 5149.01 7171.59 76.80 6.00   7.80 3335.00
   08:27:40.231.08-Aug-2020 5149.01 7171.48 76.80 6.00   8.00 3335.00
   08:27:40.431.08-Aug-2020 5149.01 7171.48 76.80 6.00   8.20 3335.00
   08:27:40.632.08-Aug-2020 5149.01 7170.45 76.80 6.00   8.40 3335.00
   08:27:40.832.08-Aug-2020 5149.01 7173.48 76.80 6.00   8.60 3335.00
   08:27:41.032.08-Aug-2020 5149.01 7170.53 76.80 6.00   8.80 3335.00
   08:27:41.232.08-Aug-2020 5149.01 7172.38 76.80 6.00   9.00 3335.00
   08:27:41.432.08-Aug-2020 5149.01 7172.38 76.80 6.00   9.20 3335.00
   08:27:41.632.08-Aug-2020 5149.01 7169.62 76.80 6.00   9.40 3335.00
   08:27:41.832.08-Aug-2020 5149.01 7170.97 76.80 6.00   9.61 3335.00
   08:27:42.032.08-Aug-2020 5149.01 7170.28 76.80 6.00   9.81 3335.00
   08:27:42.232.08-Aug-2020 5149.01 7170.24 76.80 6.00  10.01 3335.00
   08:27:42.432.08-Aug-2020 5149.01 7170.24 76.80 6.00  10.21 3335.00
   08:27:42.633.08-Aug-2020 5149.01 7169.95 76.80 6.00  10.41 3335.00
   08:27:42.833.08-Aug-2020 5149.01 7170.01 76.80 6.00  10.61 3335.00
   08:27:43.033.08-Aug-2020 5149.01 7170.94 76.80 6.00  10.81 3335.00
   08:27:43.233.08-Aug-2020 5149.01 7170.71 76.80 6.00  11.01 3335.00
   08:27:43.433.08-Aug-2020 5149.01 7170.71 76.80 6.00  11.21 3335.00
   08:27:43.633.08-Aug-2020 5149.01 7170.58 76.80 6.00  11.41 3335.00
   08:27:43.833.08-Aug-2020 5149.01 7170.26 76.80 6.00  11.61 3335.00
   08:27:44.033.08-Aug-2020 5149.01 7170.05 76.80 6.00  11.81 3335.00
   08:27:44.233.08-Aug-2020 5149.01 7173.34 76.80 6.00  12.01 3335.00
   08:27:44.434.08-Aug-2020 5149.01 7173.34 76.80 6.00  12.21 3335.00
   08:27:44.634.08-Aug-2020 5149.01 7171.21 76.80 6.00  12.41 3335.00
   08:27:44.834.08-Aug-2020 5149.01 7169.71 76.80 6.00  12.61 3335.00
   08:27:45.034.08-Aug-2020 5149.01 7169.30 76.80 6.00  12.81 3335.00
   08:27:45.234.08-Aug-2020 5149.01 7169.75 76.80 6.00  13.01 3335.00
   08:27:45.434.08-Aug-2020 5149.01 7169.75 76.80 6.00  13.21 3335.00
   08:27:45.634.08-Aug-2020 5149.01 7170.92 76.80 6.00  13.41 3335.00
   08:27:45.834.08-Aug-2020 5149.01 7171.46 76.80 6.00  13.61 3335.00
   08:27:46.034.08-Aug-2020 5149.01 7171.42 76.80 6.00  13.81 3335.00
   08:27:46.235.08-Aug-2020 5149.01 7172.00 76.80 6.00  14.01 3335.00
   08:27:46.435.08-Aug-2020 5149.01 7172.00 76.80 6.00  14.21 3335.00
   08:27:46.635.08-Aug-2020 5149.01 7173.39 76.80 6.00  14.41 3335.00
   08:27:46.835.08-Aug-2020 5149.01 7173.24 76.80 6.00  14.61 3335.00
   08:27:47.035.08-Aug-2020 5149.01 7173.04 76.80 6.00  14.81 3335.00
   08:27:47.235.08-Aug-2020 5149.01 7172.74 76.80 6.00  15.01 3335.00
   08:27:47.435.08-Aug-2020 5149.01 7172.74 76.80 6.00  15.21 3335.00
   08:27:47.635.08-Aug-2020 5149.01 7174.95 76.80 6.00  15.41 3335.00
   08:27:47.835.08-Aug-2020 5149.01 7172.09 76.80 6.00  15.61 3335.00
   08:27:48.035.08-Aug-2020 5149.01 7171.52 76.80 6.00  15.81 3335.00
   08:27:48.236.08-Aug-2020 5149.01 7169.77 76.80 6.00  16.01 3335.00
   08:27:48.436.08-Aug-2020 5149.01 7169.77 76.80 6.00  16.21 3335.00
   08:27:48.636.08-Aug-2020 5149.01 7172.44 76.80 6.00  16.41 3335.00
   08:27:48.836.08-Aug-2020 5149.01 7167.66 76.80 6.00  16.61 3335.00
   08:27:49.036.08-Aug-2020 5149.01 7169.45 76.80 6.00  16.81 3335.00
   08:27:49.236.08-Aug-2020 5149.01 7166.31 76.80 6.00  17.01 3335.00
   08:27:49.436.08-Aug-2020 5149.01 7166.31 76.80 6.00  17.21 3335.00
   08:27:49.636.08-Aug-2020 5149.01 7166.21 76.80 6.00  17.41 3335.00
   08:27:49.836.08-Aug-2020 5149.01 7169.42 76.80 6.00  17.61 3335.00
   08:27:50.037.08-Aug-2020 5149.01 7168.57 76.80 6.00  17.81 3335.00
   08:27:50.237.08-Aug-2020 5149.01 7165.83 76.80 6.00  18.01 3335.00
   08:27:50.437.08-Aug-2020 5149.01 7165.83 76.80 6.00  18.21 3335.00
   08:27:50.637.08-Aug-2020 5149.01 7164.68 76.80 6.00  18.41 3335.00
   08:27:50.837.08-Aug-2020 5149.01 7168.95 76.80 6.00  18.61 3335.00
   08:27:51.037.08-Aug-2020 5149.01 7167.62 76.80 6.00  18.81 3335.00
   08:27:51.237.08-Aug-2020 5149.01 7165.50 76.80 6.00  19.01 3335.00
   08:27:51.437.08-Aug-2020 5149.01 7165.50 76.80 6.00  19.21 3335.00
   08:27:51.637.08-Aug-2020 5149.01 7165.78 76.80 6.00  19.41 3335.00
   08:27:51.837.08-Aug-2020 5149.01 7166.40 76.80 6.00  19.61 3335.00
   08:27:52.038.08-Aug-2020 5149.01 7165.11 76.80 6.00  19.81 3335.00
   08:27:52.238.08-Aug-2020 5149.01 7165.24 76.80 6.00  20.01 3335.00
   08:27:52.438.08-Aug-2020 5149.01 7165.24 76.80 6.00  20.21 3335.00
   08:27:52.638.08-Aug-2020 5149.01 7168.85 76.80 6.00  20.41 3335.00
   08:27:52.838.08-Aug-2020 5149.01 7165.07 76.80 6.00  20.61 3335.00
   08:27:53.038.08-Aug-2020 5149.01 7166.35 76.80 6.00  20.81 3335.00
   08:27:53.238.08-Aug-2020 5149.01 7166.47 76.80 6.00  21.01 3335.00
   08:27:53.438.08-Aug-2020 5149.01 7166.47 76.80 6.00  21.21 3335.00
   08:27:53.638.08-Aug-2020 5149.01 7166.12 76.80 6.00  21.41 3335.00
   08:27:53.839.08-Aug-2020 5149.01 7165.40 76.80 6.00  21.61 3335.00
   08:27:54.039.08-Aug-2020 5149.01 7165.36 76.80 6.00  21.81 3335.00
   08:27:54.239.08-Aug-2020 5149.01 7165.42 76.80 6.00  22.01 3335.00
   08:27:54.439.08-Aug-2020 5149.01 7165.42 76.80 6.00  22.21 3335.00
   08:27:54.639.08-Aug-2020 5149.01 7165.00 76.80 6.00  22.41 3335.00
   08:27:54.839.08-Aug-2020 5149.01 7165.87 76.80 6.00  22.61 3335.00
   08:27:55.039.08-Aug-2020 5149.01 7165.66 76.80 6.00  22.81 3335.00
