~Version Information
 VERS.                  2.0:   CWLS log ASCII Standard -VERSION 2.0
 WRAP.                   NO:   One line per depth step
~Well Information Block
#MNEM.UNIT     VALUE/NAME     DESCRIPTION
#---------     -----------    ---------------------------
 STRT.S             09:23:14 08-Aug-20: START TIME 09:23:14 08-Aug-20
 STOP.S             09:28:51 08-Aug-20: STOP TIME  09:28:51 08-Aug-20
 STEP.S                   0.00: STEP TIME
 NULL.                 -999.25: NULL VALUE
 DFWT.                        :  DIST FWL TEXT
 DFST.                        :  DIST FSL TEXT
 DMF .             Drill Floor:  DRILL MEAS FROM
 STIM.      13.47.44 07-Jun-20:  START TIME
 DATE.      13.47.44 27-Jul-20:  END TIME
 SPUD.               07-Jun-20:  SPUD DATE
 NREF.                    Grid:  NORTH REFERENCE
 HPTY.       Minimum Curvature:  HOLE POS TYPE
 DMOD.             Drill Model:  DRILL MOD DESC
 SVYD.                  Survey:  SURVEY DESC
 ILTD.               Lithology:  INTERP LTH DESC
 FTOP.          Formation Tops:  FORM TOPS DESC
 RIG .             West Chirag:  RIG NAME
 PDAT.          Mean Sea Level:  PERMANENT DATUM
 FLD .                     ACG:  FIELD NAME
 SON .        AZ-XX-0906363612:  JOB NUMBER
 CTRY.              Azerbaijan:  COUNTRY NAME
 WELL.           J25 (Slot 35):  WELL NAME
 SRVC.          Turan Drilling:  CONTRACTOR
 COMP.     BP Exploration (Caspian Sea) Ltd:  COMPANY
 UWI .                     N/A:  UNIQUE WELL IDENTIFIER
 API .                     N/A:  API NUMBER
 BASE.              Azerbaijan:  LOGGING EQUIPMENT BASE LOCATION
 REGN.                   EESSA:  REGION
 PROV.                    Baku:  PROVINCE
 STAT.                    Baku:  STATE NAME
 MWDS.                     N/A:  MWD SHOP
 DOE .                     N/A:  DOE NUMBER
 DCON.         Sperry Drilling:  DIRECTNL CONTR
 UNIT.                     N/A:  LOGGING EQUIPMENT ID
 MDS .        Operator Entered:  MAG DATA SOURCE
 JOBN.        AZ-XX-0906363612:  JOB TICKET NUMB
 WTYP.                Deviated:  WELL TYPE
 CNTY.                        :  COUNTY
 LOC .                        :  LOCATION
 LMF .             Drill Floor:  LOG MEASURED FROM
 TVDS.m                  43.00:  TVDSS CORRECTN
 LATI.deg                40.13:  LATITUDE
 LONG.deg                51.22:  LONGITUDE
 WHNS.m                  -7.90:  WELL HEAD N/S
 WHEW.m                  -3.35:  WELL HEAD E/W
 UTMX.m              519005.06:  UTM X
 UTMY.m             4443793.85:  UTM Y
 DFWL.m                   0.00:  DISTANCE FWL
 DFSL.m                   0.00:  DISTANCE FSL
 SDEP.m                   0.00:  START DEPTH
 TDD .m                   0.00:  TOTAL DEPTH (DRILLER)
 VSDR.deg               308.97:  VERT SEC DIRECT
 GVFD.g                   1.00:  GRAVITY FIELD
 MFLD.nT              50350.00:  MAGNETIC FIELD
 MDIP.deg                59.62:  MAGNETIC DIP
 MDEC.deg                 6.44:  MAGNETIC DECL
 GRDC.deg                 0.13:  GRID CORRECTION
 AZTC.deg                 6.32:  AZM TOTAL CORR
 EPD .m                   0.00:  ELEVATION
 EGL .m                   0.00:  GROUND ELEVATION
 WDMS.m                 169.80:  WD ELEV
 APD .m                  43.00:  DEPTH ABOVE PD
 DEP .m                 356.43:  DEPTH
 AGAP.m                  43.00:  AIR GAP
 VSEW.m                  -3.35:  VERT SEC E/W
 VSNS.m                  -7.90:  VERT SEC N/S
 EKB .m                  43.00:  KB ELEVATION
 EDF .m                  43.00:  DF ELEVATION
 TDL .m                 934.00:  TOTAL DEPTH (LOGGER)
 VSC .                       0:  VS TO CLOSURE
 MAGU.                 1852825:  MAGUTM CHECKSUM
~Parameter Information Block
#MNEM.UNIT       Value        Description
#---------     -----------    ---------------------------
 AV  .mps                 0.80:  Ann Velocity 
 AVMX.mps                 1.70:  Max Ann Veloc 
 AZIF.deg               311.41:  Azm, Final 
 BHAT.        Rotary Steerable:  BHA Type 
 BROT.°/30m               0.09:  Build Rotating 
 BS  .in                 12.25:  Bit Size 
 BSZ .in                 12.25:  Bit Size 
 BTPL.psig              800.00:  Bit Press Loss 
 CABU.                      No:  Customer Abuse 
 TCS .hr                 96.00:  Time Ciculation Ended 
 CV  .mps                 2.03:  Crit Velocity 
 CVMX.mps                 2.42:  Max Crit Veloc 
 DD1 .          Taghi Taghiyev:  Direct Drillr 1 
 DD2 .      Tariel Pirmammadov:  Direct Drillr 2 
 DD3 .          Teymur Aghayev:  Direct Drillr 3 
 DDSV.                 iCruise:  DD Service 
 DEFF.%                  98.70:  % Det Eff 
 DLRX.°/30m               1.00:  Dogleg Rot Max 
 DLSO.°/30m               1.80:  Dogleg Oriented 
 DLSX.°/30m               3.16:  Dogleg Str Max 
 DRET.      15.00.00 07-Aug-20:  Drill End Time 
 DRST.      17.00.00 02-Aug-20:  Drill Start Tim 
 DTIM.hr                 45.90:  Time Drilling 
 EDEP.m                5298.01:  End Depth 
 ENG1.       Seymur Iskandarov:  Engineer 1 
 ENG2.         Yevgeniy Ulikov:  Engineer 2 
 ENG3.      Artemiy Matviyanov:  Engineer 3 
 ENG4.         Bahruz Mehdiyev:  Engineer 4 
 ETIM.      05.00.00 10-Aug-20:  End Time 
 FLOI.gpm              1150.00:  Flow In 
 FLON.gpm               900.00:  Flow In Min 
 FLOS.cptm                0.00:  Fluid Loss 
 FLOX.gpm              1200.00:  Flow In Max 
 FTRO.     Connectivity, Formation Presure:  FTWD Run Obj 
 HFLO.                      No:  High Flow 
 HPRE.                     Yes:  High Pressure 
 HTEM.                      No:  High Temp 
 HYDO.m                   1.80:  Hydro Offset 
 IFIN.deg                 9.71:  Inc, Final 
 IMAX.deg                63.81:  Inc Max 
 IMIN.deg                 9.53:  Inc Min 
 IMND.m                5075.52:  Inc Min Depth 
 IMXD.m                4367.08:  Inc Max Depth 
 JARR.                      No:  Jarring 
 LETM.      15.00.00 07-Aug-20:  Log End Time 
 LOST.hr                     2:  Lost Rig Time 
 LSTM.      17.00.00 02-Aug-20:  Log Start Time 
 MDCL.ppm             42500.00:  Mud Chlorides 
 MDES.     Inversion Oil/Synthetic:  Mud Desc 
 DFD .sg                  1.46:  Mud Density 
 MDMN.sg                  1.46:  Dens Mud Min 
 MDMX.sg                  1.46:  Dens Mud Max 
 MOIL.                      56:  Run Mud Oil % 
 MOWR.                   70:30:  Run Mud OWR 
 MSND.                     0.1:  Run Mud Sand % 
 MSOL.                      19:  Run Mud Solids% 
 DFV .spqt               83.00:  Mud Viscosity 
 MWOD.in                  8.00:  MWD Tool OD 
 MWSI.                     Yes:  Serv Intrp, MWD 
 OTIM.hr                196.57:  Time Operating 
 PCON.           Look Like New:  Pad Condition 
 PMAX.psia             7400.00:  Press Op, Max 
 PV  .cP                 36.00:  Mud PV 
 RUN .                    1000:  Run Number 
 ROPA.m/hr               25.00:  ROP Avg 
 ROPN.m/hr               10.00:  ROP Min 
 ROPX.m/hr               32.00:  ROP Max 
 RPMA.rpm               120.00:  RPM Surface Avg 
 RPMN.rpm               100.00:  RPM Surface Min 
 RPMX.rpm               140.00:  RPM Surface Max 
 RRUN.                    L504:  Rig Run Number 
 SAZI.deg               308.25:  Azm, Start 
 SDEP.m                4364.01:  Start Depth 
 SIDD.                      No:  Serv Intrp, DD 
 SINC.deg                63.81:  Inc, Start 
 SPPA.psig             5800.00:  SPP Avg 
 SPPN.psig             4200.00:  SPP Min 
 SPPX.psig             5950.00:  SPP Max 
 STIM.      18.00.00 01-Aug-20:  Start Time 
 SVCS.                 DD, MWD:  Services 
 SVER.                    9.20:  Sperry Version 
 TDAT.m                 934.00:  Tot Depth Attmp 
 TDDF.                      No:  Trip for DD 
 TDLG.m                 934.00:  Tot Depth Loggd 
 TFF .                      No:  Trip for Fail 
 TQAA.f-kp               31.00:  Torque Abs Avg 
 TQAN.f-kp               25.00:  Torque Abs Min 
 TQAX.f-kp               35.00:  Torque Abs Max 
 TRRT.°/30m              -0.75:  Turn Rotating 
 MRT .                  EWR-M5:  Maximum Recorded Temperature 
 TTMX.degC               95.00:  Max Tool Temp 
 VS01.                90516060:  Virtual Str1 SN 
 VS02.                90528488:  Virtual Str2 SN 
 VS03.                90577970:  Virtual Str3 SN 
 VS04.                12385033:  Virtual Str4 SN 
 VS05.                90522069:  Virtual Str5 SN 
 VS06.                13124134:  Virtual Str6 SN 
 WBMN.klb                20.00:  WOB Min 
 WITN.         Alistair Sprott:  Customer Rep 
 WITN.     Ronal van der Kraan:  Customer Rep 2 
 WOBA.klb                25.00:  WOB Avg 
 WOBX.klb                31.00:  WOB Max 
 YP  .lhf2               32.00:  Yield Point 
~Curve Information Block
#MNEM.UNIT                 API CODE     Curve Description
#---------               -----------    ---------------------------
 TIME.HHMMSS            00 000 000 000:  GT Time & Date
 GTDEPTH.m              00 000 000 000:  GT Depth
 GTPQH.psia             00 000 000 000:  GT HR Quartz Pressure
 GTTQ.degC              00 000 000 000:  GT Quartz Temperature
 GTTN.NONE              00 000 000 000:  GT Test Number
 GTET.sec               00 000 000 000:  GT Elapsed Test Time
 GTTVD.m                00 000 000 000:  GT True Vertical Depth
#Other Information
#
#WARRANTY: Halliburton will use its best efforts to furnish customers with 
#accurate information and interpretations that are part of, and incident to, the services 
#provided.  However, Halliburton cannot and does not warrant the accuracy 
#or correctness of such information and interpretations.  Under no circumstances should any 
#such information or interpretation be relied upon as the sole basis for any drilling, 
#completion, production, or financial decision or any procedure involving any risk to the 
#safety of any drilling venture, drilling rig or its crew or any other third party.  The 
#Customer has full responsibility for all drilling, completion and production operation.  
#Halliburton makes no representations or warranties, either expressed or 
#implied, including, but not limited to, the implied warranties of merchantability or fitness 
#for a particular purpose, with respect to the services rendered.  In no event will 
#Halliburton be liable for failure to obtain any particular results or for 
#any damages, including, but not limited to, indirect, special or consequential damages, 
#resulting from the use of any information or interpretation provided by Halliburton.
#
~A           TIME           GTDEPTH  GTPQH  GTTQ  GTTN  GTET   GTTVD  
# ...
   09:25:56.081.08-Aug-2020 5133.51 4124.52 75.06 8.00 161.09 3319.72
   09:25:56.281.08-Aug-2020 5133.51 4124.52 75.06 8.00 161.29 3319.72
   09:25:56.481.08-Aug-2020 5133.51 4124.85 75.06 8.00 161.49 3319.72
   09:25:56.681.08-Aug-2020 5133.51 4124.70 75.06 8.00 161.69 3319.72
   09:25:56.881.08-Aug-2020 5133.51 4124.34 75.06 8.00 161.89 3319.72
   09:25:57.081.08-Aug-2020 5133.51 4124.97 75.06 8.00 162.09 3319.72
   09:25:57.281.08-Aug-2020 5133.51 4124.97 75.06 8.00 162.29 3319.72
   09:25:57.481.08-Aug-2020 5133.51 4124.90 75.06 8.00 162.49 3319.72
   09:25:57.682.08-Aug-2020 5133.51 4124.53 75.06 8.00 162.69 3319.72
   09:25:57.882.08-Aug-2020 5133.51 4124.71 75.06 8.00 162.89 3319.72
   09:25:58.082.08-Aug-2020 5133.51 4124.84 75.06 8.00 163.09 3319.72
   09:25:58.282.08-Aug-2020 5133.51 4124.74 75.06 8.00 163.29 3319.72
   09:25:58.482.08-Aug-2020 5133.51 4124.36 75.06 8.00 163.49 3319.72
   09:25:58.682.08-Aug-2020 5133.51 4124.98 75.06 8.00 163.69 3319.72
   09:25:58.882.08-Aug-2020 5133.51 4124.75 75.06 8.00 163.89 3319.72
   09:25:59.082.08-Aug-2020 5133.51 4124.89 75.06 8.00 164.09 3319.72
   09:25:59.282.08-Aug-2020 5133.51 4124.89 75.06 8.00 164.29 3319.72
   09:25:59.482.08-Aug-2020 5133.51 4124.86 75.06 8.00 164.49 3319.72
   09:25:59.683.08-Aug-2020 5133.51 4124.83 75.06 8.00 164.69 3319.72
   09:25:59.883.08-Aug-2020 5133.51 4124.87 75.06 8.00 164.89 3319.72
   09:26:00.083.08-Aug-2020 5133.51 4124.92 75.06 8.00 165.09 3319.72
   09:26:00.283.08-Aug-2020 5133.51 4124.92 75.06 8.00 165.29 3319.72
   09:26:00.483.08-Aug-2020 5133.51 4124.89 75.06 8.00 165.49 3319.72
   09:26:00.683.08-Aug-2020 5133.51 4124.87 75.06 8.00 165.69 3319.72
   09:26:00.883.08-Aug-2020 5133.51 4124.93 75.06 8.00 165.89 3319.72
   09:26:01.083.08-Aug-2020 5133.51 4124.89 75.06 8.00 166.09 3319.72
   09:26:01.283.08-Aug-2020 5133.51 4124.89 75.06 8.00 166.29 3319.72
   09:26:01.484.08-Aug-2020 5133.51 4124.91 75.06 8.00 166.49 3319.72
   09:26:01.684.08-Aug-2020 5133.51 4124.82 75.06 8.00 166.69 3319.72
   09:26:01.884.08-Aug-2020 5133.51 4124.40 75.06 8.00 166.89 3319.72
   09:26:02.084.08-Aug-2020 5133.51 4124.93 75.06 8.00 167.09 3319.72
   09:26:02.284.08-Aug-2020 5133.51 4124.79 75.06 8.00 167.29 3319.72
   09:26:02.484.08-Aug-2020 5133.51 4124.89 75.06 8.00 167.49 3319.72
   09:26:02.684.08-Aug-2020 5133.51 4124.82 75.06 8.00 167.69 3319.72
   09:26:02.884.08-Aug-2020 5133.51 4124.91 75.06 8.00 167.89 3319.72
   09:26:03.084.08-Aug-2020 5133.51 4124.87 75.06 8.00 168.09 3319.72
   09:26:03.284.08-Aug-2020 5133.51 4124.87 75.06 8.00 168.29 3319.72
   09:26:03.485.08-Aug-2020 5133.51 4124.90 75.06 8.00 168.49 3319.72
   09:26:03.685.08-Aug-2020 5133.51 4124.91 75.06 8.00 168.69 3319.72
   09:26:03.885.08-Aug-2020 5133.51 4124.88 75.06 8.00 168.89 3319.72
   09:26:04.085.08-Aug-2020 5133.51 4124.90 75.06 8.00 169.09 3319.72
   09:26:04.285.08-Aug-2020 5133.51 4124.90 75.06 8.00 169.29 3319.72
   09:26:04.485.08-Aug-2020 5133.51 4124.91 75.06 8.00 169.49 3319.72
   09:26:04.685.08-Aug-2020 5133.51 4124.89 75.06 8.00 169.69 3319.72
   09:26:04.885.08-Aug-2020 5133.51 4124.85 75.06 8.00 169.89 3319.72
   09:26:05.085.08-Aug-2020 5133.51 4124.46 75.06 8.00 170.09 3319.72
   09:26:05.286.08-Aug-2020 5133.51 4124.46 75.06 8.00 170.29 3319.72
   09:26:05.486.08-Aug-2020 5133.51 4124.70 75.06 8.00 170.49 3319.72
   09:26:05.686.08-Aug-2020 5133.51 4124.61 75.06 8.00 170.69 3319.72
   09:26:05.886.08-Aug-2020 5133.51 4124.91 75.06 8.00 170.89 3319.72
   09:26:06.086.08-Aug-2020 5133.51 4124.83 75.06 8.00 171.09 3319.72
   09:26:06.286.08-Aug-2020 5133.51 4124.83 75.06 8.00 171.29 3319.72
   09:26:06.486.08-Aug-2020 5133.51 4124.66 75.06 8.00 171.49 3319.72
   09:26:06.686.08-Aug-2020 5133.51 4124.88 75.06 8.00 171.69 3319.72
   09:26:06.886.08-Aug-2020 5133.51 4124.85 75.06 8.00 171.89 3319.72
   09:26:07.086.08-Aug-2020 5133.51 4124.82 75.06 8.00 172.09 3319.72
   09:26:07.287.08-Aug-2020 5133.51 4124.82 75.06 8.00 172.29 3319.72
   09:26:07.487.08-Aug-2020 5133.51 4124.91 75.06 8.00 172.49 3319.72
   09:26:07.687.08-Aug-2020 5133.51 4124.84 75.06 8.00 172.69 3319.72
   09:26:07.887.08-Aug-2020 5133.51 4124.71 75.06 8.00 172.89 3319.72
   09:26:08.087.08-Aug-2020 5133.51 4124.70 75.06 8.00 173.09 3319.72
   09:26:08.287.08-Aug-2020 5133.51 4124.70 75.06 8.00 173.29 3319.72
   09:26:08.487.08-Aug-2020 5133.51 4124.86 75.06 8.00 173.49 3319.72
   09:26:08.687.08-Aug-2020 5133.51 4124.80 75.06 8.00 173.69 3319.72
   09:26:08.887.08-Aug-2020 5133.51 4124.93 75.06 8.00 173.89 3319.72
   09:26:09.088.08-Aug-2020 5133.51 4124.82 75.06 8.00 174.09 3319.72
   09:26:09.288.08-Aug-2020 5133.51 4124.82 75.06 8.00 174.29 3319.72
   09:26:09.488.08-Aug-2020 5133.51 4124.88 75.06 8.00 174.49 3319.72
   09:26:09.688.08-Aug-2020 5133.51 4124.89 75.06 8.00 174.69 3319.72
   09:26:09.888.08-Aug-2020 5133.51 4124.90 75.06 8.00 174.89 3319.72
   09:26:10.088.08-Aug-2020 5133.51 4124.91 75.06 8.00 175.09 3319.72
   09:26:10.288.08-Aug-2020 5133.51 4124.91 75.06 8.00 175.29 3319.72
   09:26:10.488.08-Aug-2020 5133.51 4124.89 75.06 8.00 175.49 3319.72
   09:26:10.688.08-Aug-2020 5133.51 4124.89 75.06 8.00 175.69 3319.72
   09:26:10.888.08-Aug-2020 5133.51 4124.93 75.06 8.00 175.89 3319.72
   09:26:11.089.08-Aug-2020 5133.51 4124.94 75.06 8.00 176.09 3319.72
   09:26:11.289.08-Aug-2020 5133.51 4124.94 75.06 8.00 176.29 3319.72
   09:26:11.489.08-Aug-2020 5133.51 4124.84 75.06 8.00 176.49 3319.72
   09:26:11.689.08-Aug-2020 5133.51 4124.86 75.06 8.00 176.69 3319.72
   09:26:11.889.08-Aug-2020 5133.51 4124.87 75.06 8.00 176.89 3319.72
   09:26:12.089.08-Aug-2020 5133.51 4124.85 75.06 8.00 177.09 3319.72
   09:26:12.289.08-Aug-2020 5133.51 4124.85 75.06 8.00 177.29 3319.72
   09:26:12.489.08-Aug-2020 5133.51 4124.84 75.06 8.00 177.49 3319.72
   09:26:12.689.08-Aug-2020 5133.51 4124.89 75.06 8.00 177.69 3319.72
   09:26:12.890.08-Aug-2020 5133.51 4124.92 75.06 8.00 177.89 3319.72
   09:26:13.090.08-Aug-2020 5133.51 4124.84 75.06 8.00 178.09 3319.72
   09:26:13.290.08-Aug-2020 5133.51 4124.84 75.06 8.00 178.29 3319.72
   09:26:13.490.08-Aug-2020 5133.51 4124.91 75.06 8.00 178.49 3319.72
   09:26:13.690.08-Aug-2020 5133.51 4124.89 75.06 8.00 178.69 3319.72
   09:26:13.890.08-Aug-2020 5133.51 4124.91 75.06 8.00 178.89 3319.72
   09:26:14.090.08-Aug-2020 5133.51 4124.90 75.06 8.00 179.09 3319.72
   09:26:14.290.08-Aug-2020 5133.51 4124.90 75.06 8.00 179.29 3319.72
   09:26:14.490.08-Aug-2020 5133.51 4124.57 75.06 8.00 179.49 3319.72
   09:26:14.691.08-Aug-2020 5133.51 4124.77 75.06 8.00 179.70 3319.72
   09:26:14.891.08-Aug-2020 5133.51 4124.85 75.06 8.00 179.90 3319.72
   09:26:15.091.08-Aug-2020 5133.51 4124.70 75.06 8.00 180.10 3319.72
   09:26:15.291.08-Aug-2020 5133.51 4124.78 75.06 8.00 180.30 3319.72
   09:26:15.491.08-Aug-2020 5133.51 4124.85 75.06 8.00 180.50 3319.72
   09:26:15.691.08-Aug-2020 5133.51 4124.72 75.06 8.00 180.70 3319.72
   09:26:15.891.08-Aug-2020 5133.51 4124.60 75.06 8.00 180.90 3319.72
   09:26:16.091.08-Aug-2020 5133.51 4125.05 75.06 8.00 181.10 3319.72
   09:26:16.291.08-Aug-2020 5133.51 4125.05 75.06 8.00 181.30 3319.72
   09:26:16.491.08-Aug-2020 5133.51 4124.95 75.06 8.00 181.50 3319.72
   09:26:16.692.08-Aug-2020 5133.51 4124.72 75.06 8.00 181.70 3319.72
   09:26:16.892.08-Aug-2020 5133.51 4124.76 75.06 8.00 181.90 3319.72
   09:26:17.092.08-Aug-2020 5133.51 4124.88 75.06 8.00 182.10 3319.72
   09:26:17.292.08-Aug-2020 5133.51 4124.88 75.06 8.00 182.30 3319.72
   09:26:17.492.08-Aug-2020 5133.51 4124.55 75.06 8.00 182.50 3319.72
   09:26:17.692.08-Aug-2020 5133.51 4125.08 75.06 8.00 182.70 3319.72
   09:26:17.892.08-Aug-2020 5133.51 4124.73 75.06 8.00 182.90 3319.72
   09:26:18.092.08-Aug-2020 5133.51 4124.85 75.06 8.00 183.10 3319.72
   09:26:18.292.08-Aug-2020 5133.51 4124.88 75.06 8.00 183.30 3319.72
   09:26:18.493.08-Aug-2020 5133.51 4124.86 75.06 8.00 183.50 3319.72
   09:26:18.693.08-Aug-2020 5133.51 4124.89 75.06 8.00 183.70 3319.72
   09:26:18.893.08-Aug-2020 5133.51 4124.83 75.06 8.00 183.90 3319.72
