~Version Information
 VERS.                  2.0:   CWLS log ASCII Standard -VERSION 2.0
 WRAP.                   NO:   One line per depth step
~Well Information Block
#MNEM.UNIT     VALUE/NAME     DESCRIPTION
#---------     -----------    ---------------------------
 STRT.S             08:27:32 08-Aug-20: START TIME 08:27:32 08-Aug-20
 STOP.S             08:36:05 08-Aug-20: STOP TIME  08:36:05 08-Aug-20
 STEP.S                   0.00: STEP TIME
 NULL.                 -999.25: NULL VALUE
 DFWT.                        :  DIST FWL TEXT
 DFST.                        :  DIST FSL TEXT
 DMF .             Drill Floor:  DRILL MEAS FROM
 STIM.      13.47.44 07-Jun-20:  START TIME
 DATE.      13.47.44 27-Jul-20:  END TIME
 SPUD.               07-Jun-20:  SPUD DATE
 NREF.                    Grid:  NORTH REFERENCE
 HPTY.       Minimum Curvature:  HOLE POS TYPE
 DMOD.             Drill Model:  DRILL MOD DESC
 SVYD.                  Survey:  SURVEY DESC
 ILTD.               Lithology:  INTERP LTH DESC
 FTOP.          Formation Tops:  FORM TOPS DESC
 RIG .             West Chirag:  RIG NAME
 PDAT.          Mean Sea Level:  PERMANENT DATUM
 FLD .                     ACG:  FIELD NAME
 SON .        AZ-XX-0906363612:  JOB NUMBER
 CTRY.              Azerbaijan:  COUNTRY NAME
 WELL.           J25 (Slot 35):  WELL NAME
 SRVC.          Turan Drilling:  CONTRACTOR
 COMP.     BP Exploration (Caspian Sea) Ltd:  COMPANY
 UWI .                     N/A:  UNIQUE WELL IDENTIFIER
 API .                     N/A:  API NUMBER
 BASE.              Azerbaijan:  LOGGING EQUIPMENT BASE LOCATION
 REGN.                   EESSA:  REGION
 PROV.                    Baku:  PROVINCE
 STAT.                    Baku:  STATE NAME
 MWDS.                     N/A:  MWD SHOP
 DOE .                     N/A:  DOE NUMBER
 DCON.         Sperry Drilling:  DIRECTNL CONTR
 UNIT.                     N/A:  LOGGING EQUIPMENT ID
 MDS .        Operator Entered:  MAG DATA SOURCE
 JOBN.        AZ-XX-0906363612:  JOB TICKET NUMB
 WTYP.                Deviated:  WELL TYPE
 CNTY.                        :  COUNTY
 LOC .                        :  LOCATION
 LMF .             Drill Floor:  LOG MEASURED FROM
 TVDS.m                  43.00:  TVDSS CORRECTN
 LATI.deg                40.13:  LATITUDE
 LONG.deg                51.22:  LONGITUDE
 WHNS.m                  -7.90:  WELL HEAD N/S
 WHEW.m                  -3.35:  WELL HEAD E/W
 UTMX.m              519005.06:  UTM X
 UTMY.m             4443793.85:  UTM Y
 DFWL.m                   0.00:  DISTANCE FWL
 DFSL.m                   0.00:  DISTANCE FSL
 SDEP.m                   0.00:  START DEPTH
 TDD .m                   0.00:  TOTAL DEPTH (DRILLER)
 VSDR.deg               308.97:  VERT SEC DIRECT
 GVFD.g                   1.00:  GRAVITY FIELD
 MFLD.nT              50350.00:  MAGNETIC FIELD
 MDIP.deg                59.62:  MAGNETIC DIP
 MDEC.deg                 6.44:  MAGNETIC DECL
 GRDC.deg                 0.13:  GRID CORRECTION
 AZTC.deg                 6.32:  AZM TOTAL CORR
 EPD .m                   0.00:  ELEVATION
 EGL .m                   0.00:  GROUND ELEVATION
 WDMS.m                 169.80:  WD ELEV
 APD .m                  43.00:  DEPTH ABOVE PD
 DEP .m                 356.43:  DEPTH
 AGAP.m                  43.00:  AIR GAP
 VSEW.m                  -3.35:  VERT SEC E/W
 VSNS.m                  -7.90:  VERT SEC N/S
 EKB .m                  43.00:  KB ELEVATION
 EDF .m                  43.00:  DF ELEVATION
 TDL .m                 934.00:  TOTAL DEPTH (LOGGER)
 VSC .                       0:  VS TO CLOSURE
 MAGU.                 1852825:  MAGUTM CHECKSUM
~Parameter Information Block
#MNEM.UNIT       Value        Description
#---------     -----------    ---------------------------
 AV  .mps                 0.80:  Ann Velocity 
 AVMX.mps                 1.70:  Max Ann Veloc 
 AZIF.deg               311.41:  Azm, Final 
 BHAT.        Rotary Steerable:  BHA Type 
 BROT.°/30m               0.09:  Build Rotating 
 BS  .in                 12.25:  Bit Size 
 BSZ .in                 12.25:  Bit Size 
 BTPL.psig              800.00:  Bit Press Loss 
 CABU.                      No:  Customer Abuse 
 COMM.                     ¼’n:  Run Comments 1 
 TCS .hr                 96.00:  Time Ciculation Ended 
 CV  .mps                 2.03:  Crit Velocity 
 CVMX.mps                 2.42:  Max Crit Veloc 
 DD1 .          Taghi Taghiyev:  Direct Drillr 1 
 DD2 .      Tariel Pirmammadov:  Direct Drillr 2 
 DD3 .          Teymur Aghayev:  Direct Drillr 3 
 DDSV.                 iCruise:  DD Service 
 DEFF.%                  98.70:  % Det Eff 
 DLRX.°/30m               1.00:  Dogleg Rot Max 
 DLSO.°/30m               1.80:  Dogleg Oriented 
 DLSX.°/30m               3.16:  Dogleg Str Max 
 DRET.      15.00.00 07-Aug-20:  Drill End Time 
 DRST.      17.00.00 02-Aug-20:  Drill Start Tim 
 DTIM.hr                 45.90:  Time Drilling 
 EDEP.m                5298.01:  End Depth 
 ENG1.       Seymur Iskandarov:  Engineer 1 
 ENG2.         Yevgeniy Ulikov:  Engineer 2 
 ENG3.      Artemiy Matviyanov:  Engineer 3 
 ENG4.         Bahruz Mehdiyev:  Engineer 4 
 ETIM.      05.00.00 10-Aug-20:  End Time 
 FLOI.gpm              1150.00:  Flow In 
 FLON.gpm               900.00:  Flow In Min 
 FLOS.cptm                0.00:  Fluid Loss 
 FLOX.gpm              1200.00:  Flow In Max 
 FTRO.     Connectivity, Formation Presure:  FTWD Run Obj 
 HFLO.                      No:  High Flow 
 HPRE.                     Yes:  High Pressure 
 HTEM.                      No:  High Temp 
 HYDO.m                   1.80:  Hydro Offset 
 IFIN.deg                 9.71:  Inc, Final 
 IMAX.deg                63.81:  Inc Max 
 IMIN.deg                 9.53:  Inc Min 
 IMND.m                5075.52:  Inc Min Depth 
 IMXD.m                4367.08:  Inc Max Depth 
 JARR.                      No:  Jarring 
 LETM.      15.00.00 07-Aug-20:  Log End Time 
 LOST.hr                     2:  Lost Rig Time 
 LSTM.      17.00.00 02-Aug-20:  Log Start Time 
 MDCL.ppm             42500.00:  Mud Chlorides 
 MDES.     Inversion Oil/Synthetic:  Mud Desc 
 DFD .sg                  1.46:  Mud Density 
 MDMN.sg                  1.46:  Dens Mud Min 
 MDMX.sg                  1.46:  Dens Mud Max 
 MOIL.                      56:  Run Mud Oil % 
 MOWR.                   70:30:  Run Mud OWR 
 MSND.                     0.1:  Run Mud Sand % 
 MSOL.                      19:  Run Mud Solids% 
 DFV .spqt               83.00:  Mud Viscosity 
 MWOD.in                  8.00:  MWD Tool OD 
 MWSI.                     Yes:  Serv Intrp, MWD 
 OTIM.hr                196.57:  Time Operating 
 PCON.           Look Like New:  Pad Condition 
 PMAX.psia             7400.00:  Press Op, Max 
 PV  .cP                 36.00:  Mud PV 
 RUN .                    1000:  Run Number 
 ROPA.m/hr               25.00:  ROP Avg 
 ROPN.m/hr               10.00:  ROP Min 
 ROPX.m/hr               32.00:  ROP Max 
 RPMA.rpm               120.00:  RPM Surface Avg 
 RPMN.rpm               100.00:  RPM Surface Min 
 RPMX.rpm               140.00:  RPM Surface Max 
 RRUN.                    L504:  Rig Run Number 
 SAZI.deg               308.25:  Azm, Start 
 SDEP.m                4364.01:  Start Depth 
 SIDD.                      No:  Serv Intrp, DD 
 SINC.deg                63.81:  Inc, Start 
 SPPA.psig             5800.00:  SPP Avg 
 SPPN.psig             4200.00:  SPP Min 
 SPPX.psig             5950.00:  SPP Max 
 STIM.      18.00.00 01-Aug-20:  Start Time 
 SVCS.                 DD, MWD:  Services 
 SVER.                    9.20:  Sperry Version 
 TDAT.m                 934.00:  Tot Depth Attmp 
 TDDF.                      No:  Trip for DD 
 TDLG.m                 934.00:  Tot Depth Loggd 
 TFF .                      No:  Trip for Fail 
 TQAA.f-kp               31.00:  Torque Abs Avg 
 TQAN.f-kp               25.00:  Torque Abs Min 
 TQAX.f-kp               35.00:  Torque Abs Max 
 TRRT.°/30m              -0.75:  Turn Rotating 
 MRT .                  EWR-M5:  Maximum Recorded Temperature 
 TTMX.degC               95.00:  Max Tool Temp 
 VS01.                90516060:  Virtual Str1 SN 
 VS02.                90528488:  Virtual Str2 SN 
 VS03.                90577970:  Virtual Str3 SN 
 VS04.                12385033:  Virtual Str4 SN 
 VS05.                90522069:  Virtual Str5 SN 
 VS06.                13124134:  Virtual Str6 SN 
 WBMN.klb                20.00:  WOB Min 
 WITN.         Alistair Sprott:  Customer Rep 
 WITN.     Ronal van der Kraan:  Customer Rep 2 
 WOBA.klb                25.00:  WOB Avg 
 WOBX.klb                31.00:  WOB Max 
 YP  .lhf2               32.00:  Yield Point 
~Curve Information Block
#MNEM.UNIT                 API CODE     Curve Description
#---------               -----------    ---------------------------
 TIME.HHMMSS            00 000 000 000:  GT Time & Date
 GTDEPTH.m              00 000 000 000:  GT Depth
 GTPQH.psia             00 000 000 000:  GT HR Quartz Pressure
 GTTQ.degC              00 000 000 000:  GT Quartz Temperature
 GTTN.NONE              00 000 000 000:  GT Test Number
 GTET.sec               00 000 000 000:  GT Elapsed Test Time
 GTTVD.m                00 000 000 000:  GT True Vertical Depth
#Other Information
#
#WARRANTY: Halliburton will use its best efforts to furnish customers with 
#accurate information and interpretations that are part of, and incident to, the services 
#provided.  However, Halliburton cannot and does not warrant the accuracy 
#or correctness of such information and interpretations.  Under no circumstances should any 
#such information or interpretation be relied upon as the sole basis for any drilling, 
#completion, production, or financial decision or any procedure involving any risk to the 
#safety of any drilling venture, drilling rig or its crew or any other third party.  The 
#Customer has full responsibility for all drilling, completion and production operation.  
#Halliburton makes no representations or warranties, either expressed or 
#implied, including, but not limited to, the implied warranties of merchantability or fitness 
#for a particular purpose, with respect to the services rendered.  In no event will 
#Halliburton be liable for failure to obtain any particular results or for 
#any damages, including, but not limited to, indirect, special or consequential damages, 
#resulting from the use of any information or interpretation provided by Halliburton.
#
~A           TIME           GTDEPTH  GTPQH  GTTQ  GTTN  GTET   GTTVD  
# ...
   08:33:17.410.08-Aug-2020 5149.01 4305.00 76.73 6.00 345.18 3335.00
   08:33:17.610.08-Aug-2020 5149.01 4305.00 76.73 6.00 345.38 3335.00
   08:33:17.810.08-Aug-2020 5149.01 4304.68 76.73 6.00 345.58 3335.00
   08:33:18.010.08-Aug-2020 5149.01 4304.96 76.73 6.00 345.78 3335.00
   08:33:18.210.08-Aug-2020 5149.01 4304.24 76.73 6.00 345.98 3335.00
   08:33:18.410.08-Aug-2020 5149.01 4304.67 76.73 6.00 346.18 3335.00
   08:33:18.610.08-Aug-2020 5149.01 4304.67 76.73 6.00 346.38 3335.00
   08:33:18.810.08-Aug-2020 5149.01 4304.43 76.73 6.00 346.58 3335.00
   08:33:19.011.08-Aug-2020 5149.01 4304.76 76.73 6.00 346.78 3335.00
   08:33:19.211.08-Aug-2020 5149.01 4303.98 76.73 6.00 346.98 3335.00
   08:33:19.411.08-Aug-2020 5149.01 4304.14 76.73 6.00 347.18 3335.00
   08:33:19.611.08-Aug-2020 5149.01 4304.14 76.73 6.00 347.38 3335.00
   08:33:19.811.08-Aug-2020 5149.01 4304.74 76.73 6.00 347.58 3335.00
   08:33:20.011.08-Aug-2020 5149.01 4304.28 76.73 6.00 347.78 3335.00
   08:33:20.211.08-Aug-2020 5149.01 4304.11 76.73 6.00 347.98 3335.00
   08:33:20.411.08-Aug-2020 5149.01 4304.10 76.73 6.00 348.18 3335.00
   08:33:20.611.08-Aug-2020 5149.01 4304.10 76.73 6.00 348.38 3335.00
   08:33:20.811.08-Aug-2020 5149.01 4303.75 76.73 6.00 348.58 3335.00
   08:33:21.012.08-Aug-2020 5149.01 4303.77 76.73 6.00 348.78 3335.00
   08:33:21.212.08-Aug-2020 5149.01 4304.26 76.73 6.00 348.98 3335.00
   08:33:21.412.08-Aug-2020 5149.01 4303.81 76.73 6.00 349.18 3335.00
   08:33:21.612.08-Aug-2020 5149.01 4303.81 76.73 6.00 349.38 3335.00
   08:33:21.812.08-Aug-2020 5149.01 4304.21 76.73 6.00 349.58 3335.00
   08:33:22.012.08-Aug-2020 5149.01 4304.03 76.73 6.00 349.79 3335.00
   08:33:22.212.08-Aug-2020 5149.01 4303.77 76.73 6.00 349.99 3335.00
   08:33:22.412.08-Aug-2020 5149.01 4304.29 76.73 6.00 350.19 3335.00
   08:33:22.612.08-Aug-2020 5149.01 4304.29 76.73 6.00 350.39 3335.00
   08:33:22.813.08-Aug-2020 5149.01 4303.83 76.73 6.00 350.59 3335.00
   08:33:23.013.08-Aug-2020 5149.01 4303.86 76.73 6.00 350.79 3335.00
   08:33:23.213.08-Aug-2020 5149.01 4303.65 76.73 6.00 350.99 3335.00
   08:33:23.413.08-Aug-2020 5149.01 4303.69 76.73 6.00 351.19 3335.00
   08:33:23.613.08-Aug-2020 5149.01 4303.69 76.73 6.00 351.39 3335.00
   08:33:23.813.08-Aug-2020 5149.01 4336.03 76.73 6.00 351.59 3335.00
   08:33:24.013.08-Aug-2020 5149.01 4338.81 76.73 6.00 351.79 3335.00
   08:33:24.213.08-Aug-2020 5149.01 4339.45 76.73 6.00 351.99 3335.00
   08:33:24.413.08-Aug-2020 5149.01 4339.98 76.73 6.00 352.19 3335.00
   08:33:24.614.08-Aug-2020 5149.01 4339.98 76.73 6.00 352.39 3335.00
   08:33:24.814.08-Aug-2020 5149.01 4340.92 76.73 6.00 352.59 3335.00
   08:33:25.014.08-Aug-2020 5149.01 4341.23 76.73 6.00 352.79 3335.00
   08:33:25.214.08-Aug-2020 5149.01 4341.24 76.73 6.00 352.99 3335.00
   08:33:25.414.08-Aug-2020 5149.01 4341.53 76.73 6.00 353.19 3335.00
   08:33:25.614.08-Aug-2020 5149.01 4341.53 76.73 6.00 353.39 3335.00
   08:33:25.814.08-Aug-2020 5149.01 4341.83 76.73 6.00 353.59 3335.00
   08:33:26.014.08-Aug-2020 5149.01 4341.76 76.73 6.00 353.79 3335.00
   08:33:26.214.08-Aug-2020 5149.01 4342.02 76.73 6.00 353.99 3335.00
   08:33:26.414.08-Aug-2020 5149.01 4342.04 76.73 6.00 354.19 3335.00
   08:33:26.615.08-Aug-2020 5149.01 4342.04 76.73 6.00 354.39 3335.00
   08:33:26.815.08-Aug-2020 5149.01 4342.20 76.73 6.00 354.59 3335.00
   08:33:27.015.08-Aug-2020 5149.01 4342.31 76.73 6.00 354.79 3335.00
   08:33:27.215.08-Aug-2020 5149.01 4342.37 76.73 6.00 354.99 3335.00
   08:33:27.415.08-Aug-2020 5149.01 4342.57 76.73 6.00 355.19 3335.00
   08:33:27.615.08-Aug-2020 5149.01 4342.57 76.73 6.00 355.39 3335.00
   08:33:27.815.08-Aug-2020 5149.01 4342.68 76.73 6.00 355.59 3335.00
   08:33:28.015.08-Aug-2020 5149.01 4342.75 76.73 6.00 355.79 3335.00
   08:33:28.215.08-Aug-2020 5149.01 4342.94 76.73 6.00 355.99 3335.00
   08:33:28.416.08-Aug-2020 5149.01 4343.03 76.73 6.00 356.19 3335.00
   08:33:28.616.08-Aug-2020 5149.01 4343.03 76.73 6.00 356.39 3335.00
   08:33:28.816.08-Aug-2020 5149.01 4343.10 76.73 6.00 356.59 3335.00
   08:33:29.016.08-Aug-2020 5149.01 4343.29 76.73 6.00 356.79 3335.00
   08:33:29.216.08-Aug-2020 5149.01 4343.02 76.73 6.00 356.99 3335.00
   08:33:29.416.08-Aug-2020 5149.01 4343.24 76.73 6.00 357.19 3335.00
   08:33:29.616.08-Aug-2020 5149.01 4343.24 76.73 6.00 357.39 3335.00
   08:33:29.816.08-Aug-2020 5149.01 4343.48 76.73 6.00 357.59 3335.00
   08:33:30.016.08-Aug-2020 5149.01 4343.29 76.73 6.00 357.79 3335.00
   08:33:30.216.08-Aug-2020 5149.01 4343.26 76.73 6.00 357.99 3335.00
   08:33:30.417.08-Aug-2020 5149.01 4343.38 76.73 6.00 358.19 3335.00
   08:33:30.617.08-Aug-2020 5149.01 4343.38 76.73 6.00 358.39 3335.00
   08:33:30.817.08-Aug-2020 5149.01 4343.52 76.73 6.00 358.59 3335.00
   08:33:31.017.08-Aug-2020 5149.01 4343.39 76.73 6.00 358.79 3335.00
   08:33:31.217.08-Aug-2020 5149.01 4343.45 76.73 6.00 358.99 3335.00
   08:33:31.417.08-Aug-2020 5149.01 4343.58 76.73 6.00 359.19 3335.00
   08:33:31.617.08-Aug-2020 5149.01 4343.58 76.73 6.00 359.39 3335.00
   08:33:31.817.08-Aug-2020 5149.01 4343.56 76.73 6.00 359.59 3335.00
   08:33:32.017.08-Aug-2020 5149.01 4343.47 76.73 6.00 359.79 3335.00
   08:33:32.218.08-Aug-2020 5149.01 4343.57 76.73 6.00 359.99 3335.00
   08:33:32.418.08-Aug-2020 5149.01 4343.71 76.73 6.00 360.19 3335.00
   08:33:32.618.08-Aug-2020 5149.01 4343.71 76.73 6.00 360.39 3335.00
   08:33:32.818.08-Aug-2020 5149.01 4343.63 76.73 6.00 360.59 3335.00
   08:33:33.018.08-Aug-2020 5149.01 4343.64 76.73 6.00 360.79 3335.00
   08:33:33.218.08-Aug-2020 5149.01 4343.65 76.73 6.00 360.99 3335.00
   08:33:33.418.08-Aug-2020 5149.01 4343.71 76.73 6.00 361.19 3335.00
   08:33:33.618.08-Aug-2020 5149.01 4343.71 76.73 6.00 361.39 3335.00
   08:33:33.818.08-Aug-2020 5149.01 4343.64 76.73 6.00 361.59 3335.00
   08:33:34.018.08-Aug-2020 5149.01 4343.73 76.73 6.00 361.79 3335.00
   08:33:34.219.08-Aug-2020 5149.01 4343.69 76.73 6.00 361.99 3335.00
   08:33:34.419.08-Aug-2020 5149.01 4343.79 76.73 6.00 362.19 3335.00
   08:33:34.619.08-Aug-2020 5149.01 4343.79 76.73 6.00 362.39 3335.00
   08:33:34.819.08-Aug-2020 5149.01 4343.83 76.73 6.00 362.59 3335.00
   08:33:35.019.08-Aug-2020 5149.01 4343.75 76.73 6.00 362.79 3335.00
   08:33:35.219.08-Aug-2020 5149.01 4343.79 76.73 6.00 362.99 3335.00
   08:33:35.419.08-Aug-2020 5149.01 4343.84 76.73 6.00 363.19 3335.00
   08:33:35.619.08-Aug-2020 5149.01 4343.84 76.73 6.00 363.39 3335.00
   08:33:35.819.08-Aug-2020 5149.01 4344.08 76.73 6.00 363.59 3335.00
   08:33:36.020.08-Aug-2020 5149.01 4343.86 76.73 6.00 363.79 3335.00
   08:33:36.220.08-Aug-2020 5149.01 4343.87 76.73 6.00 363.99 3335.00
   08:33:36.420.08-Aug-2020 5149.01 4344.03 76.73 6.00 364.19 3335.00
   08:33:36.620.08-Aug-2020 5149.01 4344.03 76.73 6.00 364.39 3335.00
   08:33:36.820.08-Aug-2020 5149.01 4343.88 76.73 6.00 364.59 3335.00
   08:33:37.020.08-Aug-2020 5149.01 4343.94 76.73 6.00 364.79 3335.00
   08:33:37.220.08-Aug-2020 5149.01 4343.98 76.73 6.00 364.99 3335.00
   08:33:37.420.08-Aug-2020 5149.01 4343.95 76.73 6.00 365.19 3335.00
   08:33:37.620.08-Aug-2020 5149.01 4343.93 76.73 6.00 365.39 3335.00
   08:33:37.820.08-Aug-2020 5149.01 4343.98 76.73 6.00 365.59 3335.00
   08:33:38.021.08-Aug-2020 5149.01 4344.00 76.73 6.00 365.79 3335.00
   08:33:38.221.08-Aug-2020 5149.01 4343.98 76.73 6.00 365.99 3335.00
   08:33:38.421.08-Aug-2020 5149.01 4343.99 76.73 6.00 366.19 3335.00
   08:33:38.621.08-Aug-2020 5149.01 4343.99 76.73 6.00 366.39 3335.00
   08:33:38.821.08-Aug-2020 5149.01 4344.18 76.73 6.00 366.59 3335.00
   08:33:39.021.08-Aug-2020 5149.01 4343.98 76.73 6.00 366.79 3335.00
   08:33:39.221.08-Aug-2020 5149.01 4344.07 76.73 6.00 366.99 3335.00
   08:33:39.421.08-Aug-2020 5149.01 4344.24 76.73 6.00 367.19 3335.00
   08:33:39.621.08-Aug-2020 5149.01 4344.24 76.73 6.00 367.39 3335.00
   08:33:39.822.08-Aug-2020 5149.01 4344.17 76.73 6.00 367.59 3335.00
   08:33:40.022.08-Aug-2020 5149.01 4344.07 76.73 6.00 367.79 3335.00
   08:33:40.222.08-Aug-2020 5149.01 4344.10 76.73 6.00 367.99 3335.00
