~Version Information
 VERS.                  2.0:   CWLS log ASCII Standard -VERSION 2.0
 WRAP.                   NO:   One line per depth step
~Well Information Block
#MNEM.UNIT     VALUE/NAME     DESCRIPTION
#---------     -----------    ---------------------------
 STRT.S             08:27:32 08-Aug-20: START TIME 08:27:32 08-Aug-20
 STOP.S             08:36:05 08-Aug-20: STOP TIME  08:36:05 08-Aug-20
 STEP.S                   0.00: STEP TIME
 NULL.                 -999.25: NULL VALUE
 DFWT.                        :  DIST FWL TEXT
 DFST.                        :  DIST FSL TEXT
 DMF .             Drill Floor:  DRILL MEAS FROM
 STIM.      13.47.44 07-Jun-20:  START TIME
 DATE.      13.47.44 27-Jul-20:  END TIME
 SPUD.               07-Jun-20:  SPUD DATE
 NREF.                    Grid:  NORTH REFERENCE
 HPTY.       Minimum Curvature:  HOLE POS TYPE
 DMOD.             Drill Model:  DRILL MOD DESC
 SVYD.                  Survey:  SURVEY DESC
 ILTD.               Lithology:  INTERP LTH DESC
 FTOP.          Formation Tops:  FORM TOPS DESC
 RIG .             West Chirag:  RIG NAME
 PDAT.          Mean Sea Level:  PERMANENT DATUM
 FLD .                     ACG:  FIELD NAME
 SON .        AZ-XX-0906363612:  JOB NUMBER
 CTRY.              Azerbaijan:  COUNTRY NAME
 WELL.           J25 (Slot 35):  WELL NAME
 SRVC.          Turan Drilling:  CONTRACTOR
 COMP.     BP Exploration (Caspian Sea) Ltd:  COMPANY
 UWI .                     N/A:  UNIQUE WELL IDENTIFIER
 API .                     N/A:  API NUMBER
 BASE.              Azerbaijan:  LOGGING EQUIPMENT BASE LOCATION
 REGN.                   EESSA:  REGION
 PROV.                    Baku:  PROVINCE
 STAT.                    Baku:  STATE NAME
 MWDS.                     N/A:  MWD SHOP
 DOE .                     N/A:  DOE NUMBER
 DCON.         Sperry Drilling:  DIRECTNL CONTR
 UNIT.                     N/A:  LOGGING EQUIPMENT ID
 MDS .        Operator Entered:  MAG DATA SOURCE
 JOBN.        AZ-XX-0906363612:  JOB TICKET NUMB
 WTYP.                Deviated:  WELL TYPE
 CNTY.                        :  COUNTY
 LOC .                        :  LOCATION
 LMF .             Drill Floor:  LOG MEASURED FROM
 TVDS.m                  43.00:  TVDSS CORRECTN
 LATI.deg                40.13:  LATITUDE
 LONG.deg                51.22:  LONGITUDE
 WHNS.m                  -7.90:  WELL HEAD N/S
 WHEW.m                  -3.35:  WELL HEAD E/W
 UTMX.m              519005.06:  UTM X
 UTMY.m             4443793.85:  UTM Y
 DFWL.m                   0.00:  DISTANCE FWL
 DFSL.m                   0.00:  DISTANCE FSL
 SDEP.m                   0.00:  START DEPTH
 TDD .m                   0.00:  TOTAL DEPTH (DRILLER)
 VSDR.deg               308.97:  VERT SEC DIRECT
 GVFD.g                   1.00:  GRAVITY FIELD
 MFLD.nT              50350.00:  MAGNETIC FIELD
 MDIP.deg                59.62:  MAGNETIC DIP
 MDEC.deg                 6.44:  MAGNETIC DECL
 GRDC.deg                 0.13:  GRID CORRECTION
 AZTC.deg                 6.32:  AZM TOTAL CORR
 EPD .m                   0.00:  ELEVATION
 EGL .m                   0.00:  GROUND ELEVATION
 WDMS.m                 169.80:  WD ELEV
 APD .m                  43.00:  DEPTH ABOVE PD
 DEP .m                 356.43:  DEPTH
 AGAP.m                  43.00:  AIR GAP
 VSEW.m                  -3.35:  VERT SEC E/W
 VSNS.m                  -7.90:  VERT SEC N/S
 EKB .m                  43.00:  KB ELEVATION
 EDF .m                  43.00:  DF ELEVATION
 TDL .m                 934.00:  TOTAL DEPTH (LOGGER)
 VSC .                       0:  VS TO CLOSURE
 MAGU.                 1852825:  MAGUTM CHECKSUM
~Parameter Information Block
#MNEM.UNIT       Value        Description
#---------     -----------    ---------------------------
 AV  .mps                 0.80:  Ann Velocity 
 AVMX.mps                 1.70:  Max Ann Veloc 
 AZIF.deg               311.41:  Azm, Final 
 BHAT.        Rotary Steerable:  BHA Type 
 BROT.°/30m               0.09:  Build Rotating 
 BS  .in                 12.25:  Bit Size 
 BSZ .in                 12.25:  Bit Size 
 BTPL.psig              800.00:  Bit Press Loss 
 CABU.                      No:  Customer Abuse 
 COMM.                     ¼’n:  Run Comments 1 
 TCS .hr                 96.00:  Time Ciculation Ended 
 CV  .mps                 2.03:  Crit Velocity 
 CVMX.mps                 2.42:  Max Crit Veloc 
 DD1 .          Taghi Taghiyev:  Direct Drillr 1 
 DD2 .      Tariel Pirmammadov:  Direct Drillr 2 
 DD3 .          Teymur Aghayev:  Direct Drillr 3 
 DDSV.                 iCruise:  DD Service 
 DEFF.%                  98.70:  % Det Eff 
 DLRX.°/30m               1.00:  Dogleg Rot Max 
 DLSO.°/30m               1.80:  Dogleg Oriented 
 DLSX.°/30m               3.16:  Dogleg Str Max 
 DRET.      15.00.00 07-Aug-20:  Drill End Time 
 DRST.      17.00.00 02-Aug-20:  Drill Start Tim 
 DTIM.hr                 45.90:  Time Drilling 
 EDEP.m                5298.01:  End Depth 
 ENG1.       Seymur Iskandarov:  Engineer 1 
 ENG2.         Yevgeniy Ulikov:  Engineer 2 
 ENG3.      Artemiy Matviyanov:  Engineer 3 
 ENG4.         Bahruz Mehdiyev:  Engineer 4 
 ETIM.      05.00.00 10-Aug-20:  End Time 
 FLOI.gpm              1150.00:  Flow In 
 FLON.gpm               900.00:  Flow In Min 
 FLOS.cptm                0.00:  Fluid Loss 
 FLOX.gpm              1200.00:  Flow In Max 
 FTRO.     Connectivity, Formation Presure:  FTWD Run Obj 
 HFLO.                      No:  High Flow 
 HPRE.                     Yes:  High Pressure 
 HTEM.                      No:  High Temp 
 HYDO.m                   1.80:  Hydro Offset 
 IFIN.deg                 9.71:  Inc, Final 
 IMAX.deg                63.81:  Inc Max 
 IMIN.deg                 9.53:  Inc Min 
 IMND.m                5075.52:  Inc Min Depth 
 IMXD.m                4367.08:  Inc Max Depth 
 JARR.                      No:  Jarring 
 LETM.      15.00.00 07-Aug-20:  Log End Time 
 LOST.hr                     2:  Lost Rig Time 
 LSTM.      17.00.00 02-Aug-20:  Log Start Time 
 MDCL.ppm             42500.00:  Mud Chlorides 
 MDES.     Inversion Oil/Synthetic:  Mud Desc 
 DFD .sg                  1.46:  Mud Density 
 MDMN.sg                  1.46:  Dens Mud Min 
 MDMX.sg                  1.46:  Dens Mud Max 
 MOIL.                      56:  Run Mud Oil % 
 MOWR.                   70:30:  Run Mud OWR 
 MSND.                     0.1:  Run Mud Sand % 
 MSOL.                      19:  Run Mud Solids% 
 DFV .spqt               83.00:  Mud Viscosity 
 MWOD.in                  8.00:  MWD Tool OD 
 MWSI.                     Yes:  Serv Intrp, MWD 
 OTIM.hr                196.57:  Time Operating 
 PCON.           Look Like New:  Pad Condition 
 PMAX.psia             7400.00:  Press Op, Max 
 PV  .cP                 36.00:  Mud PV 
 RUN .                    1000:  Run Number 
 ROPA.m/hr               25.00:  ROP Avg 
 ROPN.m/hr               10.00:  ROP Min 
 ROPX.m/hr               32.00:  ROP Max 
 RPMA.rpm               120.00:  RPM Surface Avg 
 RPMN.rpm               100.00:  RPM Surface Min 
 RPMX.rpm               140.00:  RPM Surface Max 
 RRUN.                    L504:  Rig Run Number 
 SAZI.deg               308.25:  Azm, Start 
 SDEP.m                4364.01:  Start Depth 
 SIDD.                      No:  Serv Intrp, DD 
 SINC.deg                63.81:  Inc, Start 
 SPPA.psig             5800.00:  SPP Avg 
 SPPN.psig             4200.00:  SPP Min 
 SPPX.psig             5950.00:  SPP Max 
 STIM.      18.00.00 01-Aug-20:  Start Time 
 SVCS.                 DD, MWD:  Services 
 SVER.                    9.20:  Sperry Version 
 TDAT.m                 934.00:  Tot Depth Attmp 
 TDDF.                      No:  Trip for DD 
 TDLG.m                 934.00:  Tot Depth Loggd 
 TFF .                      No:  Trip for Fail 
 TQAA.f-kp               31.00:  Torque Abs Avg 
 TQAN.f-kp               25.00:  Torque Abs Min 
 TQAX.f-kp               35.00:  Torque Abs Max 
 TRRT.°/30m              -0.75:  Turn Rotating 
 MRT .                  EWR-M5:  Maximum Recorded Temperature 
 TTMX.degC               95.00:  Max Tool Temp 
 VS01.                90516060:  Virtual Str1 SN 
 VS02.                90528488:  Virtual Str2 SN 
 VS03.                90577970:  Virtual Str3 SN 
 VS04.                12385033:  Virtual Str4 SN 
 VS05.                90522069:  Virtual Str5 SN 
 VS06.                13124134:  Virtual Str6 SN 
 WBMN.klb                20.00:  WOB Min 
 WITN.         Alistair Sprott:  Customer Rep 
 WITN.     Ronal van der Kraan:  Customer Rep 2 
 WOBA.klb                25.00:  WOB Avg 
 WOBX.klb                31.00:  WOB Max 
 YP  .lhf2               32.00:  Yield Point 
~Curve Information Block
#MNEM.UNIT                 API CODE     Curve Description
#---------               -----------    ---------------------------
 TIME.HHMMSS            00 000 000 000:  GT Time & Date
 GTDEPTH.m              00 000 000 000:  GT Depth
 GTPQH.psia             00 000 000 000:  GT HR Quartz Pressure
 GTTQ.degC              00 000 000 000:  GT Quartz Temperature
 GTTN.NONE              00 000 000 000:  GT Test Number
 GTET.sec               00 000 000 000:  GT Elapsed Test Time
 GTTVD.m                00 000 000 000:  GT True Vertical Depth
#Other Information
#
#WARRANTY: Halliburton will use its best efforts to furnish customers with 
#accurate information and interpretations that are part of, and incident to, the services 
#provided.  However, Halliburton cannot and does not warrant the accuracy 
#or correctness of such information and interpretations.  Under no circumstances should any 
#such information or interpretation be relied upon as the sole basis for any drilling, 
#completion, production, or financial decision or any procedure involving any risk to the 
#safety of any drilling venture, drilling rig or its crew or any other third party.  The 
#Customer has full responsibility for all drilling, completion and production operation.  
#Halliburton makes no representations or warranties, either expressed or 
#implied, including, but not limited to, the implied warranties of merchantability or fitness 
#for a particular purpose, with respect to the services rendered.  In no event will 
#Halliburton be liable for failure to obtain any particular results or for 
#any damages, including, but not limited to, indirect, special or consequential damages, 
#resulting from the use of any information or interpretation provided by Halliburton.
#
~A           TIME           GTDEPTH  GTPQH  GTTQ  GTTN  GTET   GTTVD  
# ...
   08:32:54.398.08-Aug-2020 5149.01 4344.79 76.74 6.00 322.17 3335.00
   08:32:54.598.08-Aug-2020 5149.01 4344.79 76.74 6.00 322.37 3335.00
   08:32:54.798.08-Aug-2020 5149.01 4344.87 76.74 6.00 322.57 3335.00
   08:32:54.998.08-Aug-2020 5149.01 4344.83 76.74 6.00 322.77 3335.00
   08:32:55.198.08-Aug-2020 5149.01 4344.96 76.74 6.00 322.97 3335.00
   08:32:55.398.08-Aug-2020 5149.01 4344.80 76.74 6.00 323.17 3335.00
   08:32:55.598.08-Aug-2020 5149.01 4344.80 76.74 6.00 323.37 3335.00
   08:32:55.798.08-Aug-2020 5149.01 4344.99 76.74 6.00 323.57 3335.00
   08:32:55.998.08-Aug-2020 5149.01 4344.85 76.74 6.00 323.77 3335.00
   08:32:56.198.08-Aug-2020 5149.01 4344.88 76.74 6.00 323.97 3335.00
   08:32:56.399.08-Aug-2020 5149.01 4344.82 76.74 6.00 324.17 3335.00
   08:32:56.599.08-Aug-2020 5149.01 4344.82 76.74 6.00 324.37 3335.00
   08:32:56.799.08-Aug-2020 5149.01 4344.90 76.74 6.00 324.57 3335.00
   08:32:56.999.08-Aug-2020 5149.01 4344.80 76.74 6.00 324.77 3335.00
   08:32:57.199.08-Aug-2020 5149.01 4344.93 76.74 6.00 324.97 3335.00
   08:32:57.399.08-Aug-2020 5149.01 4344.92 76.73 6.00 325.17 3335.00
   08:32:57.599.08-Aug-2020 5149.01 4344.92 76.73 6.00 325.37 3335.00
   08:32:57.799.08-Aug-2020 5149.01 4344.83 76.74 6.00 325.57 3335.00
   08:32:57.999.08-Aug-2020 5149.01 4344.83 76.74 6.00 325.77 3335.00
   08:32:58.200.08-Aug-2020 5149.01 4344.88 76.74 6.00 325.97 3335.00
   08:32:58.400.08-Aug-2020 5149.01 4344.91 76.74 6.00 326.17 3335.00
   08:32:58.600.08-Aug-2020 5149.01 4344.91 76.74 6.00 326.37 3335.00
   08:32:58.800.08-Aug-2020 5149.01 4345.08 76.73 6.00 326.57 3335.00
   08:32:59.000.08-Aug-2020 5149.01 4344.63 76.74 6.00 326.77 3335.00
   08:32:59.200.08-Aug-2020 5149.01 4344.98 76.73 6.00 326.97 3335.00
   08:32:59.400.08-Aug-2020 5149.01 4344.83 76.74 6.00 327.17 3335.00
   08:32:59.600.08-Aug-2020 5149.01 4344.83 76.74 6.00 327.37 3335.00
   08:32:59.800.08-Aug-2020 5149.01 4344.92 76.73 6.00 327.57 3335.00
   08:33:00.000.08-Aug-2020 5149.01 4344.87 76.73 6.00 327.77 3335.00
   08:33:00.201.08-Aug-2020 5149.01 4344.75 76.74 6.00 327.97 3335.00
   08:33:00.401.08-Aug-2020 5149.01 4345.01 76.73 6.00 328.17 3335.00
   08:33:00.601.08-Aug-2020 5149.01 4345.01 76.73 6.00 328.37 3335.00
   08:33:00.801.08-Aug-2020 5149.01 4344.95 76.73 6.00 328.57 3335.00
   08:33:01.001.08-Aug-2020 5149.01 4344.79 76.73 6.00 328.77 3335.00
   08:33:01.201.08-Aug-2020 5149.01 4344.82 76.73 6.00 328.97 3335.00
   08:33:01.401.08-Aug-2020 5149.01 4344.88 76.73 6.00 329.17 3335.00
   08:33:01.601.08-Aug-2020 5149.01 4344.88 76.73 6.00 329.37 3335.00
   08:33:01.801.08-Aug-2020 5149.01 4344.86 76.73 6.00 329.57 3335.00
   08:33:02.002.08-Aug-2020 5149.01 4344.90 76.73 6.00 329.77 3335.00
   08:33:02.202.08-Aug-2020 5149.01 4344.85 76.73 6.00 329.97 3335.00
   08:33:02.402.08-Aug-2020 5149.01 4344.93 76.73 6.00 330.17 3335.00
   08:33:02.602.08-Aug-2020 5149.01 4344.93 76.73 6.00 330.37 3335.00
   08:33:02.802.08-Aug-2020 5149.01 4344.89 76.73 6.00 330.57 3335.00
   08:33:03.002.08-Aug-2020 5149.01 4344.84 76.73 6.00 330.77 3335.00
   08:33:03.202.08-Aug-2020 5149.01 4344.88 76.73 6.00 330.98 3335.00
   08:33:03.402.08-Aug-2020 5149.01 4344.88 76.73 6.00 331.18 3335.00
   08:33:03.602.08-Aug-2020 5149.01 4344.88 76.73 6.00 331.38 3335.00
   08:33:03.802.08-Aug-2020 5149.01 4344.97 76.73 6.00 331.58 3335.00
   08:33:04.003.08-Aug-2020 5149.01 4344.93 76.73 6.00 331.78 3335.00
   08:33:04.203.08-Aug-2020 5149.01 4344.93 76.73 6.00 331.98 3335.00
   08:33:04.403.08-Aug-2020 5149.01 4344.88 76.73 6.00 332.18 3335.00
   08:33:04.603.08-Aug-2020 5149.01 4344.88 76.73 6.00 332.38 3335.00
   08:33:04.803.08-Aug-2020 5149.01 4344.91 76.73 6.00 332.58 3335.00
   08:33:05.003.08-Aug-2020 5149.01 4344.88 76.73 6.00 332.78 3335.00
   08:33:05.203.08-Aug-2020 5149.01 4344.87 76.73 6.00 332.98 3335.00
   08:33:05.403.08-Aug-2020 5149.01 4344.85 76.73 6.00 333.18 3335.00
   08:33:05.603.08-Aug-2020 5149.01 4344.92 76.73 6.00 333.38 3335.00
   08:33:05.804.08-Aug-2020 5149.01 4344.87 76.73 6.00 333.58 3335.00
   08:33:06.004.08-Aug-2020 5149.01 4344.88 76.73 6.00 333.78 3335.00
   08:33:06.204.08-Aug-2020 5149.01 4344.96 76.73 6.00 333.98 3335.00
   08:33:06.404.08-Aug-2020 5149.01 4344.84 76.73 6.00 334.18 3335.00
   08:33:06.604.08-Aug-2020 5149.01 4344.90 76.73 6.00 334.38 3335.00
   08:33:06.804.08-Aug-2020 5149.01 4344.87 76.73 6.00 334.58 3335.00
   08:33:07.004.08-Aug-2020 5149.01 4344.93 76.73 6.00 334.78 3335.00
   08:33:07.204.08-Aug-2020 5149.01 4344.97 76.73 6.00 334.98 3335.00
   08:33:07.404.08-Aug-2020 5149.01 4344.84 76.73 6.00 335.18 3335.00
   08:33:07.605.08-Aug-2020 5149.01 4344.92 76.73 6.00 335.38 3335.00
   08:33:07.805.08-Aug-2020 5149.01 4344.96 76.73 6.00 335.58 3335.00
   08:33:08.005.08-Aug-2020 5149.01 4344.91 76.73 6.00 335.78 3335.00
   08:33:08.205.08-Aug-2020 5149.01 4344.90 76.73 6.00 335.98 3335.00
   08:33:08.405.08-Aug-2020 5149.01 4344.91 76.73 6.00 336.18 3335.00
   08:33:08.605.08-Aug-2020 5149.01 4344.91 76.73 6.00 336.38 3335.00
   08:33:08.805.08-Aug-2020 5149.01 4344.98 76.73 6.00 336.58 3335.00
   08:33:09.005.08-Aug-2020 5149.01 4344.91 76.73 6.00 336.78 3335.00
   08:33:09.205.08-Aug-2020 5149.01 4345.00 76.73 6.00 336.98 3335.00
   08:33:09.405.08-Aug-2020 5149.01 4344.88 76.73 6.00 337.18 3335.00
   08:33:09.606.08-Aug-2020 5149.01 4344.88 76.73 6.00 337.38 3335.00
   08:33:09.806.08-Aug-2020 5149.01 4344.81 76.73 6.00 337.58 3335.00
   08:33:10.006.08-Aug-2020 5149.01 4344.92 76.73 6.00 337.78 3335.00
   08:33:10.206.08-Aug-2020 5149.01 4344.97 76.73 6.00 337.98 3335.00
   08:33:10.406.08-Aug-2020 5149.01 4344.95 76.73 6.00 338.18 3335.00
   08:33:10.606.08-Aug-2020 5149.01 4344.95 76.73 6.00 338.38 3335.00
   08:33:10.806.08-Aug-2020 5149.01 4344.92 76.73 6.00 338.58 3335.00
   08:33:11.006.08-Aug-2020 5149.01 4345.00 76.73 6.00 338.78 3335.00
   08:33:11.206.08-Aug-2020 5149.01 4344.96 76.73 6.00 338.98 3335.00
   08:33:11.407.08-Aug-2020 5149.01 4344.82 76.73 6.00 339.18 3335.00
   08:33:11.607.08-Aug-2020 5149.01 4344.82 76.73 6.00 339.38 3335.00
   08:33:11.807.08-Aug-2020 5149.01 4344.88 76.73 6.00 339.58 3335.00
   08:33:12.007.08-Aug-2020 5149.01 4344.86 76.73 6.00 339.78 3335.00
   08:33:12.207.08-Aug-2020 5149.01 4344.91 76.73 6.00 339.98 3335.00
   08:33:12.407.08-Aug-2020 5149.01 4344.92 76.73 6.00 340.18 3335.00
   08:33:12.607.08-Aug-2020 5149.01 4344.92 76.73 6.00 340.38 3335.00
   08:33:12.807.08-Aug-2020 5149.01 4344.87 76.73 6.00 340.58 3335.00
   08:33:13.007.08-Aug-2020 5149.01 4344.92 76.73 6.00 340.78 3335.00
   08:33:13.207.08-Aug-2020 5149.01 4343.34 76.73 6.00 340.98 3335.00
   08:33:13.408.08-Aug-2020 5149.01 4314.55 76.73 6.00 341.18 3335.00
   08:33:13.608.08-Aug-2020 5149.01 4314.55 76.73 6.00 341.38 3335.00
   08:33:13.808.08-Aug-2020 5149.01 4308.97 76.73 6.00 341.58 3335.00
   08:33:14.008.08-Aug-2020 5149.01 4308.19 76.73 6.00 341.78 3335.00
   08:33:14.208.08-Aug-2020 5149.01 4308.07 76.73 6.00 341.98 3335.00
   08:33:14.408.08-Aug-2020 5149.01 4307.27 76.73 6.00 342.18 3335.00
   08:33:14.608.08-Aug-2020 5149.01 4307.27 76.73 6.00 342.38 3335.00
   08:33:14.808.08-Aug-2020 5149.01 4306.64 76.73 6.00 342.58 3335.00
   08:33:15.008.08-Aug-2020 5149.01 4306.52 76.73 6.00 342.78 3335.00
   08:33:15.209.08-Aug-2020 5149.01 4306.87 76.73 6.00 342.98 3335.00
   08:33:15.409.08-Aug-2020 5149.01 4305.29 76.73 6.00 343.18 3335.00
   08:33:15.609.08-Aug-2020 5149.01 4306.06 76.73 6.00 343.38 3335.00
   08:33:15.809.08-Aug-2020 5149.01 4305.86 76.73 6.00 343.58 3335.00
   08:33:16.009.08-Aug-2020 5149.01 4305.48 76.73 6.00 343.78 3335.00
   08:33:16.209.08-Aug-2020 5149.01 4305.47 76.73 6.00 343.98 3335.00
   08:33:16.409.08-Aug-2020 5149.01 4305.58 76.73 6.00 344.18 3335.00
   08:33:16.609.08-Aug-2020 5149.01 4305.38 76.73 6.00 344.38 3335.00
   08:33:16.809.08-Aug-2020 5149.01 4305.05 76.73 6.00 344.58 3335.00
   08:33:17.009.08-Aug-2020 5149.01 4304.97 76.73 6.00 344.78 3335.00
   08:33:17.210.08-Aug-2020 5149.01 4304.86 76.73 6.00 344.98 3335.00
