~Version Information
 VERS.                  2.0:   CWLS log ASCII Standard -VERSION 2.0
 WRAP.                   NO:   One line per depth step
~Well Information Block
#MNEM.UNIT     VALUE/NAME     DESCRIPTION
#---------     -----------    ---------------------------
 STRT.S             08:27:32 08-Aug-20: START TIME 08:27:32 08-Aug-20
 STOP.S             08:36:05 08-Aug-20: STOP TIME  08:36:05 08-Aug-20
 STEP.S                   0.00: STEP TIME
 NULL.                 -999.25: NULL VALUE
 DFWT.                        :  DIST FWL TEXT
 DFST.                        :  DIST FSL TEXT
 DMF .             Drill Floor:  DRILL MEAS FROM
 STIM.      13.47.44 07-Jun-20:  START TIME
 DATE.      13.47.44 27-Jul-20:  END TIME
 SPUD.               07-Jun-20:  SPUD DATE
 NREF.                    Grid:  NORTH REFERENCE
 HPTY.       Minimum Curvature:  HOLE POS TYPE
 DMOD.             Drill Model:  DRILL MOD DESC
 SVYD.                  Survey:  SURVEY DESC
 ILTD.               Lithology:  INTERP LTH DESC
 FTOP.          Formation Tops:  FORM TOPS DESC
 RIG .             West Chirag:  RIG NAME
 PDAT.          Mean Sea Level:  PERMANENT DATUM
 FLD .                     ACG:  FIELD NAME
 SON .        AZ-XX-0906363612:  JOB NUMBER
 CTRY.              Azerbaijan:  COUNTRY NAME
 WELL.           J25 (Slot 35):  WELL NAME
 SRVC.          Turan Drilling:  CONTRACTOR
 COMP.     BP Exploration (Caspian Sea) Ltd:  COMPANY
 UWI .                     N/A:  UNIQUE WELL IDENTIFIER
 API .                     N/A:  API NUMBER
 BASE.              Azerbaijan:  LOGGING EQUIPMENT BASE LOCATION
 REGN.                   EESSA:  REGION
 PROV.                    Baku:  PROVINCE
 STAT.                    Baku:  STATE NAME
 MWDS.                     N/A:  MWD SHOP
 DOE .                     N/A:  DOE NUMBER
 DCON.         Sperry Drilling:  DIRECTNL CONTR
 UNIT.                     N/A:  LOGGING EQUIPMENT ID
 MDS .        Operator Entered:  MAG DATA SOURCE
 JOBN.        AZ-XX-0906363612:  JOB TICKET NUMB
 WTYP.                Deviated:  WELL TYPE
 CNTY.                        :  COUNTY
 LOC .                        :  LOCATION
 LMF .             Drill Floor:  LOG MEASURED FROM
 TVDS.m                  43.00:  TVDSS CORRECTN
 LATI.deg                40.13:  LATITUDE
 LONG.deg                51.22:  LONGITUDE
 WHNS.m                  -7.90:  WELL HEAD N/S
 WHEW.m                  -3.35:  WELL HEAD E/W
 UTMX.m              519005.06:  UTM X
 UTMY.m             4443793.85:  UTM Y
 DFWL.m                   0.00:  DISTANCE FWL
 DFSL.m                   0.00:  DISTANCE FSL
 SDEP.m                   0.00:  START DEPTH
 TDD .m                   0.00:  TOTAL DEPTH (DRILLER)
 VSDR.deg               308.97:  VERT SEC DIRECT
 GVFD.g                   1.00:  GRAVITY FIELD
 MFLD.nT              50350.00:  MAGNETIC FIELD
 MDIP.deg                59.62:  MAGNETIC DIP
 MDEC.deg                 6.44:  MAGNETIC DECL
 GRDC.deg                 0.13:  GRID CORRECTION
 AZTC.deg                 6.32:  AZM TOTAL CORR
 EPD .m                   0.00:  ELEVATION
 EGL .m                   0.00:  GROUND ELEVATION
 WDMS.m                 169.80:  WD ELEV
 APD .m                  43.00:  DEPTH ABOVE PD
 DEP .m                 356.43:  DEPTH
 AGAP.m                  43.00:  AIR GAP
 VSEW.m                  -3.35:  VERT SEC E/W
 VSNS.m                  -7.90:  VERT SEC N/S
 EKB .m                  43.00:  KB ELEVATION
 EDF .m                  43.00:  DF ELEVATION
 TDL .m                 934.00:  TOTAL DEPTH (LOGGER)
 VSC .                       0:  VS TO CLOSURE
 MAGU.                 1852825:  MAGUTM CHECKSUM
~Parameter Information Block
#MNEM.UNIT       Value        Description
#---------     -----------    ---------------------------
 AV  .mps                 0.80:  Ann Velocity 
 AVMX.mps                 1.70:  Max Ann Veloc 
 AZIF.deg               311.41:  Azm, Final 
 BHAT.        Rotary Steerable:  BHA Type 
 BROT.°/30m               0.09:  Build Rotating 
 BS  .in                 12.25:  Bit Size 
 BSZ .in                 12.25:  Bit Size 
 BTPL.psig              800.00:  Bit Press Loss 
 CABU.                      No:  Customer Abuse 
 COMM.                     ¼’n:  Run Comments 1 
 TCS .hr                 96.00:  Time Ciculation Ended 
 CV  .mps                 2.03:  Crit Velocity 
 CVMX.mps                 2.42:  Max Crit Veloc 
 DD1 .          Taghi Taghiyev:  Direct Drillr 1 
 DD2 .      Tariel Pirmammadov:  Direct Drillr 2 
 DD3 .          Teymur Aghayev:  Direct Drillr 3 
 DDSV.                 iCruise:  DD Service 
 DEFF.%                  98.70:  % Det Eff 
 DLRX.°/30m               1.00:  Dogleg Rot Max 
 DLSO.°/30m               1.80:  Dogleg Oriented 
 DLSX.°/30m               3.16:  Dogleg Str Max 
 DRET.      15.00.00 07-Aug-20:  Drill End Time 
 DRST.      17.00.00 02-Aug-20:  Drill Start Tim 
 DTIM.hr                 45.90:  Time Drilling 
 EDEP.m                5298.01:  End Depth 
 ENG1.       Seymur Iskandarov:  Engineer 1 
 ENG2.         Yevgeniy Ulikov:  Engineer 2 
 ENG3.      Artemiy Matviyanov:  Engineer 3 
 ENG4.         Bahruz Mehdiyev:  Engineer 4 
 ETIM.      05.00.00 10-Aug-20:  End Time 
 FLOI.gpm              1150.00:  Flow In 
 FLON.gpm               900.00:  Flow In Min 
 FLOS.cptm                0.00:  Fluid Loss 
 FLOX.gpm              1200.00:  Flow In Max 
 FTRO.     Connectivity, Formation Presure:  FTWD Run Obj 
 HFLO.                      No:  High Flow 
 HPRE.                     Yes:  High Pressure 
 HTEM.                      No:  High Temp 
 HYDO.m                   1.80:  Hydro Offset 
 IFIN.deg                 9.71:  Inc, Final 
 IMAX.deg                63.81:  Inc Max 
 IMIN.deg                 9.53:  Inc Min 
 IMND.m                5075.52:  Inc Min Depth 
 IMXD.m                4367.08:  Inc Max Depth 
 JARR.                      No:  Jarring 
 LETM.      15.00.00 07-Aug-20:  Log End Time 
 LOST.hr                     2:  Lost Rig Time 
 LSTM.      17.00.00 02-Aug-20:  Log Start Time 
 MDCL.ppm             42500.00:  Mud Chlorides 
 MDES.     Inversion Oil/Synthetic:  Mud Desc 
 DFD .sg                  1.46:  Mud Density 
 MDMN.sg                  1.46:  Dens Mud Min 
 MDMX.sg                  1.46:  Dens Mud Max 
 MOIL.                      56:  Run Mud Oil % 
 MOWR.                   70:30:  Run Mud OWR 
 MSND.                     0.1:  Run Mud Sand % 
 MSOL.                      19:  Run Mud Solids% 
 DFV .spqt               83.00:  Mud Viscosity 
 MWOD.in                  8.00:  MWD Tool OD 
 MWSI.                     Yes:  Serv Intrp, MWD 
 OTIM.hr                196.57:  Time Operating 
 PCON.           Look Like New:  Pad Condition 
 PMAX.psia             7400.00:  Press Op, Max 
 PV  .cP                 36.00:  Mud PV 
 RUN .                    1000:  Run Number 
 ROPA.m/hr               25.00:  ROP Avg 
 ROPN.m/hr               10.00:  ROP Min 
 ROPX.m/hr               32.00:  ROP Max 
 RPMA.rpm               120.00:  RPM Surface Avg 
 RPMN.rpm               100.00:  RPM Surface Min 
 RPMX.rpm               140.00:  RPM Surface Max 
 RRUN.                    L504:  Rig Run Number 
 SAZI.deg               308.25:  Azm, Start 
 SDEP.m                4364.01:  Start Depth 
 SIDD.                      No:  Serv Intrp, DD 
 SINC.deg                63.81:  Inc, Start 
 SPPA.psig             5800.00:  SPP Avg 
 SPPN.psig             4200.00:  SPP Min 
 SPPX.psig             5950.00:  SPP Max 
 STIM.      18.00.00 01-Aug-20:  Start Time 
 SVCS.                 DD, MWD:  Services 
 SVER.                    9.20:  Sperry Version 
 TDAT.m                 934.00:  Tot Depth Attmp 
 TDDF.                      No:  Trip for DD 
 TDLG.m                 934.00:  Tot Depth Loggd 
 TFF .                      No:  Trip for Fail 
 TQAA.f-kp               31.00:  Torque Abs Avg 
 TQAN.f-kp               25.00:  Torque Abs Min 
 TQAX.f-kp               35.00:  Torque Abs Max 
 TRRT.°/30m              -0.75:  Turn Rotating 
 MRT .                  EWR-M5:  Maximum Recorded Temperature 
 TTMX.degC               95.00:  Max Tool Temp 
 VS01.                90516060:  Virtual Str1 SN 
 VS02.                90528488:  Virtual Str2 SN 
 VS03.                90577970:  Virtual Str3 SN 
 VS04.                12385033:  Virtual Str4 SN 
 VS05.                90522069:  Virtual Str5 SN 
 VS06.                13124134:  Virtual Str6 SN 
 WBMN.klb                20.00:  WOB Min 
 WITN.         Alistair Sprott:  Customer Rep 
 WITN.     Ronal van der Kraan:  Customer Rep 2 
 WOBA.klb                25.00:  WOB Avg 
 WOBX.klb                31.00:  WOB Max 
 YP  .lhf2               32.00:  Yield Point 
~Curve Information Block
#MNEM.UNIT                 API CODE     Curve Description
#---------               -----------    ---------------------------
 TIME.HHMMSS            00 000 000 000:  GT Time & Date
 GTDEPTH.m              00 000 000 000:  GT Depth
 GTPQH.psia             00 000 000 000:  GT HR Quartz Pressure
 GTTQ.degC              00 000 000 000:  GT Quartz Temperature
 GTTN.NONE              00 000 000 000:  GT Test Number
 GTET.sec               00 000 000 000:  GT Elapsed Test Time
 GTTVD.m                00 000 000 000:  GT True Vertical Depth
#Other Information
#
#WARRANTY: Halliburton will use its best efforts to furnish customers with 
#accurate information and interpretations that are part of, and incident to, the services 
#provided.  However, Halliburton cannot and does not warrant the accuracy 
#or correctness of such information and interpretations.  Under no circumstances should any 
#such information or interpretation be relied upon as the sole basis for any drilling, 
#completion, production, or financial decision or any procedure involving any risk to the 
#safety of any drilling venture, drilling rig or its crew or any other third party.  The 
#Customer has full responsibility for all drilling, completion and production operation.  
#Halliburton makes no representations or warranties, either expressed or 
#implied, including, but not limited to, the implied warranties of merchantability or fitness 
#for a particular purpose, with respect to the services rendered.  In no event will 
#Halliburton be liable for failure to obtain any particular results or for 
#any damages, including, but not limited to, indirect, special or consequential damages, 
#resulting from the use of any information or interpretation provided by Halliburton.
#
~A           TIME           GTDEPTH  GTPQH  GTTQ  GTTN  GTET   GTTVD  
# ...
   08:27:55.239.08-Aug-2020 5149.01 7165.41 76.80 6.00  23.01 3335.00
   08:27:55.439.08-Aug-2020 5149.01 7165.41 76.80 6.00  23.21 3335.00
   08:27:55.639.08-Aug-2020 5149.01 7165.04 76.80 6.00  23.41 3335.00
   08:27:55.840.08-Aug-2020 5149.01 7165.14 76.80 6.00  23.61 3335.00
   08:27:56.040.08-Aug-2020 5149.01 7165.23 76.80 6.00  23.81 3335.00
   08:27:56.240.08-Aug-2020 5149.01 7168.80 76.80 6.00  24.01 3335.00
   08:27:56.440.08-Aug-2020 5149.01 7168.80 76.80 6.00  24.21 3335.00
   08:27:56.640.08-Aug-2020 5149.01 7166.52 76.80 6.00  24.41 3335.00
   08:27:56.840.08-Aug-2020 5149.01 7165.36 76.80 6.00  24.61 3335.00
   08:27:57.040.08-Aug-2020 5149.01 7165.07 76.80 6.00  24.81 3335.00
   08:27:57.240.08-Aug-2020 5149.01 7165.22 76.80 6.00  25.01 3335.00
   08:27:57.440.08-Aug-2020 5149.01 7165.22 76.80 6.00  25.21 3335.00
   08:27:57.641.08-Aug-2020 5149.01 7164.94 76.80 6.00  25.41 3335.00
   08:27:57.841.08-Aug-2020 5149.01 7163.47 76.80 6.00  25.61 3335.00
   08:27:58.041.08-Aug-2020 5149.01 7164.62 76.80 6.00  25.81 3335.00
   08:27:58.241.08-Aug-2020 5149.01 7163.67 76.80 6.00  26.01 3335.00
   08:27:58.441.08-Aug-2020 5149.01 7163.67 76.80 6.00  26.21 3335.00
   08:27:58.641.08-Aug-2020 5149.01 7163.96 76.80 6.00  26.41 3335.00
   08:27:58.841.08-Aug-2020 5149.01 7163.64 76.80 6.00  26.61 3335.00
   08:27:59.041.08-Aug-2020 5149.01 7163.44 76.80 6.00  26.81 3335.00
   08:27:59.241.08-Aug-2020 5149.01 7163.28 76.80 6.00  27.01 3335.00
   08:27:59.441.08-Aug-2020 5149.01 7163.28 76.80 6.00  27.21 3335.00
   08:27:59.642.08-Aug-2020 5149.01 7163.08 76.80 6.00  27.41 3335.00
   08:27:59.842.08-Aug-2020 5149.01 7165.61 76.80 6.00  27.61 3335.00
   08:28:00.042.08-Aug-2020 5149.01 7167.71 76.80 6.00  27.81 3335.00
   08:28:00.242.08-Aug-2020 5149.01 7163.40 76.80 6.00  28.01 3335.00
   08:28:00.442.08-Aug-2020 5149.01 7163.40 76.80 6.00  28.21 3335.00
   08:28:00.642.08-Aug-2020 5149.01 7164.50 76.80 6.00  28.42 3335.00
   08:28:00.842.08-Aug-2020 5149.01 7167.36 76.80 6.00  28.62 3335.00
   08:28:01.042.08-Aug-2020 5149.01 7167.13 76.80 6.00  28.82 3335.00
   08:28:01.242.08-Aug-2020 5149.01 7164.43 76.80 6.00  29.02 3335.00
   08:28:01.443.08-Aug-2020 5149.01 7164.43 76.80 6.00  29.22 3335.00
   08:28:01.643.08-Aug-2020 5149.01 7163.58 76.80 6.00  29.42 3335.00
   08:28:01.843.08-Aug-2020 5149.01 7167.47 76.80 6.00  29.62 3335.00
   08:28:02.043.08-Aug-2020 5149.01 7171.08 76.79 6.00  29.82 3335.00
   08:28:02.243.08-Aug-2020 5149.01 7164.43 76.79 6.00  30.02 3335.00
   08:28:02.443.08-Aug-2020 5149.01 7164.43 76.79 6.00  30.22 3335.00
   08:28:02.643.08-Aug-2020 5149.01 7166.38 76.79 6.00  30.42 3335.00
   08:28:02.843.08-Aug-2020 5149.01 7166.40 76.79 6.00  30.62 3335.00
   08:28:03.043.08-Aug-2020 5149.01 7166.29 76.79 6.00  30.82 3335.00
   08:28:03.244.08-Aug-2020 5149.01 7166.97 76.79 6.00  31.02 3335.00
   08:28:03.444.08-Aug-2020 5149.01 7166.97 76.79 6.00  31.22 3335.00
   08:28:03.644.08-Aug-2020 5149.01 7166.65 76.79 6.00  31.42 3335.00
   08:28:03.844.08-Aug-2020 5149.01 7167.14 76.79 6.00  31.62 3335.00
   08:28:04.044.08-Aug-2020 5149.01 7166.11 76.79 6.00  31.82 3335.00
   08:28:04.244.08-Aug-2020 5149.01 7167.19 76.79 6.00  32.02 3335.00
   08:28:04.444.08-Aug-2020 5149.01 7167.19 76.79 6.00  32.22 3335.00
   08:28:04.644.08-Aug-2020 5149.01 7166.94 76.79 6.00  32.42 3335.00
   08:28:04.844.08-Aug-2020 5149.01 7166.75 76.79 6.00  32.62 3335.00
   08:28:05.044.08-Aug-2020 5149.01 7166.99 76.79 6.00  32.82 3335.00
   08:28:05.245.08-Aug-2020 5149.01 7167.00 76.79 6.00  33.02 3335.00
   08:28:05.445.08-Aug-2020 5149.01 7167.00 76.79 6.00  33.22 3335.00
   08:28:05.645.08-Aug-2020 5149.01 7170.61 76.79 6.00  33.42 3335.00
   08:28:05.845.08-Aug-2020 5149.01 7168.02 76.79 6.00  33.62 3335.00
   08:28:06.045.08-Aug-2020 5149.01 7168.50 76.79 6.00  33.82 3335.00
   08:28:06.245.08-Aug-2020 5149.01 7167.53 76.79 6.00  34.02 3335.00
   08:28:06.445.08-Aug-2020 5149.01 7167.53 76.79 6.00  34.22 3335.00
   08:28:06.645.08-Aug-2020 5149.01 7167.76 76.79 6.00  34.42 3335.00
   08:28:06.845.08-Aug-2020 5149.01 7167.39 76.79 6.00  34.62 3335.00
   08:28:07.046.08-Aug-2020 5149.01 7167.23 76.79 6.00  34.82 3335.00
   08:28:07.246.08-Aug-2020 5149.01 7165.95 76.79 6.00  35.02 3335.00
   08:28:07.446.08-Aug-2020 5149.01 7165.95 76.79 6.00  35.22 3335.00
   08:28:07.646.08-Aug-2020 5149.01 7166.30 76.79 6.00  35.42 3335.00
   08:28:07.846.08-Aug-2020 5149.01 7167.14 76.79 6.00  35.62 3335.00
   08:28:08.046.08-Aug-2020 5149.01 7167.20 76.79 6.00  35.82 3335.00
   08:28:08.246.08-Aug-2020 5149.01 7167.30 76.79 6.00  36.02 3335.00
   08:28:08.446.08-Aug-2020 5149.01 7167.30 76.79 6.00  36.22 3335.00
   08:28:08.646.08-Aug-2020 5149.01 7167.46 76.79 6.00  36.42 3335.00
   08:28:08.846.08-Aug-2020 5149.01 7173.26 76.79 6.00  36.62 3335.00
   08:28:09.047.08-Aug-2020 5149.01 7165.33 76.79 6.00  36.82 3335.00
   08:28:09.247.08-Aug-2020 5149.01 7169.86 76.79 6.00  37.02 3335.00
   08:28:09.447.08-Aug-2020 5149.01 7169.86 76.79 6.00  37.22 3335.00
   08:28:09.647.08-Aug-2020 5149.01 7165.83 76.79 6.00  37.42 3335.00
   08:28:09.847.08-Aug-2020 5149.01 7170.27 76.79 6.00  37.62 3335.00
   08:28:10.047.08-Aug-2020 5149.01 7168.44 76.79 6.00  37.82 3335.00
   08:28:10.247.08-Aug-2020 5149.01 7168.28 76.79 6.00  38.02 3335.00
   08:28:10.447.08-Aug-2020 5149.01 7168.28 76.79 6.00  38.22 3335.00
   08:28:10.647.08-Aug-2020 5149.01 7168.27 76.79 6.00  38.42 3335.00
   08:28:10.848.08-Aug-2020 5149.01 7170.26 76.79 6.00  38.62 3335.00
   08:28:11.048.08-Aug-2020 5149.01 7170.45 76.79 6.00  38.82 3335.00
   08:28:11.248.08-Aug-2020 5149.01 7168.61 76.79 6.00  39.02 3335.00
   08:28:11.448.08-Aug-2020 5149.01 7168.61 76.79 6.00  39.22 3335.00
   08:28:11.648.08-Aug-2020 5149.01 7167.96 76.79 6.00  39.42 3335.00
   08:28:11.848.08-Aug-2020 5149.01 7167.88 76.79 6.00  39.62 3335.00
   08:28:12.048.08-Aug-2020 5149.01 7173.30 76.79 6.00  39.82 3335.00
   08:28:12.248.08-Aug-2020 5149.01 7165.19 76.79 6.00  40.02 3335.00
   08:28:12.448.08-Aug-2020 5149.01 7165.19 76.79 6.00  40.22 3335.00
   08:28:12.648.08-Aug-2020 5149.01 7167.18 76.79 6.00  40.42 3335.00
   08:28:12.849.08-Aug-2020 5149.01 7167.07 76.79 6.00  40.62 3335.00
   08:28:13.049.08-Aug-2020 5149.01 7170.71 76.79 6.00  40.82 3335.00
   08:28:13.249.08-Aug-2020 5149.01 7167.17 76.79 6.00  41.02 3335.00
   08:28:13.449.08-Aug-2020 5149.01 7167.17 76.79 6.00  41.22 3335.00
   08:28:13.649.08-Aug-2020 5149.01 7165.78 76.79 6.00  41.42 3335.00
   08:28:13.849.08-Aug-2020 5149.01 7166.91 76.79 6.00  41.62 3335.00
   08:28:14.049.08-Aug-2020 5149.01 7166.26 76.79 6.00  41.82 3335.00
   08:28:14.249.08-Aug-2020 5149.01 7167.58 76.79 6.00  42.02 3335.00
   08:28:14.449.08-Aug-2020 5149.01 7167.58 76.79 6.00  42.22 3335.00
   08:28:14.650.08-Aug-2020 5149.01 7166.44 76.79 6.00  42.42 3335.00
   08:28:14.850.08-Aug-2020 5149.01 7167.98 76.79 6.00  42.62 3335.00
   08:28:15.050.08-Aug-2020 5149.01 7167.06 76.79 6.00  42.82 3335.00
   08:28:15.250.08-Aug-2020 5149.01 7167.94 76.79 6.00  43.02 3335.00
   08:28:15.450.08-Aug-2020 5149.01 7167.94 76.79 6.00  43.22 3335.00
   08:28:15.650.08-Aug-2020 5149.01 7167.79 76.79 6.00  43.42 3335.00
   08:28:15.850.08-Aug-2020 5149.01 7167.35 76.79 6.00  43.62 3335.00
   08:28:16.050.08-Aug-2020 5149.01 7167.09 76.79 6.00  43.82 3335.00
   08:28:16.250.08-Aug-2020 5149.01 7166.90 76.79 6.00  44.02 3335.00
   08:28:16.450.08-Aug-2020 5149.01 7170.07 76.79 6.00  44.22 3335.00
   08:28:16.651.08-Aug-2020 5149.01 7167.42 76.79 6.00  44.42 3335.00
   08:28:16.851.08-Aug-2020 5149.01 7167.14 76.79 6.00  44.62 3335.00
   08:28:17.051.08-Aug-2020 5149.01 7166.02 76.79 6.00  44.82 3335.00
   08:28:17.251.08-Aug-2020 5149.01 7165.75 76.79 6.00  45.02 3335.00
   08:28:17.451.08-Aug-2020 5149.01 7165.75 76.79 6.00  45.22 3335.00
   08:28:17.651.08-Aug-2020 5149.01 7166.13 76.79 6.00  45.42 3335.00
   08:28:17.851.08-Aug-2020 5149.01 7166.53 76.79 6.00  45.62 3335.00
   08:28:18.051.08-Aug-2020 5149.01 7165.61 76.79 6.00  45.82 3335.00
