~Version Information
 VERS.                  2.0:   CWLS log ASCII Standard -VERSION 2.0
 WRAP.                   NO:   One line per depth step
~Well Information Block
#MNEM.UNIT     VALUE/NAME     DESCRIPTION
#---------     -----------    ---------------------------
 STRT.S             08:27:32 08-Aug-20: START TIME 08:27:32 08-Aug-20
 STOP.S             08:36:05 08-Aug-20: STOP TIME  08:36:05 08-Aug-20
 STEP.S                   0.00: STEP TIME
 NULL.                 -999.25: NULL VALUE
 DFWT.                        :  DIST FWL TEXT
 DFST.                        :  DIST FSL TEXT
 DMF .             Drill Floor:  DRILL MEAS FROM
 STIM.      13.47.44 07-Jun-20:  START TIME
 DATE.      13.47.44 27-Jul-20:  END TIME
 SPUD.               07-Jun-20:  SPUD DATE
 NREF.                    Grid:  NORTH REFERENCE
 HPTY.       Minimum Curvature:  HOLE POS TYPE
 DMOD.             Drill Model:  DRILL MOD DESC
 SVYD.                  Survey:  SURVEY DESC
 ILTD.               Lithology:  INTERP LTH DESC
 FTOP.          Formation Tops:  FORM TOPS DESC
 RIG .             West Chirag:  RIG NAME
 PDAT.          Mean Sea Level:  PERMANENT DATUM
 FLD .                     ACG:  FIELD NAME
 SON .        AZ-XX-0906363612:  JOB NUMBER
 CTRY.              Azerbaijan:  COUNTRY NAME
 WELL.           J25 (Slot 35):  WELL NAME
 SRVC.          Turan Drilling:  CONTRACTOR
 COMP.     BP Exploration (Caspian Sea) Ltd:  COMPANY
 UWI .                     N/A:  UNIQUE WELL IDENTIFIER
 API .                     N/A:  API NUMBER
 BASE.              Azerbaijan:  LOGGING EQUIPMENT BASE LOCATION
 REGN.                   EESSA:  REGION
 PROV.                    Baku:  PROVINCE
 STAT.                    Baku:  STATE NAME
 MWDS.                     N/A:  MWD SHOP
 DOE .                     N/A:  DOE NUMBER
 DCON.         Sperry Drilling:  DIRECTNL CONTR
 UNIT.                     N/A:  LOGGING EQUIPMENT ID
 MDS .        Operator Entered:  MAG DATA SOURCE
 JOBN.        AZ-XX-0906363612:  JOB TICKET NUMB
 WTYP.                Deviated:  WELL TYPE
 CNTY.                        :  COUNTY
 LOC .                        :  LOCATION
 LMF .             Drill Floor:  LOG MEASURED FROM
 TVDS.m                  43.00:  TVDSS CORRECTN
 LATI.deg                40.13:  LATITUDE
 LONG.deg                51.22:  LONGITUDE
 WHNS.m                  -7.90:  WELL HEAD N/S
 WHEW.m                  -3.35:  WELL HEAD E/W
 UTMX.m              519005.06:  UTM X
 UTMY.m             4443793.85:  UTM Y
 DFWL.m                   0.00:  DISTANCE FWL
 DFSL.m                   0.00:  DISTANCE FSL
 SDEP.m                   0.00:  START DEPTH
 TDD .m                   0.00:  TOTAL DEPTH (DRILLER)
 VSDR.deg               308.97:  VERT SEC DIRECT
 GVFD.g                   1.00:  GRAVITY FIELD
 MFLD.nT              50350.00:  MAGNETIC FIELD
 MDIP.deg                59.62:  MAGNETIC DIP
 MDEC.deg                 6.44:  MAGNETIC DECL
 GRDC.deg                 0.13:  GRID CORRECTION
 AZTC.deg                 6.32:  AZM TOTAL CORR
 EPD .m                   0.00:  ELEVATION
 EGL .m                   0.00:  GROUND ELEVATION
 WDMS.m                 169.80:  WD ELEV
 APD .m                  43.00:  DEPTH ABOVE PD
 DEP .m                 356.43:  DEPTH
 AGAP.m                  43.00:  AIR GAP
 VSEW.m                  -3.35:  VERT SEC E/W
 VSNS.m                  -7.90:  VERT SEC N/S
 EKB .m                  43.00:  KB ELEVATION
 EDF .m                  43.00:  DF ELEVATION
 TDL .m                 934.00:  TOTAL DEPTH (LOGGER)
 VSC .                       0:  VS TO CLOSURE
 MAGU.                 1852825:  MAGUTM CHECKSUM
~Parameter Information Block
#MNEM.UNIT       Value        Description
#---------     -----------    ---------------------------
 AV  .mps                 0.80:  Ann Velocity 
 AVMX.mps                 1.70:  Max Ann Veloc 
 AZIF.deg               311.41:  Azm, Final 
 BHAT.        Rotary Steerable:  BHA Type 
 BROT.°/30m               0.09:  Build Rotating 
 BS  .in                 12.25:  Bit Size 
 BSZ .in                 12.25:  Bit Size 
 BTPL.psig              800.00:  Bit Press Loss 
 CABU.                      No:  Customer Abuse 
 COMM.                     ¼’n:  Run Comments 1 
 TCS .hr                 96.00:  Time Ciculation Ended 
 CV  .mps                 2.03:  Crit Velocity 
 CVMX.mps                 2.42:  Max Crit Veloc 
 DD1 .          Taghi Taghiyev:  Direct Drillr 1 
 DD2 .      Tariel Pirmammadov:  Direct Drillr 2 
 DD3 .          Teymur Aghayev:  Direct Drillr 3 
 DDSV.                 iCruise:  DD Service 
 DEFF.%                  98.70:  % Det Eff 
 DLRX.°/30m               1.00:  Dogleg Rot Max 
 DLSO.°/30m               1.80:  Dogleg Oriented 
 DLSX.°/30m               3.16:  Dogleg Str Max 
 DRET.      15.00.00 07-Aug-20:  Drill End Time 
 DRST.      17.00.00 02-Aug-20:  Drill Start Tim 
 DTIM.hr                 45.90:  Time Drilling 
 EDEP.m                5298.01:  End Depth 
 ENG1.       Seymur Iskandarov:  Engineer 1 
 ENG2.         Yevgeniy Ulikov:  Engineer 2 
 ENG3.      Artemiy Matviyanov:  Engineer 3 
 ENG4.         Bahruz Mehdiyev:  Engineer 4 
 ETIM.      05.00.00 10-Aug-20:  End Time 
 FLOI.gpm              1150.00:  Flow In 
 FLON.gpm               900.00:  Flow In Min 
 FLOS.cptm                0.00:  Fluid Loss 
 FLOX.gpm              1200.00:  Flow In Max 
 FTRO.     Connectivity, Formation Presure:  FTWD Run Obj 
 HFLO.                      No:  High Flow 
 HPRE.                     Yes:  High Pressure 
 HTEM.                      No:  High Temp 
 HYDO.m                   1.80:  Hydro Offset 
 IFIN.deg                 9.71:  Inc, Final 
 IMAX.deg                63.81:  Inc Max 
 IMIN.deg                 9.53:  Inc Min 
 IMND.m                5075.52:  Inc Min Depth 
 IMXD.m                4367.08:  Inc Max Depth 
 JARR.                      No:  Jarring 
 LETM.      15.00.00 07-Aug-20:  Log End Time 
 LOST.hr                     2:  Lost Rig Time 
 LSTM.      17.00.00 02-Aug-20:  Log Start Time 
 MDCL.ppm             42500.00:  Mud Chlorides 
 MDES.     Inversion Oil/Synthetic:  Mud Desc 
 DFD .sg                  1.46:  Mud Density 
 MDMN.sg                  1.46:  Dens Mud Min 
 MDMX.sg                  1.46:  Dens Mud Max 
 MOIL.                      56:  Run Mud Oil % 
 MOWR.                   70:30:  Run Mud OWR 
 MSND.                     0.1:  Run Mud Sand % 
 MSOL.                      19:  Run Mud Solids% 
 DFV .spqt               83.00:  Mud Viscosity 
 MWOD.in                  8.00:  MWD Tool OD 
 MWSI.                     Yes:  Serv Intrp, MWD 
 OTIM.hr                196.57:  Time Operating 
 PCON.           Look Like New:  Pad Condition 
 PMAX.psia             7400.00:  Press Op, Max 
 PV  .cP                 36.00:  Mud PV 
 RUN .                    1000:  Run Number 
 ROPA.m/hr               25.00:  ROP Avg 
 ROPN.m/hr               10.00:  ROP Min 
 ROPX.m/hr               32.00:  ROP Max 
 RPMA.rpm               120.00:  RPM Surface Avg 
 RPMN.rpm               100.00:  RPM Surface Min 
 RPMX.rpm               140.00:  RPM Surface Max 
 RRUN.                    L504:  Rig Run Number 
 SAZI.deg               308.25:  Azm, Start 
 SDEP.m                4364.01:  Start Depth 
 SIDD.                      No:  Serv Intrp, DD 
 SINC.deg                63.81:  Inc, Start 
 SPPA.psig             5800.00:  SPP Avg 
 SPPN.psig             4200.00:  SPP Min 
 SPPX.psig             5950.00:  SPP Max 
 STIM.      18.00.00 01-Aug-20:  Start Time 
 SVCS.                 DD, MWD:  Services 
 SVER.                    9.20:  Sperry Version 
 TDAT.m                 934.00:  Tot Depth Attmp 
 TDDF.                      No:  Trip for DD 
 TDLG.m                 934.00:  Tot Depth Loggd 
 TFF .                      No:  Trip for Fail 
 TQAA.f-kp               31.00:  Torque Abs Avg 
 TQAN.f-kp               25.00:  Torque Abs Min 
 TQAX.f-kp               35.00:  Torque Abs Max 
 TRRT.°/30m              -0.75:  Turn Rotating 
 MRT .                  EWR-M5:  Maximum Recorded Temperature 
 TTMX.degC               95.00:  Max Tool Temp 
 VS01.                90516060:  Virtual Str1 SN 
 VS02.                90528488:  Virtual Str2 SN 
 VS03.                90577970:  Virtual Str3 SN 
 VS04.                12385033:  Virtual Str4 SN 
 VS05.                90522069:  Virtual Str5 SN 
 VS06.                13124134:  Virtual Str6 SN 
 WBMN.klb                20.00:  WOB Min 
 WITN.         Alistair Sprott:  Customer Rep 
 WITN.     Ronal van der Kraan:  Customer Rep 2 
 WOBA.klb                25.00:  WOB Avg 
 WOBX.klb                31.00:  WOB Max 
 YP  .lhf2               32.00:  Yield Point 
~Curve Information Block
#MNEM.UNIT                 API CODE     Curve Description
#---------               -----------    ---------------------------
 TIME.HHMMSS            00 000 000 000:  GT Time & Date
 GTDEPTH.m              00 000 000 000:  GT Depth
 GTPQH.psia             00 000 000 000:  GT HR Quartz Pressure
 GTTQ.degC              00 000 000 000:  GT Quartz Temperature
 GTTN.NONE              00 000 000 000:  GT Test Number
 GTET.sec               00 000 000 000:  GT Elapsed Test Time
 GTTVD.m                00 000 000 000:  GT True Vertical Depth
#Other Information
#
#WARRANTY: Halliburton will use its best efforts to furnish customers with 
#accurate information and interpretations that are part of, and incident to, the services 
#provided.  However, Halliburton cannot and does not warrant the accuracy 
#or correctness of such information and interpretations.  Under no circumstances should any 
#such information or interpretation be relied upon as the sole basis for any drilling, 
#completion, production, or financial decision or any procedure involving any risk to the 
#safety of any drilling venture, drilling rig or its crew or any other third party.  The 
#Customer has full responsibility for all drilling, completion and production operation.  
#Halliburton makes no representations or warranties, either expressed or 
#implied, including, but not limited to, the implied warranties of merchantability or fitness 
#for a particular purpose, with respect to the services rendered.  In no event will 
#Halliburton be liable for failure to obtain any particular results or for 
#any damages, including, but not limited to, indirect, special or consequential damages, 
#resulting from the use of any information or interpretation provided by Halliburton.
#
~A           TIME           GTDEPTH  GTPQH  GTTQ  GTTN  GTET   GTTVD  
# ...
   08:30:36.324.08-Aug-2020 5149.01 4344.77 76.74 6.00 184.10 3335.00
   08:30:36.525.08-Aug-2020 5149.01 4344.77 76.74 6.00 184.30 3335.00
   08:30:36.725.08-Aug-2020 5149.01 4344.80 76.74 6.00 184.50 3335.00
   08:30:36.925.08-Aug-2020 5149.01 4344.80 76.74 6.00 184.70 3335.00
   08:30:37.125.08-Aug-2020 5149.01 4344.78 76.74 6.00 184.90 3335.00
   08:30:37.325.08-Aug-2020 5149.01 4344.86 76.74 6.00 185.10 3335.00
   08:30:37.525.08-Aug-2020 5149.01 4344.86 76.74 6.00 185.30 3335.00
   08:30:37.725.08-Aug-2020 5149.01 4344.84 76.74 6.00 185.50 3335.00
   08:30:37.925.08-Aug-2020 5149.01 4344.79 76.74 6.00 185.70 3335.00
   08:30:38.125.08-Aug-2020 5149.01 4344.80 76.74 6.00 185.90 3335.00
   08:30:38.326.08-Aug-2020 5149.01 4344.85 76.74 6.00 186.10 3335.00
   08:30:38.526.08-Aug-2020 5149.01 4344.85 76.74 6.00 186.30 3335.00
   08:30:38.726.08-Aug-2020 5149.01 4344.85 76.74 6.00 186.50 3335.00
   08:30:38.926.08-Aug-2020 5149.01 4344.79 76.74 6.00 186.70 3335.00
   08:30:39.126.08-Aug-2020 5149.01 4344.79 76.74 6.00 186.90 3335.00
   08:30:39.326.08-Aug-2020 5149.01 4344.95 76.74 6.00 187.10 3335.00
   08:30:39.526.08-Aug-2020 5149.01 4344.95 76.74 6.00 187.30 3335.00
   08:30:39.726.08-Aug-2020 5149.01 4344.94 76.74 6.00 187.50 3335.00
   08:30:39.926.08-Aug-2020 5149.01 4344.77 76.74 6.00 187.70 3335.00
   08:30:40.126.08-Aug-2020 5149.01 4344.78 76.74 6.00 187.90 3335.00
   08:30:40.327.08-Aug-2020 5149.01 4344.75 76.74 6.00 188.10 3335.00
   08:30:40.527.08-Aug-2020 5149.01 4344.75 76.74 6.00 188.30 3335.00
   08:30:40.727.08-Aug-2020 5149.01 4344.80 76.74 6.00 188.50 3335.00
   08:30:40.927.08-Aug-2020 5149.01 4345.02 76.74 6.00 188.70 3335.00
   08:30:41.127.08-Aug-2020 5149.01 4344.74 76.74 6.00 188.90 3335.00
   08:30:41.327.08-Aug-2020 5149.01 4344.77 76.74 6.00 189.10 3335.00
   08:30:41.527.08-Aug-2020 5149.01 4344.77 76.74 6.00 189.30 3335.00
   08:30:41.727.08-Aug-2020 5149.01 4344.78 76.74 6.00 189.50 3335.00
   08:30:41.927.08-Aug-2020 5149.01 4344.91 76.74 6.00 189.70 3335.00
   08:30:42.128.08-Aug-2020 5149.01 4344.88 76.74 6.00 189.90 3335.00
   08:30:42.328.08-Aug-2020 5149.01 4344.74 76.74 6.00 190.10 3335.00
   08:30:42.528.08-Aug-2020 5149.01 4344.74 76.74 6.00 190.30 3335.00
   08:30:42.728.08-Aug-2020 5149.01 4344.83 76.74 6.00 190.50 3335.00
   08:30:42.928.08-Aug-2020 5149.01 4344.99 76.74 6.00 190.70 3335.00
   08:30:43.128.08-Aug-2020 5149.01 4344.71 76.74 6.00 190.90 3335.00
   08:30:43.328.08-Aug-2020 5149.01 4344.79 76.74 6.00 191.10 3335.00
   08:30:43.528.08-Aug-2020 5149.01 4344.79 76.74 6.00 191.30 3335.00
   08:30:43.728.08-Aug-2020 5149.01 4344.82 76.74 6.00 191.50 3335.00
   08:30:43.929.08-Aug-2020 5149.01 4344.81 76.74 6.00 191.70 3335.00
   08:30:44.129.08-Aug-2020 5149.01 4344.80 76.74 6.00 191.90 3335.00
   08:30:44.329.08-Aug-2020 5149.01 4344.79 76.74 6.00 192.10 3335.00
   08:30:44.529.08-Aug-2020 5149.01 4344.79 76.74 6.00 192.30 3335.00
   08:30:44.729.08-Aug-2020 5149.01 4344.82 76.74 6.00 192.50 3335.00
   08:30:44.929.08-Aug-2020 5149.01 4344.84 76.74 6.00 192.70 3335.00
   08:30:45.129.08-Aug-2020 5149.01 4344.82 76.74 6.00 192.90 3335.00
   08:30:45.329.08-Aug-2020 5149.01 4344.89 76.74 6.00 193.10 3335.00
   08:30:45.529.08-Aug-2020 5149.01 4344.89 76.74 6.00 193.30 3335.00
   08:30:45.729.08-Aug-2020 5149.01 4345.10 76.74 6.00 193.50 3335.00
   08:30:45.930.08-Aug-2020 5149.01 4344.48 76.74 6.00 193.70 3335.00
   08:30:46.130.08-Aug-2020 5149.01 4345.22 76.74 6.00 193.90 3335.00
   08:30:46.330.08-Aug-2020 5149.01 4344.75 76.74 6.00 194.10 3335.00
   08:30:46.530.08-Aug-2020 5149.01 4344.88 76.74 6.00 194.30 3335.00
   08:30:46.730.08-Aug-2020 5149.01 4344.74 76.74 6.00 194.50 3335.00
   08:30:46.930.08-Aug-2020 5149.01 4344.79 76.74 6.00 194.70 3335.00
   08:30:47.130.08-Aug-2020 5149.01 4344.86 76.74 6.00 194.90 3335.00
   08:30:47.330.08-Aug-2020 5149.01 4344.77 76.74 6.00 195.10 3335.00
   08:30:47.530.08-Aug-2020 5149.01 4344.81 76.74 6.00 195.30 3335.00
   08:30:47.731.08-Aug-2020 5149.01 4344.87 76.74 6.00 195.50 3335.00
   08:30:47.931.08-Aug-2020 5149.01 4344.73 76.74 6.00 195.70 3335.00
   08:30:48.131.08-Aug-2020 5149.01 4344.95 76.74 6.00 195.90 3335.00
   08:30:48.331.08-Aug-2020 5149.01 4344.80 76.74 6.00 196.10 3335.00
   08:30:48.531.08-Aug-2020 5149.01 4344.80 76.74 6.00 196.30 3335.00
   08:30:48.731.08-Aug-2020 5149.01 4344.90 76.74 6.00 196.50 3335.00
   08:30:48.931.08-Aug-2020 5149.01 4344.88 76.74 6.00 196.70 3335.00
   08:30:49.131.08-Aug-2020 5149.01 4344.91 76.74 6.00 196.90 3335.00
   08:30:49.331.08-Aug-2020 5149.01 4344.80 76.74 6.00 197.10 3335.00
   08:30:49.531.08-Aug-2020 5149.01 4344.80 76.74 6.00 197.30 3335.00
   08:30:49.732.08-Aug-2020 5149.01 4344.85 76.74 6.00 197.50 3335.00
   08:30:49.932.08-Aug-2020 5149.01 4344.87 76.74 6.00 197.70 3335.00
   08:30:50.132.08-Aug-2020 5149.01 4344.90 76.74 6.00 197.90 3335.00
   08:30:50.332.08-Aug-2020 5149.01 4344.77 76.74 6.00 198.10 3335.00
   08:30:50.532.08-Aug-2020 5149.01 4344.77 76.74 6.00 198.30 3335.00
   08:30:50.732.08-Aug-2020 5149.01 4344.77 76.74 6.00 198.51 3335.00
   08:30:50.932.08-Aug-2020 5149.01 4344.83 76.74 6.00 198.71 3335.00
   08:30:51.132.08-Aug-2020 5149.01 4344.80 76.74 6.00 198.91 3335.00
   08:30:51.332.08-Aug-2020 5149.01 4344.92 76.74 6.00 199.11 3335.00
   08:30:51.533.08-Aug-2020 5149.01 4344.74 76.74 6.00 199.31 3335.00
   08:30:51.733.08-Aug-2020 5149.01 4345.00 76.74 6.00 199.51 3335.00
   08:30:51.933.08-Aug-2020 5149.01 4344.74 76.74 6.00 199.71 3335.00
   08:30:52.133.08-Aug-2020 5149.01 4344.83 76.74 6.00 199.91 3335.00
   08:30:52.333.08-Aug-2020 5149.01 4344.95 76.74 6.00 200.11 3335.00
   08:30:52.533.08-Aug-2020 5149.01 4344.95 76.74 6.00 200.31 3335.00
   08:30:52.733.08-Aug-2020 5149.01 4344.95 76.74 6.00 200.51 3335.00
   08:30:52.933.08-Aug-2020 5149.01 4344.80 76.74 6.00 200.71 3335.00
   08:30:53.133.08-Aug-2020 5149.01 4344.82 76.74 6.00 200.91 3335.00
   08:30:53.333.08-Aug-2020 5149.01 4344.88 76.74 6.00 201.11 3335.00
   08:30:53.534.08-Aug-2020 5149.01 4344.80 76.74 6.00 201.31 3335.00
   08:30:53.734.08-Aug-2020 5149.01 4344.79 76.74 6.00 201.51 3335.00
   08:30:53.934.08-Aug-2020 5149.01 4344.93 76.74 6.00 201.71 3335.00
   08:30:54.134.08-Aug-2020 5149.01 4344.78 76.74 6.00 201.91 3335.00
   08:30:54.334.08-Aug-2020 5149.01 4344.77 76.74 6.00 202.11 3335.00
   08:30:54.534.08-Aug-2020 5149.01 4344.77 76.74 6.00 202.31 3335.00
   08:30:54.734.08-Aug-2020 5149.01 4344.71 76.74 6.00 202.51 3335.00
   08:30:54.934.08-Aug-2020 5149.01 4344.24 76.74 6.00 202.71 3335.00
   08:30:55.134.08-Aug-2020 5149.01 4328.12 76.74 6.00 202.91 3335.00
   08:30:55.335.08-Aug-2020 5149.01 4306.74 76.74 6.00 203.11 3335.00
   08:30:55.535.08-Aug-2020 5149.01 4306.74 76.74 6.00 203.31 3335.00
   08:30:55.735.08-Aug-2020 5149.01 4304.53 76.74 6.00 203.51 3335.00
   08:30:55.935.08-Aug-2020 5149.01 4303.72 76.74 6.00 203.71 3335.00
   08:30:56.135.08-Aug-2020 5149.01 4303.32 76.74 6.00 203.91 3335.00
   08:30:56.335.08-Aug-2020 5149.01 4303.33 76.74 6.00 204.11 3335.00
   08:30:56.535.08-Aug-2020 5149.01 4303.33 76.74 6.00 204.31 3335.00
   08:30:56.735.08-Aug-2020 5149.01 4300.97 76.74 6.00 204.51 3335.00
   08:30:56.935.08-Aug-2020 5149.01 4301.98 76.74 6.00 204.71 3335.00
   08:30:57.135.08-Aug-2020 5149.01 4301.85 76.74 6.00 204.91 3335.00
   08:30:57.336.08-Aug-2020 5149.01 4302.15 76.74 6.00 205.11 3335.00
   08:30:57.536.08-Aug-2020 5149.01 4302.15 76.74 6.00 205.31 3335.00
   08:30:57.736.08-Aug-2020 5149.01 4301.69 76.74 6.00 205.51 3335.00
   08:30:57.936.08-Aug-2020 5149.01 4301.13 76.74 6.00 205.71 3335.00
   08:30:58.136.08-Aug-2020 5149.01 4301.25 76.74 6.00 205.91 3335.00
   08:30:58.336.08-Aug-2020 5149.01 4300.57 76.74 6.00 206.11 3335.00
   08:30:58.536.08-Aug-2020 5149.01 4300.57 76.74 6.00 206.31 3335.00
   08:30:58.736.08-Aug-2020 5149.01 4300.71 76.74 6.00 206.51 3335.00
   08:30:58.936.08-Aug-2020 5149.01 4300.57 76.74 6.00 206.71 3335.00
   08:30:59.137.08-Aug-2020 5149.01 4300.54 76.74 6.00 206.91 3335.00
