~Version Information
 VERS.                  2.0:   CWLS log ASCII Standard -VERSION 2.0
 WRAP.                   NO:   One line per depth step
~Well Information Block
#MNEM.UNIT     VALUE/NAME     DESCRIPTION
#---------     -----------    ---------------------------
 STRT.S             08:27:32 08-Aug-20: START TIME 08:27:32 08-Aug-20
 STOP.S             08:36:05 08-Aug-20: STOP TIME  08:36:05 08-Aug-20
 STEP.S                   0.00: STEP TIME
 NULL.                 -999.25: NULL VALUE
 DFWT.                        :  DIST FWL TEXT
 DFST.                        :  DIST FSL TEXT
 DMF .             Drill Floor:  DRILL MEAS FROM
 STIM.      13.47.44 07-Jun-20:  START TIME
 DATE.      13.47.44 27-Jul-20:  END TIME
 SPUD.               07-Jun-20:  SPUD DATE
 NREF.                    Grid:  NORTH REFERENCE
 HPTY.       Minimum Curvature:  HOLE POS TYPE
 DMOD.             Drill Model:  DRILL MOD DESC
 SVYD.                  Survey:  SURVEY DESC
 ILTD.               Lithology:  INTERP LTH DESC
 FTOP.          Formation Tops:  FORM TOPS DESC
 RIG .             West Chirag:  RIG NAME
 PDAT.          Mean Sea Level:  PERMANENT DATUM
 FLD .                     ACG:  FIELD NAME
 SON .        AZ-XX-0906363612:  JOB NUMBER
 CTRY.              Azerbaijan:  COUNTRY NAME
 WELL.           J25 (Slot 35):  WELL NAME
 SRVC.          Turan Drilling:  CONTRACTOR
 COMP.     BP Exploration (Caspian Sea) Ltd:  COMPANY
 UWI .                     N/A:  UNIQUE WELL IDENTIFIER
 API .                     N/A:  API NUMBER
 BASE.              Azerbaijan:  LOGGING EQUIPMENT BASE LOCATION
 REGN.                   EESSA:  REGION
 PROV.                    Baku:  PROVINCE
 STAT.                    Baku:  STATE NAME
 MWDS.                     N/A:  MWD SHOP
 DOE .                     N/A:  DOE NUMBER
 DCON.         Sperry Drilling:  DIRECTNL CONTR
 UNIT.                     N/A:  LOGGING EQUIPMENT ID
 MDS .        Operator Entered:  MAG DATA SOURCE
 JOBN.        AZ-XX-0906363612:  JOB TICKET NUMB
 WTYP.                Deviated:  WELL TYPE
 CNTY.                        :  COUNTY
 LOC .                        :  LOCATION
 LMF .             Drill Floor:  LOG MEASURED FROM
 TVDS.m                  43.00:  TVDSS CORRECTN
 LATI.deg                40.13:  LATITUDE
 LONG.deg                51.22:  LONGITUDE
 WHNS.m                  -7.90:  WELL HEAD N/S
 WHEW.m                  -3.35:  WELL HEAD E/W
 UTMX.m              519005.06:  UTM X
 UTMY.m             4443793.85:  UTM Y
 DFWL.m                   0.00:  DISTANCE FWL
 DFSL.m                   0.00:  DISTANCE FSL
 SDEP.m                   0.00:  START DEPTH
 TDD .m                   0.00:  TOTAL DEPTH (DRILLER)
 VSDR.deg               308.97:  VERT SEC DIRECT
 GVFD.g                   1.00:  GRAVITY FIELD
 MFLD.nT              50350.00:  MAGNETIC FIELD
 MDIP.deg                59.62:  MAGNETIC DIP
 MDEC.deg                 6.44:  MAGNETIC DECL
 GRDC.deg                 0.13:  GRID CORRECTION
 AZTC.deg                 6.32:  AZM TOTAL CORR
 EPD .m                   0.00:  ELEVATION
 EGL .m                   0.00:  GROUND ELEVATION
 WDMS.m                 169.80:  WD ELEV
 APD .m                  43.00:  DEPTH ABOVE PD
 DEP .m                 356.43:  DEPTH
 AGAP.m                  43.00:  AIR GAP
 VSEW.m                  -3.35:  VERT SEC E/W
 VSNS.m                  -7.90:  VERT SEC N/S
 EKB .m                  43.00:  KB ELEVATION
 EDF .m                  43.00:  DF ELEVATION
 TDL .m                 934.00:  TOTAL DEPTH (LOGGER)
 VSC .                       0:  VS TO CLOSURE
 MAGU.                 1852825:  MAGUTM CHECKSUM
~Parameter Information Block
#MNEM.UNIT       Value        Description
#---------     -----------    ---------------------------
 AV  .mps                 0.80:  Ann Velocity 
 AVMX.mps                 1.70:  Max Ann Veloc 
 AZIF.deg               311.41:  Azm, Final 
 BHAT.        Rotary Steerable:  BHA Type 
 BROT.°/30m               0.09:  Build Rotating 
 BS  .in                 12.25:  Bit Size 
 BSZ .in                 12.25:  Bit Size 
 BTPL.psig              800.00:  Bit Press Loss 
 CABU.                      No:  Customer Abuse 
 COMM.                     ¼’n:  Run Comments 1 
 TCS .hr                 96.00:  Time Ciculation Ended 
 CV  .mps                 2.03:  Crit Velocity 
 CVMX.mps                 2.42:  Max Crit Veloc 
 DD1 .          Taghi Taghiyev:  Direct Drillr 1 
 DD2 .      Tariel Pirmammadov:  Direct Drillr 2 
 DD3 .          Teymur Aghayev:  Direct Drillr 3 
 DDSV.                 iCruise:  DD Service 
 DEFF.%                  98.70:  % Det Eff 
 DLRX.°/30m               1.00:  Dogleg Rot Max 
 DLSO.°/30m               1.80:  Dogleg Oriented 
 DLSX.°/30m               3.16:  Dogleg Str Max 
 DRET.      15.00.00 07-Aug-20:  Drill End Time 
 DRST.      17.00.00 02-Aug-20:  Drill Start Tim 
 DTIM.hr                 45.90:  Time Drilling 
 EDEP.m                5298.01:  End Depth 
 ENG1.       Seymur Iskandarov:  Engineer 1 
 ENG2.         Yevgeniy Ulikov:  Engineer 2 
 ENG3.      Artemiy Matviyanov:  Engineer 3 
 ENG4.         Bahruz Mehdiyev:  Engineer 4 
 ETIM.      05.00.00 10-Aug-20:  End Time 
 FLOI.gpm              1150.00:  Flow In 
 FLON.gpm               900.00:  Flow In Min 
 FLOS.cptm                0.00:  Fluid Loss 
 FLOX.gpm              1200.00:  Flow In Max 
 FTRO.     Connectivity, Formation Presure:  FTWD Run Obj 
 HFLO.                      No:  High Flow 
 HPRE.                     Yes:  High Pressure 
 HTEM.                      No:  High Temp 
 HYDO.m                   1.80:  Hydro Offset 
 IFIN.deg                 9.71:  Inc, Final 
 IMAX.deg                63.81:  Inc Max 
 IMIN.deg                 9.53:  Inc Min 
 IMND.m                5075.52:  Inc Min Depth 
 IMXD.m                4367.08:  Inc Max Depth 
 JARR.                      No:  Jarring 
 LETM.      15.00.00 07-Aug-20:  Log End Time 
 LOST.hr                     2:  Lost Rig Time 
 LSTM.      17.00.00 02-Aug-20:  Log Start Time 
 MDCL.ppm             42500.00:  Mud Chlorides 
 MDES.     Inversion Oil/Synthetic:  Mud Desc 
 DFD .sg                  1.46:  Mud Density 
 MDMN.sg                  1.46:  Dens Mud Min 
 MDMX.sg                  1.46:  Dens Mud Max 
 MOIL.                      56:  Run Mud Oil % 
 MOWR.                   70:30:  Run Mud OWR 
 MSND.                     0.1:  Run Mud Sand % 
 MSOL.                      19:  Run Mud Solids% 
 DFV .spqt               83.00:  Mud Viscosity 
 MWOD.in                  8.00:  MWD Tool OD 
 MWSI.                     Yes:  Serv Intrp, MWD 
 OTIM.hr                196.57:  Time Operating 
 PCON.           Look Like New:  Pad Condition 
 PMAX.psia             7400.00:  Press Op, Max 
 PV  .cP                 36.00:  Mud PV 
 RUN .                    1000:  Run Number 
 ROPA.m/hr               25.00:  ROP Avg 
 ROPN.m/hr               10.00:  ROP Min 
 ROPX.m/hr               32.00:  ROP Max 
 RPMA.rpm               120.00:  RPM Surface Avg 
 RPMN.rpm               100.00:  RPM Surface Min 
 RPMX.rpm               140.00:  RPM Surface Max 
 RRUN.                    L504:  Rig Run Number 
 SAZI.deg               308.25:  Azm, Start 
 SDEP.m                4364.01:  Start Depth 
 SIDD.                      No:  Serv Intrp, DD 
 SINC.deg                63.81:  Inc, Start 
 SPPA.psig             5800.00:  SPP Avg 
 SPPN.psig             4200.00:  SPP Min 
 SPPX.psig             5950.00:  SPP Max 
 STIM.      18.00.00 01-Aug-20:  Start Time 
 SVCS.                 DD, MWD:  Services 
 SVER.                    9.20:  Sperry Version 
 TDAT.m                 934.00:  Tot Depth Attmp 
 TDDF.                      No:  Trip for DD 
 TDLG.m                 934.00:  Tot Depth Loggd 
 TFF .                      No:  Trip for Fail 
 TQAA.f-kp               31.00:  Torque Abs Avg 
 TQAN.f-kp               25.00:  Torque Abs Min 
 TQAX.f-kp               35.00:  Torque Abs Max 
 TRRT.°/30m              -0.75:  Turn Rotating 
 MRT .                  EWR-M5:  Maximum Recorded Temperature 
 TTMX.degC               95.00:  Max Tool Temp 
 VS01.                90516060:  Virtual Str1 SN 
 VS02.                90528488:  Virtual Str2 SN 
 VS03.                90577970:  Virtual Str3 SN 
 VS04.                12385033:  Virtual Str4 SN 
 VS05.                90522069:  Virtual Str5 SN 
 VS06.                13124134:  Virtual Str6 SN 
 WBMN.klb                20.00:  WOB Min 
 WITN.         Alistair Sprott:  Customer Rep 
 WITN.     Ronal van der Kraan:  Customer Rep 2 
 WOBA.klb                25.00:  WOB Avg 
 WOBX.klb                31.00:  WOB Max 
 YP  .lhf2               32.00:  Yield Point 
~Curve Information Block
#MNEM.UNIT                 API CODE     Curve Description
#---------               -----------    ---------------------------
 TIME.HHMMSS            00 000 000 000:  GT Time & Date
 GTDEPTH.m              00 000 000 000:  GT Depth
 GTPQH.psia             00 000 000 000:  GT HR Quartz Pressure
 GTTQ.degC              00 000 000 000:  GT Quartz Temperature
 GTTN.NONE              00 000 000 000:  GT Test Number
 GTET.sec               00 000 000 000:  GT Elapsed Test Time
 GTTVD.m                00 000 000 000:  GT True Vertical Depth
#Other Information
#
#WARRANTY: Halliburton will use its best efforts to furnish customers with 
#accurate information and interpretations that are part of, and incident to, the services 
#provided.  However, Halliburton cannot and does not warrant the accuracy 
#or correctness of such information and interpretations.  Under no circumstances should any 
#such information or interpretation be relied upon as the sole basis for any drilling, 
#completion, production, or financial decision or any procedure involving any risk to the 
#safety of any drilling venture, drilling rig or its crew or any other third party.  The 
#Customer has full responsibility for all drilling, completion and production operation.  
#Halliburton makes no representations or warranties, either expressed or 
#implied, including, but not limited to, the implied warranties of merchantability or fitness 
#for a particular purpose, with respect to the services rendered.  In no event will 
#Halliburton be liable for failure to obtain any particular results or for 
#any damages, including, but not limited to, indirect, special or consequential damages, 
#resulting from the use of any information or interpretation provided by Halliburton.
#
~A           TIME           GTDEPTH  GTPQH  GTTQ  GTTN  GTET   GTTVD  
# ...
   08:29:50.300.08-Aug-2020 5149.01 4344.78 76.73 6.00 138.07 3335.00
   08:29:50.500.08-Aug-2020 5149.01 4344.78 76.73 6.00 138.27 3335.00
   08:29:50.700.08-Aug-2020 5149.01 4344.78 76.73 6.00 138.47 3335.00
   08:29:50.900.08-Aug-2020 5149.01 4344.64 76.73 6.00 138.67 3335.00
   08:29:51.101.08-Aug-2020 5149.01 4344.82 76.73 6.00 138.87 3335.00
   08:29:51.301.08-Aug-2020 5149.01 4344.70 76.73 6.00 139.07 3335.00
   08:29:51.501.08-Aug-2020 5149.01 4344.70 76.73 6.00 139.27 3335.00
   08:29:51.701.08-Aug-2020 5149.01 4344.71 76.73 6.00 139.47 3335.00
   08:29:51.901.08-Aug-2020 5149.01 4344.76 76.73 6.00 139.67 3335.00
   08:29:52.101.08-Aug-2020 5149.01 4344.92 76.73 6.00 139.87 3335.00
   08:29:52.301.08-Aug-2020 5149.01 4344.64 76.73 6.00 140.07 3335.00
   08:29:52.501.08-Aug-2020 5149.01 4344.64 76.73 6.00 140.27 3335.00
   08:29:52.701.08-Aug-2020 5149.01 4344.77 76.73 6.00 140.47 3335.00
   08:29:52.902.08-Aug-2020 5149.01 4344.75 76.73 6.00 140.67 3335.00
   08:29:53.102.08-Aug-2020 5149.01 4344.80 76.73 6.00 140.87 3335.00
   08:29:53.302.08-Aug-2020 5149.01 4344.81 76.73 6.00 141.07 3335.00
   08:29:53.502.08-Aug-2020 5149.01 4344.81 76.73 6.00 141.27 3335.00
   08:29:53.702.08-Aug-2020 5149.01 4344.69 76.73 6.00 141.47 3335.00
   08:29:53.902.08-Aug-2020 5149.01 4344.79 76.73 6.00 141.67 3335.00
   08:29:54.102.08-Aug-2020 5149.01 4344.87 76.73 6.00 141.88 3335.00
   08:29:54.302.08-Aug-2020 5149.01 4344.80 76.73 6.00 142.08 3335.00
   08:29:54.502.08-Aug-2020 5149.01 4344.80 76.73 6.00 142.28 3335.00
   08:29:54.702.08-Aug-2020 5149.01 4344.79 76.73 6.00 142.48 3335.00
   08:29:54.903.08-Aug-2020 5149.01 4344.75 76.73 6.00 142.68 3335.00
   08:29:55.103.08-Aug-2020 5149.01 4344.84 76.73 6.00 142.88 3335.00
   08:29:55.303.08-Aug-2020 5149.01 4344.80 76.73 6.00 143.08 3335.00
   08:29:55.503.08-Aug-2020 5149.01 4344.80 76.73 6.00 143.28 3335.00
   08:29:55.703.08-Aug-2020 5149.01 4344.92 76.73 6.00 143.48 3335.00
   08:29:55.903.08-Aug-2020 5149.01 4344.84 76.73 6.00 143.68 3335.00
   08:29:56.103.08-Aug-2020 5149.01 4344.76 76.73 6.00 143.88 3335.00
   08:29:56.303.08-Aug-2020 5149.01 4344.76 76.73 6.00 144.08 3335.00
   08:29:56.503.08-Aug-2020 5149.01 4344.76 76.73 6.00 144.28 3335.00
   08:29:56.704.08-Aug-2020 5149.01 4344.84 76.73 6.00 144.48 3335.00
   08:29:56.904.08-Aug-2020 5149.01 4344.73 76.73 6.00 144.68 3335.00
   08:29:57.104.08-Aug-2020 5149.01 4344.83 76.73 6.00 144.88 3335.00
   08:29:57.304.08-Aug-2020 5149.01 4344.81 76.73 6.00 145.08 3335.00
   08:29:57.504.08-Aug-2020 5149.01 4344.81 76.73 6.00 145.28 3335.00
   08:29:57.704.08-Aug-2020 5149.01 4344.86 76.73 6.00 145.48 3335.00
   08:29:57.904.08-Aug-2020 5149.01 4344.75 76.73 6.00 145.68 3335.00
   08:29:58.104.08-Aug-2020 5149.01 4344.77 76.73 6.00 145.88 3335.00
   08:29:58.304.08-Aug-2020 5149.01 4344.73 76.73 6.00 146.08 3335.00
   08:29:58.504.08-Aug-2020 5149.01 4344.73 76.73 6.00 146.28 3335.00
   08:29:58.705.08-Aug-2020 5149.01 4344.90 76.73 6.00 146.48 3335.00
   08:29:58.905.08-Aug-2020 5149.01 4344.76 76.73 6.00 146.68 3335.00
   08:29:59.105.08-Aug-2020 5149.01 4344.89 76.73 6.00 146.88 3335.00
   08:29:59.305.08-Aug-2020 5149.01 4344.66 76.73 6.00 147.08 3335.00
   08:29:59.505.08-Aug-2020 5149.01 4344.66 76.73 6.00 147.28 3335.00
   08:29:59.705.08-Aug-2020 5149.01 4344.86 76.73 6.00 147.48 3335.00
   08:29:59.905.08-Aug-2020 5149.01 4344.75 76.73 6.00 147.68 3335.00
   08:30:00.105.08-Aug-2020 5149.01 4344.91 76.73 6.00 147.88 3335.00
   08:30:00.305.08-Aug-2020 5149.01 4344.71 76.73 6.00 148.08 3335.00
   08:30:00.506.08-Aug-2020 5149.01 4344.71 76.73 6.00 148.28 3335.00
   08:30:00.706.08-Aug-2020 5149.01 4344.86 76.73 6.00 148.48 3335.00
   08:30:00.906.08-Aug-2020 5149.01 4344.89 76.73 6.00 148.68 3335.00
   08:30:01.106.08-Aug-2020 5149.01 4344.65 76.73 6.00 148.88 3335.00
   08:30:01.306.08-Aug-2020 5149.01 4344.74 76.73 6.00 149.08 3335.00
   08:30:01.506.08-Aug-2020 5149.01 4344.74 76.73 6.00 149.28 3335.00
   08:30:01.706.08-Aug-2020 5149.01 4344.79 76.73 6.00 149.48 3335.00
   08:30:01.906.08-Aug-2020 5149.01 4344.75 76.73 6.00 149.68 3335.00
   08:30:02.106.08-Aug-2020 5149.01 4344.78 76.73 6.00 149.88 3335.00
   08:30:02.306.08-Aug-2020 5149.01 4344.77 76.73 6.00 150.08 3335.00
   08:30:02.507.08-Aug-2020 5149.01 4344.76 76.73 6.00 150.28 3335.00
   08:30:02.707.08-Aug-2020 5149.01 4344.83 76.73 6.00 150.48 3335.00
   08:30:02.907.08-Aug-2020 5149.01 4344.78 76.73 6.00 150.68 3335.00
   08:30:03.107.08-Aug-2020 5149.01 4344.82 76.73 6.00 150.88 3335.00
   08:30:03.307.08-Aug-2020 5149.01 4344.78 76.73 6.00 151.08 3335.00
   08:30:03.507.08-Aug-2020 5149.01 4344.79 76.73 6.00 151.28 3335.00
   08:30:03.707.08-Aug-2020 5149.01 4344.81 76.73 6.00 151.48 3335.00
   08:30:03.907.08-Aug-2020 5149.01 4344.78 76.73 6.00 151.68 3335.00
   08:30:04.107.08-Aug-2020 5149.01 4344.89 76.73 6.00 151.88 3335.00
   08:30:04.308.08-Aug-2020 5149.01 4344.86 76.73 6.00 152.08 3335.00
   08:30:04.508.08-Aug-2020 5149.01 4344.86 76.73 6.00 152.28 3335.00
   08:30:04.708.08-Aug-2020 5149.01 4344.74 76.73 6.00 152.48 3335.00
   08:30:04.908.08-Aug-2020 5149.01 4344.84 76.73 6.00 152.68 3335.00
   08:30:05.108.08-Aug-2020 5149.01 4344.85 76.73 6.00 152.88 3335.00
   08:30:05.308.08-Aug-2020 5149.01 4344.82 76.73 6.00 153.08 3335.00
   08:30:05.508.08-Aug-2020 5149.01 4344.84 76.73 6.00 153.28 3335.00
   08:30:05.708.08-Aug-2020 5149.01 4344.73 76.73 6.00 153.48 3335.00
   08:30:05.908.08-Aug-2020 5149.01 4344.91 76.73 6.00 153.68 3335.00
   08:30:06.108.08-Aug-2020 5149.01 4344.87 76.73 6.00 153.88 3335.00
   08:30:06.309.08-Aug-2020 5149.01 4344.73 76.73 6.00 154.08 3335.00
   08:30:06.509.08-Aug-2020 5149.01 4344.73 76.73 6.00 154.28 3335.00
   08:30:06.709.08-Aug-2020 5149.01 4344.84 76.73 6.00 154.48 3335.00
   08:30:06.909.08-Aug-2020 5149.01 4344.84 76.73 6.00 154.68 3335.00
   08:30:07.109.08-Aug-2020 5149.01 4344.80 76.73 6.00 154.88 3335.00
   08:30:07.309.08-Aug-2020 5149.01 4344.93 76.73 6.00 155.08 3335.00
   08:30:07.509.08-Aug-2020 5149.01 4344.93 76.73 6.00 155.28 3335.00
   08:30:07.709.08-Aug-2020 5149.01 4344.72 76.73 6.00 155.48 3335.00
   08:30:07.909.08-Aug-2020 5149.01 4345.11 76.73 6.00 155.68 3335.00
   08:30:08.110.08-Aug-2020 5149.01 4344.79 76.73 6.00 155.88 3335.00
   08:30:08.310.08-Aug-2020 5149.01 4344.90 76.73 6.00 156.08 3335.00
   08:30:08.510.08-Aug-2020 5149.01 4344.90 76.73 6.00 156.28 3335.00
   08:30:08.710.08-Aug-2020 5149.01 4344.90 76.73 6.00 156.48 3335.00
   08:30:08.910.08-Aug-2020 5149.01 4344.69 76.73 6.00 156.68 3335.00
   08:30:09.110.08-Aug-2020 5149.01 4344.92 76.73 6.00 156.88 3335.00
   08:30:09.310.08-Aug-2020 5149.01 4344.74 76.73 6.00 157.08 3335.00
   08:30:09.510.08-Aug-2020 5149.01 4344.74 76.73 6.00 157.28 3335.00
   08:30:09.710.08-Aug-2020 5149.01 4344.78 76.73 6.00 157.48 3335.00
   08:30:09.911.08-Aug-2020 5149.01 4344.95 76.73 6.00 157.68 3335.00
   08:30:10.111.08-Aug-2020 5149.01 4344.62 76.73 6.00 157.88 3335.00
   08:30:10.311.08-Aug-2020 5149.01 4344.96 76.73 6.00 158.08 3335.00
   08:30:10.511.08-Aug-2020 5149.01 4344.96 76.73 6.00 158.28 3335.00
   08:30:10.711.08-Aug-2020 5149.01 4344.95 76.73 6.00 158.48 3335.00
   08:30:10.911.08-Aug-2020 5149.01 4344.64 76.73 6.00 158.68 3335.00
   08:30:11.111.08-Aug-2020 5149.01 4344.94 76.73 6.00 158.88 3335.00
   08:30:11.311.08-Aug-2020 5149.01 4344.75 76.73 6.00 159.08 3335.00
   08:30:11.511.08-Aug-2020 5149.01 4344.75 76.73 6.00 159.28 3335.00
   08:30:11.711.08-Aug-2020 5149.01 4344.80 76.73 6.00 159.48 3335.00
   08:30:11.912.08-Aug-2020 5149.01 4344.71 76.73 6.00 159.68 3335.00
   08:30:12.112.08-Aug-2020 5149.01 4344.83 76.73 6.00 159.88 3335.00
   08:30:12.312.08-Aug-2020 5149.01 4344.73 76.73 6.00 160.08 3335.00
   08:30:12.512.08-Aug-2020 5149.01 4344.73 76.73 6.00 160.28 3335.00
   08:30:12.712.08-Aug-2020 5149.01 4344.83 76.73 6.00 160.48 3335.00
   08:30:12.912.08-Aug-2020 5149.01 4344.77 76.73 6.00 160.69 3335.00
   08:30:13.112.08-Aug-2020 5149.01 4344.79 76.73 6.00 160.89 3335.00
