~Version Information
 VERS.                  2.0:   CWLS log ASCII Standard -VERSION 2.0
 WRAP.                   NO:   One line per depth step
~Well Information Block
#MNEM.UNIT     VALUE/NAME     DESCRIPTION
#---------     -----------    ---------------------------
 STRT.S             07:09:07 08-Aug-20: START TIME 07:09:07 08-Aug-20
 STOP.S             07:17:38 08-Aug-20: STOP TIME  07:17:38 08-Aug-20
 STEP.S                   0.00: STEP TIME
 NULL.                 -999.25: NULL VALUE
 DFWT.                        :  DIST FWL TEXT
 DFST.                        :  DIST FSL TEXT
 DMF .             Drill Floor:  DRILL MEAS FROM
 STIM.      13.47.44 07-Jun-20:  START TIME
 DATE.      13.47.44 27-Jul-20:  END TIME
 SPUD.               07-Jun-20:  SPUD DATE
 NREF.                    Grid:  NORTH REFERENCE
 HPTY.       Minimum Curvature:  HOLE POS TYPE
 DMOD.             Drill Model:  DRILL MOD DESC
 SVYD.                  Survey:  SURVEY DESC
 ILTD.               Lithology:  INTERP LTH DESC
 FTOP.          Formation Tops:  FORM TOPS DESC
 RIG .             West Chirag:  RIG NAME
 PDAT.          Mean Sea Level:  PERMANENT DATUM
 FLD .                     ACG:  FIELD NAME
 SON .        AZ-XX-0906363612:  JOB NUMBER
 CTRY.              Azerbaijan:  COUNTRY NAME
 WELL.           J25 (Slot 35):  WELL NAME
 SRVC.          Turan Drilling:  CONTRACTOR
 COMP.     BP Exploration (Caspian Sea) Ltd:  COMPANY
 UWI .                     N/A:  UNIQUE WELL IDENTIFIER
 API .                     N/A:  API NUMBER
 BASE.              Azerbaijan:  LOGGING EQUIPMENT BASE LOCATION
 REGN.                   EESSA:  REGION
 PROV.                    Baku:  PROVINCE
 STAT.                    Baku:  STATE NAME
 MWDS.                     N/A:  MWD SHOP
 DOE .                     N/A:  DOE NUMBER
 DCON.         Sperry Drilling:  DIRECTNL CONTR
 UNIT.                     N/A:  LOGGING EQUIPMENT ID
 MDS .        Operator Entered:  MAG DATA SOURCE
 JOBN.        AZ-XX-0906363612:  JOB TICKET NUMB
 WTYP.                Deviated:  WELL TYPE
 CNTY.                        :  COUNTY
 LOC .                        :  LOCATION
 LMF .             Drill Floor:  LOG MEASURED FROM
 TVDS.m                  43.00:  TVDSS CORRECTN
 LATI.deg                40.13:  LATITUDE
 LONG.deg                51.22:  LONGITUDE
 WHNS.m                  -7.90:  WELL HEAD N/S
 WHEW.m                  -3.35:  WELL HEAD E/W
 UTMX.m              519005.06:  UTM X
 UTMY.m             4443793.85:  UTM Y
 DFWL.m                   0.00:  DISTANCE FWL
 DFSL.m                   0.00:  DISTANCE FSL
 SDEP.m                   0.00:  START DEPTH
 TDD .m                   0.00:  TOTAL DEPTH (DRILLER)
 VSDR.deg               308.97:  VERT SEC DIRECT
 GVFD.g                   1.00:  GRAVITY FIELD
 MFLD.nT              50350.00:  MAGNETIC FIELD
 MDIP.deg                59.62:  MAGNETIC DIP
 MDEC.deg                 6.44:  MAGNETIC DECL
 GRDC.deg                 0.13:  GRID CORRECTION
 AZTC.deg                 6.32:  AZM TOTAL CORR
 EPD .m                   0.00:  ELEVATION
 EGL .m                   0.00:  GROUND ELEVATION
 WDMS.m                 169.80:  WD ELEV
 APD .m                  43.00:  DEPTH ABOVE PD
 DEP .m                 356.43:  DEPTH
 AGAP.m                  43.00:  AIR GAP
 VSEW.m                  -3.35:  VERT SEC E/W
 VSNS.m                  -7.90:  VERT SEC N/S
 EKB .m                  43.00:  KB ELEVATION
 EDF .m                  43.00:  DF ELEVATION
 TDL .m                 934.00:  TOTAL DEPTH (LOGGER)
 VSC .                       0:  VS TO CLOSURE
 MAGU.                 1852825:  MAGUTM CHECKSUM
~Parameter Information Block
#MNEM.UNIT       Value        Description
#---------     -----------    ---------------------------
 AV  .mps                 0.80:  Ann Velocity 
 AVMX.mps                 1.70:  Max Ann Veloc 
 AZIF.deg               311.41:  Azm, Final 
 BHAT.        Rotary Steerable:  BHA Type 
 BROT.°/30m               0.09:  Build Rotating 
 BS  .in                 12.25:  Bit Size 
 BSZ .in                 12.25:  Bit Size 
 BTPL.psig              800.00:  Bit Press Loss 
 CABU.                      No:  Customer Abuse 
 COMM.                     „Òs:  Run Comments 1 
 TCS .hr                 96.00:  Time Ciculation Ended 
 CV  .mps                 2.03:  Crit Velocity 
 CVMX.mps                 2.42:  Max Crit Veloc 
 DD1 .          Taghi Taghiyev:  Direct Drillr 1 
 DD2 .      Tariel Pirmammadov:  Direct Drillr 2 
 DD3 .          Teymur Aghayev:  Direct Drillr 3 
 DDSV.                 iCruise:  DD Service 
 DEFF.%                  98.70:  % Det Eff 
 DLRX.°/30m               1.00:  Dogleg Rot Max 
 DLSO.°/30m               1.80:  Dogleg Oriented 
 DLSX.°/30m               3.16:  Dogleg Str Max 
 DRET.      15.00.00 07-Aug-20:  Drill End Time 
 DRST.      17.00.00 02-Aug-20:  Drill Start Tim 
 DTIM.hr                 45.90:  Time Drilling 
 EDEP.m                5298.01:  End Depth 
 ENG1.       Seymur Iskandarov:  Engineer 1 
 ENG2.         Yevgeniy Ulikov:  Engineer 2 
 ENG3.      Artemiy Matviyanov:  Engineer 3 
 ENG4.         Bahruz Mehdiyev:  Engineer 4 
 ETIM.      05.00.00 10-Aug-20:  End Time 
 FLOI.gpm              1150.00:  Flow In 
 FLON.gpm               900.00:  Flow In Min 
 FLOS.cptm                0.00:  Fluid Loss 
 FLOX.gpm              1200.00:  Flow In Max 
 FTRO.     Connectivity, Formation Presure:  FTWD Run Obj 
 HFLO.                      No:  High Flow 
 HPRE.                     Yes:  High Pressure 
 HTEM.                      No:  High Temp 
 HYDO.m                   1.80:  Hydro Offset 
 IFIN.deg                 9.71:  Inc, Final 
 IMAX.deg                63.81:  Inc Max 
 IMIN.deg                 9.53:  Inc Min 
 IMND.m                5075.52:  Inc Min Depth 
 IMXD.m                4367.08:  Inc Max Depth 
 JARR.                      No:  Jarring 
 LETM.      15.00.00 07-Aug-20:  Log End Time 
 LOST.hr                     2:  Lost Rig Time 
 LSTM.      17.00.00 02-Aug-20:  Log Start Time 
 MDCL.ppm             42500.00:  Mud Chlorides 
 MDES.     Inversion Oil/Synthetic:  Mud Desc 
 DFD .sg                  1.46:  Mud Density 
 MDMN.sg                  1.46:  Dens Mud Min 
 MDMX.sg                  1.46:  Dens Mud Max 
 MOIL.                      56:  Run Mud Oil % 
 MOWR.                   70:30:  Run Mud OWR 
 MSND.                     0.1:  Run Mud Sand % 
 MSOL.                      19:  Run Mud Solids% 
 DFV .spqt               83.00:  Mud Viscosity 
 MWOD.in                  8.00:  MWD Tool OD 
 MWSI.                     Yes:  Serv Intrp, MWD 
 OTIM.hr                196.57:  Time Operating 
 PCON.           Look Like New:  Pad Condition 
 PMAX.psia             7400.00:  Press Op, Max 
 PV  .cP                 36.00:  Mud PV 
 RUN .                    1000:  Run Number 
 ROPA.m/hr               25.00:  ROP Avg 
 ROPN.m/hr               10.00:  ROP Min 
 ROPX.m/hr               32.00:  ROP Max 
 RPMA.rpm               120.00:  RPM Surface Avg 
 RPMN.rpm               100.00:  RPM Surface Min 
 RPMX.rpm               140.00:  RPM Surface Max 
 RRUN.                    L504:  Rig Run Number 
 SAZI.deg               308.25:  Azm, Start 
 SDEP.m                4364.01:  Start Depth 
 SIDD.                      No:  Serv Intrp, DD 
 SINC.deg                63.81:  Inc, Start 
 SPPA.psig             5800.00:  SPP Avg 
 SPPN.psig             4200.00:  SPP Min 
 SPPX.psig             5950.00:  SPP Max 
 STIM.      18.00.00 01-Aug-20:  Start Time 
 SVCS.                 DD, MWD:  Services 
 SVER.                    9.20:  Sperry Version 
 TDAT.m                 934.00:  Tot Depth Attmp 
 TDDF.                      No:  Trip for DD 
 TDLG.m                 934.00:  Tot Depth Loggd 
 TFF .                      No:  Trip for Fail 
 TQAA.f-kp               31.00:  Torque Abs Avg 
 TQAN.f-kp               25.00:  Torque Abs Min 
 TQAX.f-kp               35.00:  Torque Abs Max 
 TRRT.°/30m              -0.75:  Turn Rotating 
 MRT .                  EWR-M5:  Maximum Recorded Temperature 
 TTMX.degC               95.00:  Max Tool Temp 
 VS01.                90516060:  Virtual Str1 SN 
 VS02.                90528488:  Virtual Str2 SN 
 VS03.                90577970:  Virtual Str3 SN 
 VS04.                12385033:  Virtual Str4 SN 
 VS05.                90522069:  Virtual Str5 SN 
 VS06.                13124134:  Virtual Str6 SN 
 WBMN.klb                20.00:  WOB Min 
 WITN.         Alistair Sprott:  Customer Rep 
 WITN.     Ronal van der Kraan:  Customer Rep 2 
 WOBA.klb                25.00:  WOB Avg 
 WOBX.klb                31.00:  WOB Max 
 YP  .lhf2               32.00:  Yield Point 
~Curve Information Block
#MNEM.UNIT                 API CODE     Curve Description
#---------               -----------    ---------------------------
 TIME.HHMMSS            00 000 000 000:  GT Time & Date
 GTDEPTH.m              00 000 000 000:  GT Depth
 GTPQH.psia             00 000 000 000:  GT HR Quartz Pressure
 GTTQ.degC              00 000 000 000:  GT Quartz Temperature
 GTTN.NONE              00 000 000 000:  GT Test Number
 GTET.sec               00 000 000 000:  GT Elapsed Test Time
 GTTVD.m                00 000 000 000:  GT True Vertical Depth
#Other Information
#
#WARRANTY: Halliburton will use its best efforts to furnish customers with 
#accurate information and interpretations that are part of, and incident to, the services 
#provided.  However, Halliburton cannot and does not warrant the accuracy 
#or correctness of such information and interpretations.  Under no circumstances should any 
#such information or interpretation be relied upon as the sole basis for any drilling, 
#completion, production, or financial decision or any procedure involving any risk to the 
#safety of any drilling venture, drilling rig or its crew or any other third party.  The 
#Customer has full responsibility for all drilling, completion and production operation.  
#Halliburton makes no representations or warranties, either expressed or 
#implied, including, but not limited to, the implied warranties of merchantability or fitness 
#for a particular purpose, with respect to the services rendered.  In no event will 
#Halliburton be liable for failure to obtain any particular results or for 
#any damages, including, but not limited to, indirect, special or consequential damages, 
#resulting from the use of any information or interpretation provided by Halliburton.
#
~A           TIME           GTDEPTH  GTPQH  GTTQ  GTTN  GTET   GTTVD  
# ...
   07:14:52.000.08-Aug-2020 5163.51 3786.47 78.10 5.00 345.00 3349.29
   07:14:52.200.08-Aug-2020 5163.51 3786.47 78.10 5.00 345.20 3349.29
   07:14:52.400.08-Aug-2020 5163.51 3786.49 78.10 5.00 345.40 3349.29
   07:14:52.600.08-Aug-2020 5163.51 3782.31 78.10 5.00 345.60 3349.29
   07:14:52.800.08-Aug-2020 5163.51 3784.49 78.10 5.00 345.80 3349.29
   07:14:53.000.08-Aug-2020 5163.51 3786.65 78.10 5.00 346.00 3349.29
   07:14:53.200.08-Aug-2020 5163.51 3786.65 78.10 5.00 346.20 3349.29
   07:14:53.400.08-Aug-2020 5163.51 3784.24 78.10 5.00 346.40 3349.29
   07:14:53.600.08-Aug-2020 5163.51 3782.12 78.10 5.00 346.60 3349.29
   07:14:53.800.08-Aug-2020 5163.51 3780.99 78.10 5.00 346.80 3349.29
   07:14:54.000.08-Aug-2020 5163.51 3779.19 78.10 5.00 347.00 3349.29
   07:14:54.200.08-Aug-2020 5163.51 3779.19 78.10 5.00 347.20 3349.29
   07:14:54.400.08-Aug-2020 5163.51 3778.01 78.10 5.00 347.40 3349.29
   07:14:54.600.08-Aug-2020 5163.51 3777.02 78.10 5.00 347.60 3349.29
   07:14:54.800.08-Aug-2020 5163.51 3776.52 78.10 5.00 347.80 3349.29
   07:14:55.000.08-Aug-2020 5163.51 3776.41 78.10 5.00 348.00 3349.29
   07:14:55.200.08-Aug-2020 5163.51 3776.41 78.10 5.00 348.20 3349.29
   07:14:55.400.08-Aug-2020 5163.51 3773.61 78.10 5.00 348.40 3349.29
   07:14:55.600.08-Aug-2020 5163.51 3772.01 78.10 5.00 348.60 3349.29
   07:14:55.800.08-Aug-2020 5163.51 3775.02 78.10 5.00 348.80 3349.29
   07:14:56.000.08-Aug-2020 5163.51 3773.62 78.10 5.00 349.00 3349.29
   07:14:56.200.08-Aug-2020 5163.51 3773.62 78.10 5.00 349.20 3349.29
   07:14:56.400.08-Aug-2020 5163.51 3770.94 78.09 5.00 349.40 3349.29
   07:14:56.600.08-Aug-2020 5163.51 3773.17 78.09 5.00 349.60 3349.29
   07:14:56.800.08-Aug-2020 5163.51 3772.47 78.09 5.00 349.80 3349.29
   07:14:57.000.08-Aug-2020 5163.51 3773.86 78.09 5.00 350.00 3349.29
   07:14:57.200.08-Aug-2020 5163.51 3773.86 78.09 5.00 350.20 3349.29
   07:14:57.400.08-Aug-2020 5163.51 4021.39 78.09 5.00 350.40 3349.29
   07:14:57.600.08-Aug-2020 5163.51 4097.77 78.09 5.00 350.60 3349.29
   07:14:57.800.08-Aug-2020 5163.51 4145.53 78.09 5.00 350.80 3349.29
   07:14:58.000.08-Aug-2020 5163.51 4175.96 78.09 5.00 351.00 3349.29
   07:14:58.200.08-Aug-2020 5163.51 4175.96 78.09 5.00 351.20 3349.29
   07:14:58.400.08-Aug-2020 5163.51 4209.29 78.09 5.00 351.40 3349.29
   07:14:58.600.08-Aug-2020 5163.51 4218.62 78.09 5.00 351.60 3349.29
   07:14:58.800.08-Aug-2020 5163.51 4225.08 78.09 5.00 351.80 3349.29
   07:14:59.000.08-Aug-2020 5163.51 4229.69 78.09 5.00 352.00 3349.29
   07:14:59.200.08-Aug-2020 5163.51 4229.69 78.09 5.00 352.20 3349.29
   07:14:59.400.08-Aug-2020 5163.51 4235.12 78.09 5.00 352.40 3349.29
   07:14:59.600.08-Aug-2020 5163.51 4237.74 78.09 5.00 352.60 3349.29
   07:14:59.800.08-Aug-2020 5163.51 4239.66 78.09 5.00 352.80 3349.29
   07:15:00.000.08-Aug-2020 5163.51 4241.22 78.09 5.00 353.00 3349.29
   07:15:00.200.08-Aug-2020 5163.51 4241.22 78.09 5.00 353.20 3349.29
   07:15:00.400.08-Aug-2020 5163.51 4243.41 78.09 5.00 353.40 3349.29
   07:15:00.600.08-Aug-2020 5163.51 4244.13 78.09 5.00 353.60 3349.29
   07:15:00.800.08-Aug-2020 5163.51 4244.71 78.09 5.00 353.80 3349.29
   07:15:01.000.08-Aug-2020 5163.51 4245.17 78.09 5.00 354.00 3349.29
   07:15:01.200.08-Aug-2020 5163.51 4245.17 78.09 5.00 354.20 3349.29
   07:15:01.400.08-Aug-2020 5163.51 4246.87 78.09 5.00 354.40 3349.29
   07:15:01.600.08-Aug-2020 5163.51 4247.30 78.09 5.00 354.60 3349.29
   07:15:01.800.08-Aug-2020 5163.51 4247.41 78.09 5.00 354.80 3349.29
   07:15:02.000.08-Aug-2020 5163.51 4248.58 78.09 5.00 355.00 3349.29
   07:15:02.200.08-Aug-2020 5163.51 4248.58 78.09 5.00 355.20 3349.29
   07:15:02.400.08-Aug-2020 5163.51 4249.07 78.09 5.00 355.40 3349.29
   07:15:02.600.08-Aug-2020 5163.51 4249.09 78.09 5.00 355.60 3349.29
   07:15:02.800.08-Aug-2020 5163.51 4249.98 78.09 5.00 355.80 3349.29
   07:15:03.000.08-Aug-2020 5163.51 4250.13 78.09 5.00 356.00 3349.29
   07:15:03.200.08-Aug-2020 5163.51 4250.13 78.09 5.00 356.20 3349.29
   07:15:03.400.08-Aug-2020 5163.51 4250.54 78.09 5.00 356.40 3349.29
   07:15:03.600.08-Aug-2020 5163.51 4250.61 78.09 5.00 356.60 3349.29
   07:15:03.800.08-Aug-2020 5163.51 4250.81 78.09 5.00 356.80 3349.29
   07:15:04.000.08-Aug-2020 5163.51 4251.09 78.09 5.00 357.00 3349.29
   07:15:04.200.08-Aug-2020 5163.51 4251.09 78.09 5.00 357.20 3349.29
   07:15:04.400.08-Aug-2020 5163.51 4251.46 78.09 5.00 357.40 3349.29
   07:15:04.600.08-Aug-2020 5163.51 4251.53 78.09 5.00 357.60 3349.29
   07:15:04.800.08-Aug-2020 5163.51 4251.79 78.09 5.00 357.80 3349.29
   07:15:05.000.08-Aug-2020 5163.51 4251.94 78.09 5.00 358.00 3349.29
   07:15:05.200.08-Aug-2020 5163.51 4251.94 78.09 5.00 358.20 3349.29
   07:15:05.400.08-Aug-2020 5163.51 4252.34 78.09 5.00 358.40 3349.29
   07:15:05.600.08-Aug-2020 5163.51 4252.63 78.09 5.00 358.60 3349.29
   07:15:05.800.08-Aug-2020 5163.51 4252.65 78.09 5.00 358.80 3349.29
   07:15:06.000.08-Aug-2020 5163.51 4252.52 78.09 5.00 359.00 3349.29
   07:15:06.200.08-Aug-2020 5163.51 4252.52 78.09 5.00 359.20 3349.29
   07:15:06.400.08-Aug-2020 5163.51 4253.43 78.09 5.00 359.40 3349.29
   07:15:06.600.08-Aug-2020 5163.51 4253.36 78.09 5.00 359.60 3349.29
   07:15:06.800.08-Aug-2020 5163.51 4253.64 78.09 5.00 359.80 3349.29
   07:15:07.000.08-Aug-2020 5163.51 4253.53 78.09 5.00 360.00 3349.29
   07:15:07.200.08-Aug-2020 5163.51 4253.53 78.09 5.00 360.20 3349.29
   07:15:07.400.08-Aug-2020 5163.51 4253.88 78.09 5.00 360.40 3349.29
   07:15:07.600.08-Aug-2020 5163.51 4254.04 78.09 5.00 360.60 3349.29
   07:15:07.800.08-Aug-2020 5163.51 4253.91 78.09 5.00 360.80 3349.29
   07:15:08.000.08-Aug-2020 5163.51 4254.00 78.09 5.00 361.00 3349.29
   07:15:08.200.08-Aug-2020 5163.51 4254.00 78.09 5.00 361.20 3349.29
   07:15:08.400.08-Aug-2020 5163.51 4254.31 78.09 5.00 361.40 3349.29
   07:15:08.600.08-Aug-2020 5163.51 4254.47 78.09 5.00 361.60 3349.29
   07:15:08.800.08-Aug-2020 5163.51 4254.61 78.09 5.00 361.80 3349.29
   07:15:09.000.08-Aug-2020 5163.51 4254.63 78.09 5.00 362.00 3349.29
   07:15:09.200.08-Aug-2020 5163.51 4254.63 78.09 5.00 362.20 3349.29
   07:15:09.400.08-Aug-2020 5163.51 4255.06 78.09 5.00 362.40 3349.29
   07:15:09.600.08-Aug-2020 5163.51 4255.18 78.09 5.00 362.60 3349.29
   07:15:09.800.08-Aug-2020 5163.51 4254.75 78.09 5.00 362.80 3349.29
   07:15:10.000.08-Aug-2020 5163.51 4255.54 78.09 5.00 363.00 3349.29
   07:15:10.200.08-Aug-2020 5163.51 4255.54 78.09 5.00 363.20 3349.29
   07:15:10.400.08-Aug-2020 5163.51 4255.43 78.09 5.00 363.40 3349.29
   07:15:10.600.08-Aug-2020 5163.51 4255.14 78.09 5.00 363.60 3349.29
   07:15:10.800.08-Aug-2020 5163.51 4255.73 78.09 5.00 363.80 3349.29
   07:15:11.000.08-Aug-2020 5163.51 4255.86 78.09 5.00 364.00 3349.29
   07:15:11.200.08-Aug-2020 5163.51 4255.86 78.09 5.00 364.20 3349.29
   07:15:11.400.08-Aug-2020 5163.51 4255.70 78.09 5.00 364.40 3349.29
   07:15:11.600.08-Aug-2020 5163.51 4255.73 78.09 5.00 364.60 3349.29
   07:15:11.800.08-Aug-2020 5163.51 4256.23 78.09 5.00 364.80 3349.29
   07:15:12.000.08-Aug-2020 5163.51 4255.95 78.09 5.00 365.00 3349.29
   07:15:12.200.08-Aug-2020 5163.51 4255.95 78.09 5.00 365.20 3349.29
   07:15:12.400.08-Aug-2020 5163.51 4256.12 78.09 5.00 365.40 3349.29
   07:15:12.600.08-Aug-2020 5163.51 4256.05 78.09 5.00 365.60 3349.29
   07:15:12.800.08-Aug-2020 5163.51 4256.26 78.09 5.00 365.80 3349.29
   07:15:13.000.08-Aug-2020 5163.51 4256.34 78.09 5.00 366.00 3349.29
   07:15:13.200.08-Aug-2020 5163.51 4256.34 78.09 5.00 366.20 3349.29
   07:15:13.400.08-Aug-2020 5163.51 4256.24 78.09 5.00 366.40 3349.29
   07:15:13.600.08-Aug-2020 5163.51 4256.33 78.09 5.00 366.60 3349.29
   07:15:13.800.08-Aug-2020 5163.51 4256.35 78.09 5.00 366.80 3349.29
   07:15:14.000.08-Aug-2020 5163.51 4256.43 78.09 5.00 367.00 3349.29
   07:15:14.200.08-Aug-2020 5163.51 4256.43 78.09 5.00 367.20 3349.29
   07:15:14.400.08-Aug-2020 5163.51 4256.45 78.09 5.00 367.40 3349.29
   07:15:14.600.08-Aug-2020 5163.51 4256.57 78.09 5.00 367.60 3349.29
   07:15:14.800.08-Aug-2020 5163.51 4256.63 78.09 5.00 367.80 3349.29
