~Version Information
 VERS.                  2.0:   CWLS log ASCII Standard -VERSION 2.0
 WRAP.                   NO:   One line per depth step
~Well Information Block
#MNEM.UNIT     VALUE/NAME     DESCRIPTION
#---------     -----------    ---------------------------
 STRT.S             05:51:10 08-Aug-20: START TIME 05:51:10 08-Aug-20
 STOP.S             05:59:38 08-Aug-20: STOP TIME  05:59:38 08-Aug-20
 STEP.S                   0.00: STEP TIME
 NULL.                 -999.25: NULL VALUE
 DFWT.                        :  DIST FWL TEXT
 DFST.                        :  DIST FSL TEXT
 DMF .             Drill Floor:  DRILL MEAS FROM
 STIM.      13.47.44 07-Jun-20:  START TIME
 DATE.      13.47.44 27-Jul-20:  END TIME
 SPUD.               07-Jun-20:  SPUD DATE
 NREF.                    Grid:  NORTH REFERENCE
 HPTY.       Minimum Curvature:  HOLE POS TYPE
 DMOD.             Drill Model:  DRILL MOD DESC
 SVYD.                  Survey:  SURVEY DESC
 ILTD.               Lithology:  INTERP LTH DESC
 FTOP.          Formation Tops:  FORM TOPS DESC
 RIG .             West Chirag:  RIG NAME
 PDAT.          Mean Sea Level:  PERMANENT DATUM
 FLD .                     ACG:  FIELD NAME
 SON .        AZ-XX-0906363612:  JOB NUMBER
 CTRY.              Azerbaijan:  COUNTRY NAME
 WELL.           J25 (Slot 35):  WELL NAME
 SRVC.          Turan Drilling:  CONTRACTOR
 COMP.     BP Exploration (Caspian Sea) Ltd:  COMPANY
 UWI .                     N/A:  UNIQUE WELL IDENTIFIER
 API .                     N/A:  API NUMBER
 BASE.              Azerbaijan:  LOGGING EQUIPMENT BASE LOCATION
 REGN.                   EESSA:  REGION
 PROV.                    Baku:  PROVINCE
 STAT.                    Baku:  STATE NAME
 MWDS.                     N/A:  MWD SHOP
 DOE .                     N/A:  DOE NUMBER
 DCON.         Sperry Drilling:  DIRECTNL CONTR
 UNIT.                     N/A:  LOGGING EQUIPMENT ID
 MDS .        Operator Entered:  MAG DATA SOURCE
 JOBN.        AZ-XX-0906363612:  JOB TICKET NUMB
 WTYP.                Deviated:  WELL TYPE
 CNTY.                        :  COUNTY
 LOC .                        :  LOCATION
 LMF .             Drill Floor:  LOG MEASURED FROM
 TVDS.m                  43.00:  TVDSS CORRECTN
 LATI.deg                40.13:  LATITUDE
 LONG.deg                51.22:  LONGITUDE
 WHNS.m                  -7.90:  WELL HEAD N/S
 WHEW.m                  -3.35:  WELL HEAD E/W
 UTMX.m              519005.06:  UTM X
 UTMY.m             4443793.85:  UTM Y
 DFWL.m                   0.00:  DISTANCE FWL
 DFSL.m                   0.00:  DISTANCE FSL
 SDEP.m                   0.00:  START DEPTH
 TDD .m                   0.00:  TOTAL DEPTH (DRILLER)
 VSDR.deg               308.97:  VERT SEC DIRECT
 GVFD.g                   1.00:  GRAVITY FIELD
 MFLD.nT              50350.00:  MAGNETIC FIELD
 MDIP.deg                59.62:  MAGNETIC DIP
 MDEC.deg                 6.44:  MAGNETIC DECL
 GRDC.deg                 0.13:  GRID CORRECTION
 AZTC.deg                 6.32:  AZM TOTAL CORR
 EPD .m                   0.00:  ELEVATION
 EGL .m                   0.00:  GROUND ELEVATION
 WDMS.m                 169.80:  WD ELEV
 APD .m                  43.00:  DEPTH ABOVE PD
 DEP .m                 356.43:  DEPTH
 AGAP.m                  43.00:  AIR GAP
 VSEW.m                  -3.35:  VERT SEC E/W
 VSNS.m                  -7.90:  VERT SEC N/S
 EKB .m                  43.00:  KB ELEVATION
 EDF .m                  43.00:  DF ELEVATION
 TDL .m                 934.00:  TOTAL DEPTH (LOGGER)
 VSC .                       0:  VS TO CLOSURE
 MAGU.                 1852825:  MAGUTM CHECKSUM
~Parameter Information Block
#MNEM.UNIT       Value        Description
#---------     -----------    ---------------------------
 AV  .mps                 0.80:  Ann Velocity 
 AVMX.mps                 1.70:  Max Ann Veloc 
 AZIF.deg               311.41:  Azm, Final 
 BHAT.        Rotary Steerable:  BHA Type 
 BROT.°/30m               0.09:  Build Rotating 
 BS  .in                 12.25:  Bit Size 
 BSZ .in                 12.25:  Bit Size 
 BTPL.psig              800.00:  Bit Press Loss 
 CABU.                      No:  Customer Abuse 
 COMM.                     ¤'V:  Run Comments 1 
 TCS .hr                 96.00:  Time Ciculation Ended 
 CV  .mps                 2.03:  Crit Velocity 
 CVMX.mps                 2.42:  Max Crit Veloc 
 DD1 .          Taghi Taghiyev:  Direct Drillr 1 
 DD2 .      Tariel Pirmammadov:  Direct Drillr 2 
 DD3 .          Teymur Aghayev:  Direct Drillr 3 
 DDSV.                 iCruise:  DD Service 
 DEFF.%                  98.70:  % Det Eff 
 DLRX.°/30m               1.00:  Dogleg Rot Max 
 DLSO.°/30m               1.80:  Dogleg Oriented 
 DLSX.°/30m               3.16:  Dogleg Str Max 
 DRET.      15.00.00 07-Aug-20:  Drill End Time 
 DRST.      17.00.00 02-Aug-20:  Drill Start Tim 
 DTIM.hr                 45.90:  Time Drilling 
 EDEP.m                5298.01:  End Depth 
 ENG1.       Seymur Iskandarov:  Engineer 1 
 ENG2.         Yevgeniy Ulikov:  Engineer 2 
 ENG3.      Artemiy Matviyanov:  Engineer 3 
 ENG4.         Bahruz Mehdiyev:  Engineer 4 
 ETIM.      05.00.00 10-Aug-20:  End Time 
 FLOI.gpm              1150.00:  Flow In 
 FLON.gpm               900.00:  Flow In Min 
 FLOS.cptm                0.00:  Fluid Loss 
 FLOX.gpm              1200.00:  Flow In Max 
 FTRO.     Connectivity, Formation Presure:  FTWD Run Obj 
 HFLO.                      No:  High Flow 
 HPRE.                     Yes:  High Pressure 
 HTEM.                      No:  High Temp 
 HYDO.m                   1.80:  Hydro Offset 
 IFIN.deg                 9.71:  Inc, Final 
 IMAX.deg                63.81:  Inc Max 
 IMIN.deg                 9.53:  Inc Min 
 IMND.m                5075.52:  Inc Min Depth 
 IMXD.m                4367.08:  Inc Max Depth 
 JARR.                      No:  Jarring 
 LETM.      15.00.00 07-Aug-20:  Log End Time 
 LOST.hr                     2:  Lost Rig Time 
 LSTM.      17.00.00 02-Aug-20:  Log Start Time 
 MDCL.ppm             42500.00:  Mud Chlorides 
 MDES.     Inversion Oil/Synthetic:  Mud Desc 
 DFD .sg                  1.46:  Mud Density 
 MDMN.sg                  1.46:  Dens Mud Min 
 MDMX.sg                  1.46:  Dens Mud Max 
 MOIL.                      56:  Run Mud Oil % 
 MOWR.                   70:30:  Run Mud OWR 
 MSND.                     0.1:  Run Mud Sand % 
 MSOL.                      19:  Run Mud Solids% 
 DFV .spqt               83.00:  Mud Viscosity 
 MWOD.in                  8.00:  MWD Tool OD 
 MWSI.                     Yes:  Serv Intrp, MWD 
 OTIM.hr                196.57:  Time Operating 
 PCON.           Look Like New:  Pad Condition 
 PMAX.psia             7400.00:  Press Op, Max 
 PV  .cP                 36.00:  Mud PV 
 RUN .                    1000:  Run Number 
 ROPA.m/hr               25.00:  ROP Avg 
 ROPN.m/hr               10.00:  ROP Min 
 ROPX.m/hr               32.00:  ROP Max 
 RPMA.rpm               120.00:  RPM Surface Avg 
 RPMN.rpm               100.00:  RPM Surface Min 
 RPMX.rpm               140.00:  RPM Surface Max 
 RRUN.                    L504:  Rig Run Number 
 SAZI.deg               308.25:  Azm, Start 
 SDEP.m                4364.01:  Start Depth 
 SIDD.                      No:  Serv Intrp, DD 
 SINC.deg                63.81:  Inc, Start 
 SPPA.psig             5800.00:  SPP Avg 
 SPPN.psig             4200.00:  SPP Min 
 SPPX.psig             5950.00:  SPP Max 
 STIM.      18.00.00 01-Aug-20:  Start Time 
 SVCS.                 DD, MWD:  Services 
 SVER.                    9.20:  Sperry Version 
 TDAT.m                 934.00:  Tot Depth Attmp 
 TDDF.                      No:  Trip for DD 
 TDLG.m                 934.00:  Tot Depth Loggd 
 TFF .                      No:  Trip for Fail 
 TQAA.f-kp               31.00:  Torque Abs Avg 
 TQAN.f-kp               25.00:  Torque Abs Min 
 TQAX.f-kp               35.00:  Torque Abs Max 
 TRRT.°/30m              -0.75:  Turn Rotating 
 MRT .                  EWR-M5:  Maximum Recorded Temperature 
 TTMX.degC               95.00:  Max Tool Temp 
 VS01.                90516060:  Virtual Str1 SN 
 VS02.                90528488:  Virtual Str2 SN 
 VS03.                90577970:  Virtual Str3 SN 
 VS04.                12385033:  Virtual Str4 SN 
 VS05.                90522069:  Virtual Str5 SN 
 VS06.                13124134:  Virtual Str6 SN 
 WBMN.klb                20.00:  WOB Min 
 WITN.         Alistair Sprott:  Customer Rep 
 WITN.     Ronal van der Kraan:  Customer Rep 2 
 WOBA.klb                25.00:  WOB Avg 
 WOBX.klb                31.00:  WOB Max 
 YP  .lhf2               32.00:  Yield Point 
~Curve Information Block
#MNEM.UNIT                 API CODE     Curve Description
#---------               -----------    ---------------------------
 TIME.HHMMSS            00 000 000 000:  GT Time & Date
 GTDEPTH.m              00 000 000 000:  GT Depth
 GTPQH.psia             00 000 000 000:  GT HR Quartz Pressure
 GTTQ.degC              00 000 000 000:  GT Quartz Temperature
 GTTN.NONE              00 000 000 000:  GT Test Number
 GTET.sec               00 000 000 000:  GT Elapsed Test Time
 GTTVD.m                00 000 000 000:  GT True Vertical Depth
#Other Information
#
#WARRANTY: Halliburton will use its best efforts to furnish customers with 
#accurate information and interpretations that are part of, and incident to, the services 
#provided.  However, Halliburton cannot and does not warrant the accuracy 
#or correctness of such information and interpretations.  Under no circumstances should any 
#such information or interpretation be relied upon as the sole basis for any drilling, 
#completion, production, or financial decision or any procedure involving any risk to the 
#safety of any drilling venture, drilling rig or its crew or any other third party.  The 
#Customer has full responsibility for all drilling, completion and production operation.  
#Halliburton makes no representations or warranties, either expressed or 
#implied, including, but not limited to, the implied warranties of merchantability or fitness 
#for a particular purpose, with respect to the services rendered.  In no event will 
#Halliburton be liable for failure to obtain any particular results or for 
#any damages, including, but not limited to, indirect, special or consequential damages, 
#resulting from the use of any information or interpretation provided by Halliburton.
#
~A           TIME           GTDEPTH  GTPQH  GTTQ  GTTN  GTET   GTTVD  
# ...
   05:52:42.847.08-Aug-2020 5190.42 5530.82 83.00 3.00  91.95 3375.81
   05:52:43.047.08-Aug-2020 5190.42 5540.74 83.00 3.00  92.15 3375.81
   05:52:43.247.08-Aug-2020 5190.42 5550.77 83.00 3.00  92.35 3375.81
   05:52:43.447.08-Aug-2020 5190.42 5560.23 83.00 3.00  92.55 3375.81
   05:52:43.647.08-Aug-2020 5190.42 5570.28 83.00 3.00  92.75 3375.81
   05:52:43.847.08-Aug-2020 5190.42 5579.67 83.00 3.00  92.95 3375.81
   05:52:44.047.08-Aug-2020 5190.42 5579.67 83.00 3.00  93.15 3375.81
   05:52:44.247.08-Aug-2020 5190.42 5597.78 83.00 3.00  93.35 3375.81
   05:52:44.446.08-Aug-2020 5190.42 5606.60 83.00 3.00  93.55 3375.81
   05:52:44.646.08-Aug-2020 5190.42 5615.47 83.00 3.00  93.75 3375.81
   05:52:44.846.08-Aug-2020 5190.42 5624.35 83.00 3.00  93.95 3375.81
   05:52:45.046.08-Aug-2020 5190.42 5624.35 83.00 3.00  94.15 3375.81
   05:52:45.246.08-Aug-2020 5190.42 5641.18 83.00 3.00  94.35 3375.81
   05:52:45.446.08-Aug-2020 5190.42 5649.72 83.00 3.00  94.55 3375.81
   05:52:45.646.08-Aug-2020 5190.42 5657.84 83.00 3.00  94.75 3375.81
   05:52:45.846.08-Aug-2020 5190.42 5665.28 83.01 3.00  94.95 3375.81
   05:52:46.046.08-Aug-2020 5190.42 5665.28 83.01 3.00  95.15 3375.81
   05:52:46.246.08-Aug-2020 5190.42 5678.15 83.01 3.00  95.35 3375.81
   05:52:46.445.08-Aug-2020 5190.42 5685.27 83.01 3.00  95.55 3375.81
   05:52:46.645.08-Aug-2020 5190.42 5690.18 83.01 3.00  95.75 3375.81
   05:52:46.845.08-Aug-2020 5190.42 5697.70 83.01 3.00  95.95 3375.81
   05:52:47.045.08-Aug-2020 5190.42 5697.70 83.01 3.00  96.15 3375.81
   05:52:47.245.08-Aug-2020 5190.42 5711.95 83.01 3.00  96.35 3375.81
   05:52:47.445.08-Aug-2020 5190.42 5719.25 83.01 3.00  96.55 3375.81
   05:52:47.645.08-Aug-2020 5190.42 5726.72 83.01 3.00  96.75 3375.81
   05:52:47.845.08-Aug-2020 5190.42 5733.87 83.01 3.00  96.95 3375.81
   05:52:48.045.08-Aug-2020 5190.42 5733.87 83.01 3.00  97.15 3375.81
   05:52:48.245.08-Aug-2020 5190.42 5748.16 83.01 3.00  97.35 3375.81
   05:52:48.444.08-Aug-2020 5190.42 5754.35 83.01 3.00  97.55 3375.81
   05:52:48.644.08-Aug-2020 5190.42 5759.94 83.01 3.00  97.75 3375.81
   05:52:48.844.08-Aug-2020 5190.42 5766.13 83.01 3.00  97.95 3375.81
   05:52:49.044.08-Aug-2020 5190.42 5766.13 83.01 3.00  98.15 3375.81
   05:52:49.244.08-Aug-2020 5190.42 5779.75 83.01 3.00  98.35 3375.81
   05:52:49.444.08-Aug-2020 5190.42 5786.19 83.01 3.00  98.55 3375.81
   05:52:49.644.08-Aug-2020 5190.42 5792.56 83.01 3.00  98.75 3375.81
   05:52:49.844.08-Aug-2020 5190.42 5798.13 83.01 3.00  98.95 3375.81
   05:52:50.044.08-Aug-2020 5190.42 5798.13 83.01 3.00  99.15 3375.81
   05:52:50.244.08-Aug-2020 5190.42 5809.83 83.01 3.00  99.35 3375.81
   05:52:50.443.08-Aug-2020 5190.42 5815.31 83.01 3.00  99.55 3375.81
   05:52:50.643.08-Aug-2020 5190.42 5821.28 83.01 3.00  99.75 3375.81
   05:52:50.843.08-Aug-2020 5190.42 5827.53 83.01 3.00  99.95 3375.81
   05:52:51.043.08-Aug-2020 5190.42 5827.53 83.01 3.00 100.15 3375.81
   05:52:51.243.08-Aug-2020 5190.42 5839.27 83.01 3.00 100.35 3375.81
   05:52:51.443.08-Aug-2020 5190.42 5844.82 83.01 3.00 100.55 3375.81
   05:52:51.643.08-Aug-2020 5190.42 5850.47 83.01 3.00 100.75 3375.81
   05:52:51.843.08-Aug-2020 5190.42 5856.03 83.01 3.00 100.95 3375.81
   05:52:52.043.08-Aug-2020 5190.42 5856.03 83.01 3.00 101.15 3375.81
   05:52:52.242.08-Aug-2020 5190.42 5866.93 83.01 3.00 101.35 3375.81
   05:52:52.442.08-Aug-2020 5190.42 5872.31 83.01 3.00 101.55 3375.81
   05:52:52.642.08-Aug-2020 5190.42 5877.52 83.01 3.00 101.75 3375.81
   05:52:52.842.08-Aug-2020 5190.42 5882.52 83.01 3.00 101.95 3375.81
   05:52:53.042.08-Aug-2020 5190.42 5882.52 83.01 3.00 102.15 3375.81
   05:52:53.242.08-Aug-2020 5190.42 5891.21 83.01 3.00 102.35 3375.81
   05:52:53.442.08-Aug-2020 5190.42 5895.38 83.01 3.00 102.55 3375.81
   05:52:53.642.08-Aug-2020 5190.42 5900.65 83.01 3.00 102.75 3375.81
   05:52:53.842.08-Aug-2020 5190.42 5905.42 83.01 3.00 102.95 3375.81
   05:52:54.042.08-Aug-2020 5190.42 5905.42 83.01 3.00 103.15 3375.81
   05:52:54.241.08-Aug-2020 5190.42 5915.18 83.01 3.00 103.35 3375.81
   05:52:54.441.08-Aug-2020 5190.42 5919.54 83.01 3.00 103.55 3375.81
   05:52:54.641.08-Aug-2020 5190.42 5924.22 83.01 3.00 103.75 3375.81
   05:52:54.841.08-Aug-2020 5190.42 5928.86 83.01 3.00 103.95 3375.81
   05:52:55.041.08-Aug-2020 5190.42 5928.86 83.01 3.00 104.15 3375.81
   05:52:55.241.08-Aug-2020 5190.42 5938.30 83.01 3.00 104.35 3375.81
   05:52:55.441.08-Aug-2020 5190.42 5943.03 83.01 3.00 104.55 3375.81
   05:52:55.641.08-Aug-2020 5190.42 5947.34 83.01 3.00 104.75 3375.81
   05:52:55.841.08-Aug-2020 5190.42 5951.61 83.01 3.00 104.95 3375.81
   05:52:56.041.08-Aug-2020 5190.42 5951.61 83.01 3.00 105.15 3375.81
   05:52:56.240.08-Aug-2020 5190.42 5959.74 83.01 3.00 105.35 3375.81
   05:52:56.440.08-Aug-2020 5190.42 5963.65 83.01 3.00 105.55 3375.81
   05:52:56.640.08-Aug-2020 5190.42 5965.88 83.01 3.00 105.75 3375.81
   05:52:56.840.08-Aug-2020 5190.42 5969.60 83.01 3.00 105.95 3375.81
   05:52:57.040.08-Aug-2020 5190.42 5969.60 83.01 3.00 106.15 3375.81
   05:52:57.240.08-Aug-2020 5190.42 5975.74 83.00 3.00 106.35 3375.81
   05:52:57.440.08-Aug-2020 5190.42 5978.95 83.00 3.00 106.55 3375.81
   05:52:57.640.08-Aug-2020 5190.42 5983.47 83.00 3.00 106.75 3375.81
   05:52:57.840.08-Aug-2020 5190.42 5987.39 83.00 3.00 106.95 3375.81
   05:52:58.040.08-Aug-2020 5190.42 5987.39 83.00 3.00 107.15 3375.81
   05:52:58.239.08-Aug-2020 5190.42 5994.84 83.00 3.00 107.35 3375.81
   05:52:58.439.08-Aug-2020 5190.42 5997.39 83.00 3.00 107.55 3375.81
   05:52:58.639.08-Aug-2020 5190.42 6001.11 83.00 3.00 107.75 3375.81
   05:52:58.839.08-Aug-2020 5190.42 6005.09 83.00 3.00 107.95 3375.81
   05:52:59.039.08-Aug-2020 5190.42 6005.09 83.00 3.00 108.14 3375.81
   05:52:59.239.08-Aug-2020 5190.42 6013.24 83.00 3.00 108.34 3375.81
   05:52:59.439.08-Aug-2020 5190.42 6016.97 83.00 3.00 108.54 3375.81
   05:52:59.639.08-Aug-2020 5190.42 6019.62 83.00 3.00 108.74 3375.81
   05:52:59.839.08-Aug-2020 5190.42 6022.65 83.00 3.00 108.94 3375.81
   05:53:00.039.08-Aug-2020 5190.42 6022.65 83.00 3.00 109.14 3375.81
   05:53:00.238.08-Aug-2020 5190.42 6030.17 83.00 3.00 109.34 3375.81
   05:53:00.438.08-Aug-2020 5190.42 6033.38 83.00 3.00 109.54 3375.81
   05:53:00.638.08-Aug-2020 5190.42 6036.87 83.00 3.00 109.74 3375.81
   05:53:00.838.08-Aug-2020 5190.42 6039.69 83.00 3.00 109.94 3375.81
   05:53:01.038.08-Aug-2020 5190.42 6039.69 83.00 3.00 110.14 3375.81
   05:53:01.238.08-Aug-2020 5190.42 6046.52 83.00 3.00 110.34 3375.81
   05:53:01.438.08-Aug-2020 5190.42 6049.95 83.00 3.00 110.54 3375.81
   05:53:01.638.08-Aug-2020 5190.42 6053.50 83.00 3.00 110.74 3375.81
   05:53:01.838.08-Aug-2020 5190.42 6056.78 83.00 3.00 110.94 3375.81
   05:53:02.037.08-Aug-2020 5190.42 6056.78 83.00 3.00 111.14 3375.81
   05:53:02.237.08-Aug-2020 5190.42 6063.04 83.00 3.00 111.34 3375.81
   05:53:02.437.08-Aug-2020 5190.42 6066.28 83.00 3.00 111.54 3375.81
   05:53:02.637.08-Aug-2020 5190.42 6069.71 83.00 3.00 111.74 3375.81
   05:53:02.837.08-Aug-2020 5190.42 6072.86 83.00 3.00 111.94 3375.81
   05:53:03.037.08-Aug-2020 5190.42 6072.86 83.00 3.00 112.14 3375.81
   05:53:03.237.08-Aug-2020 5190.42 6078.90 83.00 3.00 112.34 3375.81
   05:53:03.437.08-Aug-2020 5190.42 6081.77 83.00 3.00 112.54 3375.81
   05:53:03.637.08-Aug-2020 5190.42 6084.95 83.00 3.00 112.74 3375.81
   05:53:03.837.08-Aug-2020 5190.42 6088.04 83.00 3.00 112.94 3375.81
   05:53:04.036.08-Aug-2020 5190.42 6088.04 83.00 3.00 113.14 3375.81
   05:53:04.236.08-Aug-2020 5190.42 6091.96 83.00 3.00 113.34 3375.81
   05:53:04.436.08-Aug-2020 5190.42 6094.45 83.00 3.00 113.54 3375.81
   05:53:04.636.08-Aug-2020 5190.42 6097.37 83.00 3.00 113.74 3375.81
   05:53:04.836.08-Aug-2020 5190.42 6100.30 83.00 3.00 113.94 3375.81
   05:53:05.036.08-Aug-2020 5190.42 6100.30 83.00 3.00 114.14 3375.81
   05:53:05.236.08-Aug-2020 5190.42 6106.00 82.99 3.00 114.34 3375.81
   05:53:05.436.08-Aug-2020 5190.42 6108.72 82.99 3.00 114.54 3375.81
   05:53:05.636.08-Aug-2020 5190.42 6111.50 82.99 3.00 114.74 3375.81
