~Version Information
 VERS.                  2.0:   CWLS log ASCII Standard -VERSION 2.0
 WRAP.                   NO:   One line per depth step
~Well Information Block
#MNEM.UNIT     VALUE/NAME     DESCRIPTION
#---------     -----------    ---------------------------
 STRT.S             05:51:10 08-Aug-20: START TIME 05:51:10 08-Aug-20
 STOP.S             05:59:38 08-Aug-20: STOP TIME  05:59:38 08-Aug-20
 STEP.S                   0.00: STEP TIME
 NULL.                 -999.25: NULL VALUE
 DFWT.                        :  DIST FWL TEXT
 DFST.                        :  DIST FSL TEXT
 DMF .             Drill Floor:  DRILL MEAS FROM
 STIM.      13.47.44 07-Jun-20:  START TIME
 DATE.      13.47.44 27-Jul-20:  END TIME
 SPUD.               07-Jun-20:  SPUD DATE
 NREF.                    Grid:  NORTH REFERENCE
 HPTY.       Minimum Curvature:  HOLE POS TYPE
 DMOD.             Drill Model:  DRILL MOD DESC
 SVYD.                  Survey:  SURVEY DESC
 ILTD.               Lithology:  INTERP LTH DESC
 FTOP.          Formation Tops:  FORM TOPS DESC
 RIG .             West Chirag:  RIG NAME
 PDAT.          Mean Sea Level:  PERMANENT DATUM
 FLD .                     ACG:  FIELD NAME
 SON .        AZ-XX-0906363612:  JOB NUMBER
 CTRY.              Azerbaijan:  COUNTRY NAME
 WELL.           J25 (Slot 35):  WELL NAME
 SRVC.          Turan Drilling:  CONTRACTOR
 COMP.     BP Exploration (Caspian Sea) Ltd:  COMPANY
 UWI .                     N/A:  UNIQUE WELL IDENTIFIER
 API .                     N/A:  API NUMBER
 BASE.              Azerbaijan:  LOGGING EQUIPMENT BASE LOCATION
 REGN.                   EESSA:  REGION
 PROV.                    Baku:  PROVINCE
 STAT.                    Baku:  STATE NAME
 MWDS.                     N/A:  MWD SHOP
 DOE .                     N/A:  DOE NUMBER
 DCON.         Sperry Drilling:  DIRECTNL CONTR
 UNIT.                     N/A:  LOGGING EQUIPMENT ID
 MDS .        Operator Entered:  MAG DATA SOURCE
 JOBN.        AZ-XX-0906363612:  JOB TICKET NUMB
 WTYP.                Deviated:  WELL TYPE
 CNTY.                        :  COUNTY
 LOC .                        :  LOCATION
 LMF .             Drill Floor:  LOG MEASURED FROM
 TVDS.m                  43.00:  TVDSS CORRECTN
 LATI.deg                40.13:  LATITUDE
 LONG.deg                51.22:  LONGITUDE
 WHNS.m                  -7.90:  WELL HEAD N/S
 WHEW.m                  -3.35:  WELL HEAD E/W
 UTMX.m              519005.06:  UTM X
 UTMY.m             4443793.85:  UTM Y
 DFWL.m                   0.00:  DISTANCE FWL
 DFSL.m                   0.00:  DISTANCE FSL
 SDEP.m                   0.00:  START DEPTH
 TDD .m                   0.00:  TOTAL DEPTH (DRILLER)
 VSDR.deg               308.97:  VERT SEC DIRECT
 GVFD.g                   1.00:  GRAVITY FIELD
 MFLD.nT              50350.00:  MAGNETIC FIELD
 MDIP.deg                59.62:  MAGNETIC DIP
 MDEC.deg                 6.44:  MAGNETIC DECL
 GRDC.deg                 0.13:  GRID CORRECTION
 AZTC.deg                 6.32:  AZM TOTAL CORR
 EPD .m                   0.00:  ELEVATION
 EGL .m                   0.00:  GROUND ELEVATION
 WDMS.m                 169.80:  WD ELEV
 APD .m                  43.00:  DEPTH ABOVE PD
 DEP .m                 356.43:  DEPTH
 AGAP.m                  43.00:  AIR GAP
 VSEW.m                  -3.35:  VERT SEC E/W
 VSNS.m                  -7.90:  VERT SEC N/S
 EKB .m                  43.00:  KB ELEVATION
 EDF .m                  43.00:  DF ELEVATION
 TDL .m                 934.00:  TOTAL DEPTH (LOGGER)
 VSC .                       0:  VS TO CLOSURE
 MAGU.                 1852825:  MAGUTM CHECKSUM
~Parameter Information Block
#MNEM.UNIT       Value        Description
#---------     -----------    ---------------------------
 AV  .mps                 0.80:  Ann Velocity 
 AVMX.mps                 1.70:  Max Ann Veloc 
 AZIF.deg               311.41:  Azm, Final 
 BHAT.        Rotary Steerable:  BHA Type 
 BROT.°/30m               0.09:  Build Rotating 
 BS  .in                 12.25:  Bit Size 
 BSZ .in                 12.25:  Bit Size 
 BTPL.psig              800.00:  Bit Press Loss 
 CABU.                      No:  Customer Abuse 
 COMM.                     ¤'V:  Run Comments 1 
 TCS .hr                 96.00:  Time Ciculation Ended 
 CV  .mps                 2.03:  Crit Velocity 
 CVMX.mps                 2.42:  Max Crit Veloc 
 DD1 .          Taghi Taghiyev:  Direct Drillr 1 
 DD2 .      Tariel Pirmammadov:  Direct Drillr 2 
 DD3 .          Teymur Aghayev:  Direct Drillr 3 
 DDSV.                 iCruise:  DD Service 
 DEFF.%                  98.70:  % Det Eff 
 DLRX.°/30m               1.00:  Dogleg Rot Max 
 DLSO.°/30m               1.80:  Dogleg Oriented 
 DLSX.°/30m               3.16:  Dogleg Str Max 
 DRET.      15.00.00 07-Aug-20:  Drill End Time 
 DRST.      17.00.00 02-Aug-20:  Drill Start Tim 
 DTIM.hr                 45.90:  Time Drilling 
 EDEP.m                5298.01:  End Depth 
 ENG1.       Seymur Iskandarov:  Engineer 1 
 ENG2.         Yevgeniy Ulikov:  Engineer 2 
 ENG3.      Artemiy Matviyanov:  Engineer 3 
 ENG4.         Bahruz Mehdiyev:  Engineer 4 
 ETIM.      05.00.00 10-Aug-20:  End Time 
 FLOI.gpm              1150.00:  Flow In 
 FLON.gpm               900.00:  Flow In Min 
 FLOS.cptm                0.00:  Fluid Loss 
 FLOX.gpm              1200.00:  Flow In Max 
 FTRO.     Connectivity, Formation Presure:  FTWD Run Obj 
 HFLO.                      No:  High Flow 
 HPRE.                     Yes:  High Pressure 
 HTEM.                      No:  High Temp 
 HYDO.m                   1.80:  Hydro Offset 
 IFIN.deg                 9.71:  Inc, Final 
 IMAX.deg                63.81:  Inc Max 
 IMIN.deg                 9.53:  Inc Min 
 IMND.m                5075.52:  Inc Min Depth 
 IMXD.m                4367.08:  Inc Max Depth 
 JARR.                      No:  Jarring 
 LETM.      15.00.00 07-Aug-20:  Log End Time 
 LOST.hr                     2:  Lost Rig Time 
 LSTM.      17.00.00 02-Aug-20:  Log Start Time 
 MDCL.ppm             42500.00:  Mud Chlorides 
 MDES.     Inversion Oil/Synthetic:  Mud Desc 
 DFD .sg                  1.46:  Mud Density 
 MDMN.sg                  1.46:  Dens Mud Min 
 MDMX.sg                  1.46:  Dens Mud Max 
 MOIL.                      56:  Run Mud Oil % 
 MOWR.                   70:30:  Run Mud OWR 
 MSND.                     0.1:  Run Mud Sand % 
 MSOL.                      19:  Run Mud Solids% 
 DFV .spqt               83.00:  Mud Viscosity 
 MWOD.in                  8.00:  MWD Tool OD 
 MWSI.                     Yes:  Serv Intrp, MWD 
 OTIM.hr                196.57:  Time Operating 
 PCON.           Look Like New:  Pad Condition 
 PMAX.psia             7400.00:  Press Op, Max 
 PV  .cP                 36.00:  Mud PV 
 RUN .                    1000:  Run Number 
 ROPA.m/hr               25.00:  ROP Avg 
 ROPN.m/hr               10.00:  ROP Min 
 ROPX.m/hr               32.00:  ROP Max 
 RPMA.rpm               120.00:  RPM Surface Avg 
 RPMN.rpm               100.00:  RPM Surface Min 
 RPMX.rpm               140.00:  RPM Surface Max 
 RRUN.                    L504:  Rig Run Number 
 SAZI.deg               308.25:  Azm, Start 
 SDEP.m                4364.01:  Start Depth 
 SIDD.                      No:  Serv Intrp, DD 
 SINC.deg                63.81:  Inc, Start 
 SPPA.psig             5800.00:  SPP Avg 
 SPPN.psig             4200.00:  SPP Min 
 SPPX.psig             5950.00:  SPP Max 
 STIM.      18.00.00 01-Aug-20:  Start Time 
 SVCS.                 DD, MWD:  Services 
 SVER.                    9.20:  Sperry Version 
 TDAT.m                 934.00:  Tot Depth Attmp 
 TDDF.                      No:  Trip for DD 
 TDLG.m                 934.00:  Tot Depth Loggd 
 TFF .                      No:  Trip for Fail 
 TQAA.f-kp               31.00:  Torque Abs Avg 
 TQAN.f-kp               25.00:  Torque Abs Min 
 TQAX.f-kp               35.00:  Torque Abs Max 
 TRRT.°/30m              -0.75:  Turn Rotating 
 MRT .                  EWR-M5:  Maximum Recorded Temperature 
 TTMX.degC               95.00:  Max Tool Temp 
 VS01.                90516060:  Virtual Str1 SN 
 VS02.                90528488:  Virtual Str2 SN 
 VS03.                90577970:  Virtual Str3 SN 
 VS04.                12385033:  Virtual Str4 SN 
 VS05.                90522069:  Virtual Str5 SN 
 VS06.                13124134:  Virtual Str6 SN 
 WBMN.klb                20.00:  WOB Min 
 WITN.         Alistair Sprott:  Customer Rep 
 WITN.     Ronal van der Kraan:  Customer Rep 2 
 WOBA.klb                25.00:  WOB Avg 
 WOBX.klb                31.00:  WOB Max 
 YP  .lhf2               32.00:  Yield Point 
~Curve Information Block
#MNEM.UNIT                 API CODE     Curve Description
#---------               -----------    ---------------------------
 TIME.HHMMSS            00 000 000 000:  GT Time & Date
 GTDEPTH.m              00 000 000 000:  GT Depth
 GTPQH.psia             00 000 000 000:  GT HR Quartz Pressure
 GTTQ.degC              00 000 000 000:  GT Quartz Temperature
 GTTN.NONE              00 000 000 000:  GT Test Number
 GTET.sec               00 000 000 000:  GT Elapsed Test Time
 GTTVD.m                00 000 000 000:  GT True Vertical Depth
#Other Information
#
#WARRANTY: Halliburton will use its best efforts to furnish customers with 
#accurate information and interpretations that are part of, and incident to, the services 
#provided.  However, Halliburton cannot and does not warrant the accuracy 
#or correctness of such information and interpretations.  Under no circumstances should any 
#such information or interpretation be relied upon as the sole basis for any drilling, 
#completion, production, or financial decision or any procedure involving any risk to the 
#safety of any drilling venture, drilling rig or its crew or any other third party.  The 
#Customer has full responsibility for all drilling, completion and production operation.  
#Halliburton makes no representations or warranties, either expressed or 
#implied, including, but not limited to, the implied warranties of merchantability or fitness 
#for a particular purpose, with respect to the services rendered.  In no event will 
#Halliburton be liable for failure to obtain any particular results or for 
#any damages, including, but not limited to, indirect, special or consequential damages, 
#resulting from the use of any information or interpretation provided by Halliburton.
#
~A           TIME           GTDEPTH  GTPQH  GTTQ  GTTN  GTET   GTTVD  
# ...
   05:58:50.660.08-Aug-2020 5190.42 6158.45 82.36 3.00 459.77 3375.81
   05:58:50.860.08-Aug-2020 5190.42 6158.45 82.36 3.00 459.97 3375.81
   05:58:51.060.08-Aug-2020 5190.42 6160.25 82.36 3.00 460.17 3375.81
   05:58:51.260.08-Aug-2020 5190.42 6161.30 82.36 3.00 460.37 3375.81
   05:58:51.460.08-Aug-2020 5190.42 6162.23 82.36 3.00 460.57 3375.81
   05:58:51.659.08-Aug-2020 5190.42 6163.73 82.36 3.00 460.77 3375.81
   05:58:51.859.08-Aug-2020 5190.42 6163.73 82.36 3.00 460.97 3375.81
   05:58:52.059.08-Aug-2020 5190.42 6165.85 82.36 3.00 461.17 3375.81
   05:58:52.259.08-Aug-2020 5190.42 6167.00 82.36 3.00 461.37 3375.81
   05:58:52.459.08-Aug-2020 5190.42 6167.91 82.36 3.00 461.57 3375.81
   05:58:52.659.08-Aug-2020 5190.42 6169.11 82.36 3.00 461.76 3375.81
   05:58:52.859.08-Aug-2020 5190.42 6169.11 82.36 3.00 461.96 3375.81
   05:58:53.059.08-Aug-2020 5190.42 6171.32 82.35 3.00 462.16 3375.81
   05:58:53.259.08-Aug-2020 5190.42 6172.35 82.35 3.00 462.36 3375.81
   05:58:53.459.08-Aug-2020 5190.42 6172.82 82.35 3.00 462.56 3375.81
   05:58:53.658.08-Aug-2020 5190.42 6173.86 82.35 3.00 462.76 3375.81
   05:58:53.858.08-Aug-2020 5190.42 6173.86 82.35 3.00 462.96 3375.81
   05:58:54.058.08-Aug-2020 5190.42 6175.15 82.35 3.00 463.16 3375.81
   05:58:54.258.08-Aug-2020 5190.42 6176.34 82.35 3.00 463.36 3375.81
   05:58:54.458.08-Aug-2020 5190.42 6177.20 82.35 3.00 463.56 3375.81
   05:58:54.658.08-Aug-2020 5190.42 6178.45 82.35 3.00 463.76 3375.81
   05:58:54.858.08-Aug-2020 5190.42 6178.45 82.35 3.00 463.96 3375.81
   05:58:55.058.08-Aug-2020 5190.42 6180.27 82.35 3.00 464.16 3375.81
   05:58:55.258.08-Aug-2020 5190.42 6181.30 82.35 3.00 464.36 3375.81
   05:58:55.458.08-Aug-2020 5190.42 6182.29 82.35 3.00 464.56 3375.81
   05:58:55.657.08-Aug-2020 5190.42 6183.46 82.35 3.00 464.76 3375.81
   05:58:55.857.08-Aug-2020 5190.42 6183.46 82.35 3.00 464.96 3375.81
   05:58:56.057.08-Aug-2020 5190.42 6185.46 82.35 3.00 465.16 3375.81
   05:58:56.257.08-Aug-2020 5190.42 6186.50 82.35 3.00 465.36 3375.81
   05:58:56.457.08-Aug-2020 5190.42 6187.51 82.35 3.00 465.56 3375.81
   05:58:56.657.08-Aug-2020 5190.42 6188.58 82.35 3.00 465.76 3375.81
   05:58:56.857.08-Aug-2020 5190.42 6188.58 82.35 3.00 465.96 3375.81
   05:58:57.057.08-Aug-2020 5190.42 6190.11 82.35 3.00 466.16 3375.81
   05:58:57.257.08-Aug-2020 5190.42 6190.69 82.35 3.00 466.36 3375.81
   05:58:57.457.08-Aug-2020 5190.42 6191.18 82.35 3.00 466.56 3375.81
   05:58:57.656.08-Aug-2020 5190.42 6192.43 82.35 3.00 466.76 3375.81
   05:58:57.856.08-Aug-2020 5190.42 6192.43 82.35 3.00 466.96 3375.81
   05:58:58.056.08-Aug-2020 5190.42 6194.02 82.35 3.00 467.16 3375.81
   05:58:58.256.08-Aug-2020 5190.42 6194.88 82.35 3.00 467.36 3375.81
   05:58:58.456.08-Aug-2020 5190.42 6196.04 82.34 3.00 467.56 3375.81
   05:58:58.656.08-Aug-2020 5190.42 6196.80 82.34 3.00 467.76 3375.81
   05:58:58.856.08-Aug-2020 5190.42 6196.80 82.34 3.00 467.96 3375.81
   05:58:59.056.08-Aug-2020 5190.42 6198.97 82.34 3.00 468.16 3375.81
   05:58:59.256.08-Aug-2020 5190.42 6199.71 82.34 3.00 468.36 3375.81
   05:58:59.456.08-Aug-2020 5190.42 6200.67 82.34 3.00 468.56 3375.81
   05:58:59.655.08-Aug-2020 5190.42 6201.61 82.34 3.00 468.76 3375.81
   05:58:59.855.08-Aug-2020 5190.42 6201.61 82.34 3.00 468.96 3375.81
   05:59:00.055.08-Aug-2020 5190.42 6203.44 82.34 3.00 469.16 3375.81
   05:59:00.255.08-Aug-2020 5190.42 6204.34 82.34 3.00 469.36 3375.81
   05:59:00.455.08-Aug-2020 5190.42 6205.04 82.34 3.00 469.56 3375.81
   05:59:00.655.08-Aug-2020 5190.42 6205.99 82.34 3.00 469.76 3375.81
   05:59:00.855.08-Aug-2020 5190.42 6205.99 82.34 3.00 469.96 3375.81
   05:59:01.055.08-Aug-2020 5190.42 6207.34 82.34 3.00 470.16 3375.81
   05:59:01.255.08-Aug-2020 5190.42 6208.44 82.34 3.00 470.36 3375.81
   05:59:01.455.08-Aug-2020 5190.42 6209.00 82.34 3.00 470.56 3375.81
   05:59:01.654.08-Aug-2020 5190.42 6210.07 82.34 3.00 470.76 3375.81
   05:59:01.854.08-Aug-2020 5190.42 6210.07 82.34 3.00 470.96 3375.81
   05:59:02.054.08-Aug-2020 5190.42 6211.87 82.34 3.00 471.16 3375.81
   05:59:02.254.08-Aug-2020 5190.42 6212.77 82.34 3.00 471.36 3375.81
   05:59:02.454.08-Aug-2020 5190.42 6213.47 82.34 3.00 471.56 3375.81
   05:59:02.654.08-Aug-2020 5190.42 6214.51 82.34 3.00 471.76 3375.81
   05:59:02.854.08-Aug-2020 5190.42 6214.51 82.34 3.00 471.96 3375.81
   05:59:03.054.08-Aug-2020 5190.42 6216.38 82.34 3.00 472.16 3375.81
   05:59:03.254.08-Aug-2020 5190.42 6217.48 82.34 3.00 472.36 3375.81
   05:59:03.453.08-Aug-2020 5190.42 6218.09 82.34 3.00 472.56 3375.81
   05:59:03.653.08-Aug-2020 5190.42 6218.80 82.34 3.00 472.76 3375.81
   05:59:03.853.08-Aug-2020 5190.42 6218.80 82.34 3.00 472.96 3375.81
   05:59:04.053.08-Aug-2020 5190.42 6220.51 82.33 3.00 473.16 3375.81
   05:59:04.253.08-Aug-2020 5190.42 6221.50 82.33 3.00 473.36 3375.81
   05:59:04.453.08-Aug-2020 5190.42 6221.94 82.33 3.00 473.56 3375.81
   05:59:04.653.08-Aug-2020 5190.42 6223.18 82.33 3.00 473.76 3375.81
   05:59:04.853.08-Aug-2020 5190.42 6223.18 82.33 3.00 473.96 3375.81
   05:59:05.053.08-Aug-2020 5190.42 6224.49 82.33 3.00 474.16 3375.81
   05:59:05.253.08-Aug-2020 5190.42 6225.47 82.33 3.00 474.36 3375.81
   05:59:05.452.08-Aug-2020 5190.42 6226.05 82.33 3.00 474.56 3375.81
   05:59:05.652.08-Aug-2020 5190.42 6226.99 82.33 3.00 474.76 3375.81
   05:59:05.852.08-Aug-2020 5190.42 6226.99 82.33 3.00 474.96 3375.81
   05:59:06.052.08-Aug-2020 5190.42 6228.58 82.33 3.00 475.16 3375.81
   05:59:06.252.08-Aug-2020 5190.42 6229.44 82.33 3.00 475.36 3375.81
   05:59:06.452.08-Aug-2020 5190.42 6230.37 82.33 3.00 475.56 3375.81
   05:59:06.652.08-Aug-2020 5190.42 6231.49 82.33 3.00 475.76 3375.81
   05:59:06.852.08-Aug-2020 5190.42 6232.41 82.33 3.00 475.96 3375.81
   05:59:07.052.08-Aug-2020 5190.42 4968.37 82.33 3.00 476.16 3375.81
   05:59:07.252.08-Aug-2020 5190.42 4738.60 82.33 3.00 476.36 3375.81
   05:59:07.451.08-Aug-2020 5190.42 5093.81 82.33 3.00 476.56 3375.81
   05:59:07.651.08-Aug-2020 5190.42 4992.15 82.33 3.00 476.76 3375.81
   05:59:07.851.08-Aug-2020 5190.42 4532.36 82.33 3.00 476.96 3375.81
   05:59:08.051.08-Aug-2020 5190.42 4599.58 82.33 3.00 477.16 3375.81
   05:59:08.251.08-Aug-2020 5190.42 4670.75 82.33 3.00 477.36 3375.81
   05:59:08.451.08-Aug-2020 5190.42 4975.32 82.32 3.00 477.56 3375.81
   05:59:08.651.08-Aug-2020 5190.42 5318.59 82.32 3.00 477.76 3375.81
   05:59:08.851.08-Aug-2020 5190.42 5318.59 82.32 3.00 477.96 3375.81
   05:59:09.051.08-Aug-2020 5190.42 5870.42 82.32 3.00 478.16 3375.81
   05:59:09.251.08-Aug-2020 5190.42 6046.67 82.32 3.00 478.36 3375.81
   05:59:09.450.08-Aug-2020 5190.42 6368.98 82.32 3.00 478.56 3375.81
   05:59:09.650.08-Aug-2020 5190.42 7020.65 82.32 3.00 478.76 3375.81
   05:59:09.850.08-Aug-2020 5190.42 7020.65 82.32 3.00 478.96 3375.81
   05:59:10.050.08-Aug-2020 5190.42 7162.73 82.32 3.00 479.16 3375.81
   05:59:10.250.08-Aug-2020 5190.42 7164.05 82.32 3.00 479.36 3375.81
   05:59:10.450.08-Aug-2020 5190.42 7165.62 82.32 3.00 479.56 3375.81
   05:59:10.650.08-Aug-2020 5190.42 7165.83 82.32 3.00 479.76 3375.81
   05:59:10.850.08-Aug-2020 5190.42 7165.83 82.32 3.00 479.96 3375.81
   05:59:11.050.08-Aug-2020 5190.42 7164.49 82.32 3.00 480.16 3375.81
   05:59:11.250.08-Aug-2020 5190.42 7165.44 82.31 3.00 480.36 3375.81
   05:59:11.449.08-Aug-2020 5190.42 7166.02 82.31 3.00 480.56 3375.81
   05:59:11.649.08-Aug-2020 5190.42 7164.49 82.31 3.00 480.76 3375.81
   05:59:11.849.08-Aug-2020 5190.42 7164.49 82.31 3.00 480.96 3375.81
   05:59:12.049.08-Aug-2020 5190.42 7166.43 82.31 3.00 481.16 3375.81
   05:59:12.249.08-Aug-2020 5190.42 7165.83 82.31 3.00 481.35 3375.81
   05:59:12.449.08-Aug-2020 5190.42 7165.90 82.31 3.00 481.55 3375.81
   05:59:12.649.08-Aug-2020 5190.42 7165.76 82.31 3.00 481.75 3375.81
   05:59:12.849.08-Aug-2020 5190.42 7165.76 82.31 3.00 481.95 3375.81
   05:59:13.049.08-Aug-2020 5190.42 7166.12 82.31 3.00 482.15 3375.81
   05:59:13.249.08-Aug-2020 5190.42 7165.90 82.31 3.00 482.35 3375.81
   05:59:13.448.08-Aug-2020 5190.42 7165.65 82.31 3.00 482.55 3375.81
