~Version Information
 VERS.                  2.0:   CWLS log ASCII Standard -VERSION 2.0
 WRAP.                   NO:   One line per depth step
~Well Information Block
#MNEM.UNIT     VALUE/NAME     DESCRIPTION
#---------     -----------    ---------------------------
 STRT.S             05:51:10 08-Aug-20: START TIME 05:51:10 08-Aug-20
 STOP.S             05:59:38 08-Aug-20: STOP TIME  05:59:38 08-Aug-20
 STEP.S                   0.00: STEP TIME
 NULL.                 -999.25: NULL VALUE
 DFWT.                        :  DIST FWL TEXT
 DFST.                        :  DIST FSL TEXT
 DMF .             Drill Floor:  DRILL MEAS FROM
 STIM.      13.47.44 07-Jun-20:  START TIME
 DATE.      13.47.44 27-Jul-20:  END TIME
 SPUD.               07-Jun-20:  SPUD DATE
 NREF.                    Grid:  NORTH REFERENCE
 HPTY.       Minimum Curvature:  HOLE POS TYPE
 DMOD.             Drill Model:  DRILL MOD DESC
 SVYD.                  Survey:  SURVEY DESC
 ILTD.               Lithology:  INTERP LTH DESC
 FTOP.          Formation Tops:  FORM TOPS DESC
 RIG .             West Chirag:  RIG NAME
 PDAT.          Mean Sea Level:  PERMANENT DATUM
 FLD .                     ACG:  FIELD NAME
 SON .        AZ-XX-0906363612:  JOB NUMBER
 CTRY.              Azerbaijan:  COUNTRY NAME
 WELL.           J25 (Slot 35):  WELL NAME
 SRVC.          Turan Drilling:  CONTRACTOR
 COMP.     BP Exploration (Caspian Sea) Ltd:  COMPANY
 UWI .                     N/A:  UNIQUE WELL IDENTIFIER
 API .                     N/A:  API NUMBER
 BASE.              Azerbaijan:  LOGGING EQUIPMENT BASE LOCATION
 REGN.                   EESSA:  REGION
 PROV.                    Baku:  PROVINCE
 STAT.                    Baku:  STATE NAME
 MWDS.                     N/A:  MWD SHOP
 DOE .                     N/A:  DOE NUMBER
 DCON.         Sperry Drilling:  DIRECTNL CONTR
 UNIT.                     N/A:  LOGGING EQUIPMENT ID
 MDS .        Operator Entered:  MAG DATA SOURCE
 JOBN.        AZ-XX-0906363612:  JOB TICKET NUMB
 WTYP.                Deviated:  WELL TYPE
 CNTY.                        :  COUNTY
 LOC .                        :  LOCATION
 LMF .             Drill Floor:  LOG MEASURED FROM
 TVDS.m                  43.00:  TVDSS CORRECTN
 LATI.deg                40.13:  LATITUDE
 LONG.deg                51.22:  LONGITUDE
 WHNS.m                  -7.90:  WELL HEAD N/S
 WHEW.m                  -3.35:  WELL HEAD E/W
 UTMX.m              519005.06:  UTM X
 UTMY.m             4443793.85:  UTM Y
 DFWL.m                   0.00:  DISTANCE FWL
 DFSL.m                   0.00:  DISTANCE FSL
 SDEP.m                   0.00:  START DEPTH
 TDD .m                   0.00:  TOTAL DEPTH (DRILLER)
 VSDR.deg               308.97:  VERT SEC DIRECT
 GVFD.g                   1.00:  GRAVITY FIELD
 MFLD.nT              50350.00:  MAGNETIC FIELD
 MDIP.deg                59.62:  MAGNETIC DIP
 MDEC.deg                 6.44:  MAGNETIC DECL
 GRDC.deg                 0.13:  GRID CORRECTION
 AZTC.deg                 6.32:  AZM TOTAL CORR
 EPD .m                   0.00:  ELEVATION
 EGL .m                   0.00:  GROUND ELEVATION
 WDMS.m                 169.80:  WD ELEV
 APD .m                  43.00:  DEPTH ABOVE PD
 DEP .m                 356.43:  DEPTH
 AGAP.m                  43.00:  AIR GAP
 VSEW.m                  -3.35:  VERT SEC E/W
 VSNS.m                  -7.90:  VERT SEC N/S
 EKB .m                  43.00:  KB ELEVATION
 EDF .m                  43.00:  DF ELEVATION
 TDL .m                 934.00:  TOTAL DEPTH (LOGGER)
 VSC .                       0:  VS TO CLOSURE
 MAGU.                 1852825:  MAGUTM CHECKSUM
~Parameter Information Block
#MNEM.UNIT       Value        Description
#---------     -----------    ---------------------------
 AV  .mps                 0.80:  Ann Velocity 
 AVMX.mps                 1.70:  Max Ann Veloc 
 AZIF.deg               311.41:  Azm, Final 
 BHAT.        Rotary Steerable:  BHA Type 
 BROT.°/30m               0.09:  Build Rotating 
 BS  .in                 12.25:  Bit Size 
 BSZ .in                 12.25:  Bit Size 
 BTPL.psig              800.00:  Bit Press Loss 
 CABU.                      No:  Customer Abuse 
 COMM.                     ¤'V:  Run Comments 1 
 TCS .hr                 96.00:  Time Ciculation Ended 
 CV  .mps                 2.03:  Crit Velocity 
 CVMX.mps                 2.42:  Max Crit Veloc 
 DD1 .          Taghi Taghiyev:  Direct Drillr 1 
 DD2 .      Tariel Pirmammadov:  Direct Drillr 2 
 DD3 .          Teymur Aghayev:  Direct Drillr 3 
 DDSV.                 iCruise:  DD Service 
 DEFF.%                  98.70:  % Det Eff 
 DLRX.°/30m               1.00:  Dogleg Rot Max 
 DLSO.°/30m               1.80:  Dogleg Oriented 
 DLSX.°/30m               3.16:  Dogleg Str Max 
 DRET.      15.00.00 07-Aug-20:  Drill End Time 
 DRST.      17.00.00 02-Aug-20:  Drill Start Tim 
 DTIM.hr                 45.90:  Time Drilling 
 EDEP.m                5298.01:  End Depth 
 ENG1.       Seymur Iskandarov:  Engineer 1 
 ENG2.         Yevgeniy Ulikov:  Engineer 2 
 ENG3.      Artemiy Matviyanov:  Engineer 3 
 ENG4.         Bahruz Mehdiyev:  Engineer 4 
 ETIM.      05.00.00 10-Aug-20:  End Time 
 FLOI.gpm              1150.00:  Flow In 
 FLON.gpm               900.00:  Flow In Min 
 FLOS.cptm                0.00:  Fluid Loss 
 FLOX.gpm              1200.00:  Flow In Max 
 FTRO.     Connectivity, Formation Presure:  FTWD Run Obj 
 HFLO.                      No:  High Flow 
 HPRE.                     Yes:  High Pressure 
 HTEM.                      No:  High Temp 
 HYDO.m                   1.80:  Hydro Offset 
 IFIN.deg                 9.71:  Inc, Final 
 IMAX.deg                63.81:  Inc Max 
 IMIN.deg                 9.53:  Inc Min 
 IMND.m                5075.52:  Inc Min Depth 
 IMXD.m                4367.08:  Inc Max Depth 
 JARR.                      No:  Jarring 
 LETM.      15.00.00 07-Aug-20:  Log End Time 
 LOST.hr                     2:  Lost Rig Time 
 LSTM.      17.00.00 02-Aug-20:  Log Start Time 
 MDCL.ppm             42500.00:  Mud Chlorides 
 MDES.     Inversion Oil/Synthetic:  Mud Desc 
 DFD .sg                  1.46:  Mud Density 
 MDMN.sg                  1.46:  Dens Mud Min 
 MDMX.sg                  1.46:  Dens Mud Max 
 MOIL.                      56:  Run Mud Oil % 
 MOWR.                   70:30:  Run Mud OWR 
 MSND.                     0.1:  Run Mud Sand % 
 MSOL.                      19:  Run Mud Solids% 
 DFV .spqt               83.00:  Mud Viscosity 
 MWOD.in                  8.00:  MWD Tool OD 
 MWSI.                     Yes:  Serv Intrp, MWD 
 OTIM.hr                196.57:  Time Operating 
 PCON.           Look Like New:  Pad Condition 
 PMAX.psia             7400.00:  Press Op, Max 
 PV  .cP                 36.00:  Mud PV 
 RUN .                    1000:  Run Number 
 ROPA.m/hr               25.00:  ROP Avg 
 ROPN.m/hr               10.00:  ROP Min 
 ROPX.m/hr               32.00:  ROP Max 
 RPMA.rpm               120.00:  RPM Surface Avg 
 RPMN.rpm               100.00:  RPM Surface Min 
 RPMX.rpm               140.00:  RPM Surface Max 
 RRUN.                    L504:  Rig Run Number 
 SAZI.deg               308.25:  Azm, Start 
 SDEP.m                4364.01:  Start Depth 
 SIDD.                      No:  Serv Intrp, DD 
 SINC.deg                63.81:  Inc, Start 
 SPPA.psig             5800.00:  SPP Avg 
 SPPN.psig             4200.00:  SPP Min 
 SPPX.psig             5950.00:  SPP Max 
 STIM.      18.00.00 01-Aug-20:  Start Time 
 SVCS.                 DD, MWD:  Services 
 SVER.                    9.20:  Sperry Version 
 TDAT.m                 934.00:  Tot Depth Attmp 
 TDDF.                      No:  Trip for DD 
 TDLG.m                 934.00:  Tot Depth Loggd 
 TFF .                      No:  Trip for Fail 
 TQAA.f-kp               31.00:  Torque Abs Avg 
 TQAN.f-kp               25.00:  Torque Abs Min 
 TQAX.f-kp               35.00:  Torque Abs Max 
 TRRT.°/30m              -0.75:  Turn Rotating 
 MRT .                  EWR-M5:  Maximum Recorded Temperature 
 TTMX.degC               95.00:  Max Tool Temp 
 VS01.                90516060:  Virtual Str1 SN 
 VS02.                90528488:  Virtual Str2 SN 
 VS03.                90577970:  Virtual Str3 SN 
 VS04.                12385033:  Virtual Str4 SN 
 VS05.                90522069:  Virtual Str5 SN 
 VS06.                13124134:  Virtual Str6 SN 
 WBMN.klb                20.00:  WOB Min 
 WITN.         Alistair Sprott:  Customer Rep 
 WITN.     Ronal van der Kraan:  Customer Rep 2 
 WOBA.klb                25.00:  WOB Avg 
 WOBX.klb                31.00:  WOB Max 
 YP  .lhf2               32.00:  Yield Point 
~Curve Information Block
#MNEM.UNIT                 API CODE     Curve Description
#---------               -----------    ---------------------------
 TIME.HHMMSS            00 000 000 000:  GT Time & Date
 GTDEPTH.m              00 000 000 000:  GT Depth
 GTPQH.psia             00 000 000 000:  GT HR Quartz Pressure
 GTTQ.degC              00 000 000 000:  GT Quartz Temperature
 GTTN.NONE              00 000 000 000:  GT Test Number
 GTET.sec               00 000 000 000:  GT Elapsed Test Time
 GTTVD.m                00 000 000 000:  GT True Vertical Depth
#Other Information
#
#WARRANTY: Halliburton will use its best efforts to furnish customers with 
#accurate information and interpretations that are part of, and incident to, the services 
#provided.  However, Halliburton cannot and does not warrant the accuracy 
#or correctness of such information and interpretations.  Under no circumstances should any 
#such information or interpretation be relied upon as the sole basis for any drilling, 
#completion, production, or financial decision or any procedure involving any risk to the 
#safety of any drilling venture, drilling rig or its crew or any other third party.  The 
#Customer has full responsibility for all drilling, completion and production operation.  
#Halliburton makes no representations or warranties, either expressed or 
#implied, including, but not limited to, the implied warranties of merchantability or fitness 
#for a particular purpose, with respect to the services rendered.  In no event will 
#Halliburton be liable for failure to obtain any particular results or for 
#any damages, including, but not limited to, indirect, special or consequential damages, 
#resulting from the use of any information or interpretation provided by Halliburton.
#
~A           TIME           GTDEPTH  GTPQH  GTTQ  GTTN  GTET   GTTVD  
# ...
   05:51:33.882.08-Aug-2020 5190.42 7166.21 83.22 3.00  22.99 3375.81
   05:51:34.082.08-Aug-2020 5190.42 7166.21 83.22 3.00  23.19 3375.81
   05:51:34.282.08-Aug-2020 5190.42 7168.01 83.22 3.00  23.39 3375.81
   05:51:34.482.08-Aug-2020 5190.42 7166.58 83.22 3.00  23.59 3375.81
   05:51:34.682.08-Aug-2020 5190.42 7167.63 83.22 3.00  23.79 3375.81
   05:51:34.882.08-Aug-2020 5190.42 7165.43 83.22 3.00  23.99 3375.81
   05:51:35.082.08-Aug-2020 5190.42 7165.43 83.22 3.00  24.19 3375.81
   05:51:35.282.08-Aug-2020 5190.42 7168.68 83.22 3.00  24.39 3375.81
   05:51:35.482.08-Aug-2020 5190.42 7165.11 83.22 3.00  24.59 3375.81
   05:51:35.681.08-Aug-2020 5190.42 7169.72 83.22 3.00  24.79 3375.81
   05:51:35.881.08-Aug-2020 5190.42 7169.05 83.22 3.00  24.99 3375.81
   05:51:36.081.08-Aug-2020 5190.42 7169.05 83.22 3.00  25.19 3375.81
   05:51:36.281.08-Aug-2020 5190.42 7165.53 83.22 3.00  25.39 3375.81
   05:51:36.481.08-Aug-2020 5190.42 7169.01 83.22 3.00  25.59 3375.81
   05:51:36.681.08-Aug-2020 5190.42 7166.38 83.22 3.00  25.79 3375.81
   05:51:36.881.08-Aug-2020 5190.42 7167.00 83.22 3.00  25.99 3375.81
   05:51:37.081.08-Aug-2020 5190.42 7167.00 83.22 3.00  26.19 3375.81
   05:51:37.281.08-Aug-2020 5190.42 7165.21 83.22 3.00  26.39 3375.81
   05:51:37.481.08-Aug-2020 5190.42 7164.74 83.21 3.00  26.59 3375.81
   05:51:37.680.08-Aug-2020 5190.42 7163.93 83.21 3.00  26.79 3375.81
   05:51:37.880.08-Aug-2020 5190.42 7164.82 83.21 3.00  26.99 3375.81
   05:51:38.080.08-Aug-2020 5190.42 7164.82 83.21 3.00  27.19 3375.81
   05:51:38.280.08-Aug-2020 5190.42 7163.74 83.21 3.00  27.39 3375.81
   05:51:38.480.08-Aug-2020 5190.42 7163.85 83.21 3.00  27.59 3375.81
   05:51:38.680.08-Aug-2020 5190.42 7164.24 83.21 3.00  27.79 3375.81
   05:51:38.880.08-Aug-2020 5190.42 7164.40 83.21 3.00  27.99 3375.81
   05:51:39.080.08-Aug-2020 5190.42 7164.40 83.21 3.00  28.19 3375.81
   05:51:39.280.08-Aug-2020 5190.42 7164.16 83.21 3.00  28.39 3375.81
   05:51:39.480.08-Aug-2020 5190.42 7164.30 83.21 3.00  28.59 3375.81
   05:51:39.679.08-Aug-2020 5190.42 7164.70 83.21 3.00  28.79 3375.81
   05:51:39.879.08-Aug-2020 5190.42 7164.63 83.21 3.00  28.99 3375.81
   05:51:40.079.08-Aug-2020 5190.42 7164.63 83.21 3.00  29.19 3375.81
   05:51:40.279.08-Aug-2020 5190.42 7164.78 83.21 3.00  29.39 3375.81
   05:51:40.479.08-Aug-2020 5190.42 7166.71 83.21 3.00  29.58 3375.81
   05:51:40.679.08-Aug-2020 5190.42 7165.51 83.21 3.00  29.78 3375.81
   05:51:40.879.08-Aug-2020 5190.42 7166.45 83.21 3.00  29.98 3375.81
   05:51:41.079.08-Aug-2020 5190.42 7166.45 83.21 3.00  30.18 3375.81
   05:51:41.279.08-Aug-2020 5190.42 7166.48 83.20 3.00  30.38 3375.81
   05:51:41.479.08-Aug-2020 5190.42 7166.73 83.20 3.00  30.58 3375.81
   05:51:41.678.08-Aug-2020 5190.42 7167.00 83.20 3.00  30.78 3375.81
   05:51:41.878.08-Aug-2020 5190.42 7166.11 83.20 3.00  30.98 3375.81
   05:51:42.078.08-Aug-2020 5190.42 7166.11 83.20 3.00  31.18 3375.81
   05:51:42.278.08-Aug-2020 5190.42 7167.20 83.20 3.00  31.38 3375.81
   05:51:42.478.08-Aug-2020 5190.42 7167.43 83.20 3.00  31.58 3375.81
   05:51:42.678.08-Aug-2020 5190.42 7167.52 83.20 3.00  31.78 3375.81
   05:51:42.878.08-Aug-2020 5190.42 7167.52 83.20 3.00  31.98 3375.81
   05:51:43.078.08-Aug-2020 5190.42 7167.52 83.20 3.00  32.18 3375.81
   05:51:43.278.08-Aug-2020 5190.42 7170.10 83.20 3.00  32.38 3375.81
   05:51:43.477.08-Aug-2020 5190.42 7168.89 83.20 3.00  32.58 3375.81
   05:51:43.677.08-Aug-2020 5190.42 7169.87 83.20 3.00  32.78 3375.81
   05:51:43.877.08-Aug-2020 5190.42 7170.31 83.20 3.00  32.98 3375.81
   05:51:44.077.08-Aug-2020 5190.42 7170.31 83.20 3.00  33.18 3375.81
   05:51:44.277.08-Aug-2020 5190.42 7170.38 83.20 3.00  33.38 3375.81
   05:51:44.477.08-Aug-2020 5190.42 7167.83 83.20 3.00  33.58 3375.81
   05:51:44.677.08-Aug-2020 5190.42 7168.51 83.20 3.00  33.78 3375.81
   05:51:44.877.08-Aug-2020 5190.42 7168.80 83.20 3.00  33.98 3375.81
   05:51:45.077.08-Aug-2020 5190.42 7168.80 83.20 3.00  34.18 3375.81
   05:51:45.277.08-Aug-2020 5190.42 7171.91 83.19 3.00  34.38 3375.81
   05:51:45.476.08-Aug-2020 5190.42 7170.57 83.19 3.00  34.58 3375.81
   05:51:45.676.08-Aug-2020 5190.42 7167.48 83.19 3.00  34.78 3375.81
   05:51:45.876.08-Aug-2020 5190.42 7167.59 83.19 3.00  34.98 3375.81
   05:51:46.076.08-Aug-2020 5190.42 7167.59 83.19 3.00  35.18 3375.81
   05:51:46.276.08-Aug-2020 5190.42 7167.93 83.19 3.00  35.38 3375.81
   05:51:46.476.08-Aug-2020 5190.42 7167.76 83.19 3.00  35.58 3375.81
   05:51:46.676.08-Aug-2020 5190.42 7170.51 83.19 3.00  35.78 3375.81
   05:51:46.876.08-Aug-2020 5190.42 7169.28 83.19 3.00  35.98 3375.81
   05:51:47.076.08-Aug-2020 5190.42 7169.28 83.19 3.00  36.18 3375.81
   05:51:47.276.08-Aug-2020 5190.42 7166.62 83.19 3.00  36.38 3375.81
   05:51:47.475.08-Aug-2020 5190.42 7172.04 83.19 3.00  36.58 3375.81
   05:51:47.675.08-Aug-2020 5190.42 7169.23 83.19 3.00  36.78 3375.81
   05:51:47.875.08-Aug-2020 5190.42 7166.92 83.19 3.00  36.98 3375.81
   05:51:48.075.08-Aug-2020 5190.42 7166.92 83.19 3.00  37.18 3375.81
   05:51:48.275.08-Aug-2020 5190.42 7167.26 83.19 3.00  37.38 3375.81
   05:51:48.475.08-Aug-2020 5190.42 7167.36 83.19 3.00  37.58 3375.81
   05:51:48.675.08-Aug-2020 5190.42 7167.40 83.19 3.00  37.78 3375.81
   05:51:48.875.08-Aug-2020 5190.42 7168.44 83.19 3.00  37.98 3375.81
   05:51:49.075.08-Aug-2020 5190.42 7168.44 83.19 3.00  38.18 3375.81
   05:51:49.275.08-Aug-2020 5190.42 7168.43 83.18 3.00  38.38 3375.81
   05:51:49.474.08-Aug-2020 5190.42 7168.56 83.18 3.00  38.58 3375.81
   05:51:49.674.08-Aug-2020 5190.42 7169.64 83.18 3.00  38.78 3375.81
   05:51:49.874.08-Aug-2020 5190.42 7169.86 83.18 3.00  38.98 3375.81
   05:51:50.074.08-Aug-2020 5190.42 7169.86 83.18 3.00  39.18 3375.81
   05:51:50.274.08-Aug-2020 5190.42 7169.58 83.18 3.00  39.38 3375.81
   05:51:50.474.08-Aug-2020 5190.42 7169.69 83.18 3.00  39.58 3375.81
   05:51:50.674.08-Aug-2020 5190.42 7169.52 83.18 3.00  39.78 3375.81
   05:51:50.874.08-Aug-2020 5190.42 7173.39 83.18 3.00  39.98 3375.81
   05:51:51.074.08-Aug-2020 5190.42 7173.39 83.18 3.00  40.18 3375.81
   05:51:51.274.08-Aug-2020 5190.42 7169.11 83.18 3.00  40.38 3375.81
   05:51:51.473.08-Aug-2020 5190.42 7168.64 83.18 3.00  40.58 3375.81
   05:51:51.673.08-Aug-2020 5190.42 7169.20 83.18 3.00  40.78 3375.81
   05:51:51.873.08-Aug-2020 5190.42 7168.82 83.18 3.00  40.98 3375.81
   05:51:52.073.08-Aug-2020 5190.42 7168.82 83.18 3.00  41.18 3375.81
   05:51:52.273.08-Aug-2020 5190.42 7168.80 83.18 3.00  41.38 3375.81
   05:51:52.473.08-Aug-2020 5190.42 7168.98 83.18 3.00  41.58 3375.81
   05:51:52.673.08-Aug-2020 5190.42 7168.48 83.18 3.00  41.78 3375.81
   05:51:52.873.08-Aug-2020 5190.42 7168.38 83.18 3.00  41.98 3375.81
   05:51:53.073.08-Aug-2020 5190.42 7168.38 83.17 3.00  42.18 3375.81
   05:51:53.273.08-Aug-2020 5190.42 7169.49 83.17 3.00  42.38 3375.81
   05:51:53.472.08-Aug-2020 5190.42 7169.18 83.17 3.00  42.58 3375.81
   05:51:53.672.08-Aug-2020 5190.42 7168.71 83.17 3.00  42.78 3375.81
   05:51:53.872.08-Aug-2020 5190.42 7168.84 83.17 3.00  42.98 3375.81
   05:51:54.072.08-Aug-2020 5190.42 7171.27 83.17 3.00  43.18 3375.81
   05:51:54.272.08-Aug-2020 5190.42 7169.68 83.17 3.00  43.38 3375.81
   05:51:54.472.08-Aug-2020 5190.42 7170.01 83.17 3.00  43.58 3375.81
   05:51:54.672.08-Aug-2020 5190.42 7167.85 83.17 3.00  43.78 3375.81
   05:51:54.872.08-Aug-2020 5190.42 7167.72 83.17 3.00  43.98 3375.81
   05:51:55.072.08-Aug-2020 5190.42 7167.72 83.17 3.00  44.18 3375.81
   05:51:55.271.08-Aug-2020 5190.42 7170.51 83.17 3.00  44.38 3375.81
   05:51:55.471.08-Aug-2020 5190.42 7168.74 83.17 3.00  44.58 3375.81
   05:51:55.671.08-Aug-2020 5190.42 7166.48 83.17 3.00  44.78 3375.81
   05:51:55.871.08-Aug-2020 5190.42 7165.73 83.17 3.00  44.98 3375.81
   05:51:56.071.08-Aug-2020 5190.42 7165.73 83.17 3.00  45.18 3375.81
   05:51:56.271.08-Aug-2020 5190.42 7172.74 83.17 3.00  45.38 3375.81
   05:51:56.471.08-Aug-2020 5190.42 7167.11 83.17 3.00  45.58 3375.81
   05:51:56.671.08-Aug-2020 5190.42 7168.65 83.17 3.00  45.78 3375.81
