~Version Information
 VERS.                  2.0:   CWLS log ASCII Standard -VERSION 2.0
 WRAP.                   NO:   One line per depth step
~Well Information Block
#MNEM.UNIT     VALUE/NAME     DESCRIPTION
#---------     -----------    ---------------------------
 STRT.S             09:23:14 08-Aug-20: START TIME 09:23:14 08-Aug-20
 STOP.S             09:28:51 08-Aug-20: STOP TIME  09:28:51 08-Aug-20
 STEP.S                   0.00: STEP TIME
 NULL.                 -999.25: NULL VALUE
 DFWT.                        :  DIST FWL TEXT
 DFST.                        :  DIST FSL TEXT
 DMF .             Drill Floor:  DRILL MEAS FROM
 STIM.      13.47.44 07-Jun-20:  START TIME
 DATE.      13.47.44 27-Jul-20:  END TIME
 SPUD.               07-Jun-20:  SPUD DATE
 NREF.                    Grid:  NORTH REFERENCE
 HPTY.       Minimum Curvature:  HOLE POS TYPE
 DMOD.             Drill Model:  DRILL MOD DESC
 SVYD.                  Survey:  SURVEY DESC
 ILTD.               Lithology:  INTERP LTH DESC
 FTOP.          Formation Tops:  FORM TOPS DESC
 RIG .             West Chirag:  RIG NAME
 PDAT.          Mean Sea Level:  PERMANENT DATUM
 FLD .                     ACG:  FIELD NAME
 SON .        AZ-XX-0906363612:  JOB NUMBER
 CTRY.              Azerbaijan:  COUNTRY NAME
 WELL.           J25 (Slot 35):  WELL NAME
 SRVC.          Turan Drilling:  CONTRACTOR
 COMP.     BP Exploration (Caspian Sea) Ltd:  COMPANY
 UWI .                     N/A:  UNIQUE WELL IDENTIFIER
 API .                     N/A:  API NUMBER
 BASE.              Azerbaijan:  LOGGING EQUIPMENT BASE LOCATION
 REGN.                   EESSA:  REGION
 PROV.                    Baku:  PROVINCE
 STAT.                    Baku:  STATE NAME
 MWDS.                     N/A:  MWD SHOP
 DOE .                     N/A:  DOE NUMBER
 DCON.         Sperry Drilling:  DIRECTNL CONTR
 UNIT.                     N/A:  LOGGING EQUIPMENT ID
 MDS .        Operator Entered:  MAG DATA SOURCE
 JOBN.        AZ-XX-0906363612:  JOB TICKET NUMB
 WTYP.                Deviated:  WELL TYPE
 CNTY.                        :  COUNTY
 LOC .                        :  LOCATION
 LMF .             Drill Floor:  LOG MEASURED FROM
 TVDS.m                  43.00:  TVDSS CORRECTN
 LATI.deg                40.13:  LATITUDE
 LONG.deg                51.22:  LONGITUDE
 WHNS.m                  -7.90:  WELL HEAD N/S
 WHEW.m                  -3.35:  WELL HEAD E/W
 UTMX.m              519005.06:  UTM X
 UTMY.m             4443793.85:  UTM Y
 DFWL.m                   0.00:  DISTANCE FWL
 DFSL.m                   0.00:  DISTANCE FSL
 SDEP.m                   0.00:  START DEPTH
 TDD .m                   0.00:  TOTAL DEPTH (DRILLER)
 VSDR.deg               308.97:  VERT SEC DIRECT
 GVFD.g                   1.00:  GRAVITY FIELD
 MFLD.nT              50350.00:  MAGNETIC FIELD
 MDIP.deg                59.62:  MAGNETIC DIP
 MDEC.deg                 6.44:  MAGNETIC DECL
 GRDC.deg                 0.13:  GRID CORRECTION
 AZTC.deg                 6.32:  AZM TOTAL CORR
 EPD .m                   0.00:  ELEVATION
 EGL .m                   0.00:  GROUND ELEVATION
 WDMS.m                 169.80:  WD ELEV
 APD .m                  43.00:  DEPTH ABOVE PD
 DEP .m                 356.43:  DEPTH
 AGAP.m                  43.00:  AIR GAP
 VSEW.m                  -3.35:  VERT SEC E/W
 VSNS.m                  -7.90:  VERT SEC N/S
 EKB .m                  43.00:  KB ELEVATION
 EDF .m                  43.00:  DF ELEVATION
 TDL .m                 934.00:  TOTAL DEPTH (LOGGER)
 VSC .                       0:  VS TO CLOSURE
 MAGU.                 1852825:  MAGUTM CHECKSUM
~Parameter Information Block
#MNEM.UNIT       Value        Description
#---------     -----------    ---------------------------
 AV  .mps                 0.80:  Ann Velocity 
 AVMX.mps                 1.70:  Max Ann Veloc 
 AZIF.deg               311.41:  Azm, Final 
 BHAT.        Rotary Steerable:  BHA Type 
 BROT.°/30m               0.09:  Build Rotating 
 BS  .in                 12.25:  Bit Size 
 BSZ .in                 12.25:  Bit Size 
 BTPL.psig              800.00:  Bit Press Loss 
 CABU.                      No:  Customer Abuse 
 TCS .hr                 96.00:  Time Ciculation Ended 
 CV  .mps                 2.03:  Crit Velocity 
 CVMX.mps                 2.42:  Max Crit Veloc 
 DD1 .          Taghi Taghiyev:  Direct Drillr 1 
 DD2 .      Tariel Pirmammadov:  Direct Drillr 2 
 DD3 .          Teymur Aghayev:  Direct Drillr 3 
 DDSV.                 iCruise:  DD Service 
 DEFF.%                  98.70:  % Det Eff 
 DLRX.°/30m               1.00:  Dogleg Rot Max 
 DLSO.°/30m               1.80:  Dogleg Oriented 
 DLSX.°/30m               3.16:  Dogleg Str Max 
 DRET.      15.00.00 07-Aug-20:  Drill End Time 
 DRST.      17.00.00 02-Aug-20:  Drill Start Tim 
 DTIM.hr                 45.90:  Time Drilling 
 EDEP.m                5298.01:  End Depth 
 ENG1.       Seymur Iskandarov:  Engineer 1 
 ENG2.         Yevgeniy Ulikov:  Engineer 2 
 ENG3.      Artemiy Matviyanov:  Engineer 3 
 ENG4.         Bahruz Mehdiyev:  Engineer 4 
 ETIM.      05.00.00 10-Aug-20:  End Time 
 FLOI.gpm              1150.00:  Flow In 
 FLON.gpm               900.00:  Flow In Min 
 FLOS.cptm                0.00:  Fluid Loss 
 FLOX.gpm              1200.00:  Flow In Max 
 FTRO.     Connectivity, Formation Presure:  FTWD Run Obj 
 HFLO.                      No:  High Flow 
 HPRE.                     Yes:  High Pressure 
 HTEM.                      No:  High Temp 
 HYDO.m                   1.80:  Hydro Offset 
 IFIN.deg                 9.71:  Inc, Final 
 IMAX.deg                63.81:  Inc Max 
 IMIN.deg                 9.53:  Inc Min 
 IMND.m                5075.52:  Inc Min Depth 
 IMXD.m                4367.08:  Inc Max Depth 
 JARR.                      No:  Jarring 
 LETM.      15.00.00 07-Aug-20:  Log End Time 
 LOST.hr                     2:  Lost Rig Time 
 LSTM.      17.00.00 02-Aug-20:  Log Start Time 
 MDCL.ppm             42500.00:  Mud Chlorides 
 MDES.     Inversion Oil/Synthetic:  Mud Desc 
 DFD .sg                  1.46:  Mud Density 
 MDMN.sg                  1.46:  Dens Mud Min 
 MDMX.sg                  1.46:  Dens Mud Max 
 MOIL.                      56:  Run Mud Oil % 
 MOWR.                   70:30:  Run Mud OWR 
 MSND.                     0.1:  Run Mud Sand % 
 MSOL.                      19:  Run Mud Solids% 
 DFV .spqt               83.00:  Mud Viscosity 
 MWOD.in                  8.00:  MWD Tool OD 
 MWSI.                     Yes:  Serv Intrp, MWD 
 OTIM.hr                196.57:  Time Operating 
 PCON.           Look Like New:  Pad Condition 
 PMAX.psia             7400.00:  Press Op, Max 
 PV  .cP                 36.00:  Mud PV 
 RUN .                    1000:  Run Number 
 ROPA.m/hr               25.00:  ROP Avg 
 ROPN.m/hr               10.00:  ROP Min 
 ROPX.m/hr               32.00:  ROP Max 
 RPMA.rpm               120.00:  RPM Surface Avg 
 RPMN.rpm               100.00:  RPM Surface Min 
 RPMX.rpm               140.00:  RPM Surface Max 
 RRUN.                    L504:  Rig Run Number 
 SAZI.deg               308.25:  Azm, Start 
 SDEP.m                4364.01:  Start Depth 
 SIDD.                      No:  Serv Intrp, DD 
 SINC.deg                63.81:  Inc, Start 
 SPPA.psig             5800.00:  SPP Avg 
 SPPN.psig             4200.00:  SPP Min 
 SPPX.psig             5950.00:  SPP Max 
 STIM.      18.00.00 01-Aug-20:  Start Time 
 SVCS.                 DD, MWD:  Services 
 SVER.                    9.20:  Sperry Version 
 TDAT.m                 934.00:  Tot Depth Attmp 
 TDDF.                      No:  Trip for DD 
 TDLG.m                 934.00:  Tot Depth Loggd 
 TFF .                      No:  Trip for Fail 
 TQAA.f-kp               31.00:  Torque Abs Avg 
 TQAN.f-kp               25.00:  Torque Abs Min 
 TQAX.f-kp               35.00:  Torque Abs Max 
 TRRT.°/30m              -0.75:  Turn Rotating 
 MRT .                  EWR-M5:  Maximum Recorded Temperature 
 TTMX.degC               95.00:  Max Tool Temp 
 VS01.                90516060:  Virtual Str1 SN 
 VS02.                90528488:  Virtual Str2 SN 
 VS03.                90577970:  Virtual Str3 SN 
 VS04.                12385033:  Virtual Str4 SN 
 VS05.                90522069:  Virtual Str5 SN 
 VS06.                13124134:  Virtual Str6 SN 
 WBMN.klb                20.00:  WOB Min 
 WITN.         Alistair Sprott:  Customer Rep 
 WITN.     Ronal van der Kraan:  Customer Rep 2 
 WOBA.klb                25.00:  WOB Avg 
 WOBX.klb                31.00:  WOB Max 
 YP  .lhf2               32.00:  Yield Point 
~Curve Information Block
#MNEM.UNIT                 API CODE     Curve Description
#---------               -----------    ---------------------------
 TIME.HHMMSS            00 000 000 000:  GT Time & Date
 GTDEPTH.m              00 000 000 000:  GT Depth
 GTPQH.psia             00 000 000 000:  GT HR Quartz Pressure
 GTTQ.degC              00 000 000 000:  GT Quartz Temperature
 GTTN.NONE              00 000 000 000:  GT Test Number
 GTET.sec               00 000 000 000:  GT Elapsed Test Time
 GTTVD.m                00 000 000 000:  GT True Vertical Depth
#Other Information
#
#WARRANTY: Halliburton will use its best efforts to furnish customers with 
#accurate information and interpretations that are part of, and incident to, the services 
#provided.  However, Halliburton cannot and does not warrant the accuracy 
#or correctness of such information and interpretations.  Under no circumstances should any 
#such information or interpretation be relied upon as the sole basis for any drilling, 
#completion, production, or financial decision or any procedure involving any risk to the 
#safety of any drilling venture, drilling rig or its crew or any other third party.  The 
#Customer has full responsibility for all drilling, completion and production operation.  
#Halliburton makes no representations or warranties, either expressed or 
#implied, including, but not limited to, the implied warranties of merchantability or fitness 
#for a particular purpose, with respect to the services rendered.  In no event will 
#Halliburton be liable for failure to obtain any particular results or for 
#any damages, including, but not limited to, indirect, special or consequential damages, 
#resulting from the use of any information or interpretation provided by Halliburton.
#
~A           TIME           GTDEPTH  GTPQH  GTTQ  GTTN  GTET   GTTVD  
# ...
   09:27:51.142.08-Aug-2020 5133.51 4124.68 75.03 8.00 276.15 3319.72
   09:27:51.342.08-Aug-2020 5133.51 4124.68 75.03 8.00 276.35 3319.72
   09:27:51.542.08-Aug-2020 5133.51 4124.74 75.03 8.00 276.55 3319.72
   09:27:51.742.08-Aug-2020 5133.51 4124.60 75.03 8.00 276.75 3319.72
   09:27:51.942.08-Aug-2020 5133.51 4124.66 75.03 8.00 276.95 3319.72
   09:27:52.142.08-Aug-2020 5133.51 4124.63 75.03 8.00 277.15 3319.72
   09:27:52.342.08-Aug-2020 5133.51 4124.63 75.03 8.00 277.35 3319.72
   09:27:52.542.08-Aug-2020 5133.51 4124.55 75.03 8.00 277.55 3319.72
   09:27:52.742.08-Aug-2020 5133.51 4124.70 75.03 8.00 277.75 3319.72
   09:27:52.942.08-Aug-2020 5133.51 4124.43 75.03 8.00 277.95 3319.72
   09:27:53.143.08-Aug-2020 5133.51 4124.72 75.03 8.00 278.15 3319.72
   09:27:53.343.08-Aug-2020 5133.51 4124.72 75.03 8.00 278.35 3319.72
   09:27:53.543.08-Aug-2020 5133.51 4124.62 75.03 8.00 278.55 3319.72
   09:27:53.743.08-Aug-2020 5133.51 4124.69 75.03 8.00 278.75 3319.72
   09:27:53.943.08-Aug-2020 5133.51 4124.60 75.03 8.00 278.95 3319.72
   09:27:54.143.08-Aug-2020 5133.51 4124.68 75.03 8.00 279.15 3319.72
   09:27:54.343.08-Aug-2020 5133.51 4124.63 75.03 8.00 279.35 3319.72
   09:27:54.543.08-Aug-2020 5133.51 4124.64 75.03 8.00 279.55 3319.72
   09:27:54.743.08-Aug-2020 5133.51 4124.65 75.03 8.00 279.75 3319.72
   09:27:54.944.08-Aug-2020 5133.51 4124.68 75.03 8.00 279.95 3319.72
   09:27:55.144.08-Aug-2020 5133.51 4124.60 75.03 8.00 280.15 3319.72
   09:27:55.344.08-Aug-2020 5133.51 4124.60 75.03 8.00 280.35 3319.72
   09:27:55.544.08-Aug-2020 5133.51 4124.65 75.03 8.00 280.55 3319.72
   09:27:55.744.08-Aug-2020 5133.51 4124.67 75.03 8.00 280.75 3319.72
   09:27:55.944.08-Aug-2020 5133.51 4124.63 75.03 8.00 280.95 3319.72
   09:27:56.144.08-Aug-2020 5133.51 4124.62 75.03 8.00 281.15 3319.72
   09:27:56.344.08-Aug-2020 5133.51 4124.62 75.03 8.00 281.35 3319.72
   09:27:56.544.08-Aug-2020 5133.51 4124.67 75.03 8.00 281.55 3319.72
   09:27:56.744.08-Aug-2020 5133.51 4124.63 75.03 8.00 281.75 3319.72
   09:27:56.945.08-Aug-2020 5133.51 4124.62 75.03 8.00 281.95 3319.72
   09:27:57.145.08-Aug-2020 5133.51 4124.68 75.03 8.00 282.15 3319.72
   09:27:57.345.08-Aug-2020 5133.51 4124.60 75.03 8.00 282.35 3319.72
   09:27:57.545.08-Aug-2020 5133.51 4124.66 75.03 8.00 282.55 3319.72
   09:27:57.745.08-Aug-2020 5133.51 4124.63 75.03 8.00 282.75 3319.72
   09:27:57.945.08-Aug-2020 5133.51 4124.63 75.03 8.00 282.95 3319.72
   09:27:58.145.08-Aug-2020 5133.51 4124.65 75.03 8.00 283.15 3319.72
   09:27:58.345.08-Aug-2020 5133.51 4124.67 75.03 8.00 283.35 3319.72
   09:27:58.545.08-Aug-2020 5133.51 4124.64 75.03 8.00 283.55 3319.72
   09:27:58.746.08-Aug-2020 5133.51 4124.66 75.03 8.00 283.75 3319.72
   09:27:58.946.08-Aug-2020 5133.51 4124.63 75.03 8.00 283.95 3319.72
   09:27:59.146.08-Aug-2020 5133.51 4124.67 75.03 8.00 284.15 3319.72
   09:27:59.346.08-Aug-2020 5133.51 4124.66 75.03 8.00 284.35 3319.72
   09:27:59.546.08-Aug-2020 5133.51 4124.55 75.03 8.00 284.55 3319.72
   09:27:59.746.08-Aug-2020 5133.51 4124.70 75.03 8.00 284.75 3319.72
   09:27:59.946.08-Aug-2020 5133.51 4124.67 75.03 8.00 284.95 3319.72
   09:28:00.146.08-Aug-2020 5133.51 4124.58 75.03 8.00 285.15 3319.72
   09:28:00.346.08-Aug-2020 5133.51 4124.58 75.03 8.00 285.35 3319.72
   09:28:00.547.08-Aug-2020 5133.51 4124.63 75.03 8.00 285.55 3319.72
   09:28:00.747.08-Aug-2020 5133.51 4124.48 75.03 8.00 285.75 3319.72
   09:28:00.947.08-Aug-2020 5133.51 4124.82 75.03 8.00 285.95 3319.72
   09:28:01.147.08-Aug-2020 5133.51 4124.44 75.03 8.00 286.15 3319.72
   09:28:01.347.08-Aug-2020 5133.51 4124.44 75.03 8.00 286.35 3319.72
   09:28:01.547.08-Aug-2020 5133.51 4124.64 75.03 8.00 286.55 3319.72
   09:28:01.747.08-Aug-2020 5133.51 4124.58 75.03 8.00 286.75 3319.72
   09:28:01.947.08-Aug-2020 5133.51 4124.68 75.03 8.00 286.95 3319.72
   09:28:02.147.08-Aug-2020 5133.51 4124.65 75.03 8.00 287.15 3319.72
   09:28:02.347.08-Aug-2020 5133.51 4124.54 75.03 8.00 287.35 3319.72
   09:28:02.548.08-Aug-2020 5133.51 4124.82 75.03 8.00 287.55 3319.72
   09:28:02.748.08-Aug-2020 5133.51 4124.47 75.03 8.00 287.75 3319.72
   09:28:02.948.08-Aug-2020 5133.51 4124.74 75.03 8.00 287.95 3319.72
   09:28:03.148.08-Aug-2020 5133.51 4124.58 75.03 8.00 288.15 3319.72
   09:28:03.348.08-Aug-2020 5133.51 4124.58 75.03 8.00 288.35 3319.72
   09:28:03.548.08-Aug-2020 5133.51 4124.63 75.03 8.00 288.55 3319.72
   09:28:03.748.08-Aug-2020 5133.51 4124.64 75.03 8.00 288.75 3319.72
   09:28:03.948.08-Aug-2020 5133.51 4124.66 75.03 8.00 288.95 3319.72
   09:28:04.148.08-Aug-2020 5133.51 4124.68 75.03 8.00 289.15 3319.72
   09:28:04.349.08-Aug-2020 5133.51 4124.68 75.03 8.00 289.35 3319.72
   09:28:04.549.08-Aug-2020 5133.51 4124.60 75.03 8.00 289.55 3319.72
   09:28:04.749.08-Aug-2020 5133.51 4124.66 75.03 8.00 289.75 3319.72
   09:28:04.949.08-Aug-2020 5133.51 4124.66 75.03 8.00 289.95 3319.72
   09:28:05.149.08-Aug-2020 5133.51 4124.67 75.03 8.00 290.15 3319.72
   09:28:05.349.08-Aug-2020 5133.51 4124.65 75.03 8.00 290.35 3319.72
   09:28:05.549.08-Aug-2020 5133.51 4124.71 75.03 8.00 290.55 3319.72
   09:28:05.749.08-Aug-2020 5133.51 4124.53 75.03 8.00 290.75 3319.72
   09:28:05.949.08-Aug-2020 5133.51 4124.80 75.03 8.00 290.95 3319.72
   09:28:06.149.08-Aug-2020 5133.51 4124.54 75.03 8.00 291.15 3319.72
   09:28:06.350.08-Aug-2020 5133.51 4124.54 75.03 8.00 291.35 3319.72
   09:28:06.550.08-Aug-2020 5133.51 4124.57 75.03 8.00 291.55 3319.72
   09:28:06.750.08-Aug-2020 5133.51 4124.69 75.03 8.00 291.75 3319.72
   09:28:06.950.08-Aug-2020 5133.51 4124.65 75.03 8.00 291.95 3319.72
   09:28:07.150.08-Aug-2020 5133.51 4124.63 75.03 8.00 292.15 3319.72
   09:28:07.350.08-Aug-2020 5133.51 4124.63 75.03 8.00 292.35 3319.72
   09:28:07.550.08-Aug-2020 5133.51 4124.67 75.03 8.00 292.55 3319.72
   09:28:07.750.08-Aug-2020 5133.51 4124.65 75.03 8.00 292.75 3319.72
   09:28:07.950.08-Aug-2020 5133.51 4124.64 75.03 8.00 292.95 3319.72
   09:28:08.151.08-Aug-2020 5133.51 4124.64 75.03 8.00 293.16 3319.72
   09:28:08.351.08-Aug-2020 5133.51 4124.64 75.03 8.00 293.36 3319.72
   09:28:08.551.08-Aug-2020 5133.51 4124.65 75.03 8.00 293.56 3319.72
   09:28:08.751.08-Aug-2020 5133.51 4124.69 75.03 8.00 293.76 3319.72
   09:28:08.951.08-Aug-2020 5133.51 4124.51 75.03 8.00 293.96 3319.72
   09:28:09.151.08-Aug-2020 5133.51 4124.76 75.03 8.00 294.16 3319.72
   09:28:09.351.08-Aug-2020 5133.51 4124.76 75.03 8.00 294.36 3319.72
   09:28:09.551.08-Aug-2020 5133.51 4124.61 75.03 8.00 294.56 3319.72
   09:28:09.751.08-Aug-2020 5133.51 4124.69 75.03 8.00 294.76 3319.72
   09:28:09.951.08-Aug-2020 5133.51 4124.59 75.03 8.00 294.96 3319.72
   09:28:10.152.08-Aug-2020 5133.51 4124.69 75.03 8.00 295.16 3319.72
   09:28:10.352.08-Aug-2020 5133.51 4124.47 75.03 8.00 295.36 3319.72
   09:28:10.552.08-Aug-2020 5133.51 4124.70 75.03 8.00 295.56 3319.72
   09:28:10.752.08-Aug-2020 5133.51 4124.67 75.03 8.00 295.76 3319.72
   09:28:10.952.08-Aug-2020 5133.51 4124.69 75.03 8.00 295.96 3319.72
   09:28:11.152.08-Aug-2020 5133.51 4124.59 75.03 8.00 296.16 3319.72
   09:28:11.352.08-Aug-2020 5133.51 4124.59 75.03 8.00 296.36 3319.72
   09:28:11.552.08-Aug-2020 5133.51 4124.57 75.03 8.00 296.56 3319.72
   09:28:11.752.08-Aug-2020 5133.51 4124.70 75.03 8.00 296.76 3319.72
   09:28:11.953.08-Aug-2020 5133.51 4124.48 75.03 8.00 296.96 3319.72
   09:28:12.153.08-Aug-2020 5133.51 4124.72 75.03 8.00 297.16 3319.72
   09:28:12.353.08-Aug-2020 5133.51 4124.72 75.03 8.00 297.36 3319.72
   09:28:12.553.08-Aug-2020 5133.51 4124.65 75.03 8.00 297.56 3319.72
   09:28:12.753.08-Aug-2020 5133.51 4124.68 75.03 8.00 297.76 3319.72
   09:28:12.953.08-Aug-2020 5133.51 4124.60 75.03 8.00 297.96 3319.72
   09:28:13.153.08-Aug-2020 5133.51 4124.67 75.03 8.00 298.16 3319.72
   09:28:13.353.08-Aug-2020 5133.51 4124.67 75.03 8.00 298.36 3319.72
   09:28:13.553.08-Aug-2020 5133.51 4124.67 75.03 8.00 298.56 3319.72
   09:28:13.753.08-Aug-2020 5133.51 4124.64 75.03 8.00 298.76 3319.72
   09:28:13.954.08-Aug-2020 5133.51 4124.69 75.03 8.00 298.96 3319.72
