~Version Information
 VERS.                  2.0:   CWLS log ASCII Standard -VERSION 2.0
 WRAP.                   NO:   One line per depth step
~Well Information Block
#MNEM.UNIT     VALUE/NAME     DESCRIPTION
#---------     -----------    ---------------------------
 STRT.S             03:17:15 08-Aug-20: START TIME 03:17:15 08-Aug-20
 STOP.S             03:24:06 08-Aug-20: STOP TIME  03:24:06 08-Aug-20
 STEP.S                   0.00: STEP TIME
 NULL.                 -999.25: NULL VALUE
 DFWT.                        :  DIST FWL TEXT
 DFST.                        :  DIST FSL TEXT
 DMF .             Drill Floor:  DRILL MEAS FROM
 STIM.      13.47.44 07-Jun-20:  START TIME
 DATE.      13.47.44 27-Jul-20:  END TIME
 SPUD.               07-Jun-20:  SPUD DATE
 NREF.                    Grid:  NORTH REFERENCE
 HPTY.       Minimum Curvature:  HOLE POS TYPE
 DMOD.             Drill Model:  DRILL MOD DESC
 SVYD.                  Survey:  SURVEY DESC
 ILTD.               Lithology:  INTERP LTH DESC
 FTOP.          Formation Tops:  FORM TOPS DESC
 RIG .             West Chirag:  RIG NAME
 PDAT.          Mean Sea Level:  PERMANENT DATUM
 FLD .                     ACG:  FIELD NAME
 SON .        AZ-XX-0906363612:  JOB NUMBER
 CTRY.              Azerbaijan:  COUNTRY NAME
 WELL.           J25 (Slot 35):  WELL NAME
 SRVC.          Turan Drilling:  CONTRACTOR
 COMP.     BP Exploration (Caspian Sea) Ltd:  COMPANY
 UWI .                     N/A:  UNIQUE WELL IDENTIFIER
 API .                     N/A:  API NUMBER
 BASE.              Azerbaijan:  LOGGING EQUIPMENT BASE LOCATION
 REGN.                   EESSA:  REGION
 PROV.                    Baku:  PROVINCE
 STAT.                    Baku:  STATE NAME
 MWDS.                     N/A:  MWD SHOP
 DOE .                     N/A:  DOE NUMBER
 DCON.         Sperry Drilling:  DIRECTNL CONTR
 UNIT.                     N/A:  LOGGING EQUIPMENT ID
 MDS .        Operator Entered:  MAG DATA SOURCE
 JOBN.        AZ-XX-0906363612:  JOB TICKET NUMB
 WTYP.                Deviated:  WELL TYPE
 CNTY.                        :  COUNTY
 LOC .                        :  LOCATION
 LMF .             Drill Floor:  LOG MEASURED FROM
 TVDS.m                  43.00:  TVDSS CORRECTN
 LATI.deg                40.13:  LATITUDE
 LONG.deg                51.22:  LONGITUDE
 WHNS.m                  -7.90:  WELL HEAD N/S
 WHEW.m                  -3.35:  WELL HEAD E/W
 UTMX.m              519005.06:  UTM X
 UTMY.m             4443793.85:  UTM Y
 DFWL.m                   0.00:  DISTANCE FWL
 DFSL.m                   0.00:  DISTANCE FSL
 SDEP.m                   0.00:  START DEPTH
 TDD .m                   0.00:  TOTAL DEPTH (DRILLER)
 VSDR.deg               308.97:  VERT SEC DIRECT
 GVFD.g                   1.00:  GRAVITY FIELD
 MFLD.nT              50350.00:  MAGNETIC FIELD
 MDIP.deg                59.62:  MAGNETIC DIP
 MDEC.deg                 6.44:  MAGNETIC DECL
 GRDC.deg                 0.13:  GRID CORRECTION
 AZTC.deg                 6.32:  AZM TOTAL CORR
 EPD .m                   0.00:  ELEVATION
 EGL .m                   0.00:  GROUND ELEVATION
 WDMS.m                 169.80:  WD ELEV
 APD .m                  43.00:  DEPTH ABOVE PD
 DEP .m                 356.43:  DEPTH
 AGAP.m                  43.00:  AIR GAP
 VSEW.m                  -3.35:  VERT SEC E/W
 VSNS.m                  -7.90:  VERT SEC N/S
 EKB .m                  43.00:  KB ELEVATION
 EDF .m                  43.00:  DF ELEVATION
 TDL .m                 934.00:  TOTAL DEPTH (LOGGER)
 VSC .                       0:  VS TO CLOSURE
 MAGU.                 1852825:  MAGUTM CHECKSUM
~Parameter Information Block
#MNEM.UNIT       Value        Description
#---------     -----------    ---------------------------
 AV  .mps                 0.80:  Ann Velocity 
 AVMX.mps                 1.70:  Max Ann Veloc 
 AZIF.deg               311.41:  Azm, Final 
 BHAT.        Rotary Steerable:  BHA Type 
 BROT.°/30m               0.09:  Build Rotating 
 BS  .in                 12.25:  Bit Size 
 BSZ .in                 12.25:  Bit Size 
 BTPL.psig              800.00:  Bit Press Loss 
 CABU.                      No:  Customer Abuse 
 COMM.                     k:  Run Comments 1 
 TCS .hr                 96.00:  Time Ciculation Ended 
 CV  .mps                 2.03:  Crit Velocity 
 CVMX.mps                 2.42:  Max Crit Veloc 
 DD1 .          Taghi Taghiyev:  Direct Drillr 1 
 DD2 .      Tariel Pirmammadov:  Direct Drillr 2 
 DD3 .          Teymur Aghayev:  Direct Drillr 3 
 DDSV.                 iCruise:  DD Service 
 DEFF.%                  98.70:  % Det Eff 
 DLRX.°/30m               1.00:  Dogleg Rot Max 
 DLSO.°/30m               1.80:  Dogleg Oriented 
 DLSX.°/30m               3.16:  Dogleg Str Max 
 DRET.      15.00.00 07-Aug-20:  Drill End Time 
 DRST.      17.00.00 02-Aug-20:  Drill Start Tim 
 DTIM.hr                 45.90:  Time Drilling 
 EDEP.m                5298.01:  End Depth 
 ENG1.       Seymur Iskandarov:  Engineer 1 
 ENG2.         Yevgeniy Ulikov:  Engineer 2 
 ENG3.      Artemiy Matviyanov:  Engineer 3 
 ENG4.         Bahruz Mehdiyev:  Engineer 4 
 ETIM.      05.00.00 10-Aug-20:  End Time 
 FLOI.gpm              1150.00:  Flow In 
 FLON.gpm               900.00:  Flow In Min 
 FLOS.cptm                0.00:  Fluid Loss 
 FLOX.gpm              1200.00:  Flow In Max 
 FTRO.     Connectivity, Formation Presure:  FTWD Run Obj 
 HFLO.                      No:  High Flow 
 HPRE.                     Yes:  High Pressure 
 HTEM.                      No:  High Temp 
 HYDO.m                   1.80:  Hydro Offset 
 IFIN.deg                 9.71:  Inc, Final 
 IMAX.deg                63.81:  Inc Max 
 IMIN.deg                 9.53:  Inc Min 
 IMND.m                5075.52:  Inc Min Depth 
 IMXD.m                4367.08:  Inc Max Depth 
 JARR.                      No:  Jarring 
 LETM.      15.00.00 07-Aug-20:  Log End Time 
 LOST.hr                     2:  Lost Rig Time 
 LSTM.      17.00.00 02-Aug-20:  Log Start Time 
 MDCL.ppm             42500.00:  Mud Chlorides 
 MDES.     Inversion Oil/Synthetic:  Mud Desc 
 DFD .sg                  1.46:  Mud Density 
 MDMN.sg                  1.46:  Dens Mud Min 
 MDMX.sg                  1.46:  Dens Mud Max 
 MOIL.                      56:  Run Mud Oil % 
 MOWR.                   70:30:  Run Mud OWR 
 MSND.                     0.1:  Run Mud Sand % 
 MSOL.                      19:  Run Mud Solids% 
 DFV .spqt               83.00:  Mud Viscosity 
 MWOD.in                  8.00:  MWD Tool OD 
 MWSI.                     Yes:  Serv Intrp, MWD 
 OTIM.hr                196.57:  Time Operating 
 PCON.           Look Like New:  Pad Condition 
 PMAX.psia             7400.00:  Press Op, Max 
 PV  .cP                 36.00:  Mud PV 
 RUN .                    1000:  Run Number 
 ROPA.m/hr               25.00:  ROP Avg 
 ROPN.m/hr               10.00:  ROP Min 
 ROPX.m/hr               32.00:  ROP Max 
 RPMA.rpm               120.00:  RPM Surface Avg 
 RPMN.rpm               100.00:  RPM Surface Min 
 RPMX.rpm               140.00:  RPM Surface Max 
 RRUN.                    L504:  Rig Run Number 
 SAZI.deg               308.25:  Azm, Start 
 SDEP.m                4364.01:  Start Depth 
 SIDD.                      No:  Serv Intrp, DD 
 SINC.deg                63.81:  Inc, Start 
 SPPA.psig             5800.00:  SPP Avg 
 SPPN.psig             4200.00:  SPP Min 
 SPPX.psig             5950.00:  SPP Max 
 STIM.      18.00.00 01-Aug-20:  Start Time 
 SVCS.                 DD, MWD:  Services 
 SVER.                    9.20:  Sperry Version 
 TDAT.m                 934.00:  Tot Depth Attmp 
 TDDF.                      No:  Trip for DD 
 TDLG.m                 934.00:  Tot Depth Loggd 
 TFF .                      No:  Trip for Fail 
 TQAA.f-kp               31.00:  Torque Abs Avg 
 TQAN.f-kp               25.00:  Torque Abs Min 
 TQAX.f-kp               35.00:  Torque Abs Max 
 TRRT.°/30m              -0.75:  Turn Rotating 
 MRT .                  EWR-M5:  Maximum Recorded Temperature 
 TTMX.degC               95.00:  Max Tool Temp 
 VS01.                90516060:  Virtual Str1 SN 
 VS02.                90528488:  Virtual Str2 SN 
 VS03.                90577970:  Virtual Str3 SN 
 VS04.                12385033:  Virtual Str4 SN 
 VS05.                90522069:  Virtual Str5 SN 
 VS06.                13124134:  Virtual Str6 SN 
 WBMN.klb                20.00:  WOB Min 
 WITN.         Alistair Sprott:  Customer Rep 
 WITN.     Ronal van der Kraan:  Customer Rep 2 
 WOBA.klb                25.00:  WOB Avg 
 WOBX.klb                31.00:  WOB Max 
 YP  .lhf2               32.00:  Yield Point 
~Curve Information Block
#MNEM.UNIT                 API CODE     Curve Description
#---------               -----------    ---------------------------
 TIME.HHMMSS            00 000 000 000:  GT Time & Date
 GTDEPTH.m              00 000 000 000:  GT Depth
 GTPQH.psia             00 000 000 000:  GT HR Quartz Pressure
 GTTQ.degC              00 000 000 000:  GT Quartz Temperature
 GTTN.NONE              00 000 000 000:  GT Test Number
 GTET.sec               00 000 000 000:  GT Elapsed Test Time
 GTTVD.m                00 000 000 000:  GT True Vertical Depth
#Other Information
#
#WARRANTY: Halliburton will use its best efforts to furnish customers with 
#accurate information and interpretations that are part of, and incident to, the services 
#provided.  However, Halliburton cannot and does not warrant the accuracy 
#or correctness of such information and interpretations.  Under no circumstances should any 
#such information or interpretation be relied upon as the sole basis for any drilling, 
#completion, production, or financial decision or any procedure involving any risk to the 
#safety of any drilling venture, drilling rig or its crew or any other third party.  The 
#Customer has full responsibility for all drilling, completion and production operation.  
#Halliburton makes no representations or warranties, either expressed or 
#implied, including, but not limited to, the implied warranties of merchantability or fitness 
#for a particular purpose, with respect to the services rendered.  In no event will 
#Halliburton be liable for failure to obtain any particular results or for 
#any damages, including, but not limited to, indirect, special or consequential damages, 
#resulting from the use of any information or interpretation provided by Halliburton.
#
~A           TIME           GTDEPTH  GTPQH  GTTQ  GTTN  GTET   GTTVD  
# ...
   03:17:38.584.08-Aug-2020 5190.56 7220.96 85.94 1.00  22.99 3375.95
   03:17:38.784.08-Aug-2020 5190.56 7220.96 85.94 1.00  23.19 3375.95
   03:17:38.984.08-Aug-2020 5190.56 7220.12 85.94 1.00  23.39 3375.95
   03:17:39.184.08-Aug-2020 5190.56 7224.45 85.94 1.00  23.59 3375.95
   03:17:39.384.08-Aug-2020 5190.56 7224.78 85.94 1.00  23.79 3375.95
   03:17:39.584.08-Aug-2020 5190.56 7220.79 85.94 1.00  23.99 3375.95
   03:17:39.784.08-Aug-2020 5190.56 7220.79 85.94 1.00  24.19 3375.95
   03:17:39.984.08-Aug-2020 5190.56 7222.21 85.94 1.00  24.39 3375.95
   03:17:40.183.08-Aug-2020 5190.56 7220.39 85.94 1.00  24.59 3375.95
   03:17:40.383.08-Aug-2020 5190.56 7219.44 85.94 1.00  24.79 3375.95
   03:17:40.583.08-Aug-2020 5190.56 7219.06 85.94 1.00  24.99 3375.95
   03:17:40.783.08-Aug-2020 5190.56 7218.48 85.94 1.00  25.19 3375.95
   03:17:40.983.08-Aug-2020 5190.56 7218.71 85.94 1.00  25.39 3375.95
   03:17:41.183.08-Aug-2020 5190.56 7218.67 85.94 1.00  25.59 3375.95
   03:17:41.383.08-Aug-2020 5190.56 7219.18 85.94 1.00  25.79 3375.95
   03:17:41.583.08-Aug-2020 5190.56 7218.81 85.94 1.00  25.99 3375.95
   03:17:41.783.08-Aug-2020 5190.56 7218.81 85.94 1.00  26.19 3375.95
   03:17:41.983.08-Aug-2020 5190.56 7217.70 85.94 1.00  26.39 3375.95
   03:17:42.182.08-Aug-2020 5190.56 7218.31 85.94 1.00  26.59 3375.95
   03:17:42.382.08-Aug-2020 5190.56 7218.97 85.94 1.00  26.79 3375.95
   03:17:42.582.08-Aug-2020 5190.56 7225.27 85.94 1.00  26.99 3375.95
   03:17:42.782.08-Aug-2020 5190.56 7225.27 85.94 1.00  27.19 3375.95
   03:17:42.982.08-Aug-2020 5190.56 7221.19 85.94 1.00  27.39 3375.95
   03:17:43.182.08-Aug-2020 5190.56 7220.10 85.94 1.00  27.59 3375.95
   03:17:43.382.08-Aug-2020 5190.56 7221.10 85.94 1.00  27.79 3375.95
   03:17:43.582.08-Aug-2020 5190.56 7221.68 85.94 1.00  27.99 3375.95
   03:17:43.782.08-Aug-2020 5190.56 7221.68 85.94 1.00  28.19 3375.95
   03:17:43.982.08-Aug-2020 5190.56 7222.05 85.94 1.00  28.39 3375.95
   03:17:44.181.08-Aug-2020 5190.56 7222.32 85.94 1.00  28.59 3375.95
   03:17:44.381.08-Aug-2020 5190.56 7221.25 85.94 1.00  28.79 3375.95
   03:17:44.581.08-Aug-2020 5190.56 7221.94 85.94 1.00  28.99 3375.95
   03:17:44.781.08-Aug-2020 5190.56 7223.38 85.94 1.00  29.19 3375.95
   03:17:44.981.08-Aug-2020 5190.56 7223.02 85.94 1.00  29.39 3375.95
   03:17:45.181.08-Aug-2020 5190.56 7222.27 85.94 1.00  29.58 3375.95
   03:17:45.381.08-Aug-2020 5190.56 7222.02 85.94 1.00  29.78 3375.95
   03:17:45.581.08-Aug-2020 5190.56 7222.27 85.94 1.00  29.98 3375.95
   03:17:45.781.08-Aug-2020 5190.56 7222.27 85.94 1.00  30.18 3375.95
   03:17:45.981.08-Aug-2020 5190.56 7226.14 85.94 1.00  30.38 3375.95
   03:17:46.180.08-Aug-2020 5190.56 7224.62 85.94 1.00  30.58 3375.95
   03:17:46.380.08-Aug-2020 5190.56 7222.33 85.94 1.00  30.78 3375.95
   03:17:46.580.08-Aug-2020 5190.56 7226.00 85.94 1.00  30.98 3375.95
   03:17:46.780.08-Aug-2020 5190.56 7226.00 85.94 1.00  31.18 3375.95
   03:17:46.980.08-Aug-2020 5190.56 7222.16 85.94 1.00  31.38 3375.95
   03:17:47.180.08-Aug-2020 5190.56 7222.37 85.94 1.00  31.58 3375.95
   03:17:47.380.08-Aug-2020 5190.56 7225.92 85.94 1.00  31.78 3375.95
   03:17:47.580.08-Aug-2020 5190.56 7222.43 85.94 1.00  31.98 3375.95
   03:17:47.780.08-Aug-2020 5190.56 7222.43 85.94 1.00  32.18 3375.95
   03:17:47.979.08-Aug-2020 5190.56 7222.70 85.94 1.00  32.38 3375.95
   03:17:48.179.08-Aug-2020 5190.56 7226.21 85.94 1.00  32.58 3375.95
   03:17:48.379.08-Aug-2020 5190.56 7224.32 85.94 1.00  32.78 3375.95
   03:17:48.579.08-Aug-2020 5190.56 7224.28 85.94 1.00  32.98 3375.95
   03:17:48.779.08-Aug-2020 5190.56 7222.74 85.94 1.00  33.18 3375.95
   03:17:48.979.08-Aug-2020 5190.56 7223.05 85.94 1.00  33.38 3375.95
   03:17:49.179.08-Aug-2020 5190.56 7225.36 85.94 1.00  33.58 3375.95
   03:17:49.379.08-Aug-2020 5190.56 7224.54 85.94 1.00  33.78 3375.95
   03:17:49.579.08-Aug-2020 5190.56 7223.72 85.94 1.00  33.98 3375.95
   03:17:49.779.08-Aug-2020 5190.56 7223.72 85.94 1.00  34.18 3375.95
   03:17:49.978.08-Aug-2020 5190.56 7222.39 85.94 1.00  34.38 3375.95
   03:17:50.178.08-Aug-2020 5190.56 7221.64 85.94 1.00  34.58 3375.95
   03:17:50.378.08-Aug-2020 5190.56 7222.85 85.94 1.00  34.78 3375.95
   03:17:50.578.08-Aug-2020 5190.56 7223.20 85.94 1.00  34.98 3375.95
   03:17:50.778.08-Aug-2020 5190.56 7223.20 85.94 1.00  35.18 3375.95
   03:17:50.978.08-Aug-2020 5190.56 7222.31 85.94 1.00  35.38 3375.95
   03:17:51.178.08-Aug-2020 5190.56 7223.21 85.94 1.00  35.58 3375.95
   03:17:51.378.08-Aug-2020 5190.56 7224.20 85.94 1.00  35.78 3375.95
   03:17:51.578.08-Aug-2020 5190.56 7223.89 85.94 1.00  35.98 3375.95
   03:17:51.778.08-Aug-2020 5190.56 7223.89 85.94 1.00  36.18 3375.95
   03:17:51.977.08-Aug-2020 5190.56 7224.25 85.94 1.00  36.38 3375.95
   03:17:52.177.08-Aug-2020 5190.56 7224.83 85.94 1.00  36.58 3375.95
   03:17:52.377.08-Aug-2020 5190.56 7225.05 85.94 1.00  36.78 3375.95
   03:17:52.577.08-Aug-2020 5190.56 7228.67 85.94 1.00  36.98 3375.95
   03:17:52.777.08-Aug-2020 5190.56 7227.78 85.94 1.00  37.18 3375.95
   03:17:52.977.08-Aug-2020 5190.56 7225.51 85.94 1.00  37.38 3375.95
   03:17:53.177.08-Aug-2020 5190.56 7225.31 85.94 1.00  37.58 3375.95
   03:17:53.377.08-Aug-2020 5190.56 7225.55 85.94 1.00  37.78 3375.95
   03:17:53.577.08-Aug-2020 5190.56 7224.30 85.94 1.00  37.98 3375.95
   03:17:53.777.08-Aug-2020 5190.56 7224.30 85.94 1.00  38.18 3375.95
   03:17:53.976.08-Aug-2020 5190.56 7223.85 85.94 1.00  38.38 3375.95
   03:17:54.176.08-Aug-2020 5190.56 7223.47 85.94 1.00  38.58 3375.95
   03:17:54.376.08-Aug-2020 5190.56 7223.81 85.94 1.00  38.78 3375.95
   03:17:54.576.08-Aug-2020 5190.56 7224.27 85.94 1.00  38.98 3375.95
   03:17:54.776.08-Aug-2020 5190.56 7224.27 85.94 1.00  39.18 3375.95
   03:17:54.976.08-Aug-2020 5190.56 7225.05 85.94 1.00  39.38 3375.95
   03:17:55.176.08-Aug-2020 5190.56 7224.66 85.94 1.00  39.58 3375.95
   03:17:55.376.08-Aug-2020 5190.56 7224.24 85.94 1.00  39.78 3375.95
   03:17:55.576.08-Aug-2020 5190.56 7224.24 85.94 1.00  39.98 3375.95
   03:17:55.776.08-Aug-2020 5190.56 7224.24 85.94 1.00  40.18 3375.95
   03:17:55.975.08-Aug-2020 5190.56 7223.54 85.94 1.00  40.38 3375.95
   03:17:56.175.08-Aug-2020 5190.56 7224.88 85.94 1.00  40.58 3375.95
   03:17:56.375.08-Aug-2020 5190.56 7223.30 85.94 1.00  40.78 3375.95
   03:17:56.575.08-Aug-2020 5190.56 7223.84 85.94 1.00  40.98 3375.95
   03:17:56.775.08-Aug-2020 5190.56 7223.84 85.94 1.00  41.18 3375.95
   03:17:56.975.08-Aug-2020 5190.56 7226.14 85.94 1.00  41.38 3375.95
   03:17:57.175.08-Aug-2020 5190.56 7224.65 85.94 1.00  41.58 3375.95
   03:17:57.375.08-Aug-2020 5190.56 7222.18 85.94 1.00  41.78 3375.95
   03:17:57.575.08-Aug-2020 5190.56 7221.03 85.94 1.00  41.98 3375.95
   03:17:57.774.08-Aug-2020 5190.56 7221.03 85.94 1.00  42.18 3375.95
   03:17:57.974.08-Aug-2020 5190.56 7226.92 85.94 1.00  42.38 3375.95
   03:17:58.174.08-Aug-2020 5190.56 7225.06 85.93 1.00  42.58 3375.95
   03:17:58.374.08-Aug-2020 5190.56 7221.60 85.93 1.00  42.78 3375.95
   03:17:58.574.08-Aug-2020 5190.56 7220.20 85.93 1.00  42.98 3375.95
   03:17:58.774.08-Aug-2020 5190.56 7220.20 85.93 1.00  43.18 3375.95
   03:17:58.974.08-Aug-2020 5190.56 7225.99 85.93 1.00  43.38 3375.95
   03:17:59.174.08-Aug-2020 5190.56 7224.36 85.93 1.00  43.58 3375.95
   03:17:59.374.08-Aug-2020 5190.56 7221.01 85.93 1.00  43.78 3375.95
   03:17:59.574.08-Aug-2020 5190.56 7226.39 85.93 1.00  43.98 3375.95
   03:17:59.773.08-Aug-2020 5190.56 7226.39 85.93 1.00  44.18 3375.95
   03:17:59.973.08-Aug-2020 5190.56 7221.33 85.93 1.00  44.38 3375.95
   03:18:00.173.08-Aug-2020 5190.56 7220.80 85.93 1.00  44.58 3375.95
   03:18:00.373.08-Aug-2020 5190.56 7221.54 85.93 1.00  44.78 3375.95
   03:18:00.573.08-Aug-2020 5190.56 7221.47 85.93 1.00  44.98 3375.95
   03:18:00.773.08-Aug-2020 5190.56 7220.37 85.93 1.00  45.18 3375.95
   03:18:00.973.08-Aug-2020 5190.56 7224.81 85.93 1.00  45.38 3375.95
   03:18:01.173.08-Aug-2020 5190.56 7225.53 85.93 1.00  45.58 3375.95
   03:18:01.373.08-Aug-2020 5190.56 7221.89 85.93 1.00  45.78 3375.95
