~Version Information
 VERS.                  2.0:   CWLS log ASCII Standard -VERSION 2.0
 WRAP.                   NO:   One line per depth step
~Well Information Block
#MNEM.UNIT     VALUE/NAME     DESCRIPTION
#---------     -----------    ---------------------------
 STRT.S             03:17:15 08-Aug-20: START TIME 03:17:15 08-Aug-20
 STOP.S             03:24:06 08-Aug-20: STOP TIME  03:24:06 08-Aug-20
 STEP.S                   0.00: STEP TIME
 NULL.                 -999.25: NULL VALUE
 DFWT.                        :  DIST FWL TEXT
 DFST.                        :  DIST FSL TEXT
 DMF .             Drill Floor:  DRILL MEAS FROM
 STIM.      13.47.44 07-Jun-20:  START TIME
 DATE.      13.47.44 27-Jul-20:  END TIME
 SPUD.               07-Jun-20:  SPUD DATE
 NREF.                    Grid:  NORTH REFERENCE
 HPTY.       Minimum Curvature:  HOLE POS TYPE
 DMOD.             Drill Model:  DRILL MOD DESC
 SVYD.                  Survey:  SURVEY DESC
 ILTD.               Lithology:  INTERP LTH DESC
 FTOP.          Formation Tops:  FORM TOPS DESC
 RIG .             West Chirag:  RIG NAME
 PDAT.          Mean Sea Level:  PERMANENT DATUM
 FLD .                     ACG:  FIELD NAME
 SON .        AZ-XX-0906363612:  JOB NUMBER
 CTRY.              Azerbaijan:  COUNTRY NAME
 WELL.           J25 (Slot 35):  WELL NAME
 SRVC.          Turan Drilling:  CONTRACTOR
 COMP.     BP Exploration (Caspian Sea) Ltd:  COMPANY
 UWI .                     N/A:  UNIQUE WELL IDENTIFIER
 API .                     N/A:  API NUMBER
 BASE.              Azerbaijan:  LOGGING EQUIPMENT BASE LOCATION
 REGN.                   EESSA:  REGION
 PROV.                    Baku:  PROVINCE
 STAT.                    Baku:  STATE NAME
 MWDS.                     N/A:  MWD SHOP
 DOE .                     N/A:  DOE NUMBER
 DCON.         Sperry Drilling:  DIRECTNL CONTR
 UNIT.                     N/A:  LOGGING EQUIPMENT ID
 MDS .        Operator Entered:  MAG DATA SOURCE
 JOBN.        AZ-XX-0906363612:  JOB TICKET NUMB
 WTYP.                Deviated:  WELL TYPE
 CNTY.                        :  COUNTY
 LOC .                        :  LOCATION
 LMF .             Drill Floor:  LOG MEASURED FROM
 TVDS.m                  43.00:  TVDSS CORRECTN
 LATI.deg                40.13:  LATITUDE
 LONG.deg                51.22:  LONGITUDE
 WHNS.m                  -7.90:  WELL HEAD N/S
 WHEW.m                  -3.35:  WELL HEAD E/W
 UTMX.m              519005.06:  UTM X
 UTMY.m             4443793.85:  UTM Y
 DFWL.m                   0.00:  DISTANCE FWL
 DFSL.m                   0.00:  DISTANCE FSL
 SDEP.m                   0.00:  START DEPTH
 TDD .m                   0.00:  TOTAL DEPTH (DRILLER)
 VSDR.deg               308.97:  VERT SEC DIRECT
 GVFD.g                   1.00:  GRAVITY FIELD
 MFLD.nT              50350.00:  MAGNETIC FIELD
 MDIP.deg                59.62:  MAGNETIC DIP
 MDEC.deg                 6.44:  MAGNETIC DECL
 GRDC.deg                 0.13:  GRID CORRECTION
 AZTC.deg                 6.32:  AZM TOTAL CORR
 EPD .m                   0.00:  ELEVATION
 EGL .m                   0.00:  GROUND ELEVATION
 WDMS.m                 169.80:  WD ELEV
 APD .m                  43.00:  DEPTH ABOVE PD
 DEP .m                 356.43:  DEPTH
 AGAP.m                  43.00:  AIR GAP
 VSEW.m                  -3.35:  VERT SEC E/W
 VSNS.m                  -7.90:  VERT SEC N/S
 EKB .m                  43.00:  KB ELEVATION
 EDF .m                  43.00:  DF ELEVATION
 TDL .m                 934.00:  TOTAL DEPTH (LOGGER)
 VSC .                       0:  VS TO CLOSURE
 MAGU.                 1852825:  MAGUTM CHECKSUM
~Parameter Information Block
#MNEM.UNIT       Value        Description
#---------     -----------    ---------------------------
 AV  .mps                 0.80:  Ann Velocity 
 AVMX.mps                 1.70:  Max Ann Veloc 
 AZIF.deg               311.41:  Azm, Final 
 BHAT.        Rotary Steerable:  BHA Type 
 BROT.°/30m               0.09:  Build Rotating 
 BS  .in                 12.25:  Bit Size 
 BSZ .in                 12.25:  Bit Size 
 BTPL.psig              800.00:  Bit Press Loss 
 CABU.                      No:  Customer Abuse 
 COMM.                     k:  Run Comments 1 
 TCS .hr                 96.00:  Time Ciculation Ended 
 CV  .mps                 2.03:  Crit Velocity 
 CVMX.mps                 2.42:  Max Crit Veloc 
 DD1 .          Taghi Taghiyev:  Direct Drillr 1 
 DD2 .      Tariel Pirmammadov:  Direct Drillr 2 
 DD3 .          Teymur Aghayev:  Direct Drillr 3 
 DDSV.                 iCruise:  DD Service 
 DEFF.%                  98.70:  % Det Eff 
 DLRX.°/30m               1.00:  Dogleg Rot Max 
 DLSO.°/30m               1.80:  Dogleg Oriented 
 DLSX.°/30m               3.16:  Dogleg Str Max 
 DRET.      15.00.00 07-Aug-20:  Drill End Time 
 DRST.      17.00.00 02-Aug-20:  Drill Start Tim 
 DTIM.hr                 45.90:  Time Drilling 
 EDEP.m                5298.01:  End Depth 
 ENG1.       Seymur Iskandarov:  Engineer 1 
 ENG2.         Yevgeniy Ulikov:  Engineer 2 
 ENG3.      Artemiy Matviyanov:  Engineer 3 
 ENG4.         Bahruz Mehdiyev:  Engineer 4 
 ETIM.      05.00.00 10-Aug-20:  End Time 
 FLOI.gpm              1150.00:  Flow In 
 FLON.gpm               900.00:  Flow In Min 
 FLOS.cptm                0.00:  Fluid Loss 
 FLOX.gpm              1200.00:  Flow In Max 
 FTRO.     Connectivity, Formation Presure:  FTWD Run Obj 
 HFLO.                      No:  High Flow 
 HPRE.                     Yes:  High Pressure 
 HTEM.                      No:  High Temp 
 HYDO.m                   1.80:  Hydro Offset 
 IFIN.deg                 9.71:  Inc, Final 
 IMAX.deg                63.81:  Inc Max 
 IMIN.deg                 9.53:  Inc Min 
 IMND.m                5075.52:  Inc Min Depth 
 IMXD.m                4367.08:  Inc Max Depth 
 JARR.                      No:  Jarring 
 LETM.      15.00.00 07-Aug-20:  Log End Time 
 LOST.hr                     2:  Lost Rig Time 
 LSTM.      17.00.00 02-Aug-20:  Log Start Time 
 MDCL.ppm             42500.00:  Mud Chlorides 
 MDES.     Inversion Oil/Synthetic:  Mud Desc 
 DFD .sg                  1.46:  Mud Density 
 MDMN.sg                  1.46:  Dens Mud Min 
 MDMX.sg                  1.46:  Dens Mud Max 
 MOIL.                      56:  Run Mud Oil % 
 MOWR.                   70:30:  Run Mud OWR 
 MSND.                     0.1:  Run Mud Sand % 
 MSOL.                      19:  Run Mud Solids% 
 DFV .spqt               83.00:  Mud Viscosity 
 MWOD.in                  8.00:  MWD Tool OD 
 MWSI.                     Yes:  Serv Intrp, MWD 
 OTIM.hr                196.57:  Time Operating 
 PCON.           Look Like New:  Pad Condition 
 PMAX.psia             7400.00:  Press Op, Max 
 PV  .cP                 36.00:  Mud PV 
 RUN .                    1000:  Run Number 
 ROPA.m/hr               25.00:  ROP Avg 
 ROPN.m/hr               10.00:  ROP Min 
 ROPX.m/hr               32.00:  ROP Max 
 RPMA.rpm               120.00:  RPM Surface Avg 
 RPMN.rpm               100.00:  RPM Surface Min 
 RPMX.rpm               140.00:  RPM Surface Max 
 RRUN.                    L504:  Rig Run Number 
 SAZI.deg               308.25:  Azm, Start 
 SDEP.m                4364.01:  Start Depth 
 SIDD.                      No:  Serv Intrp, DD 
 SINC.deg                63.81:  Inc, Start 
 SPPA.psig             5800.00:  SPP Avg 
 SPPN.psig             4200.00:  SPP Min 
 SPPX.psig             5950.00:  SPP Max 
 STIM.      18.00.00 01-Aug-20:  Start Time 
 SVCS.                 DD, MWD:  Services 
 SVER.                    9.20:  Sperry Version 
 TDAT.m                 934.00:  Tot Depth Attmp 
 TDDF.                      No:  Trip for DD 
 TDLG.m                 934.00:  Tot Depth Loggd 
 TFF .                      No:  Trip for Fail 
 TQAA.f-kp               31.00:  Torque Abs Avg 
 TQAN.f-kp               25.00:  Torque Abs Min 
 TQAX.f-kp               35.00:  Torque Abs Max 
 TRRT.°/30m              -0.75:  Turn Rotating 
 MRT .                  EWR-M5:  Maximum Recorded Temperature 
 TTMX.degC               95.00:  Max Tool Temp 
 VS01.                90516060:  Virtual Str1 SN 
 VS02.                90528488:  Virtual Str2 SN 
 VS03.                90577970:  Virtual Str3 SN 
 VS04.                12385033:  Virtual Str4 SN 
 VS05.                90522069:  Virtual Str5 SN 
 VS06.                13124134:  Virtual Str6 SN 
 WBMN.klb                20.00:  WOB Min 
 WITN.         Alistair Sprott:  Customer Rep 
 WITN.     Ronal van der Kraan:  Customer Rep 2 
 WOBA.klb                25.00:  WOB Avg 
 WOBX.klb                31.00:  WOB Max 
 YP  .lhf2               32.00:  Yield Point 
~Curve Information Block
#MNEM.UNIT                 API CODE     Curve Description
#---------               -----------    ---------------------------
 TIME.HHMMSS            00 000 000 000:  GT Time & Date
 GTDEPTH.m              00 000 000 000:  GT Depth
 GTPQH.psia             00 000 000 000:  GT HR Quartz Pressure
 GTTQ.degC              00 000 000 000:  GT Quartz Temperature
 GTTN.NONE              00 000 000 000:  GT Test Number
 GTET.sec               00 000 000 000:  GT Elapsed Test Time
 GTTVD.m                00 000 000 000:  GT True Vertical Depth
#Other Information
#
#WARRANTY: Halliburton will use its best efforts to furnish customers with 
#accurate information and interpretations that are part of, and incident to, the services 
#provided.  However, Halliburton cannot and does not warrant the accuracy 
#or correctness of such information and interpretations.  Under no circumstances should any 
#such information or interpretation be relied upon as the sole basis for any drilling, 
#completion, production, or financial decision or any procedure involving any risk to the 
#safety of any drilling venture, drilling rig or its crew or any other third party.  The 
#Customer has full responsibility for all drilling, completion and production operation.  
#Halliburton makes no representations or warranties, either expressed or 
#implied, including, but not limited to, the implied warranties of merchantability or fitness 
#for a particular purpose, with respect to the services rendered.  In no event will 
#Halliburton be liable for failure to obtain any particular results or for 
#any damages, including, but not limited to, indirect, special or consequential damages, 
#resulting from the use of any information or interpretation provided by Halliburton.
#
~A           TIME           GTDEPTH  GTPQH  GTTQ  GTTN  GTET   GTTVD  
# ...
   03:23:23.409.08-Aug-2020 5190.56 4302.44 85.87 1.00 367.81 3375.95
   03:23:23.609.08-Aug-2020 5190.56 4306.26 85.87 1.00 368.01 3375.95
   03:23:23.809.08-Aug-2020 5190.56 4310.13 85.87 1.00 368.21 3375.95
   03:23:24.008.08-Aug-2020 5190.56 4313.95 85.87 1.00 368.41 3375.95
   03:23:24.208.08-Aug-2020 5190.56 4317.74 85.87 1.00 368.61 3375.95
   03:23:24.408.08-Aug-2020 5190.56 4322.00 85.86 1.00 368.81 3375.95
   03:23:24.608.08-Aug-2020 5190.56 4322.00 85.86 1.00 369.01 3375.95
   03:23:24.808.08-Aug-2020 5190.56 4329.47 85.87 1.00 369.21 3375.95
   03:23:25.008.08-Aug-2020 5190.56 4333.74 85.87 1.00 369.41 3375.95
   03:23:25.208.08-Aug-2020 5190.56 4337.65 85.87 1.00 369.61 3375.95
   03:23:25.408.08-Aug-2020 5190.56 4341.75 85.87 1.00 369.81 3375.95
   03:23:25.608.08-Aug-2020 5190.56 4341.75 85.87 1.00 370.01 3375.95
   03:23:25.807.08-Aug-2020 5190.56 4349.73 85.87 1.00 370.21 3375.95
   03:23:26.007.08-Aug-2020 5190.56 4353.26 85.87 1.00 370.41 3375.95
   03:23:26.207.08-Aug-2020 5190.56 4357.10 85.87 1.00 370.61 3375.95
   03:23:26.407.08-Aug-2020 5190.56 4361.17 85.87 1.00 370.81 3375.95
   03:23:26.607.08-Aug-2020 5190.56 4361.17 85.87 1.00 371.01 3375.95
   03:23:26.807.08-Aug-2020 5190.56 4369.19 85.87 1.00 371.21 3375.95
   03:23:27.007.08-Aug-2020 5190.56 4373.02 85.86 1.00 371.41 3375.95
   03:23:27.207.08-Aug-2020 5190.56 4376.84 85.87 1.00 371.61 3375.95
   03:23:27.407.08-Aug-2020 5190.56 4380.37 85.87 1.00 371.81 3375.95
   03:23:27.607.08-Aug-2020 5190.56 4383.83 85.87 1.00 372.01 3375.95
   03:23:27.806.08-Aug-2020 5190.56 4387.94 85.86 1.00 372.21 3375.95
   03:23:28.006.08-Aug-2020 5190.56 4391.46 85.87 1.00 372.41 3375.95
   03:23:28.206.08-Aug-2020 5190.56 4395.22 85.87 1.00 372.61 3375.95
   03:23:28.406.08-Aug-2020 5190.56 4398.87 85.86 1.00 372.81 3375.95
   03:23:28.606.08-Aug-2020 5190.56 4398.87 85.86 1.00 373.01 3375.95
   03:23:28.806.08-Aug-2020 5190.56 4406.31 85.86 1.00 373.21 3375.95
   03:23:29.006.08-Aug-2020 5190.56 4410.42 85.87 1.00 373.41 3375.95
   03:23:29.206.08-Aug-2020 5190.56 4414.28 85.86 1.00 373.61 3375.95
   03:23:29.406.08-Aug-2020 5190.56 4418.05 85.87 1.00 373.81 3375.95
   03:23:29.606.08-Aug-2020 5190.56 4418.05 85.87 1.00 374.01 3375.95
   03:23:29.805.08-Aug-2020 5190.56 4425.53 85.87 1.00 374.21 3375.95
   03:23:30.005.08-Aug-2020 5190.56 4429.31 85.87 1.00 374.41 3375.95
   03:23:30.205.08-Aug-2020 5190.56 4433.05 85.86 1.00 374.61 3375.95
   03:23:30.405.08-Aug-2020 5190.56 4436.72 85.86 1.00 374.81 3375.95
   03:23:30.605.08-Aug-2020 5190.56 4436.72 85.86 1.00 375.01 3375.95
   03:23:30.805.08-Aug-2020 5190.56 4444.07 85.86 1.00 375.21 3375.95
   03:23:31.005.08-Aug-2020 5190.56 4447.52 85.86 1.00 375.41 3375.95
   03:23:31.205.08-Aug-2020 5190.56 4450.76 85.86 1.00 375.61 3375.95
   03:23:31.405.08-Aug-2020 5190.56 4454.36 85.86 1.00 375.81 3375.95
   03:23:31.605.08-Aug-2020 5190.56 4458.54 85.86 1.00 376.01 3375.95
   03:23:31.804.08-Aug-2020 5190.56 4461.89 85.86 1.00 376.21 3375.95
   03:23:32.004.08-Aug-2020 5190.56 4465.59 85.86 1.00 376.41 3375.95
   03:23:32.204.08-Aug-2020 5190.56 4468.90 85.86 1.00 376.61 3375.95
   03:23:32.404.08-Aug-2020 5190.56 4472.52 85.86 1.00 376.81 3375.95
   03:23:32.604.08-Aug-2020 5190.56 4472.52 85.86 1.00 377.01 3375.95
   03:23:32.804.08-Aug-2020 5190.56 4479.26 85.86 1.00 377.21 3375.95
   03:23:33.004.08-Aug-2020 5190.56 4483.46 85.86 1.00 377.41 3375.95
   03:23:33.204.08-Aug-2020 5190.56 4487.09 85.86 1.00 377.61 3375.95
   03:23:33.404.08-Aug-2020 5190.56 4490.47 85.86 1.00 377.81 3375.95
   03:23:33.604.08-Aug-2020 5190.56 4490.47 85.86 1.00 378.01 3375.95
   03:23:33.803.08-Aug-2020 5190.56 4497.19 85.86 1.00 378.21 3375.95
   03:23:34.003.08-Aug-2020 5190.56 4500.73 85.86 1.00 378.41 3375.95
   03:23:34.203.08-Aug-2020 5190.56 4504.58 85.86 1.00 378.61 3375.95
   03:23:34.403.08-Aug-2020 5190.56 4508.17 85.86 1.00 378.81 3375.95
   03:23:34.603.08-Aug-2020 5190.56 4508.17 85.86 1.00 379.01 3375.95
   03:23:34.803.08-Aug-2020 5190.56 4515.26 85.86 1.00 379.21 3375.95
   03:23:35.003.08-Aug-2020 5190.56 4518.57 85.86 1.00 379.41 3375.95
   03:23:35.203.08-Aug-2020 5190.56 4522.02 85.86 1.00 379.61 3375.95
   03:23:35.403.08-Aug-2020 5190.56 4525.85 85.86 1.00 379.81 3375.95
   03:23:35.603.08-Aug-2020 5190.56 4525.85 85.86 1.00 380.01 3375.95
   03:23:35.802.08-Aug-2020 5190.56 4533.10 85.86 1.00 380.21 3375.95
   03:23:36.002.08-Aug-2020 5190.56 4536.77 85.86 1.00 380.41 3375.95
   03:23:36.202.08-Aug-2020 5190.56 4539.84 85.86 1.00 380.61 3375.95
   03:23:36.402.08-Aug-2020 5190.56 4543.24 85.86 1.00 380.81 3375.95
   03:23:36.602.08-Aug-2020 5190.56 4543.24 85.86 1.00 381.01 3375.95
   03:23:36.802.08-Aug-2020 5190.56 4550.52 85.86 1.00 381.21 3375.95
   03:23:37.002.08-Aug-2020 5190.56 4554.10 85.86 1.00 381.41 3375.95
   03:23:37.202.08-Aug-2020 5190.56 4557.78 85.86 1.00 381.61 3375.95
   03:23:37.402.08-Aug-2020 5190.56 4561.20 85.86 1.00 381.81 3375.95
   03:23:37.601.08-Aug-2020 5190.56 4561.20 85.86 1.00 382.01 3375.95
   03:23:37.801.08-Aug-2020 5190.56 4169.62 85.86 1.00 382.21 3375.95
   03:23:38.001.08-Aug-2020 5190.56 4340.57 85.86 1.00 382.41 3375.95
   03:23:38.201.08-Aug-2020 5190.56 4781.97 85.86 1.00 382.61 3375.95
   03:23:38.401.08-Aug-2020 5190.56 5860.40 85.86 1.00 382.81 3375.95
   03:23:38.601.08-Aug-2020 5190.56 5860.40 85.86 1.00 383.01 3375.95
   03:23:38.801.08-Aug-2020 5190.56 5091.44 85.86 1.00 383.20 3375.95
   03:23:39.001.08-Aug-2020 5190.56 5419.09 85.86 1.00 383.40 3375.95
   03:23:39.201.08-Aug-2020 5190.56 5796.74 85.86 1.00 383.60 3375.95
   03:23:39.401.08-Aug-2020 5190.56 6055.64 85.86 1.00 383.80 3375.95
   03:23:39.600.08-Aug-2020 5190.56 6249.90 85.86 1.00 384.00 3375.95
   03:23:39.800.08-Aug-2020 5190.56 6480.39 85.86 1.00 384.20 3375.95
   03:23:40.000.08-Aug-2020 5190.56 6602.96 85.86 1.00 384.40 3375.95
   03:23:40.200.08-Aug-2020 5190.56 6990.61 85.87 1.00 384.60 3375.95
   03:23:40.400.08-Aug-2020 5190.56 7210.65 85.87 1.00 384.80 3375.95
   03:23:40.600.08-Aug-2020 5190.56 7210.65 85.87 1.00 385.00 3375.95
   03:23:40.800.08-Aug-2020 5190.56 7210.04 85.87 1.00 385.20 3375.95
   03:23:41.000.08-Aug-2020 5190.56 7210.12 85.87 1.00 385.40 3375.95
   03:23:41.200.08-Aug-2020 5190.56 7213.00 85.87 1.00 385.60 3375.95
   03:23:41.400.08-Aug-2020 5190.56 7212.00 85.87 1.00 385.80 3375.95
   03:23:41.599.08-Aug-2020 5190.56 7212.00 85.87 1.00 386.00 3375.95
   03:23:41.799.08-Aug-2020 5190.56 7213.28 85.87 1.00 386.20 3375.95
   03:23:41.999.08-Aug-2020 5190.56 7211.88 85.87 1.00 386.40 3375.95
   03:23:42.199.08-Aug-2020 5190.56 7212.68 85.87 1.00 386.60 3375.95
   03:23:42.399.08-Aug-2020 5190.56 7210.29 85.88 1.00 386.80 3375.95
   03:23:42.599.08-Aug-2020 5190.56 7210.29 85.88 1.00 387.00 3375.95
   03:23:42.799.08-Aug-2020 5190.56 7214.14 85.88 1.00 387.20 3375.95
   03:23:42.999.08-Aug-2020 5190.56 7210.03 85.88 1.00 387.40 3375.95
   03:23:43.199.08-Aug-2020 5190.56 7210.93 85.88 1.00 387.60 3375.95
   03:23:43.399.08-Aug-2020 5190.56 7213.37 85.88 1.00 387.80 3375.95
   03:23:43.598.08-Aug-2020 5190.56 7218.14 85.88 1.00 388.00 3375.95
   03:23:43.798.08-Aug-2020 5190.56 7212.69 85.89 1.00 388.20 3375.95
   03:23:43.998.08-Aug-2020 5190.56 7215.14 85.89 1.00 388.40 3375.95
   03:23:44.198.08-Aug-2020 5190.56 7213.47 85.89 1.00 388.60 3375.95
   03:23:44.398.08-Aug-2020 5190.56 7213.06 85.89 1.00 388.80 3375.95
   03:23:44.598.08-Aug-2020 5190.56 7213.06 85.89 1.00 389.00 3375.95
   03:23:44.798.08-Aug-2020 5190.56 7219.14 85.89 1.00 389.20 3375.95
   03:23:44.998.08-Aug-2020 5190.56 7213.37 85.90 1.00 389.40 3375.95
   03:23:45.198.08-Aug-2020 5190.56 7214.70 85.90 1.00 389.60 3375.95
   03:23:45.398.08-Aug-2020 5190.56 7211.33 85.90 1.00 389.80 3375.95
   03:23:45.597.08-Aug-2020 5190.56 7211.33 85.90 1.00 390.00 3375.95
   03:23:45.797.08-Aug-2020 5190.56 7214.25 85.90 1.00 390.20 3375.95
   03:23:45.997.08-Aug-2020 5190.56 7213.62 85.90 1.00 390.40 3375.95
   03:23:46.197.08-Aug-2020 5190.56 7213.50 85.90 1.00 390.60 3375.95
