~Version Information
 VERS.                  2.0:   CWLS log ASCII Standard -VERSION 2.0
 WRAP.                   NO:   One line per depth step
~Well Information Block
#MNEM.UNIT     VALUE/NAME     DESCRIPTION
#---------     -----------    ---------------------------
 STRT.S             07:09:07 08-Aug-20: START TIME 07:09:07 08-Aug-20
 STOP.S             07:17:38 08-Aug-20: STOP TIME  07:17:38 08-Aug-20
 STEP.S                   0.00: STEP TIME
 NULL.                 -999.25: NULL VALUE
 DFWT.                        :  DIST FWL TEXT
 DFST.                        :  DIST FSL TEXT
 DMF .             Drill Floor:  DRILL MEAS FROM
 STIM.      13.47.44 07-Jun-20:  START TIME
 DATE.      13.47.44 27-Jul-20:  END TIME
 SPUD.               07-Jun-20:  SPUD DATE
 NREF.                    Grid:  NORTH REFERENCE
 HPTY.       Minimum Curvature:  HOLE POS TYPE
 DMOD.             Drill Model:  DRILL MOD DESC
 SVYD.                  Survey:  SURVEY DESC
 ILTD.               Lithology:  INTERP LTH DESC
 FTOP.          Formation Tops:  FORM TOPS DESC
 RIG .             West Chirag:  RIG NAME
 PDAT.          Mean Sea Level:  PERMANENT DATUM
 FLD .                     ACG:  FIELD NAME
 SON .        AZ-XX-0906363612:  JOB NUMBER
 CTRY.              Azerbaijan:  COUNTRY NAME
 WELL.           J25 (Slot 35):  WELL NAME
 SRVC.          Turan Drilling:  CONTRACTOR
 COMP.     BP Exploration (Caspian Sea) Ltd:  COMPANY
 UWI .                     N/A:  UNIQUE WELL IDENTIFIER
 API .                     N/A:  API NUMBER
 BASE.              Azerbaijan:  LOGGING EQUIPMENT BASE LOCATION
 REGN.                   EESSA:  REGION
 PROV.                    Baku:  PROVINCE
 STAT.                    Baku:  STATE NAME
 MWDS.                     N/A:  MWD SHOP
 DOE .                     N/A:  DOE NUMBER
 DCON.         Sperry Drilling:  DIRECTNL CONTR
 UNIT.                     N/A:  LOGGING EQUIPMENT ID
 MDS .        Operator Entered:  MAG DATA SOURCE
 JOBN.        AZ-XX-0906363612:  JOB TICKET NUMB
 WTYP.                Deviated:  WELL TYPE
 CNTY.                        :  COUNTY
 LOC .                        :  LOCATION
 LMF .             Drill Floor:  LOG MEASURED FROM
 TVDS.m                  43.00:  TVDSS CORRECTN
 LATI.deg                40.13:  LATITUDE
 LONG.deg                51.22:  LONGITUDE
 WHNS.m                  -7.90:  WELL HEAD N/S
 WHEW.m                  -3.35:  WELL HEAD E/W
 UTMX.m              519005.06:  UTM X
 UTMY.m             4443793.85:  UTM Y
 DFWL.m                   0.00:  DISTANCE FWL
 DFSL.m                   0.00:  DISTANCE FSL
 SDEP.m                   0.00:  START DEPTH
 TDD .m                   0.00:  TOTAL DEPTH (DRILLER)
 VSDR.deg               308.97:  VERT SEC DIRECT
 GVFD.g                   1.00:  GRAVITY FIELD
 MFLD.nT              50350.00:  MAGNETIC FIELD
 MDIP.deg                59.62:  MAGNETIC DIP
 MDEC.deg                 6.44:  MAGNETIC DECL
 GRDC.deg                 0.13:  GRID CORRECTION
 AZTC.deg                 6.32:  AZM TOTAL CORR
 EPD .m                   0.00:  ELEVATION
 EGL .m                   0.00:  GROUND ELEVATION
 WDMS.m                 169.80:  WD ELEV
 APD .m                  43.00:  DEPTH ABOVE PD
 DEP .m                 356.43:  DEPTH
 AGAP.m                  43.00:  AIR GAP
 VSEW.m                  -3.35:  VERT SEC E/W
 VSNS.m                  -7.90:  VERT SEC N/S
 EKB .m                  43.00:  KB ELEVATION
 EDF .m                  43.00:  DF ELEVATION
 TDL .m                 934.00:  TOTAL DEPTH (LOGGER)
 VSC .                       0:  VS TO CLOSURE
 MAGU.                 1852825:  MAGUTM CHECKSUM
~Parameter Information Block
#MNEM.UNIT       Value        Description
#---------     -----------    ---------------------------
 AV  .mps                 0.80:  Ann Velocity 
 AVMX.mps                 1.70:  Max Ann Veloc 
 AZIF.deg               311.41:  Azm, Final 
 BHAT.        Rotary Steerable:  BHA Type 
 BROT.°/30m               0.09:  Build Rotating 
 BS  .in                 12.25:  Bit Size 
 BSZ .in                 12.25:  Bit Size 
 BTPL.psig              800.00:  Bit Press Loss 
 CABU.                      No:  Customer Abuse 
 COMM.                     „Òs:  Run Comments 1 
 TCS .hr                 96.00:  Time Ciculation Ended 
 CV  .mps                 2.03:  Crit Velocity 
 CVMX.mps                 2.42:  Max Crit Veloc 
 DD1 .          Taghi Taghiyev:  Direct Drillr 1 
 DD2 .      Tariel Pirmammadov:  Direct Drillr 2 
 DD3 .          Teymur Aghayev:  Direct Drillr 3 
 DDSV.                 iCruise:  DD Service 
 DEFF.%                  98.70:  % Det Eff 
 DLRX.°/30m               1.00:  Dogleg Rot Max 
 DLSO.°/30m               1.80:  Dogleg Oriented 
 DLSX.°/30m               3.16:  Dogleg Str Max 
 DRET.      15.00.00 07-Aug-20:  Drill End Time 
 DRST.      17.00.00 02-Aug-20:  Drill Start Tim 
 DTIM.hr                 45.90:  Time Drilling 
 EDEP.m                5298.01:  End Depth 
 ENG1.       Seymur Iskandarov:  Engineer 1 
 ENG2.         Yevgeniy Ulikov:  Engineer 2 
 ENG3.      Artemiy Matviyanov:  Engineer 3 
 ENG4.         Bahruz Mehdiyev:  Engineer 4 
 ETIM.      05.00.00 10-Aug-20:  End Time 
 FLOI.gpm              1150.00:  Flow In 
 FLON.gpm               900.00:  Flow In Min 
 FLOS.cptm                0.00:  Fluid Loss 
 FLOX.gpm              1200.00:  Flow In Max 
 FTRO.     Connectivity, Formation Presure:  FTWD Run Obj 
 HFLO.                      No:  High Flow 
 HPRE.                     Yes:  High Pressure 
 HTEM.                      No:  High Temp 
 HYDO.m                   1.80:  Hydro Offset 
 IFIN.deg                 9.71:  Inc, Final 
 IMAX.deg                63.81:  Inc Max 
 IMIN.deg                 9.53:  Inc Min 
 IMND.m                5075.52:  Inc Min Depth 
 IMXD.m                4367.08:  Inc Max Depth 
 JARR.                      No:  Jarring 
 LETM.      15.00.00 07-Aug-20:  Log End Time 
 LOST.hr                     2:  Lost Rig Time 
 LSTM.      17.00.00 02-Aug-20:  Log Start Time 
 MDCL.ppm             42500.00:  Mud Chlorides 
 MDES.     Inversion Oil/Synthetic:  Mud Desc 
 DFD .sg                  1.46:  Mud Density 
 MDMN.sg                  1.46:  Dens Mud Min 
 MDMX.sg                  1.46:  Dens Mud Max 
 MOIL.                      56:  Run Mud Oil % 
 MOWR.                   70:30:  Run Mud OWR 
 MSND.                     0.1:  Run Mud Sand % 
 MSOL.                      19:  Run Mud Solids% 
 DFV .spqt               83.00:  Mud Viscosity 
 MWOD.in                  8.00:  MWD Tool OD 
 MWSI.                     Yes:  Serv Intrp, MWD 
 OTIM.hr                196.57:  Time Operating 
 PCON.           Look Like New:  Pad Condition 
 PMAX.psia             7400.00:  Press Op, Max 
 PV  .cP                 36.00:  Mud PV 
 RUN .                    1000:  Run Number 
 ROPA.m/hr               25.00:  ROP Avg 
 ROPN.m/hr               10.00:  ROP Min 
 ROPX.m/hr               32.00:  ROP Max 
 RPMA.rpm               120.00:  RPM Surface Avg 
 RPMN.rpm               100.00:  RPM Surface Min 
 RPMX.rpm               140.00:  RPM Surface Max 
 RRUN.                    L504:  Rig Run Number 
 SAZI.deg               308.25:  Azm, Start 
 SDEP.m                4364.01:  Start Depth 
 SIDD.                      No:  Serv Intrp, DD 
 SINC.deg                63.81:  Inc, Start 
 SPPA.psig             5800.00:  SPP Avg 
 SPPN.psig             4200.00:  SPP Min 
 SPPX.psig             5950.00:  SPP Max 
 STIM.      18.00.00 01-Aug-20:  Start Time 
 SVCS.                 DD, MWD:  Services 
 SVER.                    9.20:  Sperry Version 
 TDAT.m                 934.00:  Tot Depth Attmp 
 TDDF.                      No:  Trip for DD 
 TDLG.m                 934.00:  Tot Depth Loggd 
 TFF .                      No:  Trip for Fail 
 TQAA.f-kp               31.00:  Torque Abs Avg 
 TQAN.f-kp               25.00:  Torque Abs Min 
 TQAX.f-kp               35.00:  Torque Abs Max 
 TRRT.°/30m              -0.75:  Turn Rotating 
 MRT .                  EWR-M5:  Maximum Recorded Temperature 
 TTMX.degC               95.00:  Max Tool Temp 
 VS01.                90516060:  Virtual Str1 SN 
 VS02.                90528488:  Virtual Str2 SN 
 VS03.                90577970:  Virtual Str3 SN 
 VS04.                12385033:  Virtual Str4 SN 
 VS05.                90522069:  Virtual Str5 SN 
 VS06.                13124134:  Virtual Str6 SN 
 WBMN.klb                20.00:  WOB Min 
 WITN.         Alistair Sprott:  Customer Rep 
 WITN.     Ronal van der Kraan:  Customer Rep 2 
 WOBA.klb                25.00:  WOB Avg 
 WOBX.klb                31.00:  WOB Max 
 YP  .lhf2               32.00:  Yield Point 
~Curve Information Block
#MNEM.UNIT                 API CODE     Curve Description
#---------               -----------    ---------------------------
 TIME.HHMMSS            00 000 000 000:  GT Time & Date
 GTDEPTH.m              00 000 000 000:  GT Depth
 GTPQH.psia             00 000 000 000:  GT HR Quartz Pressure
 GTTQ.degC              00 000 000 000:  GT Quartz Temperature
 GTTN.NONE              00 000 000 000:  GT Test Number
 GTET.sec               00 000 000 000:  GT Elapsed Test Time
 GTTVD.m                00 000 000 000:  GT True Vertical Depth
#Other Information
#
#WARRANTY: Halliburton will use its best efforts to furnish customers with 
#accurate information and interpretations that are part of, and incident to, the services 
#provided.  However, Halliburton cannot and does not warrant the accuracy 
#or correctness of such information and interpretations.  Under no circumstances should any 
#such information or interpretation be relied upon as the sole basis for any drilling, 
#completion, production, or financial decision or any procedure involving any risk to the 
#safety of any drilling venture, drilling rig or its crew or any other third party.  The 
#Customer has full responsibility for all drilling, completion and production operation.  
#Halliburton makes no representations or warranties, either expressed or 
#implied, including, but not limited to, the implied warranties of merchantability or fitness 
#for a particular purpose, with respect to the services rendered.  In no event will 
#Halliburton be liable for failure to obtain any particular results or for 
#any damages, including, but not limited to, indirect, special or consequential damages, 
#resulting from the use of any information or interpretation provided by Halliburton.
#
~A           TIME           GTDEPTH  GTPQH  GTTQ  GTTN  GTET   GTTVD  
# ...
   07:16:47.000.08-Aug-2020 5163.51 4261.69 78.02 5.00 460.00 3349.29
   07:16:47.200.08-Aug-2020 5163.51 4261.69 78.02 5.00 460.20 3349.29
   07:16:47.400.08-Aug-2020 5163.51 4261.51 78.02 5.00 460.40 3349.29
   07:16:47.600.08-Aug-2020 5163.51 4261.56 78.02 5.00 460.60 3349.29
   07:16:47.800.08-Aug-2020 5163.51 4261.24 78.02 5.00 460.80 3349.29
   07:16:48.000.08-Aug-2020 5163.51 4261.79 78.02 5.00 461.00 3349.29
   07:16:48.200.08-Aug-2020 5163.51 4261.79 78.02 5.00 461.20 3349.29
   07:16:48.400.08-Aug-2020 5163.51 4261.34 78.02 5.00 461.40 3349.29
   07:16:48.600.08-Aug-2020 5163.51 4261.97 78.02 5.00 461.60 3349.29
   07:16:48.800.08-Aug-2020 5163.51 4261.72 78.02 5.00 461.80 3349.29
   07:16:49.000.08-Aug-2020 5163.51 4261.67 78.02 5.00 462.00 3349.29
   07:16:49.200.08-Aug-2020 5163.51 4261.67 78.02 5.00 462.20 3349.29
   07:16:49.400.08-Aug-2020 5163.51 4261.57 78.02 5.00 462.40 3349.29
   07:16:49.600.08-Aug-2020 5163.51 4261.27 78.02 5.00 462.60 3349.29
   07:16:49.800.08-Aug-2020 5163.51 4261.75 78.02 5.00 462.80 3349.29
   07:16:50.000.08-Aug-2020 5163.51 4261.83 78.02 5.00 463.00 3349.29
   07:16:50.200.08-Aug-2020 5163.51 4261.83 78.02 5.00 463.20 3349.29
   07:16:50.400.08-Aug-2020 5163.51 4261.52 78.02 5.00 463.40 3349.29
   07:16:50.600.08-Aug-2020 5163.51 4261.73 78.02 5.00 463.60 3349.29
   07:16:50.800.08-Aug-2020 5163.51 4261.77 78.02 5.00 463.80 3349.29
   07:16:51.000.08-Aug-2020 5163.51 4261.82 78.02 5.00 464.00 3349.29
   07:16:51.200.08-Aug-2020 5163.51 4261.82 78.02 5.00 464.20 3349.29
   07:16:51.400.08-Aug-2020 5163.51 4261.71 78.02 5.00 464.40 3349.29
   07:16:51.600.08-Aug-2020 5163.51 4261.82 78.02 5.00 464.60 3349.29
   07:16:51.800.08-Aug-2020 5163.51 4261.69 78.02 5.00 464.80 3349.29
   07:16:52.000.08-Aug-2020 5163.51 4261.61 78.02 5.00 465.00 3349.29
   07:16:52.200.08-Aug-2020 5163.51 4261.61 78.02 5.00 465.20 3349.29
   07:16:52.400.08-Aug-2020 5163.51 4261.63 78.02 5.00 465.40 3349.29
   07:16:52.600.08-Aug-2020 5163.51 4261.73 78.02 5.00 465.60 3349.29
   07:16:52.800.08-Aug-2020 5163.51 4261.54 78.02 5.00 465.80 3349.29
   07:16:53.000.08-Aug-2020 5163.51 4261.65 78.02 5.00 466.00 3349.29
   07:16:53.200.08-Aug-2020 5163.51 4261.65 78.02 5.00 466.20 3349.29
   07:16:53.400.08-Aug-2020 5163.51 4261.55 78.02 5.00 466.40 3349.29
   07:16:53.600.08-Aug-2020 5163.51 4261.59 78.02 5.00 466.60 3349.29
   07:16:53.800.08-Aug-2020 5163.51 4261.62 78.02 5.00 466.80 3349.29
   07:16:54.000.08-Aug-2020 5163.51 4261.61 78.02 5.00 467.00 3349.29
   07:16:54.200.08-Aug-2020 5163.51 4261.61 78.02 5.00 467.20 3349.29
   07:16:54.400.08-Aug-2020 5163.51 4261.69 78.02 5.00 467.40 3349.29
   07:16:54.600.08-Aug-2020 5163.51 4261.75 78.02 5.00 467.60 3349.29
   07:16:54.800.08-Aug-2020 5163.51 4261.76 78.02 5.00 467.80 3349.29
   07:16:55.000.08-Aug-2020 5163.51 4261.87 78.02 5.00 468.00 3349.29
   07:16:55.200.08-Aug-2020 5163.51 4261.87 78.02 5.00 468.20 3349.29
   07:16:55.400.08-Aug-2020 5163.51 4261.66 78.02 5.00 468.40 3349.29
   07:16:55.600.08-Aug-2020 5163.51 4261.57 78.02 5.00 468.60 3349.29
   07:16:55.800.08-Aug-2020 5163.51 4261.66 78.02 5.00 468.80 3349.29
   07:16:56.000.08-Aug-2020 5163.51 4261.60 78.02 5.00 469.00 3349.29
   07:16:56.200.08-Aug-2020 5163.51 4261.60 78.02 5.00 469.20 3349.29
   07:16:56.400.08-Aug-2020 5163.51 4261.73 78.02 5.00 469.40 3349.29
   07:16:56.600.08-Aug-2020 5163.51 4261.74 78.02 5.00 469.60 3349.29
   07:16:56.800.08-Aug-2020 5163.51 4261.73 78.02 5.00 469.80 3349.29
   07:16:57.000.08-Aug-2020 5163.51 4261.72 78.02 5.00 470.00 3349.29
   07:16:57.200.08-Aug-2020 5163.51 4261.72 78.02 5.00 470.20 3349.29
   07:16:57.400.08-Aug-2020 5163.51 4261.60 78.02 5.00 470.40 3349.29
   07:16:57.600.08-Aug-2020 5163.51 4261.59 78.02 5.00 470.60 3349.29
   07:16:57.800.08-Aug-2020 5163.51 4261.63 78.02 5.00 470.80 3349.29
   07:16:58.000.08-Aug-2020 5163.51 4261.63 78.02 5.00 471.00 3349.29
   07:16:58.200.08-Aug-2020 5163.51 4261.63 78.02 5.00 471.20 3349.29
   07:16:58.400.08-Aug-2020 5163.51 4261.79 78.02 5.00 471.40 3349.29
   07:16:58.600.08-Aug-2020 5163.51 4261.79 78.02 5.00 471.60 3349.29
   07:16:58.800.08-Aug-2020 5163.51 4261.86 78.02 5.00 471.80 3349.29
   07:16:59.000.08-Aug-2020 5163.51 4261.72 78.02 5.00 472.00 3349.29
   07:16:59.200.08-Aug-2020 5163.51 4261.72 78.02 5.00 472.20 3349.29
   07:16:59.400.08-Aug-2020 5163.51 4261.50 78.02 5.00 472.40 3349.29
   07:16:59.600.08-Aug-2020 5163.51 4261.73 78.02 5.00 472.60 3349.29
   07:16:59.800.08-Aug-2020 5163.51 4261.60 78.02 5.00 472.80 3349.29
   07:17:00.000.08-Aug-2020 5163.51 4261.87 78.02 5.00 473.00 3349.29
   07:17:00.200.08-Aug-2020 5163.51 4261.87 78.02 5.00 473.20 3349.29
   07:17:00.400.08-Aug-2020 5163.51 4261.82 78.01 5.00 473.40 3349.29
   07:17:00.600.08-Aug-2020 5163.51 4262.12 78.01 5.00 473.60 3349.29
   07:17:00.800.08-Aug-2020 5163.51 4261.76 78.01 5.00 473.80 3349.29
   07:17:01.000.08-Aug-2020 5163.51 4261.48 78.01 5.00 474.00 3349.29
   07:17:01.200.08-Aug-2020 5163.51 4261.48 78.01 5.00 474.20 3349.29
   07:17:01.400.08-Aug-2020 5163.51 4261.98 78.01 5.00 474.40 3349.29
   07:17:01.600.08-Aug-2020 5163.51 4261.76 78.01 5.00 474.60 3349.29
   07:17:01.800.08-Aug-2020 5163.51 4261.87 78.01 5.00 474.80 3349.29
   07:17:02.000.08-Aug-2020 5163.51 4261.78 78.01 5.00 475.00 3349.29
   07:17:02.200.08-Aug-2020 5163.51 4261.78 78.01 5.00 475.20 3349.29
   07:17:02.400.08-Aug-2020 5163.51 4261.79 78.01 5.00 475.40 3349.29
   07:17:02.600.08-Aug-2020 5163.51 4261.78 78.01 5.00 475.60 3349.29
   07:17:02.800.08-Aug-2020 5163.51 4261.76 78.01 5.00 475.80 3349.29
   07:17:03.000.08-Aug-2020 5163.51 4261.67 78.01 5.00 476.00 3349.29
   07:17:03.200.08-Aug-2020 5163.51 4261.67 78.01 5.00 476.20 3349.29
   07:17:03.400.08-Aug-2020 5163.51 4261.75 78.01 5.00 476.40 3349.29
   07:17:03.600.08-Aug-2020 5163.51 4261.82 78.01 5.00 476.60 3349.29
   07:17:03.800.08-Aug-2020 5163.51 4261.85 78.01 5.00 476.80 3349.29
   07:17:04.000.08-Aug-2020 5163.51 4261.82 78.01 5.00 477.00 3349.29
   07:17:04.200.08-Aug-2020 5163.51 4261.82 78.01 5.00 477.20 3349.29
   07:17:04.400.08-Aug-2020 5163.51 4260.65 78.01 5.00 477.40 3349.29
   07:17:04.600.08-Aug-2020 5163.51 4264.87 78.01 5.00 477.60 3349.29
   07:17:04.800.08-Aug-2020 5163.51 4356.55 78.01 5.00 477.80 3349.29
   07:17:05.000.08-Aug-2020 5163.51 4436.01 78.01 5.00 478.00 3349.29
   07:17:05.200.08-Aug-2020 5163.51 4436.01 78.01 5.00 478.20 3349.29
   07:17:05.400.08-Aug-2020 5163.51 3887.09 78.01 5.00 478.40 3349.29
   07:17:05.600.08-Aug-2020 5163.51 3888.26 78.01 5.00 478.60 3349.29
   07:17:05.800.08-Aug-2020 5163.51 4064.87 78.01 5.00 478.80 3349.29
   07:17:06.000.08-Aug-2020 5163.51 4314.31 78.01 5.00 479.00 3349.29
   07:17:06.200.08-Aug-2020 5163.51 4314.31 78.01 5.00 479.20 3349.29
   07:17:06.400.08-Aug-2020 5163.51 4758.85 78.01 5.00 479.40 3349.29
   07:17:06.600.08-Aug-2020 5163.51 6402.34 78.01 5.00 479.60 3349.29
   07:17:06.800.08-Aug-2020 5163.51 6816.31 78.01 5.00 479.80 3349.29
   07:17:07.000.08-Aug-2020 5163.51 7133.04 78.01 5.00 480.00 3349.29
   07:17:07.200.08-Aug-2020 5163.51 7133.04 78.01 5.00 480.20 3349.29
   07:17:07.400.08-Aug-2020 5163.51 7158.60 78.01 5.00 480.40 3349.29
   07:17:07.600.08-Aug-2020 5163.51 7164.62 78.01 5.00 480.60 3349.29
   07:17:07.800.08-Aug-2020 5163.51 7158.25 78.01 5.00 480.80 3349.29
   07:17:08.000.08-Aug-2020 5163.51 7162.25 78.01 5.00 481.00 3349.29
   07:17:08.200.08-Aug-2020 5163.51 7162.25 78.01 5.00 481.20 3349.29
   07:17:08.400.08-Aug-2020 5163.51 7160.22 78.01 5.00 481.40 3349.29
   07:17:08.600.08-Aug-2020 5163.51 7163.99 78.01 5.00 481.60 3349.29
   07:17:08.800.08-Aug-2020 5163.51 7162.20 78.02 5.00 481.80 3349.29
   07:17:09.000.08-Aug-2020 5163.51 7162.34 78.02 5.00 482.00 3349.29
   07:17:09.200.08-Aug-2020 5163.51 7162.34 78.02 5.00 482.20 3349.29
   07:17:09.400.08-Aug-2020 5163.51 7167.60 78.02 5.00 482.40 3349.29
   07:17:09.600.08-Aug-2020 5163.51 7160.44 78.02 5.00 482.60 3349.29
   07:17:09.800.08-Aug-2020 5163.51 7165.18 78.02 5.00 482.80 3349.29
