~Version Information
 VERS.                  2.0:   CWLS log ASCII Standard -VERSION 2.0
 WRAP.                   NO:   One line per depth step
~Well Information Block
#MNEM.UNIT     VALUE/NAME     DESCRIPTION
#---------     -----------    ---------------------------
 STRT.S             03:17:15 08-Aug-20: START TIME 03:17:15 08-Aug-20
 STOP.S             03:24:06 08-Aug-20: STOP TIME  03:24:06 08-Aug-20
 STEP.S                   0.00: STEP TIME
 NULL.                 -999.25: NULL VALUE
 DFWT.                        :  DIST FWL TEXT
 DFST.                        :  DIST FSL TEXT
 DMF .             Drill Floor:  DRILL MEAS FROM
 STIM.      13.47.44 07-Jun-20:  START TIME
 DATE.      13.47.44 27-Jul-20:  END TIME
 SPUD.               07-Jun-20:  SPUD DATE
 NREF.                    Grid:  NORTH REFERENCE
 HPTY.       Minimum Curvature:  HOLE POS TYPE
 DMOD.             Drill Model:  DRILL MOD DESC
 SVYD.                  Survey:  SURVEY DESC
 ILTD.               Lithology:  INTERP LTH DESC
 FTOP.          Formation Tops:  FORM TOPS DESC
 RIG .             West Chirag:  RIG NAME
 PDAT.          Mean Sea Level:  PERMANENT DATUM
 FLD .                     ACG:  FIELD NAME
 SON .        AZ-XX-0906363612:  JOB NUMBER
 CTRY.              Azerbaijan:  COUNTRY NAME
 WELL.           J25 (Slot 35):  WELL NAME
 SRVC.          Turan Drilling:  CONTRACTOR
 COMP.     BP Exploration (Caspian Sea) Ltd:  COMPANY
 UWI .                     N/A:  UNIQUE WELL IDENTIFIER
 API .                     N/A:  API NUMBER
 BASE.              Azerbaijan:  LOGGING EQUIPMENT BASE LOCATION
 REGN.                   EESSA:  REGION
 PROV.                    Baku:  PROVINCE
 STAT.                    Baku:  STATE NAME
 MWDS.                     N/A:  MWD SHOP
 DOE .                     N/A:  DOE NUMBER
 DCON.         Sperry Drilling:  DIRECTNL CONTR
 UNIT.                     N/A:  LOGGING EQUIPMENT ID
 MDS .        Operator Entered:  MAG DATA SOURCE
 JOBN.        AZ-XX-0906363612:  JOB TICKET NUMB
 WTYP.                Deviated:  WELL TYPE
 CNTY.                        :  COUNTY
 LOC .                        :  LOCATION
 LMF .             Drill Floor:  LOG MEASURED FROM
 TVDS.m                  43.00:  TVDSS CORRECTN
 LATI.deg                40.13:  LATITUDE
 LONG.deg                51.22:  LONGITUDE
 WHNS.m                  -7.90:  WELL HEAD N/S
 WHEW.m                  -3.35:  WELL HEAD E/W
 UTMX.m              519005.06:  UTM X
 UTMY.m             4443793.85:  UTM Y
 DFWL.m                   0.00:  DISTANCE FWL
 DFSL.m                   0.00:  DISTANCE FSL
 SDEP.m                   0.00:  START DEPTH
 TDD .m                   0.00:  TOTAL DEPTH (DRILLER)
 VSDR.deg               308.97:  VERT SEC DIRECT
 GVFD.g                   1.00:  GRAVITY FIELD
 MFLD.nT              50350.00:  MAGNETIC FIELD
 MDIP.deg                59.62:  MAGNETIC DIP
 MDEC.deg                 6.44:  MAGNETIC DECL
 GRDC.deg                 0.13:  GRID CORRECTION
 AZTC.deg                 6.32:  AZM TOTAL CORR
 EPD .m                   0.00:  ELEVATION
 EGL .m                   0.00:  GROUND ELEVATION
 WDMS.m                 169.80:  WD ELEV
 APD .m                  43.00:  DEPTH ABOVE PD
 DEP .m                 356.43:  DEPTH
 AGAP.m                  43.00:  AIR GAP
 VSEW.m                  -3.35:  VERT SEC E/W
 VSNS.m                  -7.90:  VERT SEC N/S
 EKB .m                  43.00:  KB ELEVATION
 EDF .m                  43.00:  DF ELEVATION
 TDL .m                 934.00:  TOTAL DEPTH (LOGGER)
 VSC .                       0:  VS TO CLOSURE
 MAGU.                 1852825:  MAGUTM CHECKSUM
~Parameter Information Block
#MNEM.UNIT       Value        Description
#---------     -----------    ---------------------------
 AV  .mps                 0.80:  Ann Velocity 
 AVMX.mps                 1.70:  Max Ann Veloc 
 AZIF.deg               311.41:  Azm, Final 
 BHAT.        Rotary Steerable:  BHA Type 
 BROT.°/30m               0.09:  Build Rotating 
 BS  .in                 12.25:  Bit Size 
 BSZ .in                 12.25:  Bit Size 
 BTPL.psig              800.00:  Bit Press Loss 
 CABU.                      No:  Customer Abuse 
 COMM.                     k:  Run Comments 1 
 TCS .hr                 96.00:  Time Ciculation Ended 
 CV  .mps                 2.03:  Crit Velocity 
 CVMX.mps                 2.42:  Max Crit Veloc 
 DD1 .          Taghi Taghiyev:  Direct Drillr 1 
 DD2 .      Tariel Pirmammadov:  Direct Drillr 2 
 DD3 .          Teymur Aghayev:  Direct Drillr 3 
 DDSV.                 iCruise:  DD Service 
 DEFF.%                  98.70:  % Det Eff 
 DLRX.°/30m               1.00:  Dogleg Rot Max 
 DLSO.°/30m               1.80:  Dogleg Oriented 
 DLSX.°/30m               3.16:  Dogleg Str Max 
 DRET.      15.00.00 07-Aug-20:  Drill End Time 
 DRST.      17.00.00 02-Aug-20:  Drill Start Tim 
 DTIM.hr                 45.90:  Time Drilling 
 EDEP.m                5298.01:  End Depth 
 ENG1.       Seymur Iskandarov:  Engineer 1 
 ENG2.         Yevgeniy Ulikov:  Engineer 2 
 ENG3.      Artemiy Matviyanov:  Engineer 3 
 ENG4.         Bahruz Mehdiyev:  Engineer 4 
 ETIM.      05.00.00 10-Aug-20:  End Time 
 FLOI.gpm              1150.00:  Flow In 
 FLON.gpm               900.00:  Flow In Min 
 FLOS.cptm                0.00:  Fluid Loss 
 FLOX.gpm              1200.00:  Flow In Max 
 FTRO.     Connectivity, Formation Presure:  FTWD Run Obj 
 HFLO.                      No:  High Flow 
 HPRE.                     Yes:  High Pressure 
 HTEM.                      No:  High Temp 
 HYDO.m                   1.80:  Hydro Offset 
 IFIN.deg                 9.71:  Inc, Final 
 IMAX.deg                63.81:  Inc Max 
 IMIN.deg                 9.53:  Inc Min 
 IMND.m                5075.52:  Inc Min Depth 
 IMXD.m                4367.08:  Inc Max Depth 
 JARR.                      No:  Jarring 
 LETM.      15.00.00 07-Aug-20:  Log End Time 
 LOST.hr                     2:  Lost Rig Time 
 LSTM.      17.00.00 02-Aug-20:  Log Start Time 
 MDCL.ppm             42500.00:  Mud Chlorides 
 MDES.     Inversion Oil/Synthetic:  Mud Desc 
 DFD .sg                  1.46:  Mud Density 
 MDMN.sg                  1.46:  Dens Mud Min 
 MDMX.sg                  1.46:  Dens Mud Max 
 MOIL.                      56:  Run Mud Oil % 
 MOWR.                   70:30:  Run Mud OWR 
 MSND.                     0.1:  Run Mud Sand % 
 MSOL.                      19:  Run Mud Solids% 
 DFV .spqt               83.00:  Mud Viscosity 
 MWOD.in                  8.00:  MWD Tool OD 
 MWSI.                     Yes:  Serv Intrp, MWD 
 OTIM.hr                196.57:  Time Operating 
 PCON.           Look Like New:  Pad Condition 
 PMAX.psia             7400.00:  Press Op, Max 
 PV  .cP                 36.00:  Mud PV 
 RUN .                    1000:  Run Number 
 ROPA.m/hr               25.00:  ROP Avg 
 ROPN.m/hr               10.00:  ROP Min 
 ROPX.m/hr               32.00:  ROP Max 
 RPMA.rpm               120.00:  RPM Surface Avg 
 RPMN.rpm               100.00:  RPM Surface Min 
 RPMX.rpm               140.00:  RPM Surface Max 
 RRUN.                    L504:  Rig Run Number 
 SAZI.deg               308.25:  Azm, Start 
 SDEP.m                4364.01:  Start Depth 
 SIDD.                      No:  Serv Intrp, DD 
 SINC.deg                63.81:  Inc, Start 
 SPPA.psig             5800.00:  SPP Avg 
 SPPN.psig             4200.00:  SPP Min 
 SPPX.psig             5950.00:  SPP Max 
 STIM.      18.00.00 01-Aug-20:  Start Time 
 SVCS.                 DD, MWD:  Services 
 SVER.                    9.20:  Sperry Version 
 TDAT.m                 934.00:  Tot Depth Attmp 
 TDDF.                      No:  Trip for DD 
 TDLG.m                 934.00:  Tot Depth Loggd 
 TFF .                      No:  Trip for Fail 
 TQAA.f-kp               31.00:  Torque Abs Avg 
 TQAN.f-kp               25.00:  Torque Abs Min 
 TQAX.f-kp               35.00:  Torque Abs Max 
 TRRT.°/30m              -0.75:  Turn Rotating 
 MRT .                  EWR-M5:  Maximum Recorded Temperature 
 TTMX.degC               95.00:  Max Tool Temp 
 VS01.                90516060:  Virtual Str1 SN 
 VS02.                90528488:  Virtual Str2 SN 
 VS03.                90577970:  Virtual Str3 SN 
 VS04.                12385033:  Virtual Str4 SN 
 VS05.                90522069:  Virtual Str5 SN 
 VS06.                13124134:  Virtual Str6 SN 
 WBMN.klb                20.00:  WOB Min 
 WITN.         Alistair Sprott:  Customer Rep 
 WITN.     Ronal van der Kraan:  Customer Rep 2 
 WOBA.klb                25.00:  WOB Avg 
 WOBX.klb                31.00:  WOB Max 
 YP  .lhf2               32.00:  Yield Point 
~Curve Information Block
#MNEM.UNIT                 API CODE     Curve Description
#---------               -----------    ---------------------------
 TIME.HHMMSS            00 000 000 000:  GT Time & Date
 GTDEPTH.m              00 000 000 000:  GT Depth
 GTPQH.psia             00 000 000 000:  GT HR Quartz Pressure
 GTTQ.degC              00 000 000 000:  GT Quartz Temperature
 GTTN.NONE              00 000 000 000:  GT Test Number
 GTET.sec               00 000 000 000:  GT Elapsed Test Time
 GTTVD.m                00 000 000 000:  GT True Vertical Depth
#Other Information
#
#WARRANTY: Halliburton will use its best efforts to furnish customers with 
#accurate information and interpretations that are part of, and incident to, the services 
#provided.  However, Halliburton cannot and does not warrant the accuracy 
#or correctness of such information and interpretations.  Under no circumstances should any 
#such information or interpretation be relied upon as the sole basis for any drilling, 
#completion, production, or financial decision or any procedure involving any risk to the 
#safety of any drilling venture, drilling rig or its crew or any other third party.  The 
#Customer has full responsibility for all drilling, completion and production operation.  
#Halliburton makes no representations or warranties, either expressed or 
#implied, including, but not limited to, the implied warranties of merchantability or fitness 
#for a particular purpose, with respect to the services rendered.  In no event will 
#Halliburton be liable for failure to obtain any particular results or for 
#any damages, including, but not limited to, indirect, special or consequential damages, 
#resulting from the use of any information or interpretation provided by Halliburton.
#
~A           TIME           GTDEPTH  GTPQH  GTTQ  GTTN  GTET   GTTVD  
# ...
   03:23:46.397.08-Aug-2020 5190.56 7213.86 85.91 1.00 390.80 3375.95
   03:23:46.597.08-Aug-2020 5190.56 7213.86 85.91 1.00 391.00 3375.95
   03:23:46.797.08-Aug-2020 5190.56 7213.53 85.91 1.00 391.20 3375.95
   03:23:46.997.08-Aug-2020 5190.56 7214.89 85.91 1.00 391.40 3375.95
   03:23:47.197.08-Aug-2020 5190.56 7214.93 85.91 1.00 391.60 3375.95
   03:23:47.396.08-Aug-2020 5190.56 7214.68 85.91 1.00 391.80 3375.95
   03:23:47.596.08-Aug-2020 5190.56 7213.89 85.91 1.00 392.00 3375.95
   03:23:47.796.08-Aug-2020 5190.56 7213.86 85.91 1.00 392.20 3375.95
   03:23:47.996.08-Aug-2020 5190.56 7213.93 85.92 1.00 392.40 3375.95
   03:23:48.196.08-Aug-2020 5190.56 7213.90 85.92 1.00 392.60 3375.95
   03:23:48.396.08-Aug-2020 5190.56 7217.46 85.92 1.00 392.80 3375.95
   03:23:48.596.08-Aug-2020 5190.56 7217.46 85.92 1.00 393.00 3375.95
   03:23:48.796.08-Aug-2020 5190.56 7214.18 85.92 1.00 393.20 3375.95
   03:23:48.996.08-Aug-2020 5190.56 7213.63 85.92 1.00 393.40 3375.95
   03:23:49.196.08-Aug-2020 5190.56 7213.92 85.92 1.00 393.60 3375.95
   03:23:49.395.08-Aug-2020 5190.56 7213.11 85.92 1.00 393.80 3375.95
   03:23:49.595.08-Aug-2020 5190.56 7213.11 85.92 1.00 394.00 3375.95
   03:23:49.795.08-Aug-2020 5190.56 7214.01 85.92 1.00 394.20 3375.95
   03:23:49.995.08-Aug-2020 5190.56 7213.85 85.92 1.00 394.40 3375.95
   03:23:50.195.08-Aug-2020 5190.56 7214.07 85.92 1.00 394.60 3375.95
   03:23:50.395.08-Aug-2020 5190.56 7214.59 85.92 1.00 394.80 3375.95
   03:23:50.595.08-Aug-2020 5190.56 7214.59 85.92 1.00 395.00 3375.95
   03:23:50.795.08-Aug-2020 5190.56 7215.30 85.93 1.00 395.20 3375.95
   03:23:50.995.08-Aug-2020 5190.56 7214.74 85.93 1.00 395.40 3375.95
   03:23:51.195.08-Aug-2020 5190.56 7214.28 85.93 1.00 395.60 3375.95
   03:23:51.394.08-Aug-2020 5190.56 7214.22 85.93 1.00 395.80 3375.95
   03:23:51.594.08-Aug-2020 5190.56 7218.16 85.93 1.00 396.00 3375.95
   03:23:51.794.08-Aug-2020 5190.56 7216.17 85.93 1.00 396.20 3375.95
   03:23:51.994.08-Aug-2020 5190.56 7213.63 85.93 1.00 396.40 3375.95
   03:23:52.194.08-Aug-2020 5190.56 7217.11 85.93 1.00 396.60 3375.95
   03:23:52.394.08-Aug-2020 5190.56 7215.67 85.93 1.00 396.80 3375.95
   03:23:52.594.08-Aug-2020 5190.56 7215.67 85.93 1.00 397.00 3375.95
   03:23:52.794.08-Aug-2020 5190.56 7216.28 85.93 1.00 397.20 3375.95
   03:23:52.994.08-Aug-2020 5190.56 7215.19 85.93 1.00 397.40 3375.95
   03:23:53.194.08-Aug-2020 5190.56 7212.36 85.93 1.00 397.60 3375.95
   03:23:53.393.08-Aug-2020 5190.56 7211.30 85.93 1.00 397.80 3375.95
   03:23:53.593.08-Aug-2020 5190.56 7211.30 85.93 1.00 398.00 3375.95
   03:23:53.793.08-Aug-2020 5190.56 7214.01 85.93 1.00 398.20 3375.95
   03:23:53.993.08-Aug-2020 5190.56 7217.46 85.93 1.00 398.40 3375.95
   03:23:54.193.08-Aug-2020 5190.56 7215.51 85.93 1.00 398.60 3375.95
   03:23:54.393.08-Aug-2020 5190.56 7214.24 85.93 1.00 398.80 3375.95
   03:23:54.593.08-Aug-2020 5190.56 7214.24 85.93 1.00 399.00 3375.95
   03:23:54.793.08-Aug-2020 5190.56 7213.63 85.93 1.00 399.20 3375.95
   03:23:54.993.08-Aug-2020 5190.56 7216.95 85.93 1.00 399.40 3375.95
   03:23:55.193.08-Aug-2020 5190.56 7215.06 85.93 1.00 399.60 3375.95
   03:23:55.392.08-Aug-2020 5190.56 7215.61 85.93 1.00 399.80 3375.95
   03:23:55.592.08-Aug-2020 5190.56 7215.61 85.93 1.00 400.00 3375.95
   03:23:55.792.08-Aug-2020 5190.56 7212.49 85.93 1.00 400.20 3375.95
   03:23:55.992.08-Aug-2020 5190.56 7212.96 85.93 1.00 400.40 3375.95
   03:23:56.192.08-Aug-2020 5190.56 7213.70 85.93 1.00 400.60 3375.95
   03:23:56.392.08-Aug-2020 5190.56 7213.85 85.93 1.00 400.80 3375.95
   03:23:56.592.08-Aug-2020 5190.56 7213.85 85.93 1.00 401.00 3375.95
   03:23:56.792.08-Aug-2020 5190.56 7213.21 85.93 1.00 401.20 3375.95
   03:23:56.992.08-Aug-2020 5190.56 7213.91 85.93 1.00 401.40 3375.95
   03:23:57.192.08-Aug-2020 5190.56 7214.71 85.93 1.00 401.60 3375.95
   03:23:57.391.08-Aug-2020 5190.56 7215.21 85.93 1.00 401.80 3375.95
   03:23:57.591.08-Aug-2020 5190.56 7215.21 85.93 1.00 402.00 3375.95
   03:23:57.791.08-Aug-2020 5190.56 7214.18 85.93 1.00 402.20 3375.95
   03:23:57.991.08-Aug-2020 5190.56 7213.84 85.93 1.00 402.40 3375.95
   03:23:58.191.08-Aug-2020 5190.56 7213.84 85.93 1.00 402.60 3375.95
   03:23:58.391.08-Aug-2020 5190.56 7213.83 85.93 1.00 402.79 3375.95
   03:23:58.591.08-Aug-2020 5190.56 7213.83 85.93 1.00 402.99 3375.95
   03:23:58.791.08-Aug-2020 5190.56 7216.17 85.93 1.00 403.19 3375.95
   03:23:58.991.08-Aug-2020 5190.56 7213.36 85.93 1.00 403.39 3375.95
   03:23:59.190.08-Aug-2020 5190.56 7212.82 85.93 1.00 403.59 3375.95
   03:23:59.390.08-Aug-2020 5190.56 7213.18 85.93 1.00 403.79 3375.95
   03:23:59.590.08-Aug-2020 5190.56 7212.95 85.93 1.00 403.99 3375.95
   03:23:59.790.08-Aug-2020 5190.56 7212.78 85.93 1.00 404.19 3375.95
   03:23:59.990.08-Aug-2020 5190.56 7212.95 85.93 1.00 404.39 3375.95
   03:24:00.190.08-Aug-2020 5190.56 7213.18 85.93 1.00 404.59 3375.95
   03:24:00.390.08-Aug-2020 5190.56 7213.68 85.93 1.00 404.79 3375.95
   03:24:00.590.08-Aug-2020 5190.56 7213.68 85.93 1.00 404.99 3375.95
   03:24:00.790.08-Aug-2020 5190.56 7216.03 85.92 1.00 405.19 3375.95
   03:24:00.990.08-Aug-2020 5190.56 7215.73 85.92 1.00 405.39 3375.95
   03:24:01.189.08-Aug-2020 5190.56 7215.24 85.92 1.00 405.59 3375.95
   03:24:01.389.08-Aug-2020 5190.56 7215.06 85.92 1.00 405.79 3375.95
   03:24:01.589.08-Aug-2020 5190.56 7215.06 85.92 1.00 405.99 3375.95
   03:24:01.789.08-Aug-2020 5190.56 7217.61 85.92 1.00 406.19 3375.95
   03:24:01.989.08-Aug-2020 5190.56 7216.41 85.92 1.00 406.39 3375.95
   03:24:02.189.08-Aug-2020 5190.56 7216.90 85.92 1.00 406.59 3375.95
   03:24:02.389.08-Aug-2020 5190.56 7217.24 85.92 1.00 406.79 3375.95
   03:24:02.589.08-Aug-2020 5190.56 7217.24 85.92 1.00 406.99 3375.95
   03:24:02.789.08-Aug-2020 5190.56 7216.22 85.92 1.00 407.19 3375.95
   03:24:02.989.08-Aug-2020 5190.56 7212.82 85.92 1.00 407.39 3375.95
   03:24:03.188.08-Aug-2020 5190.56 7213.28 85.92 1.00 407.59 3375.95
   03:24:03.388.08-Aug-2020 5190.56 7218.71 85.92 1.00 407.79 3375.95
   03:24:03.588.08-Aug-2020 5190.56 7210.46 85.92 1.00 407.99 3375.95
   03:24:03.788.08-Aug-2020 5190.56 7213.33 85.92 1.00 408.19 3375.95
   03:24:03.988.08-Aug-2020 5190.56 7212.78 85.92 1.00 408.39 3375.95
   03:24:04.188.08-Aug-2020 5190.56 7217.12 85.92 1.00 408.59 3375.95
   03:24:04.388.08-Aug-2020 5190.56 7215.95 85.92 1.00 408.79 3375.95
   03:24:04.588.08-Aug-2020 5190.56 7215.95 85.92 1.00 408.99 3375.95
   03:24:04.788.08-Aug-2020 5190.56 7213.70 85.92 1.00 409.19 3375.95
   03:24:04.988.08-Aug-2020 5190.56 7214.40 85.92 1.00 409.39 3375.95
   03:24:05.187.08-Aug-2020 5190.56 7212.05 85.92 1.00 409.59 3375.95
   03:24:05.387.08-Aug-2020 5190.56 7215.63 85.92 1.00 409.79 3375.95
   03:24:05.587.08-Aug-2020 5190.56 7215.63 85.92 1.00 409.99 3375.95
   03:24:05.787.08-Aug-2020 5190.56 7213.76 85.92 1.00 410.19 3375.95
   03:24:05.987.08-Aug-2020 5190.56 7212.24 85.92 1.00 410.39 3375.95
   03:24:06.187.08-Aug-2020 5190.56 7212.64 85.92 1.00 410.59 3375.95
