~Version Information
 VERS.                  2.0:   CWLS log ASCII Standard -VERSION 2.0
 WRAP.                   NO:   One line per depth step
~Well Information Block
#MNEM.UNIT     VALUE/NAME     DESCRIPTION
#---------     -----------    ---------------------------
 STRT.S             03:17:15 08-Aug-20: START TIME 03:17:15 08-Aug-20
 STOP.S             03:24:06 08-Aug-20: STOP TIME  03:24:06 08-Aug-20
 STEP.S                   0.00: STEP TIME
 NULL.                 -999.25: NULL VALUE
 DFWT.                        :  DIST FWL TEXT
 DFST.                        :  DIST FSL TEXT
 DMF .             Drill Floor:  DRILL MEAS FROM
 STIM.      13.47.44 07-Jun-20:  START TIME
 DATE.      13.47.44 27-Jul-20:  END TIME
 SPUD.               07-Jun-20:  SPUD DATE
 NREF.                    Grid:  NORTH REFERENCE
 HPTY.       Minimum Curvature:  HOLE POS TYPE
 DMOD.             Drill Model:  DRILL MOD DESC
 SVYD.                  Survey:  SURVEY DESC
 ILTD.               Lithology:  INTERP LTH DESC
 FTOP.          Formation Tops:  FORM TOPS DESC
 RIG .             West Chirag:  RIG NAME
 PDAT.          Mean Sea Level:  PERMANENT DATUM
 FLD .                     ACG:  FIELD NAME
 SON .        AZ-XX-0906363612:  JOB NUMBER
 CTRY.              Azerbaijan:  COUNTRY NAME
 WELL.           J25 (Slot 35):  WELL NAME
 SRVC.          Turan Drilling:  CONTRACTOR
 COMP.     BP Exploration (Caspian Sea) Ltd:  COMPANY
 UWI .                     N/A:  UNIQUE WELL IDENTIFIER
 API .                     N/A:  API NUMBER
 BASE.              Azerbaijan:  LOGGING EQUIPMENT BASE LOCATION
 REGN.                   EESSA:  REGION
 PROV.                    Baku:  PROVINCE
 STAT.                    Baku:  STATE NAME
 MWDS.                     N/A:  MWD SHOP
 DOE .                     N/A:  DOE NUMBER
 DCON.         Sperry Drilling:  DIRECTNL CONTR
 UNIT.                     N/A:  LOGGING EQUIPMENT ID
 MDS .        Operator Entered:  MAG DATA SOURCE
 JOBN.        AZ-XX-0906363612:  JOB TICKET NUMB
 WTYP.                Deviated:  WELL TYPE
 CNTY.                        :  COUNTY
 LOC .                        :  LOCATION
 LMF .             Drill Floor:  LOG MEASURED FROM
 TVDS.m                  43.00:  TVDSS CORRECTN
 LATI.deg                40.13:  LATITUDE
 LONG.deg                51.22:  LONGITUDE
 WHNS.m                  -7.90:  WELL HEAD N/S
 WHEW.m                  -3.35:  WELL HEAD E/W
 UTMX.m              519005.06:  UTM X
 UTMY.m             4443793.85:  UTM Y
 DFWL.m                   0.00:  DISTANCE FWL
 DFSL.m                   0.00:  DISTANCE FSL
 SDEP.m                   0.00:  START DEPTH
 TDD .m                   0.00:  TOTAL DEPTH (DRILLER)
 VSDR.deg               308.97:  VERT SEC DIRECT
 GVFD.g                   1.00:  GRAVITY FIELD
 MFLD.nT              50350.00:  MAGNETIC FIELD
 MDIP.deg                59.62:  MAGNETIC DIP
 MDEC.deg                 6.44:  MAGNETIC DECL
 GRDC.deg                 0.13:  GRID CORRECTION
 AZTC.deg                 6.32:  AZM TOTAL CORR
 EPD .m                   0.00:  ELEVATION
 EGL .m                   0.00:  GROUND ELEVATION
 WDMS.m                 169.80:  WD ELEV
 APD .m                  43.00:  DEPTH ABOVE PD
 DEP .m                 356.43:  DEPTH
 AGAP.m                  43.00:  AIR GAP
 VSEW.m                  -3.35:  VERT SEC E/W
 VSNS.m                  -7.90:  VERT SEC N/S
 EKB .m                  43.00:  KB ELEVATION
 EDF .m                  43.00:  DF ELEVATION
 TDL .m                 934.00:  TOTAL DEPTH (LOGGER)
 VSC .                       0:  VS TO CLOSURE
 MAGU.                 1852825:  MAGUTM CHECKSUM
~Parameter Information Block
#MNEM.UNIT       Value        Description
#---------     -----------    ---------------------------
 AV  .mps                 0.80:  Ann Velocity 
 AVMX.mps                 1.70:  Max Ann Veloc 
 AZIF.deg               311.41:  Azm, Final 
 BHAT.        Rotary Steerable:  BHA Type 
 BROT.°/30m               0.09:  Build Rotating 
 BS  .in                 12.25:  Bit Size 
 BSZ .in                 12.25:  Bit Size 
 BTPL.psig              800.00:  Bit Press Loss 
 CABU.                      No:  Customer Abuse 
 COMM.                     k:  Run Comments 1 
 TCS .hr                 96.00:  Time Ciculation Ended 
 CV  .mps                 2.03:  Crit Velocity 
 CVMX.mps                 2.42:  Max Crit Veloc 
 DD1 .          Taghi Taghiyev:  Direct Drillr 1 
 DD2 .      Tariel Pirmammadov:  Direct Drillr 2 
 DD3 .          Teymur Aghayev:  Direct Drillr 3 
 DDSV.                 iCruise:  DD Service 
 DEFF.%                  98.70:  % Det Eff 
 DLRX.°/30m               1.00:  Dogleg Rot Max 
 DLSO.°/30m               1.80:  Dogleg Oriented 
 DLSX.°/30m               3.16:  Dogleg Str Max 
 DRET.      15.00.00 07-Aug-20:  Drill End Time 
 DRST.      17.00.00 02-Aug-20:  Drill Start Tim 
 DTIM.hr                 45.90:  Time Drilling 
 EDEP.m                5298.01:  End Depth 
 ENG1.       Seymur Iskandarov:  Engineer 1 
 ENG2.         Yevgeniy Ulikov:  Engineer 2 
 ENG3.      Artemiy Matviyanov:  Engineer 3 
 ENG4.         Bahruz Mehdiyev:  Engineer 4 
 ETIM.      05.00.00 10-Aug-20:  End Time 
 FLOI.gpm              1150.00:  Flow In 
 FLON.gpm               900.00:  Flow In Min 
 FLOS.cptm                0.00:  Fluid Loss 
 FLOX.gpm              1200.00:  Flow In Max 
 FTRO.     Connectivity, Formation Presure:  FTWD Run Obj 
 HFLO.                      No:  High Flow 
 HPRE.                     Yes:  High Pressure 
 HTEM.                      No:  High Temp 
 HYDO.m                   1.80:  Hydro Offset 
 IFIN.deg                 9.71:  Inc, Final 
 IMAX.deg                63.81:  Inc Max 
 IMIN.deg                 9.53:  Inc Min 
 IMND.m                5075.52:  Inc Min Depth 
 IMXD.m                4367.08:  Inc Max Depth 
 JARR.                      No:  Jarring 
 LETM.      15.00.00 07-Aug-20:  Log End Time 
 LOST.hr                     2:  Lost Rig Time 
 LSTM.      17.00.00 02-Aug-20:  Log Start Time 
 MDCL.ppm             42500.00:  Mud Chlorides 
 MDES.     Inversion Oil/Synthetic:  Mud Desc 
 DFD .sg                  1.46:  Mud Density 
 MDMN.sg                  1.46:  Dens Mud Min 
 MDMX.sg                  1.46:  Dens Mud Max 
 MOIL.                      56:  Run Mud Oil % 
 MOWR.                   70:30:  Run Mud OWR 
 MSND.                     0.1:  Run Mud Sand % 
 MSOL.                      19:  Run Mud Solids% 
 DFV .spqt               83.00:  Mud Viscosity 
 MWOD.in                  8.00:  MWD Tool OD 
 MWSI.                     Yes:  Serv Intrp, MWD 
 OTIM.hr                196.57:  Time Operating 
 PCON.           Look Like New:  Pad Condition 
 PMAX.psia             7400.00:  Press Op, Max 
 PV  .cP                 36.00:  Mud PV 
 RUN .                    1000:  Run Number 
 ROPA.m/hr               25.00:  ROP Avg 
 ROPN.m/hr               10.00:  ROP Min 
 ROPX.m/hr               32.00:  ROP Max 
 RPMA.rpm               120.00:  RPM Surface Avg 
 RPMN.rpm               100.00:  RPM Surface Min 
 RPMX.rpm               140.00:  RPM Surface Max 
 RRUN.                    L504:  Rig Run Number 
 SAZI.deg               308.25:  Azm, Start 
 SDEP.m                4364.01:  Start Depth 
 SIDD.                      No:  Serv Intrp, DD 
 SINC.deg                63.81:  Inc, Start 
 SPPA.psig             5800.00:  SPP Avg 
 SPPN.psig             4200.00:  SPP Min 
 SPPX.psig             5950.00:  SPP Max 
 STIM.      18.00.00 01-Aug-20:  Start Time 
 SVCS.                 DD, MWD:  Services 
 SVER.                    9.20:  Sperry Version 
 TDAT.m                 934.00:  Tot Depth Attmp 
 TDDF.                      No:  Trip for DD 
 TDLG.m                 934.00:  Tot Depth Loggd 
 TFF .                      No:  Trip for Fail 
 TQAA.f-kp               31.00:  Torque Abs Avg 
 TQAN.f-kp               25.00:  Torque Abs Min 
 TQAX.f-kp               35.00:  Torque Abs Max 
 TRRT.°/30m              -0.75:  Turn Rotating 
 MRT .                  EWR-M5:  Maximum Recorded Temperature 
 TTMX.degC               95.00:  Max Tool Temp 
 VS01.                90516060:  Virtual Str1 SN 
 VS02.                90528488:  Virtual Str2 SN 
 VS03.                90577970:  Virtual Str3 SN 
 VS04.                12385033:  Virtual Str4 SN 
 VS05.                90522069:  Virtual Str5 SN 
 VS06.                13124134:  Virtual Str6 SN 
 WBMN.klb                20.00:  WOB Min 
 WITN.         Alistair Sprott:  Customer Rep 
 WITN.     Ronal van der Kraan:  Customer Rep 2 
 WOBA.klb                25.00:  WOB Avg 
 WOBX.klb                31.00:  WOB Max 
 YP  .lhf2               32.00:  Yield Point 
~Curve Information Block
#MNEM.UNIT                 API CODE     Curve Description
#---------               -----------    ---------------------------
 TIME.HHMMSS            00 000 000 000:  GT Time & Date
 GTDEPTH.m              00 000 000 000:  GT Depth
 GTPQH.psia             00 000 000 000:  GT HR Quartz Pressure
 GTTQ.degC              00 000 000 000:  GT Quartz Temperature
 GTTN.NONE              00 000 000 000:  GT Test Number
 GTET.sec               00 000 000 000:  GT Elapsed Test Time
 GTTVD.m                00 000 000 000:  GT True Vertical Depth
#Other Information
#
#WARRANTY: Halliburton will use its best efforts to furnish customers with 
#accurate information and interpretations that are part of, and incident to, the services 
#provided.  However, Halliburton cannot and does not warrant the accuracy 
#or correctness of such information and interpretations.  Under no circumstances should any 
#such information or interpretation be relied upon as the sole basis for any drilling, 
#completion, production, or financial decision or any procedure involving any risk to the 
#safety of any drilling venture, drilling rig or its crew or any other third party.  The 
#Customer has full responsibility for all drilling, completion and production operation.  
#Halliburton makes no representations or warranties, either expressed or 
#implied, including, but not limited to, the implied warranties of merchantability or fitness 
#for a particular purpose, with respect to the services rendered.  In no event will 
#Halliburton be liable for failure to obtain any particular results or for 
#any damages, including, but not limited to, indirect, special or consequential damages, 
#resulting from the use of any information or interpretation provided by Halliburton.
#
~A           TIME           GTDEPTH  GTPQH  GTTQ  GTTN  GTET   GTTVD  
# ...
   03:20:19.502.08-Aug-2020 5190.56 1651.02 85.80 1.00 183.91 3375.95
   03:20:19.702.08-Aug-2020 5190.56 1665.12 85.80 1.00 184.11 3375.95
   03:20:19.902.08-Aug-2020 5190.56 1678.89 85.80 1.00 184.31 3375.95
   03:20:20.102.08-Aug-2020 5190.56 1692.58 85.79 1.00 184.51 3375.95
   03:20:20.302.08-Aug-2020 5190.56 1706.32 85.79 1.00 184.71 3375.95
   03:20:20.502.08-Aug-2020 5190.56 1720.02 85.79 1.00 184.91 3375.95
   03:20:20.702.08-Aug-2020 5190.56 1720.02 85.79 1.00 185.11 3375.95
   03:20:20.902.08-Aug-2020 5190.56 1746.72 85.79 1.00 185.31 3375.95
   03:20:21.102.08-Aug-2020 5190.56 1759.96 85.79 1.00 185.51 3375.95
   03:20:21.301.08-Aug-2020 5190.56 1772.85 85.79 1.00 185.71 3375.95
   03:20:21.501.08-Aug-2020 5190.56 1785.56 85.79 1.00 185.91 3375.95
   03:20:21.701.08-Aug-2020 5190.56 1785.56 85.79 1.00 186.11 3375.95
   03:20:21.901.08-Aug-2020 5190.56 1810.93 85.79 1.00 186.31 3375.95
   03:20:22.101.08-Aug-2020 5190.56 1823.83 85.79 1.00 186.51 3375.95
   03:20:22.301.08-Aug-2020 5190.56 1836.72 85.79 1.00 186.70 3375.95
   03:20:22.501.08-Aug-2020 5190.56 1848.15 85.79 1.00 186.90 3375.95
   03:20:22.701.08-Aug-2020 5190.56 1848.15 85.79 1.00 187.10 3375.95
   03:20:22.901.08-Aug-2020 5190.56 1873.37 85.79 1.00 187.30 3375.95
   03:20:23.101.08-Aug-2020 5190.56 1885.72 85.79 1.00 187.50 3375.95
   03:20:23.300.08-Aug-2020 5190.56 1897.79 85.79 1.00 187.70 3375.95
   03:20:23.500.08-Aug-2020 5190.56 1909.49 85.79 1.00 187.90 3375.95
   03:20:23.700.08-Aug-2020 5190.56 1921.79 85.79 1.00 188.10 3375.95
   03:20:23.900.08-Aug-2020 5190.56 1933.85 85.79 1.00 188.30 3375.95
   03:20:24.100.08-Aug-2020 5190.56 1945.19 85.79 1.00 188.50 3375.95
   03:20:24.300.08-Aug-2020 5190.56 1957.15 85.79 1.00 188.70 3375.95
   03:20:24.500.08-Aug-2020 5190.56 1969.11 85.79 1.00 188.90 3375.95
   03:20:24.700.08-Aug-2020 5190.56 1969.11 85.79 1.00 189.10 3375.95
   03:20:24.900.08-Aug-2020 5190.56 1992.05 85.79 1.00 189.30 3375.95
   03:20:25.099.08-Aug-2020 5190.56 2003.59 85.79 1.00 189.50 3375.95
   03:20:25.299.08-Aug-2020 5190.56 2015.31 85.79 1.00 189.70 3375.95
   03:20:25.499.08-Aug-2020 5190.56 2026.73 85.79 1.00 189.90 3375.95
   03:20:25.699.08-Aug-2020 5190.56 2026.73 85.79 1.00 190.10 3375.95
   03:20:25.899.08-Aug-2020 5190.56 2048.60 85.79 1.00 190.30 3375.95
   03:20:26.099.08-Aug-2020 5190.56 2060.47 85.80 1.00 190.50 3375.95
   03:20:26.299.08-Aug-2020 5190.56 2071.64 85.80 1.00 190.70 3375.95
   03:20:26.499.08-Aug-2020 5190.56 2082.23 85.80 1.00 190.90 3375.95
   03:20:26.699.08-Aug-2020 5190.56 2082.23 85.80 1.00 191.10 3375.95
   03:20:26.899.08-Aug-2020 5190.56 2104.69 85.80 1.00 191.30 3375.95
   03:20:27.098.08-Aug-2020 5190.56 2115.80 85.80 1.00 191.50 3375.95
   03:20:27.298.08-Aug-2020 5190.56 2126.29 85.80 1.00 191.70 3375.95
   03:20:27.498.08-Aug-2020 5190.56 2137.20 85.80 1.00 191.90 3375.95
   03:20:27.698.08-Aug-2020 5190.56 2148.24 85.80 1.00 192.10 3375.95
   03:20:27.898.08-Aug-2020 5190.56 2158.79 85.80 1.00 192.30 3375.95
   03:20:28.098.08-Aug-2020 5190.56 2169.45 85.80 1.00 192.50 3375.95
   03:20:28.298.08-Aug-2020 5190.56 2180.35 85.80 1.00 192.70 3375.95
   03:20:28.498.08-Aug-2020 5190.56 2190.93 85.80 1.00 192.90 3375.95
   03:20:28.698.08-Aug-2020 5190.56 2190.93 85.80 1.00 193.10 3375.95
   03:20:28.898.08-Aug-2020 5190.56 2211.69 85.80 1.00 193.30 3375.95
   03:20:29.097.08-Aug-2020 5190.56 2221.96 85.80 1.00 193.50 3375.95
   03:20:29.297.08-Aug-2020 5190.56 2232.53 85.80 1.00 193.70 3375.95
   03:20:29.497.08-Aug-2020 5190.56 2242.96 85.80 1.00 193.90 3375.95
   03:20:29.697.08-Aug-2020 5190.56 2242.96 85.80 1.00 194.10 3375.95
   03:20:29.897.08-Aug-2020 5190.56 2263.27 85.80 1.00 194.30 3375.95
   03:20:30.097.08-Aug-2020 5190.56 2273.57 85.80 1.00 194.50 3375.95
   03:20:30.297.08-Aug-2020 5190.56 2283.89 85.81 1.00 194.70 3375.95
   03:20:30.497.08-Aug-2020 5190.56 2294.38 85.81 1.00 194.90 3375.95
   03:20:30.697.08-Aug-2020 5190.56 2294.38 85.81 1.00 195.10 3375.95
   03:20:30.897.08-Aug-2020 5190.56 2315.57 85.81 1.00 195.30 3375.95
   03:20:31.096.08-Aug-2020 5190.56 2325.76 85.81 1.00 195.50 3375.95
   03:20:31.296.08-Aug-2020 5190.56 2336.67 85.81 1.00 195.70 3375.95
   03:20:31.496.08-Aug-2020 5190.56 2347.05 85.81 1.00 195.90 3375.95
   03:20:31.696.08-Aug-2020 5190.56 2356.79 85.81 1.00 196.10 3375.95
   03:20:31.896.08-Aug-2020 5190.56 2366.97 85.81 1.00 196.30 3375.95
   03:20:32.096.08-Aug-2020 5190.56 2376.89 85.81 1.00 196.50 3375.95
   03:20:32.296.08-Aug-2020 5190.56 2386.56 85.81 1.00 196.70 3375.95
   03:20:32.496.08-Aug-2020 5190.56 2396.37 85.81 1.00 196.90 3375.95
   03:20:32.696.08-Aug-2020 5190.56 2396.37 85.81 1.00 197.10 3375.95
   03:20:32.896.08-Aug-2020 5190.56 2416.55 85.81 1.00 197.30 3375.95
   03:20:33.095.08-Aug-2020 5190.56 2426.58 85.81 1.00 197.50 3375.95
   03:20:33.295.08-Aug-2020 5190.56 2436.34 85.81 1.00 197.70 3375.95
   03:20:33.495.08-Aug-2020 5190.56 2445.54 85.81 1.00 197.90 3375.95
   03:20:33.695.08-Aug-2020 5190.56 2445.54 85.81 1.00 198.10 3375.95
   03:20:33.895.08-Aug-2020 5190.56 2465.09 85.82 1.00 198.30 3375.95
   03:20:34.095.08-Aug-2020 5190.56 2474.94 85.82 1.00 198.50 3375.95
   03:20:34.295.08-Aug-2020 5190.56 2484.02 85.82 1.00 198.70 3375.95
   03:20:34.495.08-Aug-2020 5190.56 2493.80 85.82 1.00 198.90 3375.95
   03:20:34.695.08-Aug-2020 5190.56 2493.80 85.82 1.00 199.10 3375.95
   03:20:34.895.08-Aug-2020 5190.56 2512.64 85.82 1.00 199.30 3375.95
   03:20:35.094.08-Aug-2020 5190.56 2522.09 85.82 1.00 199.50 3375.95
   03:20:35.294.08-Aug-2020 5190.56 2531.59 85.82 1.00 199.70 3375.95
   03:20:35.494.08-Aug-2020 5190.56 2541.14 85.82 1.00 199.90 3375.95
   03:20:35.694.08-Aug-2020 5190.56 2549.85 85.82 1.00 200.10 3375.95
   03:20:35.894.08-Aug-2020 5190.56 2559.25 85.82 1.00 200.30 3375.95
   03:20:36.094.08-Aug-2020 5190.56 2567.96 85.82 1.00 200.50 3375.95
   03:20:36.294.08-Aug-2020 5190.56 2577.47 85.82 1.00 200.70 3375.95
   03:20:36.494.08-Aug-2020 5190.56 2586.34 85.82 1.00 200.90 3375.95
   03:20:36.694.08-Aug-2020 5190.56 2586.34 85.82 1.00 201.10 3375.95
   03:20:36.893.08-Aug-2020 5190.56 2604.83 85.82 1.00 201.30 3375.95
   03:20:37.093.08-Aug-2020 5190.56 2613.81 85.82 1.00 201.50 3375.95
   03:20:37.293.08-Aug-2020 5190.56 2623.16 85.83 1.00 201.70 3375.95
   03:20:37.493.08-Aug-2020 5190.56 2632.46 85.83 1.00 201.90 3375.95
   03:20:37.693.08-Aug-2020 5190.56 2632.46 85.83 1.00 202.10 3375.95
   03:20:37.893.08-Aug-2020 5190.56 2649.84 85.83 1.00 202.30 3375.95
   03:20:38.093.08-Aug-2020 5190.56 2658.89 85.83 1.00 202.50 3375.95
   03:20:38.293.08-Aug-2020 5190.56 2668.06 85.83 1.00 202.70 3375.95
   03:20:38.493.08-Aug-2020 5190.56 2676.62 85.83 1.00 202.90 3375.95
   03:20:38.693.08-Aug-2020 5190.56 2676.62 85.83 1.00 203.10 3375.95
   03:20:38.892.08-Aug-2020 5190.56 2694.56 85.83 1.00 203.30 3375.95
   03:20:39.092.08-Aug-2020 5190.56 2702.70 85.83 1.00 203.50 3375.95
   03:20:39.292.08-Aug-2020 5190.56 2710.95 85.83 1.00 203.70 3375.95
   03:20:39.492.08-Aug-2020 5190.56 2719.54 85.83 1.00 203.90 3375.95
   03:20:39.692.08-Aug-2020 5190.56 2727.76 85.83 1.00 204.10 3375.95
   03:20:39.892.08-Aug-2020 5190.56 2736.60 85.83 1.00 204.30 3375.95
   03:20:40.092.08-Aug-2020 5190.56 2745.35 85.83 1.00 204.50 3375.95
   03:20:40.292.08-Aug-2020 5190.56 2754.01 85.83 1.00 204.70 3375.95
   03:20:40.492.08-Aug-2020 5190.56 2761.71 85.83 1.00 204.90 3375.95
   03:20:40.692.08-Aug-2020 5190.56 2761.71 85.83 1.00 205.10 3375.95
   03:20:40.891.08-Aug-2020 5190.56 2778.89 85.83 1.00 205.30 3375.95
   03:20:41.091.08-Aug-2020 5190.56 2787.90 85.83 1.00 205.50 3375.95
   03:20:41.291.08-Aug-2020 5190.56 2796.34 85.84 1.00 205.70 3375.95
   03:20:41.491.08-Aug-2020 5190.56 2804.54 85.84 1.00 205.90 3375.95
   03:20:41.691.08-Aug-2020 5190.56 2804.54 85.84 1.00 206.10 3375.95
   03:20:41.891.08-Aug-2020 5190.56 2821.43 85.84 1.00 206.29 3375.95
   03:20:42.091.08-Aug-2020 5190.56 2829.42 85.84 1.00 206.49 3375.95
   03:20:42.291.08-Aug-2020 5190.56 2837.73 85.84 1.00 206.69 3375.95
