~Version Information
 VERS.                  2.0:   CWLS log ASCII Standard -VERSION 2.0
 WRAP.                   NO:   One line per depth step
~Well Information Block
#MNEM.UNIT     VALUE/NAME     DESCRIPTION
#---------     -----------    ---------------------------
 STRT.S             06:39:47 08-Aug-20: START TIME 06:39:47 08-Aug-20
 STOP.S             06:48:06 08-Aug-20: STOP TIME  06:48:06 08-Aug-20
 STEP.S                   0.00: STEP TIME
 NULL.                 -999.25: NULL VALUE
 DFWT.                        :  DIST FWL TEXT
 DFST.                        :  DIST FSL TEXT
 DMF .             Drill Floor:  DRILL MEAS FROM
 STIM.      13.47.44 07-Jun-20:  START TIME
 DATE.      13.47.44 27-Jul-20:  END TIME
 SPUD.               07-Jun-20:  SPUD DATE
 NREF.                    Grid:  NORTH REFERENCE
 HPTY.       Minimum Curvature:  HOLE POS TYPE
 DMOD.             Drill Model:  DRILL MOD DESC
 SVYD.                  Survey:  SURVEY DESC
 ILTD.               Lithology:  INTERP LTH DESC
 FTOP.          Formation Tops:  FORM TOPS DESC
 RIG .             West Chirag:  RIG NAME
 PDAT.          Mean Sea Level:  PERMANENT DATUM
 FLD .                     ACG:  FIELD NAME
 SON .        AZ-XX-0906363612:  JOB NUMBER
 CTRY.              Azerbaijan:  COUNTRY NAME
 WELL.           J25 (Slot 35):  WELL NAME
 SRVC.          Turan Drilling:  CONTRACTOR
 COMP.     BP Exploration (Caspian Sea) Ltd:  COMPANY
 UWI .                     N/A:  UNIQUE WELL IDENTIFIER
 API .                     N/A:  API NUMBER
 BASE.              Azerbaijan:  LOGGING EQUIPMENT BASE LOCATION
 REGN.                   EESSA:  REGION
 PROV.                    Baku:  PROVINCE
 STAT.                    Baku:  STATE NAME
 MWDS.                     N/A:  MWD SHOP
 DOE .                     N/A:  DOE NUMBER
 DCON.         Sperry Drilling:  DIRECTNL CONTR
 UNIT.                     N/A:  LOGGING EQUIPMENT ID
 MDS .        Operator Entered:  MAG DATA SOURCE
 JOBN.        AZ-XX-0906363612:  JOB TICKET NUMB
 WTYP.                Deviated:  WELL TYPE
 CNTY.                        :  COUNTY
 LOC .                        :  LOCATION
 LMF .             Drill Floor:  LOG MEASURED FROM
 TVDS.m                  43.00:  TVDSS CORRECTN
 LATI.deg                40.13:  LATITUDE
 LONG.deg                51.22:  LONGITUDE
 WHNS.m                  -7.90:  WELL HEAD N/S
 WHEW.m                  -3.35:  WELL HEAD E/W
 UTMX.m              519005.06:  UTM X
 UTMY.m             4443793.85:  UTM Y
 DFWL.m                   0.00:  DISTANCE FWL
 DFSL.m                   0.00:  DISTANCE FSL
 SDEP.m                   0.00:  START DEPTH
 TDD .m                   0.00:  TOTAL DEPTH (DRILLER)
 VSDR.deg               308.97:  VERT SEC DIRECT
 GVFD.g                   1.00:  GRAVITY FIELD
 MFLD.nT              50350.00:  MAGNETIC FIELD
 MDIP.deg                59.62:  MAGNETIC DIP
 MDEC.deg                 6.44:  MAGNETIC DECL
 GRDC.deg                 0.13:  GRID CORRECTION
 AZTC.deg                 6.32:  AZM TOTAL CORR
 EPD .m                   0.00:  ELEVATION
 EGL .m                   0.00:  GROUND ELEVATION
 WDMS.m                 169.80:  WD ELEV
 APD .m                  43.00:  DEPTH ABOVE PD
 DEP .m                 356.43:  DEPTH
 AGAP.m                  43.00:  AIR GAP
 VSEW.m                  -3.35:  VERT SEC E/W
 VSNS.m                  -7.90:  VERT SEC N/S
 EKB .m                  43.00:  KB ELEVATION
 EDF .m                  43.00:  DF ELEVATION
 TDL .m                 934.00:  TOTAL DEPTH (LOGGER)
 VSC .                       0:  VS TO CLOSURE
 MAGU.                 1852825:  MAGUTM CHECKSUM
~Parameter Information Block
#MNEM.UNIT       Value        Description
#---------     -----------    ---------------------------
 AV  .mps                 0.80:  Ann Velocity 
 AVMX.mps                 1.70:  Max Ann Veloc 
 AZIF.deg               311.41:  Azm, Final 
 BHAT.        Rotary Steerable:  BHA Type 
 BROT.°/30m               0.09:  Build Rotating 
 BS  .in                 12.25:  Bit Size 
 BSZ .in                 12.25:  Bit Size 
 BTPL.psig              800.00:  Bit Press Loss 
 CABU.                      No:  Customer Abuse 
 COMM.                     ´
n:  Run Comments 1 
 TCS .hr                 96.00:  Time Ciculation Ended 
 CV  .mps                 2.03:  Crit Velocity 
 CVMX.mps                 2.42:  Max Crit Veloc 
 DD1 .          Taghi Taghiyev:  Direct Drillr 1 
 DD2 .      Tariel Pirmammadov:  Direct Drillr 2 
 DD3 .          Teymur Aghayev:  Direct Drillr 3 
 DDSV.                 iCruise:  DD Service 
 DEFF.%                  98.70:  % Det Eff 
 DLRX.°/30m               1.00:  Dogleg Rot Max 
 DLSO.°/30m               1.80:  Dogleg Oriented 
 DLSX.°/30m               3.16:  Dogleg Str Max 
 DRET.      15.00.00 07-Aug-20:  Drill End Time 
 DRST.      17.00.00 02-Aug-20:  Drill Start Tim 
 DTIM.hr                 45.90:  Time Drilling 
 EDEP.m                5298.01:  End Depth 
 ENG1.       Seymur Iskandarov:  Engineer 1 
 ENG2.         Yevgeniy Ulikov:  Engineer 2 
 ENG3.      Artemiy Matviyanov:  Engineer 3 
 ENG4.         Bahruz Mehdiyev:  Engineer 4 
 ETIM.      05.00.00 10-Aug-20:  End Time 
 FLOI.gpm              1150.00:  Flow In 
 FLON.gpm               900.00:  Flow In Min 
 FLOS.cptm                0.00:  Fluid Loss 
 FLOX.gpm              1200.00:  Flow In Max 
 FTRO.     Connectivity, Formation Presure:  FTWD Run Obj 
 HFLO.                      No:  High Flow 
 HPRE.                     Yes:  High Pressure 
 HTEM.                      No:  High Temp 
 HYDO.m                   1.80:  Hydro Offset 
 IFIN.deg                 9.71:  Inc, Final 
 IMAX.deg                63.81:  Inc Max 
 IMIN.deg                 9.53:  Inc Min 
 IMND.m                5075.52:  Inc Min Depth 
 IMXD.m                4367.08:  Inc Max Depth 
 JARR.                      No:  Jarring 
 LETM.      15.00.00 07-Aug-20:  Log End Time 
 LOST.hr                     2:  Lost Rig Time 
 LSTM.      17.00.00 02-Aug-20:  Log Start Time 
 MDCL.ppm             42500.00:  Mud Chlorides 
 MDES.     Inversion Oil/Synthetic:  Mud Desc 
 DFD .sg                  1.46:  Mud Density 
 MDMN.sg                  1.46:  Dens Mud Min 
 MDMX.sg                  1.46:  Dens Mud Max 
 MOIL.                      56:  Run Mud Oil % 
 MOWR.                   70:30:  Run Mud OWR 
 MSND.                     0.1:  Run Mud Sand % 
 MSOL.                      19:  Run Mud Solids% 
 DFV .spqt               83.00:  Mud Viscosity 
 MWOD.in                  8.00:  MWD Tool OD 
 MWSI.                     Yes:  Serv Intrp, MWD 
 OTIM.hr                196.57:  Time Operating 
 PCON.           Look Like New:  Pad Condition 
 PMAX.psia             7400.00:  Press Op, Max 
 PV  .cP                 36.00:  Mud PV 
 RUN .                    1000:  Run Number 
 ROPA.m/hr               25.00:  ROP Avg 
 ROPN.m/hr               10.00:  ROP Min 
 ROPX.m/hr               32.00:  ROP Max 
 RPMA.rpm               120.00:  RPM Surface Avg 
 RPMN.rpm               100.00:  RPM Surface Min 
 RPMX.rpm               140.00:  RPM Surface Max 
 RRUN.                    L504:  Rig Run Number 
 SAZI.deg               308.25:  Azm, Start 
 SDEP.m                4364.01:  Start Depth 
 SIDD.                      No:  Serv Intrp, DD 
 SINC.deg                63.81:  Inc, Start 
 SPPA.psig             5800.00:  SPP Avg 
 SPPN.psig             4200.00:  SPP Min 
 SPPX.psig             5950.00:  SPP Max 
 STIM.      18.00.00 01-Aug-20:  Start Time 
 SVCS.                 DD, MWD:  Services 
 SVER.                    9.20:  Sperry Version 
 TDAT.m                 934.00:  Tot Depth Attmp 
 TDDF.                      No:  Trip for DD 
 TDLG.m                 934.00:  Tot Depth Loggd 
 TFF .                      No:  Trip for Fail 
 TQAA.f-kp               31.00:  Torque Abs Avg 
 TQAN.f-kp               25.00:  Torque Abs Min 
 TQAX.f-kp               35.00:  Torque Abs Max 
 TRRT.°/30m              -0.75:  Turn Rotating 
 MRT .                  EWR-M5:  Maximum Recorded Temperature 
 TTMX.degC               95.00:  Max Tool Temp 
 VS01.                90516060:  Virtual Str1 SN 
 VS02.                90528488:  Virtual Str2 SN 
 VS03.                90577970:  Virtual Str3 SN 
 VS04.                12385033:  Virtual Str4 SN 
 VS05.                90522069:  Virtual Str5 SN 
 VS06.                13124134:  Virtual Str6 SN 
 WBMN.klb                20.00:  WOB Min 
 WITN.         Alistair Sprott:  Customer Rep 
 WITN.     Ronal van der Kraan:  Customer Rep 2 
 WOBA.klb                25.00:  WOB Avg 
 WOBX.klb                31.00:  WOB Max 
 YP  .lhf2               32.00:  Yield Point 
~Curve Information Block
#MNEM.UNIT                 API CODE     Curve Description
#---------               -----------    ---------------------------
 TIME.HHMMSS            00 000 000 000:  GT Time & Date
 GTDEPTH.m              00 000 000 000:  GT Depth
 GTPQH.psia             00 000 000 000:  GT HR Quartz Pressure
 GTTQ.degC              00 000 000 000:  GT Quartz Temperature
 GTTN.NONE              00 000 000 000:  GT Test Number
 GTET.sec               00 000 000 000:  GT Elapsed Test Time
 GTTVD.m                00 000 000 000:  GT True Vertical Depth
#Other Information
#
#WARRANTY: Halliburton will use its best efforts to furnish customers with 
#accurate information and interpretations that are part of, and incident to, the services 
#provided.  However, Halliburton cannot and does not warrant the accuracy 
#or correctness of such information and interpretations.  Under no circumstances should any 
#such information or interpretation be relied upon as the sole basis for any drilling, 
#completion, production, or financial decision or any procedure involving any risk to the 
#safety of any drilling venture, drilling rig or its crew or any other third party.  The 
#Customer has full responsibility for all drilling, completion and production operation.  
#Halliburton makes no representations or warranties, either expressed or 
#implied, including, but not limited to, the implied warranties of merchantability or fitness 
#for a particular purpose, with respect to the services rendered.  In no event will 
#Halliburton be liable for failure to obtain any particular results or for 
#any damages, including, but not limited to, indirect, special or consequential damages, 
#resulting from the use of any information or interpretation provided by Halliburton.
#
~A           TIME           GTDEPTH  GTPQH  GTTQ  GTTN  GTET   GTTVD  
# ...
   06:42:51.000.08-Aug-2020 5176.51 2075.96 80.41 4.00 184.00 3362.10
   06:42:51.200.08-Aug-2020 5176.51 2076.47 80.41 4.00 184.20 3362.10
   06:42:51.400.08-Aug-2020 5176.51 2077.09 80.41 4.00 184.40 3362.10
   06:42:51.600.08-Aug-2020 5176.51 2077.64 80.41 4.00 184.60 3362.10
   06:42:51.800.08-Aug-2020 5176.51 2078.20 80.41 4.00 184.80 3362.10
   06:42:52.000.08-Aug-2020 5176.51 2078.72 80.41 4.00 185.00 3362.10
   06:42:52.200.08-Aug-2020 5176.51 2078.72 80.41 4.00 185.20 3362.10
   06:42:52.400.08-Aug-2020 5176.51 2079.81 80.41 4.00 185.40 3362.10
   06:42:52.600.08-Aug-2020 5176.51 2080.29 80.41 4.00 185.60 3362.10
   06:42:52.800.08-Aug-2020 5176.51 2081.67 80.41 4.00 185.80 3362.10
   06:42:53.000.08-Aug-2020 5176.51 2082.23 80.41 4.00 186.00 3362.10
   06:42:53.200.08-Aug-2020 5176.51 2082.23 80.41 4.00 186.20 3362.10
   06:42:53.400.08-Aug-2020 5176.51 2083.67 80.41 4.00 186.40 3362.10
   06:42:53.600.08-Aug-2020 5176.51 2084.24 80.41 4.00 186.60 3362.10
   06:42:53.800.08-Aug-2020 5176.51 2084.66 80.41 4.00 186.80 3362.10
   06:42:54.000.08-Aug-2020 5176.51 2085.24 80.41 4.00 187.00 3362.10
   06:42:54.200.08-Aug-2020 5176.51 2085.24 80.41 4.00 187.20 3362.10
   06:42:54.400.08-Aug-2020 5176.51 2086.19 80.41 4.00 187.40 3362.10
   06:42:54.600.08-Aug-2020 5176.51 2086.85 80.41 4.00 187.60 3362.10
   06:42:54.800.08-Aug-2020 5176.51 2087.87 80.41 4.00 187.80 3362.10
   06:42:55.000.08-Aug-2020 5176.51 2088.30 80.41 4.00 188.00 3362.10
   06:42:55.200.08-Aug-2020 5176.51 2088.30 80.41 4.00 188.20 3362.10
   06:42:55.400.08-Aug-2020 5176.51 2089.28 80.41 4.00 188.40 3362.10
   06:42:55.600.08-Aug-2020 5176.51 2089.76 80.41 4.00 188.60 3362.10
   06:42:55.800.08-Aug-2020 5176.51 2090.20 80.41 4.00 188.80 3362.10
   06:42:56.000.08-Aug-2020 5176.51 2091.20 80.41 4.00 189.00 3362.10
   06:42:56.200.08-Aug-2020 5176.51 2091.20 80.41 4.00 189.20 3362.10
   06:42:56.400.08-Aug-2020 5176.51 2092.01 80.41 4.00 189.40 3362.10
   06:42:56.600.08-Aug-2020 5176.51 2092.54 80.41 4.00 189.60 3362.10
   06:42:56.800.08-Aug-2020 5176.51 2093.53 80.41 4.00 189.80 3362.10
   06:42:57.000.08-Aug-2020 5176.51 2093.98 80.41 4.00 190.00 3362.10
   06:42:57.200.08-Aug-2020 5176.51 2094.42 80.41 4.00 190.20 3362.10
   06:42:57.400.08-Aug-2020 5176.51 2094.87 80.41 4.00 190.40 3362.10
   06:42:57.600.08-Aug-2020 5176.51 2095.34 80.41 4.00 190.60 3362.10
   06:42:57.800.08-Aug-2020 5176.51 2095.64 80.41 4.00 190.80 3362.10
   06:42:58.000.08-Aug-2020 5176.51 2096.16 80.41 4.00 191.00 3362.10
   06:42:58.200.08-Aug-2020 5176.51 2096.16 80.41 4.00 191.20 3362.10
   06:42:58.400.08-Aug-2020 5176.51 2096.97 80.41 4.00 191.40 3362.10
   06:42:58.600.08-Aug-2020 5176.51 2097.38 80.41 4.00 191.60 3362.10
   06:42:58.800.08-Aug-2020 5176.51 2097.88 80.41 4.00 191.80 3362.10
   06:42:59.000.08-Aug-2020 5176.51 2098.37 80.41 4.00 192.00 3362.10
   06:42:59.200.08-Aug-2020 5176.51 2098.37 80.41 4.00 192.20 3362.10
   06:42:59.400.08-Aug-2020 5176.51 2099.23 80.41 4.00 192.40 3362.10
   06:42:59.600.08-Aug-2020 5176.51 2099.65 80.41 4.00 192.60 3362.10
   06:42:59.800.08-Aug-2020 5176.51 2100.08 80.41 4.00 192.80 3362.10
   06:43:00.000.08-Aug-2020 5176.51 2100.45 80.41 4.00 193.00 3362.10
   06:43:00.200.08-Aug-2020 5176.51 2100.45 80.41 4.00 193.20 3362.10
   06:43:00.400.08-Aug-2020 5176.51 2101.63 80.41 4.00 193.40 3362.10
   06:43:00.600.08-Aug-2020 5176.51 2101.98 80.41 4.00 193.60 3362.10
   06:43:00.800.08-Aug-2020 5176.51 2102.45 80.40 4.00 193.80 3362.10
   06:43:01.000.08-Aug-2020 5176.51 2102.84 80.40 4.00 194.00 3362.10
   06:43:01.200.08-Aug-2020 5176.51 2103.22 80.40 4.00 194.20 3362.10
   06:43:01.400.08-Aug-2020 5176.51 2103.73 80.40 4.00 194.40 3362.10
   06:43:01.600.08-Aug-2020 5176.51 2104.20 80.40 4.00 194.60 3362.10
   06:43:01.800.08-Aug-2020 5176.51 2104.58 80.40 4.00 194.80 3362.10
   06:43:02.000.08-Aug-2020 5176.51 2105.09 80.40 4.00 195.00 3362.10
   06:43:02.200.08-Aug-2020 5176.51 2105.09 80.40 4.00 195.20 3362.10
   06:43:02.400.08-Aug-2020 5176.51 2106.09 80.40 4.00 195.40 3362.10
   06:43:02.600.08-Aug-2020 5176.51 2106.55 80.40 4.00 195.60 3362.10
   06:43:02.800.08-Aug-2020 5176.51 2107.04 80.40 4.00 195.80 3362.10
   06:43:03.000.08-Aug-2020 5176.51 2107.45 80.40 4.00 196.00 3362.10
   06:43:03.200.08-Aug-2020 5176.51 2107.45 80.40 4.00 196.20 3362.10
   06:43:03.400.08-Aug-2020 5176.51 2109.13 80.40 4.00 196.40 3362.10
   06:43:03.600.08-Aug-2020 5176.51 2109.39 80.40 4.00 196.60 3362.10
   06:43:03.800.08-Aug-2020 5176.51 2110.79 80.40 4.00 196.80 3362.10
   06:43:04.000.08-Aug-2020 5176.51 2111.37 80.40 4.00 197.00 3362.10
   06:43:04.200.08-Aug-2020 5176.51 2111.37 80.40 4.00 197.20 3362.10
   06:43:04.400.08-Aug-2020 5176.51 2112.14 80.40 4.00 197.40 3362.10
   06:43:04.600.08-Aug-2020 5176.51 2113.18 80.40 4.00 197.60 3362.10
   06:43:04.800.08-Aug-2020 5176.51 2113.52 80.40 4.00 197.80 3362.10
   06:43:05.000.08-Aug-2020 5176.51 2113.93 80.40 4.00 198.00 3362.10
   06:43:05.200.08-Aug-2020 5176.51 2113.93 80.40 4.00 198.20 3362.10
   06:43:05.400.08-Aug-2020 5176.51 2115.40 80.40 4.00 198.40 3362.10
   06:43:05.600.08-Aug-2020 5176.51 2115.91 80.40 4.00 198.60 3362.10
   06:43:05.800.08-Aug-2020 5176.51 2116.18 80.40 4.00 198.80 3362.10
   06:43:06.000.08-Aug-2020 5176.51 2117.45 80.40 4.00 199.00 3362.10
   06:43:06.200.08-Aug-2020 5176.51 2117.45 80.40 4.00 199.20 3362.10
   06:43:06.400.08-Aug-2020 5176.51 2118.44 80.40 4.00 199.40 3362.10
   06:43:06.600.08-Aug-2020 5176.51 2118.96 80.40 4.00 199.60 3362.10
   06:43:06.800.08-Aug-2020 5176.51 2119.69 80.40 4.00 199.80 3362.10
   06:43:07.000.08-Aug-2020 5176.51 2120.18 80.40 4.00 200.00 3362.10
   06:43:07.200.08-Aug-2020 5176.51 2120.18 80.40 4.00 200.20 3362.10
   06:43:07.400.08-Aug-2020 5176.51 2121.22 80.40 4.00 200.40 3362.10
   06:43:07.600.08-Aug-2020 5176.51 2121.68 80.40 4.00 200.60 3362.10
   06:43:07.800.08-Aug-2020 5176.51 2096.69 80.40 4.00 200.80 3362.10
   06:43:08.000.08-Aug-2020 5176.51 1938.38 80.40 4.00 201.00 3362.10
   06:43:08.200.08-Aug-2020 5176.51 1938.38 80.40 4.00 201.20 3362.10
   06:43:08.400.08-Aug-2020 5176.51 1704.99 80.40 4.00 201.40 3362.10
   06:43:08.600.08-Aug-2020 5176.51 1614.78 80.40 4.00 201.60 3362.10
   06:43:08.800.08-Aug-2020 5176.51 1530.57 80.40 4.00 201.80 3362.10
   06:43:09.000.08-Aug-2020 5176.51 1444.05 80.40 4.00 202.00 3362.10
   06:43:09.200.08-Aug-2020 5176.51 1444.05 80.40 4.00 202.20 3362.10
   06:43:09.400.08-Aug-2020 5176.51 1355.40 80.40 4.00 202.40 3362.10
   06:43:09.600.08-Aug-2020 5176.51 1359.88 80.40 4.00 202.60 3362.10
   06:43:09.800.08-Aug-2020 5176.51 1362.66 80.40 4.00 202.80 3362.10
   06:43:10.000.08-Aug-2020 5176.51 1364.91 80.40 4.00 203.00 3362.10
   06:43:10.200.08-Aug-2020 5176.51 1366.82 80.40 4.00 203.20 3362.10
   06:43:10.400.08-Aug-2020 5176.51 1368.61 80.40 4.00 203.40 3362.10
   06:43:10.600.08-Aug-2020 5176.51 1370.05 80.40 4.00 203.60 3362.10
   06:43:10.800.08-Aug-2020 5176.51 1371.70 80.40 4.00 203.80 3362.10
   06:43:11.000.08-Aug-2020 5176.51 1372.07 80.40 4.00 204.00 3362.10
   06:43:11.200.08-Aug-2020 5176.51 1372.72 80.39 4.00 204.20 3362.10
   06:43:11.400.08-Aug-2020 5176.51 1373.72 80.39 4.00 204.40 3362.10
   06:43:11.600.08-Aug-2020 5176.51 1374.72 80.39 4.00 204.60 3362.10
   06:43:11.800.08-Aug-2020 5176.51 1376.07 80.39 4.00 204.80 3362.10
   06:43:12.000.08-Aug-2020 5176.51 1377.38 80.39 4.00 205.00 3362.10
   06:43:12.200.08-Aug-2020 5176.51 1377.38 80.39 4.00 205.20 3362.10
   06:43:12.400.08-Aug-2020 5176.51 1370.12 80.39 4.00 205.40 3362.10
   06:43:12.600.08-Aug-2020 5176.51 1368.60 80.39 4.00 205.60 3362.10
   06:43:12.800.08-Aug-2020 5176.51 1367.34 80.39 4.00 205.80 3362.10
   06:43:13.000.08-Aug-2020 5176.51 1354.62 80.39 4.00 206.00 3362.10
   06:43:13.200.08-Aug-2020 5176.51 1354.62 80.39 4.00 206.20 3362.10
   06:43:13.400.08-Aug-2020 5176.51 1354.57 80.39 4.00 206.40 3362.10
   06:43:13.600.08-Aug-2020 5176.51 1350.16 80.39 4.00 206.60 3362.10
   06:43:13.800.08-Aug-2020 5176.51 1344.52 80.39 4.00 206.80 3362.10
