~Version Information
 VERS.                  2.0:   CWLS log ASCII Standard -VERSION 2.0
 WRAP.                   NO:   One line per depth step
~Well Information Block
#MNEM.UNIT     VALUE/NAME     DESCRIPTION
#---------     -----------    ---------------------------
 STRT.S             07:09:07 08-Aug-20: START TIME 07:09:07 08-Aug-20
 STOP.S             07:17:38 08-Aug-20: STOP TIME  07:17:38 08-Aug-20
 STEP.S                   0.00: STEP TIME
 NULL.                 -999.25: NULL VALUE
 DFWT.                        :  DIST FWL TEXT
 DFST.                        :  DIST FSL TEXT
 DMF .             Drill Floor:  DRILL MEAS FROM
 STIM.      13.47.44 07-Jun-20:  START TIME
 DATE.      13.47.44 27-Jul-20:  END TIME
 SPUD.               07-Jun-20:  SPUD DATE
 NREF.                    Grid:  NORTH REFERENCE
 HPTY.       Minimum Curvature:  HOLE POS TYPE
 DMOD.             Drill Model:  DRILL MOD DESC
 SVYD.                  Survey:  SURVEY DESC
 ILTD.               Lithology:  INTERP LTH DESC
 FTOP.          Formation Tops:  FORM TOPS DESC
 RIG .             West Chirag:  RIG NAME
 PDAT.          Mean Sea Level:  PERMANENT DATUM
 FLD .                     ACG:  FIELD NAME
 SON .        AZ-XX-0906363612:  JOB NUMBER
 CTRY.              Azerbaijan:  COUNTRY NAME
 WELL.           J25 (Slot 35):  WELL NAME
 SRVC.          Turan Drilling:  CONTRACTOR
 COMP.     BP Exploration (Caspian Sea) Ltd:  COMPANY
 UWI .                     N/A:  UNIQUE WELL IDENTIFIER
 API .                     N/A:  API NUMBER
 BASE.              Azerbaijan:  LOGGING EQUIPMENT BASE LOCATION
 REGN.                   EESSA:  REGION
 PROV.                    Baku:  PROVINCE
 STAT.                    Baku:  STATE NAME
 MWDS.                     N/A:  MWD SHOP
 DOE .                     N/A:  DOE NUMBER
 DCON.         Sperry Drilling:  DIRECTNL CONTR
 UNIT.                     N/A:  LOGGING EQUIPMENT ID
 MDS .        Operator Entered:  MAG DATA SOURCE
 JOBN.        AZ-XX-0906363612:  JOB TICKET NUMB
 WTYP.                Deviated:  WELL TYPE
 CNTY.                        :  COUNTY
 LOC .                        :  LOCATION
 LMF .             Drill Floor:  LOG MEASURED FROM
 TVDS.m                  43.00:  TVDSS CORRECTN
 LATI.deg                40.13:  LATITUDE
 LONG.deg                51.22:  LONGITUDE
 WHNS.m                  -7.90:  WELL HEAD N/S
 WHEW.m                  -3.35:  WELL HEAD E/W
 UTMX.m              519005.06:  UTM X
 UTMY.m             4443793.85:  UTM Y
 DFWL.m                   0.00:  DISTANCE FWL
 DFSL.m                   0.00:  DISTANCE FSL
 SDEP.m                   0.00:  START DEPTH
 TDD .m                   0.00:  TOTAL DEPTH (DRILLER)
 VSDR.deg               308.97:  VERT SEC DIRECT
 GVFD.g                   1.00:  GRAVITY FIELD
 MFLD.nT              50350.00:  MAGNETIC FIELD
 MDIP.deg                59.62:  MAGNETIC DIP
 MDEC.deg                 6.44:  MAGNETIC DECL
 GRDC.deg                 0.13:  GRID CORRECTION
 AZTC.deg                 6.32:  AZM TOTAL CORR
 EPD .m                   0.00:  ELEVATION
 EGL .m                   0.00:  GROUND ELEVATION
 WDMS.m                 169.80:  WD ELEV
 APD .m                  43.00:  DEPTH ABOVE PD
 DEP .m                 356.43:  DEPTH
 AGAP.m                  43.00:  AIR GAP
 VSEW.m                  -3.35:  VERT SEC E/W
 VSNS.m                  -7.90:  VERT SEC N/S
 EKB .m                  43.00:  KB ELEVATION
 EDF .m                  43.00:  DF ELEVATION
 TDL .m                 934.00:  TOTAL DEPTH (LOGGER)
 VSC .                       0:  VS TO CLOSURE
 MAGU.                 1852825:  MAGUTM CHECKSUM
~Parameter Information Block
#MNEM.UNIT       Value        Description
#---------     -----------    ---------------------------
 AV  .mps                 0.80:  Ann Velocity 
 AVMX.mps                 1.70:  Max Ann Veloc 
 AZIF.deg               311.41:  Azm, Final 
 BHAT.        Rotary Steerable:  BHA Type 
 BROT.°/30m               0.09:  Build Rotating 
 BS  .in                 12.25:  Bit Size 
 BSZ .in                 12.25:  Bit Size 
 BTPL.psig              800.00:  Bit Press Loss 
 CABU.                      No:  Customer Abuse 
 COMM.                     „Òs:  Run Comments 1 
 TCS .hr                 96.00:  Time Ciculation Ended 
 CV  .mps                 2.03:  Crit Velocity 
 CVMX.mps                 2.42:  Max Crit Veloc 
 DD1 .          Taghi Taghiyev:  Direct Drillr 1 
 DD2 .      Tariel Pirmammadov:  Direct Drillr 2 
 DD3 .          Teymur Aghayev:  Direct Drillr 3 
 DDSV.                 iCruise:  DD Service 
 DEFF.%                  98.70:  % Det Eff 
 DLRX.°/30m               1.00:  Dogleg Rot Max 
 DLSO.°/30m               1.80:  Dogleg Oriented 
 DLSX.°/30m               3.16:  Dogleg Str Max 
 DRET.      15.00.00 07-Aug-20:  Drill End Time 
 DRST.      17.00.00 02-Aug-20:  Drill Start Tim 
 DTIM.hr                 45.90:  Time Drilling 
 EDEP.m                5298.01:  End Depth 
 ENG1.       Seymur Iskandarov:  Engineer 1 
 ENG2.         Yevgeniy Ulikov:  Engineer 2 
 ENG3.      Artemiy Matviyanov:  Engineer 3 
 ENG4.         Bahruz Mehdiyev:  Engineer 4 
 ETIM.      05.00.00 10-Aug-20:  End Time 
 FLOI.gpm              1150.00:  Flow In 
 FLON.gpm               900.00:  Flow In Min 
 FLOS.cptm                0.00:  Fluid Loss 
 FLOX.gpm              1200.00:  Flow In Max 
 FTRO.     Connectivity, Formation Presure:  FTWD Run Obj 
 HFLO.                      No:  High Flow 
 HPRE.                     Yes:  High Pressure 
 HTEM.                      No:  High Temp 
 HYDO.m                   1.80:  Hydro Offset 
 IFIN.deg                 9.71:  Inc, Final 
 IMAX.deg                63.81:  Inc Max 
 IMIN.deg                 9.53:  Inc Min 
 IMND.m                5075.52:  Inc Min Depth 
 IMXD.m                4367.08:  Inc Max Depth 
 JARR.                      No:  Jarring 
 LETM.      15.00.00 07-Aug-20:  Log End Time 
 LOST.hr                     2:  Lost Rig Time 
 LSTM.      17.00.00 02-Aug-20:  Log Start Time 
 MDCL.ppm             42500.00:  Mud Chlorides 
 MDES.     Inversion Oil/Synthetic:  Mud Desc 
 DFD .sg                  1.46:  Mud Density 
 MDMN.sg                  1.46:  Dens Mud Min 
 MDMX.sg                  1.46:  Dens Mud Max 
 MOIL.                      56:  Run Mud Oil % 
 MOWR.                   70:30:  Run Mud OWR 
 MSND.                     0.1:  Run Mud Sand % 
 MSOL.                      19:  Run Mud Solids% 
 DFV .spqt               83.00:  Mud Viscosity 
 MWOD.in                  8.00:  MWD Tool OD 
 MWSI.                     Yes:  Serv Intrp, MWD 
 OTIM.hr                196.57:  Time Operating 
 PCON.           Look Like New:  Pad Condition 
 PMAX.psia             7400.00:  Press Op, Max 
 PV  .cP                 36.00:  Mud PV 
 RUN .                    1000:  Run Number 
 ROPA.m/hr               25.00:  ROP Avg 
 ROPN.m/hr               10.00:  ROP Min 
 ROPX.m/hr               32.00:  ROP Max 
 RPMA.rpm               120.00:  RPM Surface Avg 
 RPMN.rpm               100.00:  RPM Surface Min 
 RPMX.rpm               140.00:  RPM Surface Max 
 RRUN.                    L504:  Rig Run Number 
 SAZI.deg               308.25:  Azm, Start 
 SDEP.m                4364.01:  Start Depth 
 SIDD.                      No:  Serv Intrp, DD 
 SINC.deg                63.81:  Inc, Start 
 SPPA.psig             5800.00:  SPP Avg 
 SPPN.psig             4200.00:  SPP Min 
 SPPX.psig             5950.00:  SPP Max 
 STIM.      18.00.00 01-Aug-20:  Start Time 
 SVCS.                 DD, MWD:  Services 
 SVER.                    9.20:  Sperry Version 
 TDAT.m                 934.00:  Tot Depth Attmp 
 TDDF.                      No:  Trip for DD 
 TDLG.m                 934.00:  Tot Depth Loggd 
 TFF .                      No:  Trip for Fail 
 TQAA.f-kp               31.00:  Torque Abs Avg 
 TQAN.f-kp               25.00:  Torque Abs Min 
 TQAX.f-kp               35.00:  Torque Abs Max 
 TRRT.°/30m              -0.75:  Turn Rotating 
 MRT .                  EWR-M5:  Maximum Recorded Temperature 
 TTMX.degC               95.00:  Max Tool Temp 
 VS01.                90516060:  Virtual Str1 SN 
 VS02.                90528488:  Virtual Str2 SN 
 VS03.                90577970:  Virtual Str3 SN 
 VS04.                12385033:  Virtual Str4 SN 
 VS05.                90522069:  Virtual Str5 SN 
 VS06.                13124134:  Virtual Str6 SN 
 WBMN.klb                20.00:  WOB Min 
 WITN.         Alistair Sprott:  Customer Rep 
 WITN.     Ronal van der Kraan:  Customer Rep 2 
 WOBA.klb                25.00:  WOB Avg 
 WOBX.klb                31.00:  WOB Max 
 YP  .lhf2               32.00:  Yield Point 
~Curve Information Block
#MNEM.UNIT                 API CODE     Curve Description
#---------               -----------    ---------------------------
 TIME.HHMMSS            00 000 000 000:  GT Time & Date
 GTDEPTH.m              00 000 000 000:  GT Depth
 GTPQH.psia             00 000 000 000:  GT HR Quartz Pressure
 GTTQ.degC              00 000 000 000:  GT Quartz Temperature
 GTTN.NONE              00 000 000 000:  GT Test Number
 GTET.sec               00 000 000 000:  GT Elapsed Test Time
 GTTVD.m                00 000 000 000:  GT True Vertical Depth
#Other Information
#
#WARRANTY: Halliburton will use its best efforts to furnish customers with 
#accurate information and interpretations that are part of, and incident to, the services 
#provided.  However, Halliburton cannot and does not warrant the accuracy 
#or correctness of such information and interpretations.  Under no circumstances should any 
#such information or interpretation be relied upon as the sole basis for any drilling, 
#completion, production, or financial decision or any procedure involving any risk to the 
#safety of any drilling venture, drilling rig or its crew or any other third party.  The 
#Customer has full responsibility for all drilling, completion and production operation.  
#Halliburton makes no representations or warranties, either expressed or 
#implied, including, but not limited to, the implied warranties of merchantability or fitness 
#for a particular purpose, with respect to the services rendered.  In no event will 
#Halliburton be liable for failure to obtain any particular results or for 
#any damages, including, but not limited to, indirect, special or consequential damages, 
#resulting from the use of any information or interpretation provided by Halliburton.
#
~A           TIME           GTDEPTH  GTPQH  GTTQ  GTTN  GTET   GTTVD  
   07:09:07.000.08-Aug-2020 5163.51 7158.98 78.50 5.00   0.00 3349.29
   07:09:07.200.08-Aug-2020 5163.51 7164.31 78.50 5.00   0.20 3349.29
   07:09:07.400.08-Aug-2020 5163.51 7158.84 78.50 5.00   0.40 3349.29
   07:09:07.600.08-Aug-2020 5163.51 7160.60 78.50 5.00   0.60 3349.29
   07:09:07.800.08-Aug-2020 5163.51 7160.50 78.50 5.00   0.80 3349.29
   07:09:08.000.08-Aug-2020 5163.51 7160.76 78.50 5.00   1.00 3349.29
   07:09:08.200.08-Aug-2020 5163.51 7160.76 78.50 5.00   1.20 3349.29
   07:09:08.400.08-Aug-2020 5163.51 7158.54 78.49 5.00   1.40 3349.29
   07:09:08.600.08-Aug-2020 5163.51 7163.92 78.49 5.00   1.60 3349.29
   07:09:08.800.08-Aug-2020 5163.51 7156.11 78.49 5.00   1.80 3349.29
   07:09:09.000.08-Aug-2020 5163.51 7158.12 78.49 5.00   2.00 3349.29
   07:09:09.200.08-Aug-2020 5163.51 7158.12 78.49 5.00   2.20 3349.29
   07:09:09.400.08-Aug-2020 5163.51 7156.03 78.49 5.00   2.40 3349.29
   07:09:09.600.08-Aug-2020 5163.51 7155.33 78.49 5.00   2.60 3349.29
   07:09:09.800.08-Aug-2020 5163.51 7154.15 78.49 5.00   2.80 3349.29
   07:09:10.000.08-Aug-2020 5163.51 7153.66 78.49 5.00   3.00 3349.29
   07:09:10.200.08-Aug-2020 5163.51 7153.66 78.49 5.00   3.20 3349.29
   07:09:10.400.08-Aug-2020 5163.51 7153.84 78.49 5.00   3.40 3349.29
   07:09:10.600.08-Aug-2020 5163.51 7153.96 78.49 5.00   3.60 3349.29
   07:09:10.800.08-Aug-2020 5163.51 7156.15 78.49 5.00   3.80 3349.29
   07:09:11.000.08-Aug-2020 5163.51 7157.56 78.49 5.00   4.00 3349.29
   07:09:11.200.08-Aug-2020 5163.51 7157.56 78.49 5.00   4.20 3349.29
   07:09:11.400.08-Aug-2020 5163.51 7164.82 78.49 5.00   4.40 3349.29
   07:09:11.600.08-Aug-2020 5163.51 7164.12 78.49 5.00   4.60 3349.29
   07:09:11.800.08-Aug-2020 5163.51 7166.64 78.49 5.00   4.80 3349.29
   07:09:12.000.08-Aug-2020 5163.51 7167.49 78.49 5.00   5.00 3349.29
   07:09:12.200.08-Aug-2020 5163.51 7167.49 78.49 5.00   5.20 3349.29
   07:09:12.400.08-Aug-2020 5163.51 7169.39 78.49 5.00   5.40 3349.29
   07:09:12.600.08-Aug-2020 5163.51 7172.90 78.49 5.00   5.60 3349.29
   07:09:12.800.08-Aug-2020 5163.51 7171.67 78.49 5.00   5.80 3349.29
   07:09:13.000.08-Aug-2020 5163.51 7171.13 78.49 5.00   6.00 3349.29
   07:09:13.200.08-Aug-2020 5163.51 7171.67 78.49 5.00   6.20 3349.29
   07:09:13.400.08-Aug-2020 5163.51 7172.81 78.49 5.00   6.40 3349.29
   07:09:13.600.08-Aug-2020 5163.51 7170.76 78.49 5.00   6.60 3349.29
   07:09:13.800.08-Aug-2020 5163.51 7171.62 78.49 5.00   6.80 3349.29
   07:09:14.000.08-Aug-2020 5163.51 7169.88 78.49 5.00   7.00 3349.29
   07:09:14.200.08-Aug-2020 5163.51 7169.88 78.49 5.00   7.20 3349.29
   07:09:14.400.08-Aug-2020 5163.51 7170.31 78.49 5.00   7.40 3349.29
   07:09:14.600.08-Aug-2020 5163.51 7169.56 78.48 5.00   7.60 3349.29
   07:09:14.800.08-Aug-2020 5163.51 7173.67 78.48 5.00   7.80 3349.29
   07:09:15.000.08-Aug-2020 5163.51 7170.35 78.48 5.00   8.00 3349.29
   07:09:15.200.08-Aug-2020 5163.51 7170.35 78.48 5.00   8.20 3349.29
   07:09:15.400.08-Aug-2020 5163.51 7172.45 78.48 5.00   8.40 3349.29
   07:09:15.600.08-Aug-2020 5163.51 7170.10 78.48 5.00   8.60 3349.29
   07:09:15.800.08-Aug-2020 5163.51 7170.15 78.48 5.00   8.80 3349.29
   07:09:16.000.08-Aug-2020 5163.51 7168.16 78.48 5.00   9.00 3349.29
   07:09:16.200.08-Aug-2020 5163.51 7168.16 78.48 5.00   9.20 3349.29
   07:09:16.400.08-Aug-2020 5163.51 7171.91 78.48 5.00   9.40 3349.29
   07:09:16.600.08-Aug-2020 5163.51 7169.03 78.48 5.00   9.60 3349.29
   07:09:16.800.08-Aug-2020 5163.51 7168.31 78.48 5.00   9.80 3349.29
   07:09:17.000.08-Aug-2020 5163.51 7171.93 78.48 5.00  10.00 3349.29
   07:09:17.200.08-Aug-2020 5163.51 7171.93 78.48 5.00  10.20 3349.29
   07:09:17.400.08-Aug-2020 5163.51 7169.69 78.48 5.00  10.40 3349.29
   07:09:17.600.08-Aug-2020 5163.51 7169.04 78.48 5.00  10.60 3349.29
   07:09:17.800.08-Aug-2020 5163.51 7169.38 78.48 5.00  10.80 3349.29
   07:09:18.000.08-Aug-2020 5163.51 7168.88 78.48 5.00  11.00 3349.29
   07:09:18.200.08-Aug-2020 5163.51 7168.88 78.48 5.00  11.20 3349.29
   07:09:18.400.08-Aug-2020 5163.51 7170.92 78.48 5.00  11.40 3349.29
   07:09:18.600.08-Aug-2020 5163.51 7170.74 78.48 5.00  11.60 3349.29
   07:09:18.800.08-Aug-2020 5163.51 7168.56 78.48 5.00  11.80 3349.29
   07:09:19.000.08-Aug-2020 5163.51 7170.51 78.48 5.00  12.00 3349.29
   07:09:19.200.08-Aug-2020 5163.51 7170.51 78.48 5.00  12.20 3349.29
   07:09:19.400.08-Aug-2020 5163.51 7170.51 78.48 5.00  12.40 3349.29
   07:09:19.600.08-Aug-2020 5163.51 7167.81 78.48 5.00  12.60 3349.29
   07:09:19.800.08-Aug-2020 5163.51 7168.39 78.48 5.00  12.80 3349.29
   07:09:20.000.08-Aug-2020 5163.51 7167.51 78.48 5.00  13.00 3349.29
   07:09:20.200.08-Aug-2020 5163.51 7167.51 78.48 5.00  13.20 3349.29
   07:09:20.400.08-Aug-2020 5163.51 7169.06 78.48 5.00  13.40 3349.29
   07:09:20.600.08-Aug-2020 5163.51 7169.10 78.48 5.00  13.60 3349.29
   07:09:20.800.08-Aug-2020 5163.51 7170.58 78.48 5.00  13.80 3349.29
   07:09:21.000.08-Aug-2020 5163.51 7170.87 78.48 5.00  14.00 3349.29
   07:09:21.200.08-Aug-2020 5163.51 7171.84 78.47 5.00  14.20 3349.29
   07:09:21.400.08-Aug-2020 5163.51 7172.43 78.47 5.00  14.40 3349.29
   07:09:21.600.08-Aug-2020 5163.51 7172.70 78.47 5.00  14.60 3349.29
   07:09:21.800.08-Aug-2020 5163.51 7172.76 78.47 5.00  14.80 3349.29
   07:09:22.000.08-Aug-2020 5163.51 7172.95 78.47 5.00  15.00 3349.29
   07:09:22.200.08-Aug-2020 5163.51 7172.95 78.47 5.00  15.20 3349.29
   07:09:22.400.08-Aug-2020 5163.51 7175.13 78.47 5.00  15.40 3349.29
   07:09:22.600.08-Aug-2020 5163.51 7174.09 78.47 5.00  15.60 3349.29
   07:09:22.800.08-Aug-2020 5163.51 7170.86 78.47 5.00  15.80 3349.29
   07:09:23.000.08-Aug-2020 5163.51 7169.85 78.47 5.00  16.00 3349.29
   07:09:23.200.08-Aug-2020 5163.51 7169.85 78.47 5.00  16.20 3349.29
   07:09:23.400.08-Aug-2020 5163.51 7168.81 78.47 5.00  16.40 3349.29
   07:09:23.600.08-Aug-2020 5163.51 7167.77 78.47 5.00  16.60 3349.29
   07:09:23.800.08-Aug-2020 5163.51 7167.54 78.47 5.00  16.80 3349.29
   07:09:24.000.08-Aug-2020 5163.51 7165.97 78.47 5.00  17.00 3349.29
   07:09:24.200.08-Aug-2020 5163.51 7165.97 78.47 5.00  17.20 3349.29
   07:09:24.400.08-Aug-2020 5163.51 7165.77 78.47 5.00  17.40 3349.29
   07:09:24.600.08-Aug-2020 5163.51 7165.92 78.47 5.00  17.60 3349.29
   07:09:24.800.08-Aug-2020 5163.51 7165.38 78.47 5.00  17.80 3349.29
   07:09:25.000.08-Aug-2020 5163.51 7164.87 78.47 5.00  18.00 3349.29
   07:09:25.200.08-Aug-2020 5163.51 7164.87 78.47 5.00  18.20 3349.29
   07:09:25.400.08-Aug-2020 5163.51 7164.70 78.47 5.00  18.40 3349.29
   07:09:25.600.08-Aug-2020 5163.51 7169.20 78.47 5.00  18.60 3349.29
   07:09:25.800.08-Aug-2020 5163.51 7162.36 78.47 5.00  18.80 3349.29
   07:09:26.000.08-Aug-2020 5163.51 7165.28 78.47 5.00  19.00 3349.29
   07:09:26.200.08-Aug-2020 5163.51 7163.62 78.47 5.00  19.20 3349.29
   07:09:26.400.08-Aug-2020 5163.51 7163.33 78.47 5.00  19.40 3349.29
   07:09:26.600.08-Aug-2020 5163.51 7163.26 78.47 5.00  19.60 3349.29
   07:09:26.800.08-Aug-2020 5163.51 7166.08 78.47 5.00  19.80 3349.29
   07:09:27.000.08-Aug-2020 5163.51 7165.79 78.47 5.00  20.00 3349.29
   07:09:27.200.08-Aug-2020 5163.51 7163.39 78.47 5.00  20.20 3349.29
   07:09:27.400.08-Aug-2020 5163.51 7163.14 78.47 5.00  20.40 3349.29
   07:09:27.600.08-Aug-2020 5163.51 7163.04 78.46 5.00  20.60 3349.29
   07:09:27.800.08-Aug-2020 5163.51 7168.08 78.46 5.00  20.80 3349.29
   07:09:28.000.08-Aug-2020 5163.51 7164.50 78.46 5.00  21.00 3349.29
   07:09:28.200.08-Aug-2020 5163.51 7164.70 78.46 5.00  21.20 3349.29
   07:09:28.400.08-Aug-2020 5163.51 7162.21 78.46 5.00  21.40 3349.29
   07:09:28.600.08-Aug-2020 5163.51 7163.50 78.46 5.00  21.60 3349.29
   07:09:28.800.08-Aug-2020 5163.51 7167.87 78.46 5.00  21.80 3349.29
   07:09:29.000.08-Aug-2020 5163.51 7164.55 78.46 5.00  22.00 3349.29
   07:09:29.200.08-Aug-2020 5163.51 7164.47 78.46 5.00  22.20 3349.29
   07:09:29.400.08-Aug-2020 5163.51 7168.21 78.46 5.00  22.40 3349.29
   07:09:29.600.08-Aug-2020 5163.51 7161.97 78.46 5.00  22.60 3349.29
   07:09:29.800.08-Aug-2020 5163.51 7164.83 78.46 5.00  22.80 3349.29
