~Version Information
 VERS.                  2.0:   CWLS log ASCII Standard -VERSION 2.0
 WRAP.                   NO:   One line per depth step
~Well Information Block
#MNEM.UNIT     VALUE/NAME     DESCRIPTION
#---------     -----------    ---------------------------
 STRT.S             06:39:47 08-Aug-20: START TIME 06:39:47 08-Aug-20
 STOP.S             06:48:06 08-Aug-20: STOP TIME  06:48:06 08-Aug-20
 STEP.S                   0.00: STEP TIME
 NULL.                 -999.25: NULL VALUE
 DFWT.                        :  DIST FWL TEXT
 DFST.                        :  DIST FSL TEXT
 DMF .             Drill Floor:  DRILL MEAS FROM
 STIM.      13.47.44 07-Jun-20:  START TIME
 DATE.      13.47.44 27-Jul-20:  END TIME
 SPUD.               07-Jun-20:  SPUD DATE
 NREF.                    Grid:  NORTH REFERENCE
 HPTY.       Minimum Curvature:  HOLE POS TYPE
 DMOD.             Drill Model:  DRILL MOD DESC
 SVYD.                  Survey:  SURVEY DESC
 ILTD.               Lithology:  INTERP LTH DESC
 FTOP.          Formation Tops:  FORM TOPS DESC
 RIG .             West Chirag:  RIG NAME
 PDAT.          Mean Sea Level:  PERMANENT DATUM
 FLD .                     ACG:  FIELD NAME
 SON .        AZ-XX-0906363612:  JOB NUMBER
 CTRY.              Azerbaijan:  COUNTRY NAME
 WELL.           J25 (Slot 35):  WELL NAME
 SRVC.          Turan Drilling:  CONTRACTOR
 COMP.     BP Exploration (Caspian Sea) Ltd:  COMPANY
 UWI .                     N/A:  UNIQUE WELL IDENTIFIER
 API .                     N/A:  API NUMBER
 BASE.              Azerbaijan:  LOGGING EQUIPMENT BASE LOCATION
 REGN.                   EESSA:  REGION
 PROV.                    Baku:  PROVINCE
 STAT.                    Baku:  STATE NAME
 MWDS.                     N/A:  MWD SHOP
 DOE .                     N/A:  DOE NUMBER
 DCON.         Sperry Drilling:  DIRECTNL CONTR
 UNIT.                     N/A:  LOGGING EQUIPMENT ID
 MDS .        Operator Entered:  MAG DATA SOURCE
 JOBN.        AZ-XX-0906363612:  JOB TICKET NUMB
 WTYP.                Deviated:  WELL TYPE
 CNTY.                        :  COUNTY
 LOC .                        :  LOCATION
 LMF .             Drill Floor:  LOG MEASURED FROM
 TVDS.m                  43.00:  TVDSS CORRECTN
 LATI.deg                40.13:  LATITUDE
 LONG.deg                51.22:  LONGITUDE
 WHNS.m                  -7.90:  WELL HEAD N/S
 WHEW.m                  -3.35:  WELL HEAD E/W
 UTMX.m              519005.06:  UTM X
 UTMY.m             4443793.85:  UTM Y
 DFWL.m                   0.00:  DISTANCE FWL
 DFSL.m                   0.00:  DISTANCE FSL
 SDEP.m                   0.00:  START DEPTH
 TDD .m                   0.00:  TOTAL DEPTH (DRILLER)
 VSDR.deg               308.97:  VERT SEC DIRECT
 GVFD.g                   1.00:  GRAVITY FIELD
 MFLD.nT              50350.00:  MAGNETIC FIELD
 MDIP.deg                59.62:  MAGNETIC DIP
 MDEC.deg                 6.44:  MAGNETIC DECL
 GRDC.deg                 0.13:  GRID CORRECTION
 AZTC.deg                 6.32:  AZM TOTAL CORR
 EPD .m                   0.00:  ELEVATION
 EGL .m                   0.00:  GROUND ELEVATION
 WDMS.m                 169.80:  WD ELEV
 APD .m                  43.00:  DEPTH ABOVE PD
 DEP .m                 356.43:  DEPTH
 AGAP.m                  43.00:  AIR GAP
 VSEW.m                  -3.35:  VERT SEC E/W
 VSNS.m                  -7.90:  VERT SEC N/S
 EKB .m                  43.00:  KB ELEVATION
 EDF .m                  43.00:  DF ELEVATION
 TDL .m                 934.00:  TOTAL DEPTH (LOGGER)
 VSC .                       0:  VS TO CLOSURE
 MAGU.                 1852825:  MAGUTM CHECKSUM
~Parameter Information Block
#MNEM.UNIT       Value        Description
#---------     -----------    ---------------------------
 AV  .mps                 0.80:  Ann Velocity 
 AVMX.mps                 1.70:  Max Ann Veloc 
 AZIF.deg               311.41:  Azm, Final 
 BHAT.        Rotary Steerable:  BHA Type 
 BROT.°/30m               0.09:  Build Rotating 
 BS  .in                 12.25:  Bit Size 
 BSZ .in                 12.25:  Bit Size 
 BTPL.psig              800.00:  Bit Press Loss 
 CABU.                      No:  Customer Abuse 
 COMM.                     ´
n:  Run Comments 1 
 TCS .hr                 96.00:  Time Ciculation Ended 
 CV  .mps                 2.03:  Crit Velocity 
 CVMX.mps                 2.42:  Max Crit Veloc 
 DD1 .          Taghi Taghiyev:  Direct Drillr 1 
 DD2 .      Tariel Pirmammadov:  Direct Drillr 2 
 DD3 .          Teymur Aghayev:  Direct Drillr 3 
 DDSV.                 iCruise:  DD Service 
 DEFF.%                  98.70:  % Det Eff 
 DLRX.°/30m               1.00:  Dogleg Rot Max 
 DLSO.°/30m               1.80:  Dogleg Oriented 
 DLSX.°/30m               3.16:  Dogleg Str Max 
 DRET.      15.00.00 07-Aug-20:  Drill End Time 
 DRST.      17.00.00 02-Aug-20:  Drill Start Tim 
 DTIM.hr                 45.90:  Time Drilling 
 EDEP.m                5298.01:  End Depth 
 ENG1.       Seymur Iskandarov:  Engineer 1 
 ENG2.         Yevgeniy Ulikov:  Engineer 2 
 ENG3.      Artemiy Matviyanov:  Engineer 3 
 ENG4.         Bahruz Mehdiyev:  Engineer 4 
 ETIM.      05.00.00 10-Aug-20:  End Time 
 FLOI.gpm              1150.00:  Flow In 
 FLON.gpm               900.00:  Flow In Min 
 FLOS.cptm                0.00:  Fluid Loss 
 FLOX.gpm              1200.00:  Flow In Max 
 FTRO.     Connectivity, Formation Presure:  FTWD Run Obj 
 HFLO.                      No:  High Flow 
 HPRE.                     Yes:  High Pressure 
 HTEM.                      No:  High Temp 
 HYDO.m                   1.80:  Hydro Offset 
 IFIN.deg                 9.71:  Inc, Final 
 IMAX.deg                63.81:  Inc Max 
 IMIN.deg                 9.53:  Inc Min 
 IMND.m                5075.52:  Inc Min Depth 
 IMXD.m                4367.08:  Inc Max Depth 
 JARR.                      No:  Jarring 
 LETM.      15.00.00 07-Aug-20:  Log End Time 
 LOST.hr                     2:  Lost Rig Time 
 LSTM.      17.00.00 02-Aug-20:  Log Start Time 
 MDCL.ppm             42500.00:  Mud Chlorides 
 MDES.     Inversion Oil/Synthetic:  Mud Desc 
 DFD .sg                  1.46:  Mud Density 
 MDMN.sg                  1.46:  Dens Mud Min 
 MDMX.sg                  1.46:  Dens Mud Max 
 MOIL.                      56:  Run Mud Oil % 
 MOWR.                   70:30:  Run Mud OWR 
 MSND.                     0.1:  Run Mud Sand % 
 MSOL.                      19:  Run Mud Solids% 
 DFV .spqt               83.00:  Mud Viscosity 
 MWOD.in                  8.00:  MWD Tool OD 
 MWSI.                     Yes:  Serv Intrp, MWD 
 OTIM.hr                196.57:  Time Operating 
 PCON.           Look Like New:  Pad Condition 
 PMAX.psia             7400.00:  Press Op, Max 
 PV  .cP                 36.00:  Mud PV 
 RUN .                    1000:  Run Number 
 ROPA.m/hr               25.00:  ROP Avg 
 ROPN.m/hr               10.00:  ROP Min 
 ROPX.m/hr               32.00:  ROP Max 
 RPMA.rpm               120.00:  RPM Surface Avg 
 RPMN.rpm               100.00:  RPM Surface Min 
 RPMX.rpm               140.00:  RPM Surface Max 
 RRUN.                    L504:  Rig Run Number 
 SAZI.deg               308.25:  Azm, Start 
 SDEP.m                4364.01:  Start Depth 
 SIDD.                      No:  Serv Intrp, DD 
 SINC.deg                63.81:  Inc, Start 
 SPPA.psig             5800.00:  SPP Avg 
 SPPN.psig             4200.00:  SPP Min 
 SPPX.psig             5950.00:  SPP Max 
 STIM.      18.00.00 01-Aug-20:  Start Time 
 SVCS.                 DD, MWD:  Services 
 SVER.                    9.20:  Sperry Version 
 TDAT.m                 934.00:  Tot Depth Attmp 
 TDDF.                      No:  Trip for DD 
 TDLG.m                 934.00:  Tot Depth Loggd 
 TFF .                      No:  Trip for Fail 
 TQAA.f-kp               31.00:  Torque Abs Avg 
 TQAN.f-kp               25.00:  Torque Abs Min 
 TQAX.f-kp               35.00:  Torque Abs Max 
 TRRT.°/30m              -0.75:  Turn Rotating 
 MRT .                  EWR-M5:  Maximum Recorded Temperature 
 TTMX.degC               95.00:  Max Tool Temp 
 VS01.                90516060:  Virtual Str1 SN 
 VS02.                90528488:  Virtual Str2 SN 
 VS03.                90577970:  Virtual Str3 SN 
 VS04.                12385033:  Virtual Str4 SN 
 VS05.                90522069:  Virtual Str5 SN 
 VS06.                13124134:  Virtual Str6 SN 
 WBMN.klb                20.00:  WOB Min 
 WITN.         Alistair Sprott:  Customer Rep 
 WITN.     Ronal van der Kraan:  Customer Rep 2 
 WOBA.klb                25.00:  WOB Avg 
 WOBX.klb                31.00:  WOB Max 
 YP  .lhf2               32.00:  Yield Point 
~Curve Information Block
#MNEM.UNIT                 API CODE     Curve Description
#---------               -----------    ---------------------------
 TIME.HHMMSS            00 000 000 000:  GT Time & Date
 GTDEPTH.m              00 000 000 000:  GT Depth
 GTPQH.psia             00 000 000 000:  GT HR Quartz Pressure
 GTTQ.degC              00 000 000 000:  GT Quartz Temperature
 GTTN.NONE              00 000 000 000:  GT Test Number
 GTET.sec               00 000 000 000:  GT Elapsed Test Time
 GTTVD.m                00 000 000 000:  GT True Vertical Depth
#Other Information
#
#WARRANTY: Halliburton will use its best efforts to furnish customers with 
#accurate information and interpretations that are part of, and incident to, the services 
#provided.  However, Halliburton cannot and does not warrant the accuracy 
#or correctness of such information and interpretations.  Under no circumstances should any 
#such information or interpretation be relied upon as the sole basis for any drilling, 
#completion, production, or financial decision or any procedure involving any risk to the 
#safety of any drilling venture, drilling rig or its crew or any other third party.  The 
#Customer has full responsibility for all drilling, completion and production operation.  
#Halliburton makes no representations or warranties, either expressed or 
#implied, including, but not limited to, the implied warranties of merchantability or fitness 
#for a particular purpose, with respect to the services rendered.  In no event will 
#Halliburton be liable for failure to obtain any particular results or for 
#any damages, including, but not limited to, indirect, special or consequential damages, 
#resulting from the use of any information or interpretation provided by Halliburton.
#
~A           TIME           GTDEPTH  GTPQH  GTTQ  GTTN  GTET   GTTVD  
# ...
   06:47:50.000.08-Aug-2020 5176.51 7179.81 80.23 4.00 483.00 3362.10
   06:47:50.200.08-Aug-2020 5176.51 7179.81 80.23 4.00 483.20 3362.10
   06:47:50.400.08-Aug-2020 5176.51 7180.79 80.23 4.00 483.40 3362.10
   06:47:50.600.08-Aug-2020 5176.51 7181.81 80.23 4.00 483.60 3362.10
   06:47:50.800.08-Aug-2020 5176.51 7180.51 80.24 4.00 483.80 3362.10
   06:47:51.000.08-Aug-2020 5176.51 7180.65 80.24 4.00 484.00 3362.10
   06:47:51.200.08-Aug-2020 5176.51 7180.65 80.24 4.00 484.20 3362.10
   06:47:51.400.08-Aug-2020 5176.51 7180.21 80.24 4.00 484.40 3362.10
   06:47:51.600.08-Aug-2020 5176.51 7180.07 80.24 4.00 484.60 3362.10
   06:47:51.800.08-Aug-2020 5176.51 7180.21 80.24 4.00 484.80 3362.10
   06:47:52.000.08-Aug-2020 5176.51 7179.50 80.24 4.00 485.00 3362.10
   06:47:52.200.08-Aug-2020 5176.51 7180.15 80.24 4.00 485.20 3362.10
   06:47:52.400.08-Aug-2020 5176.51 7180.84 80.24 4.00 485.40 3362.10
   06:47:52.600.08-Aug-2020 5176.51 7181.34 80.24 4.00 485.60 3362.10
   06:47:52.800.08-Aug-2020 5176.51 7181.38 80.24 4.00 485.80 3362.10
   06:47:53.000.08-Aug-2020 5176.51 7181.12 80.24 4.00 486.00 3362.10
   06:47:53.200.08-Aug-2020 5176.51 7181.12 80.24 4.00 486.20 3362.10
   06:47:53.400.08-Aug-2020 5176.51 7181.23 80.24 4.00 486.40 3362.10
   06:47:53.600.08-Aug-2020 5176.51 7181.50 80.24 4.00 486.60 3362.10
   06:47:53.800.08-Aug-2020 5176.51 7184.85 80.24 4.00 486.80 3362.10
   06:47:54.000.08-Aug-2020 5176.51 7184.23 80.25 4.00 487.00 3362.10
   06:47:54.200.08-Aug-2020 5176.51 7184.23 80.25 4.00 487.20 3362.10
   06:47:54.400.08-Aug-2020 5176.51 7181.47 80.25 4.00 487.40 3362.10
   06:47:54.600.08-Aug-2020 5176.51 7181.79 80.25 4.00 487.60 3362.10
   06:47:54.800.08-Aug-2020 5176.51 7181.63 80.25 4.00 487.80 3362.10
   06:47:55.000.08-Aug-2020 5176.51 7180.97 80.25 4.00 488.00 3362.10
   06:47:55.200.08-Aug-2020 5176.51 7180.97 80.25 4.00 488.20 3362.10
   06:47:55.400.08-Aug-2020 5176.51 7180.72 80.25 4.00 488.40 3362.10
   06:47:55.600.08-Aug-2020 5176.51 7180.87 80.25 4.00 488.60 3362.10
   06:47:55.800.08-Aug-2020 5176.51 7180.77 80.25 4.00 488.80 3362.10
   06:47:56.000.08-Aug-2020 5176.51 7181.89 80.25 4.00 489.00 3362.10
   06:47:56.200.08-Aug-2020 5176.51 7181.89 80.25 4.00 489.20 3362.10
   06:47:56.400.08-Aug-2020 5176.51 7181.81 80.24 4.00 489.40 3362.10
   06:47:56.600.08-Aug-2020 5176.51 7181.62 80.24 4.00 489.60 3362.10
   06:47:56.800.08-Aug-2020 5176.51 7181.41 80.24 4.00 489.80 3362.10
   06:47:57.000.08-Aug-2020 5176.51 7184.94 80.24 4.00 490.00 3362.10
   06:47:57.200.08-Aug-2020 5176.51 7184.94 80.24 4.00 490.20 3362.10
   06:47:57.400.08-Aug-2020 5176.51 7183.71 80.24 4.00 490.40 3362.10
   06:47:57.600.08-Aug-2020 5176.51 7185.40 80.24 4.00 490.60 3362.10
   06:47:57.800.08-Aug-2020 5176.51 7181.19 80.24 4.00 490.80 3362.10
   06:47:58.000.08-Aug-2020 5176.51 7183.22 80.24 4.00 491.00 3362.10
   06:47:58.200.08-Aug-2020 5176.51 7183.22 80.24 4.00 491.20 3362.10
   06:47:58.400.08-Aug-2020 5176.51 7186.54 80.24 4.00 491.40 3362.10
   06:47:58.600.08-Aug-2020 5176.51 7179.67 80.24 4.00 491.60 3362.10
   06:47:58.800.08-Aug-2020 5176.51 7180.43 80.24 4.00 491.80 3362.10
   06:47:59.000.08-Aug-2020 5176.51 7183.54 80.24 4.00 492.00 3362.10
   06:47:59.200.08-Aug-2020 5176.51 7183.54 80.24 4.00 492.20 3362.10
   06:47:59.400.08-Aug-2020 5176.51 7182.23 80.24 4.00 492.40 3362.10
   06:47:59.600.08-Aug-2020 5176.51 7180.27 80.24 4.00 492.60 3362.10
   06:47:59.800.08-Aug-2020 5176.51 7181.10 80.24 4.00 492.80 3362.10
   06:48:00.000.08-Aug-2020 5176.51 7180.90 80.24 4.00 493.00 3362.10
   06:48:00.200.08-Aug-2020 5176.51 7180.90 80.24 4.00 493.20 3362.10
   06:48:00.400.08-Aug-2020 5176.51 7183.06 80.24 4.00 493.40 3362.10
   06:48:00.600.08-Aug-2020 5176.51 7183.35 80.24 4.00 493.60 3362.10
   06:48:00.800.08-Aug-2020 5176.51 7179.83 80.24 4.00 493.80 3362.10
   06:48:01.000.08-Aug-2020 5176.51 7180.19 80.23 4.00 494.00 3362.10
   06:48:01.200.08-Aug-2020 5176.51 7180.19 80.23 4.00 494.20 3362.10
   06:48:01.400.08-Aug-2020 5176.51 7181.42 80.23 4.00 494.40 3362.10
   06:48:01.600.08-Aug-2020 5176.51 7180.86 80.23 4.00 494.60 3362.10
   06:48:01.800.08-Aug-2020 5176.51 7180.62 80.23 4.00 494.80 3362.10
   06:48:02.000.08-Aug-2020 5176.51 7180.44 80.23 4.00 495.00 3362.10
   06:48:02.200.08-Aug-2020 5176.51 7180.44 80.23 4.00 495.20 3362.10
   06:48:02.400.08-Aug-2020 5176.51 7180.84 80.23 4.00 495.40 3362.10
   06:48:02.600.08-Aug-2020 5176.51 7181.88 80.23 4.00 495.60 3362.10
   06:48:02.800.08-Aug-2020 5176.51 7182.00 80.23 4.00 495.80 3362.10
   06:48:03.000.08-Aug-2020 5176.51 7181.83 80.23 4.00 496.00 3362.10
   06:48:03.200.08-Aug-2020 5176.51 7181.83 80.23 4.00 496.20 3362.10
   06:48:03.400.08-Aug-2020 5176.51 7183.22 80.23 4.00 496.40 3362.10
   06:48:03.600.08-Aug-2020 5176.51 7183.36 80.23 4.00 496.60 3362.10
   06:48:03.800.08-Aug-2020 5176.51 7187.10 80.23 4.00 496.80 3362.10
   06:48:04.000.08-Aug-2020 5176.51 7182.89 80.23 4.00 497.00 3362.10
   06:48:04.200.08-Aug-2020 5176.51 7182.89 80.23 4.00 497.20 3362.10
   06:48:04.400.08-Aug-2020 5176.51 7182.25 80.22 4.00 497.40 3362.10
   06:48:04.600.08-Aug-2020 5176.51 7182.11 80.22 4.00 497.60 3362.10
   06:48:04.800.08-Aug-2020 5176.51 7181.56 80.22 4.00 497.80 3362.10
   06:48:05.000.08-Aug-2020 5176.51 7180.96 80.22 4.00 498.00 3362.10
   06:48:05.200.08-Aug-2020 5176.51 7180.96 80.22 4.00 498.20 3362.10
   06:48:05.400.08-Aug-2020 5176.51 7180.89 80.22 4.00 498.40 3362.10
   06:48:05.600.08-Aug-2020 5176.51 7179.81 80.22 4.00 498.60 3362.10
   06:48:05.800.08-Aug-2020 5176.51 7180.67 80.22 4.00 498.80 3362.10
   06:48:06.000.08-Aug-2020 5176.51 7181.29 80.22 4.00 499.00 3362.10
   06:48:06.200.08-Aug-2020 5176.51 7181.29 80.22 4.00 499.20 3362.10
   06:48:06.400.08-Aug-2020 5176.51 7181.50 80.22 4.00 499.40 3362.10
   06:48:06.600.08-Aug-2020 5176.51 7181.39 80.22 4.00 499.60 3362.10
   06:48:06.800.08-Aug-2020 5176.51 7181.38 80.22 4.00 499.80 3362.10
