~Version Information
 VERS.                  2.0:   CWLS log ASCII Standard -VERSION 2.0
 WRAP.                   NO:   One line per depth step
~Well Information Block
#MNEM.UNIT     VALUE/NAME     DESCRIPTION
#---------     -----------    ---------------------------
 STRT.S             06:39:47 08-Aug-20: START TIME 06:39:47 08-Aug-20
 STOP.S             06:48:06 08-Aug-20: STOP TIME  06:48:06 08-Aug-20
 STEP.S                   0.00: STEP TIME
 NULL.                 -999.25: NULL VALUE
 DFWT.                        :  DIST FWL TEXT
 DFST.                        :  DIST FSL TEXT
 DMF .             Drill Floor:  DRILL MEAS FROM
 STIM.      13.47.44 07-Jun-20:  START TIME
 DATE.      13.47.44 27-Jul-20:  END TIME
 SPUD.               07-Jun-20:  SPUD DATE
 NREF.                    Grid:  NORTH REFERENCE
 HPTY.       Minimum Curvature:  HOLE POS TYPE
 DMOD.             Drill Model:  DRILL MOD DESC
 SVYD.                  Survey:  SURVEY DESC
 ILTD.               Lithology:  INTERP LTH DESC
 FTOP.          Formation Tops:  FORM TOPS DESC
 RIG .             West Chirag:  RIG NAME
 PDAT.          Mean Sea Level:  PERMANENT DATUM
 FLD .                     ACG:  FIELD NAME
 SON .        AZ-XX-0906363612:  JOB NUMBER
 CTRY.              Azerbaijan:  COUNTRY NAME
 WELL.           J25 (Slot 35):  WELL NAME
 SRVC.          Turan Drilling:  CONTRACTOR
 COMP.     BP Exploration (Caspian Sea) Ltd:  COMPANY
 UWI .                     N/A:  UNIQUE WELL IDENTIFIER
 API .                     N/A:  API NUMBER
 BASE.              Azerbaijan:  LOGGING EQUIPMENT BASE LOCATION
 REGN.                   EESSA:  REGION
 PROV.                    Baku:  PROVINCE
 STAT.                    Baku:  STATE NAME
 MWDS.                     N/A:  MWD SHOP
 DOE .                     N/A:  DOE NUMBER
 DCON.         Sperry Drilling:  DIRECTNL CONTR
 UNIT.                     N/A:  LOGGING EQUIPMENT ID
 MDS .        Operator Entered:  MAG DATA SOURCE
 JOBN.        AZ-XX-0906363612:  JOB TICKET NUMB
 WTYP.                Deviated:  WELL TYPE
 CNTY.                        :  COUNTY
 LOC .                        :  LOCATION
 LMF .             Drill Floor:  LOG MEASURED FROM
 TVDS.m                  43.00:  TVDSS CORRECTN
 LATI.deg                40.13:  LATITUDE
 LONG.deg                51.22:  LONGITUDE
 WHNS.m                  -7.90:  WELL HEAD N/S
 WHEW.m                  -3.35:  WELL HEAD E/W
 UTMX.m              519005.06:  UTM X
 UTMY.m             4443793.85:  UTM Y
 DFWL.m                   0.00:  DISTANCE FWL
 DFSL.m                   0.00:  DISTANCE FSL
 SDEP.m                   0.00:  START DEPTH
 TDD .m                   0.00:  TOTAL DEPTH (DRILLER)
 VSDR.deg               308.97:  VERT SEC DIRECT
 GVFD.g                   1.00:  GRAVITY FIELD
 MFLD.nT              50350.00:  MAGNETIC FIELD
 MDIP.deg                59.62:  MAGNETIC DIP
 MDEC.deg                 6.44:  MAGNETIC DECL
 GRDC.deg                 0.13:  GRID CORRECTION
 AZTC.deg                 6.32:  AZM TOTAL CORR
 EPD .m                   0.00:  ELEVATION
 EGL .m                   0.00:  GROUND ELEVATION
 WDMS.m                 169.80:  WD ELEV
 APD .m                  43.00:  DEPTH ABOVE PD
 DEP .m                 356.43:  DEPTH
 AGAP.m                  43.00:  AIR GAP
 VSEW.m                  -3.35:  VERT SEC E/W
 VSNS.m                  -7.90:  VERT SEC N/S
 EKB .m                  43.00:  KB ELEVATION
 EDF .m                  43.00:  DF ELEVATION
 TDL .m                 934.00:  TOTAL DEPTH (LOGGER)
 VSC .                       0:  VS TO CLOSURE
 MAGU.                 1852825:  MAGUTM CHECKSUM
~Parameter Information Block
#MNEM.UNIT       Value        Description
#---------     -----------    ---------------------------
 AV  .mps                 0.80:  Ann Velocity 
 AVMX.mps                 1.70:  Max Ann Veloc 
 AZIF.deg               311.41:  Azm, Final 
 BHAT.        Rotary Steerable:  BHA Type 
 BROT.°/30m               0.09:  Build Rotating 
 BS  .in                 12.25:  Bit Size 
 BSZ .in                 12.25:  Bit Size 
 BTPL.psig              800.00:  Bit Press Loss 
 CABU.                      No:  Customer Abuse 
 COMM.                     ´
n:  Run Comments 1 
 TCS .hr                 96.00:  Time Ciculation Ended 
 CV  .mps                 2.03:  Crit Velocity 
 CVMX.mps                 2.42:  Max Crit Veloc 
 DD1 .          Taghi Taghiyev:  Direct Drillr 1 
 DD2 .      Tariel Pirmammadov:  Direct Drillr 2 
 DD3 .          Teymur Aghayev:  Direct Drillr 3 
 DDSV.                 iCruise:  DD Service 
 DEFF.%                  98.70:  % Det Eff 
 DLRX.°/30m               1.00:  Dogleg Rot Max 
 DLSO.°/30m               1.80:  Dogleg Oriented 
 DLSX.°/30m               3.16:  Dogleg Str Max 
 DRET.      15.00.00 07-Aug-20:  Drill End Time 
 DRST.      17.00.00 02-Aug-20:  Drill Start Tim 
 DTIM.hr                 45.90:  Time Drilling 
 EDEP.m                5298.01:  End Depth 
 ENG1.       Seymur Iskandarov:  Engineer 1 
 ENG2.         Yevgeniy Ulikov:  Engineer 2 
 ENG3.      Artemiy Matviyanov:  Engineer 3 
 ENG4.         Bahruz Mehdiyev:  Engineer 4 
 ETIM.      05.00.00 10-Aug-20:  End Time 
 FLOI.gpm              1150.00:  Flow In 
 FLON.gpm               900.00:  Flow In Min 
 FLOS.cptm                0.00:  Fluid Loss 
 FLOX.gpm              1200.00:  Flow In Max 
 FTRO.     Connectivity, Formation Presure:  FTWD Run Obj 
 HFLO.                      No:  High Flow 
 HPRE.                     Yes:  High Pressure 
 HTEM.                      No:  High Temp 
 HYDO.m                   1.80:  Hydro Offset 
 IFIN.deg                 9.71:  Inc, Final 
 IMAX.deg                63.81:  Inc Max 
 IMIN.deg                 9.53:  Inc Min 
 IMND.m                5075.52:  Inc Min Depth 
 IMXD.m                4367.08:  Inc Max Depth 
 JARR.                      No:  Jarring 
 LETM.      15.00.00 07-Aug-20:  Log End Time 
 LOST.hr                     2:  Lost Rig Time 
 LSTM.      17.00.00 02-Aug-20:  Log Start Time 
 MDCL.ppm             42500.00:  Mud Chlorides 
 MDES.     Inversion Oil/Synthetic:  Mud Desc 
 DFD .sg                  1.46:  Mud Density 
 MDMN.sg                  1.46:  Dens Mud Min 
 MDMX.sg                  1.46:  Dens Mud Max 
 MOIL.                      56:  Run Mud Oil % 
 MOWR.                   70:30:  Run Mud OWR 
 MSND.                     0.1:  Run Mud Sand % 
 MSOL.                      19:  Run Mud Solids% 
 DFV .spqt               83.00:  Mud Viscosity 
 MWOD.in                  8.00:  MWD Tool OD 
 MWSI.                     Yes:  Serv Intrp, MWD 
 OTIM.hr                196.57:  Time Operating 
 PCON.           Look Like New:  Pad Condition 
 PMAX.psia             7400.00:  Press Op, Max 
 PV  .cP                 36.00:  Mud PV 
 RUN .                    1000:  Run Number 
 ROPA.m/hr               25.00:  ROP Avg 
 ROPN.m/hr               10.00:  ROP Min 
 ROPX.m/hr               32.00:  ROP Max 
 RPMA.rpm               120.00:  RPM Surface Avg 
 RPMN.rpm               100.00:  RPM Surface Min 
 RPMX.rpm               140.00:  RPM Surface Max 
 RRUN.                    L504:  Rig Run Number 
 SAZI.deg               308.25:  Azm, Start 
 SDEP.m                4364.01:  Start Depth 
 SIDD.                      No:  Serv Intrp, DD 
 SINC.deg                63.81:  Inc, Start 
 SPPA.psig             5800.00:  SPP Avg 
 SPPN.psig             4200.00:  SPP Min 
 SPPX.psig             5950.00:  SPP Max 
 STIM.      18.00.00 01-Aug-20:  Start Time 
 SVCS.                 DD, MWD:  Services 
 SVER.                    9.20:  Sperry Version 
 TDAT.m                 934.00:  Tot Depth Attmp 
 TDDF.                      No:  Trip for DD 
 TDLG.m                 934.00:  Tot Depth Loggd 
 TFF .                      No:  Trip for Fail 
 TQAA.f-kp               31.00:  Torque Abs Avg 
 TQAN.f-kp               25.00:  Torque Abs Min 
 TQAX.f-kp               35.00:  Torque Abs Max 
 TRRT.°/30m              -0.75:  Turn Rotating 
 MRT .                  EWR-M5:  Maximum Recorded Temperature 
 TTMX.degC               95.00:  Max Tool Temp 
 VS01.                90516060:  Virtual Str1 SN 
 VS02.                90528488:  Virtual Str2 SN 
 VS03.                90577970:  Virtual Str3 SN 
 VS04.                12385033:  Virtual Str4 SN 
 VS05.                90522069:  Virtual Str5 SN 
 VS06.                13124134:  Virtual Str6 SN 
 WBMN.klb                20.00:  WOB Min 
 WITN.         Alistair Sprott:  Customer Rep 
 WITN.     Ronal van der Kraan:  Customer Rep 2 
 WOBA.klb                25.00:  WOB Avg 
 WOBX.klb                31.00:  WOB Max 
 YP  .lhf2               32.00:  Yield Point 
~Curve Information Block
#MNEM.UNIT                 API CODE     Curve Description
#---------               -----------    ---------------------------
 TIME.HHMMSS            00 000 000 000:  GT Time & Date
 GTDEPTH.m              00 000 000 000:  GT Depth
 GTPQH.psia             00 000 000 000:  GT HR Quartz Pressure
 GTTQ.degC              00 000 000 000:  GT Quartz Temperature
 GTTN.NONE              00 000 000 000:  GT Test Number
 GTET.sec               00 000 000 000:  GT Elapsed Test Time
 GTTVD.m                00 000 000 000:  GT True Vertical Depth
#Other Information
#
#WARRANTY: Halliburton will use its best efforts to furnish customers with 
#accurate information and interpretations that are part of, and incident to, the services 
#provided.  However, Halliburton cannot and does not warrant the accuracy 
#or correctness of such information and interpretations.  Under no circumstances should any 
#such information or interpretation be relied upon as the sole basis for any drilling, 
#completion, production, or financial decision or any procedure involving any risk to the 
#safety of any drilling venture, drilling rig or its crew or any other third party.  The 
#Customer has full responsibility for all drilling, completion and production operation.  
#Halliburton makes no representations or warranties, either expressed or 
#implied, including, but not limited to, the implied warranties of merchantability or fitness 
#for a particular purpose, with respect to the services rendered.  In no event will 
#Halliburton be liable for failure to obtain any particular results or for 
#any damages, including, but not limited to, indirect, special or consequential damages, 
#resulting from the use of any information or interpretation provided by Halliburton.
#
~A           TIME           GTDEPTH  GTPQH  GTTQ  GTTN  GTET   GTTVD  
# ...
   06:42:28.000.08-Aug-2020 5176.51 1998.38 80.42 4.00 161.00 3362.10
   06:42:28.200.08-Aug-2020 5176.51 1998.38 80.42 4.00 161.20 3362.10
   06:42:28.400.08-Aug-2020 5176.51 2000.67 80.42 4.00 161.40 3362.10
   06:42:28.600.08-Aug-2020 5176.51 2001.39 80.42 4.00 161.60 3362.10
   06:42:28.800.08-Aug-2020 5176.51 2001.97 80.42 4.00 161.80 3362.10
   06:42:29.000.08-Aug-2020 5176.51 2002.68 80.42 4.00 162.00 3362.10
   06:42:29.200.08-Aug-2020 5176.51 2002.68 80.42 4.00 162.20 3362.10
   06:42:29.400.08-Aug-2020 5176.51 2003.98 80.42 4.00 162.40 3362.10
   06:42:29.600.08-Aug-2020 5176.51 2004.63 80.42 4.00 162.60 3362.10
   06:42:29.800.08-Aug-2020 5176.51 2005.30 80.42 4.00 162.80 3362.10
   06:42:30.000.08-Aug-2020 5176.51 2005.93 80.42 4.00 163.00 3362.10
   06:42:30.200.08-Aug-2020 5176.51 2006.57 80.42 4.00 163.20 3362.10
   06:42:30.400.08-Aug-2020 5176.51 2007.24 80.42 4.00 163.40 3362.10
   06:42:30.600.08-Aug-2020 5176.51 2007.87 80.42 4.00 163.60 3362.10
   06:42:30.800.08-Aug-2020 5176.51 2008.55 80.42 4.00 163.80 3362.10
   06:42:31.000.08-Aug-2020 5176.51 2009.21 80.42 4.00 164.00 3362.10
   06:42:31.200.08-Aug-2020 5176.51 2009.21 80.42 4.00 164.20 3362.10
   06:42:31.400.08-Aug-2020 5176.51 2010.62 80.42 4.00 164.40 3362.10
   06:42:31.600.08-Aug-2020 5176.51 2011.97 80.42 4.00 164.60 3362.10
   06:42:31.800.08-Aug-2020 5176.51 2012.52 80.42 4.00 164.80 3362.10
   06:42:32.000.08-Aug-2020 5176.51 2013.27 80.42 4.00 165.00 3362.10
   06:42:32.200.08-Aug-2020 5176.51 2013.27 80.42 4.00 165.20 3362.10
   06:42:32.400.08-Aug-2020 5176.51 2015.36 80.42 4.00 165.40 3362.10
   06:42:32.600.08-Aug-2020 5176.51 2016.05 80.42 4.00 165.60 3362.10
   06:42:32.800.08-Aug-2020 5176.51 2016.73 80.42 4.00 165.80 3362.10
   06:42:33.000.08-Aug-2020 5176.51 2017.36 80.42 4.00 166.00 3362.10
   06:42:33.200.08-Aug-2020 5176.51 2017.36 80.42 4.00 166.20 3362.10
   06:42:33.400.08-Aug-2020 5176.51 2018.91 80.42 4.00 166.40 3362.10
   06:42:33.600.08-Aug-2020 5176.51 2019.79 80.42 4.00 166.60 3362.10
   06:42:33.800.08-Aug-2020 5176.51 2020.32 80.42 4.00 166.80 3362.10
   06:42:34.000.08-Aug-2020 5176.51 2020.95 80.42 4.00 167.00 3362.10
   06:42:34.200.08-Aug-2020 5176.51 2020.95 80.42 4.00 167.20 3362.10
   06:42:34.400.08-Aug-2020 5176.51 2022.61 80.42 4.00 167.40 3362.10
   06:42:34.600.08-Aug-2020 5176.51 2023.18 80.42 4.00 167.60 3362.10
   06:42:34.800.08-Aug-2020 5176.51 2023.81 80.42 4.00 167.80 3362.10
   06:42:35.000.08-Aug-2020 5176.51 2024.42 80.42 4.00 168.00 3362.10
   06:42:35.200.08-Aug-2020 5176.51 2024.42 80.42 4.00 168.20 3362.10
   06:42:35.400.08-Aug-2020 5176.51 2026.24 80.42 4.00 168.40 3362.10
   06:42:35.600.08-Aug-2020 5176.51 2026.74 80.42 4.00 168.60 3362.10
   06:42:35.800.08-Aug-2020 5176.51 2027.28 80.42 4.00 168.80 3362.10
   06:42:36.000.08-Aug-2020 5176.51 2027.81 80.42 4.00 169.00 3362.10
   06:42:36.200.08-Aug-2020 5176.51 2027.81 80.42 4.00 169.20 3362.10
   06:42:36.400.08-Aug-2020 5176.51 2029.01 80.42 4.00 169.40 3362.10
   06:42:36.600.08-Aug-2020 5176.51 2029.61 80.42 4.00 169.60 3362.10
   06:42:36.800.08-Aug-2020 5176.51 2030.21 80.42 4.00 169.80 3362.10
   06:42:37.000.08-Aug-2020 5176.51 2030.73 80.42 4.00 170.00 3362.10
   06:42:37.200.08-Aug-2020 5176.51 2031.34 80.42 4.00 170.20 3362.10
   06:42:37.400.08-Aug-2020 5176.51 2031.96 80.42 4.00 170.40 3362.10
   06:42:37.600.08-Aug-2020 5176.51 2032.52 80.42 4.00 170.60 3362.10
   06:42:37.800.08-Aug-2020 5176.51 2033.12 80.42 4.00 170.80 3362.10
   06:42:38.000.08-Aug-2020 5176.51 2033.70 80.42 4.00 171.00 3362.10
   06:42:38.200.08-Aug-2020 5176.51 2033.70 80.42 4.00 171.20 3362.10
   06:42:38.400.08-Aug-2020 5176.51 2034.85 80.42 4.00 171.40 3362.10
   06:42:38.600.08-Aug-2020 5176.51 2035.29 80.42 4.00 171.60 3362.10
   06:42:38.800.08-Aug-2020 5176.51 2036.18 80.42 4.00 171.80 3362.10
   06:42:39.000.08-Aug-2020 5176.51 2036.63 80.42 4.00 172.00 3362.10
   06:42:39.200.08-Aug-2020 5176.51 2036.63 80.42 4.00 172.20 3362.10
   06:42:39.400.08-Aug-2020 5176.51 2037.62 80.42 4.00 172.40 3362.10
   06:42:39.600.08-Aug-2020 5176.51 2038.15 80.42 4.00 172.60 3362.10
   06:42:39.800.08-Aug-2020 5176.51 2038.73 80.42 4.00 172.80 3362.10
   06:42:40.000.08-Aug-2020 5176.51 2039.30 80.42 4.00 173.00 3362.10
   06:42:40.200.08-Aug-2020 5176.51 2039.30 80.42 4.00 173.20 3362.10
   06:42:40.400.08-Aug-2020 5176.51 2040.55 80.42 4.00 173.40 3362.10
   06:42:40.600.08-Aug-2020 5176.51 2041.22 80.42 4.00 173.60 3362.10
   06:42:40.800.08-Aug-2020 5176.51 2041.87 80.42 4.00 173.80 3362.10
   06:42:41.000.08-Aug-2020 5176.51 2042.50 80.42 4.00 174.00 3362.10
   06:42:41.200.08-Aug-2020 5176.51 2042.50 80.42 4.00 174.20 3362.10
   06:42:41.400.08-Aug-2020 5176.51 2043.81 80.42 4.00 174.40 3362.10
   06:42:41.600.08-Aug-2020 5176.51 2044.43 80.42 4.00 174.60 3362.10
   06:42:41.800.08-Aug-2020 5176.51 2045.02 80.42 4.00 174.80 3362.10
   06:42:42.000.08-Aug-2020 5176.51 2046.17 80.42 4.00 175.00 3362.10
   06:42:42.200.08-Aug-2020 5176.51 2046.68 80.42 4.00 175.20 3362.10
   06:42:42.400.08-Aug-2020 5176.51 2047.12 80.42 4.00 175.40 3362.10
   06:42:42.600.08-Aug-2020 5176.51 2048.37 80.42 4.00 175.60 3362.10
   06:42:42.800.08-Aug-2020 5176.51 2049.08 80.42 4.00 175.80 3362.10
   06:42:43.000.08-Aug-2020 5176.51 2049.83 80.42 4.00 176.00 3362.10
   06:42:43.200.08-Aug-2020 5176.51 2049.83 80.42 4.00 176.20 3362.10
   06:42:43.400.08-Aug-2020 5176.51 2051.11 80.42 4.00 176.40 3362.10
   06:42:43.600.08-Aug-2020 5176.51 2052.30 80.42 4.00 176.60 3362.10
   06:42:43.800.08-Aug-2020 5176.51 2052.85 80.42 4.00 176.80 3362.10
   06:42:44.000.08-Aug-2020 5176.51 2053.47 80.42 4.00 177.00 3362.10
   06:42:44.200.08-Aug-2020 5176.51 2053.47 80.42 4.00 177.20 3362.10
   06:42:44.400.08-Aug-2020 5176.51 2054.72 80.42 4.00 177.40 3362.10
   06:42:44.600.08-Aug-2020 5176.51 2055.29 80.42 4.00 177.60 3362.10
   06:42:44.800.08-Aug-2020 5176.51 2056.14 80.42 4.00 177.80 3362.10
   06:42:45.000.08-Aug-2020 5176.51 2057.18 80.42 4.00 178.00 3362.10
   06:42:45.200.08-Aug-2020 5176.51 2057.18 80.42 4.00 178.20 3362.10
   06:42:45.400.08-Aug-2020 5176.51 2058.22 80.41 4.00 178.40 3362.10
   06:42:45.600.08-Aug-2020 5176.51 2058.80 80.41 4.00 178.60 3362.10
   06:42:45.800.08-Aug-2020 5176.51 2059.35 80.41 4.00 178.80 3362.10
   06:42:46.000.08-Aug-2020 5176.51 2060.09 80.41 4.00 179.00 3362.10
   06:42:46.200.08-Aug-2020 5176.51 2061.49 80.41 4.00 179.20 3362.10
   06:42:46.400.08-Aug-2020 5176.51 2062.27 80.41 4.00 179.40 3362.10
   06:42:46.600.08-Aug-2020 5176.51 2062.88 80.41 4.00 179.60 3362.10
   06:42:46.800.08-Aug-2020 5176.51 2063.50 80.41 4.00 179.80 3362.10
   06:42:47.000.08-Aug-2020 5176.51 2064.09 80.41 4.00 180.00 3362.10
   06:42:47.200.08-Aug-2020 5176.51 2064.67 80.41 4.00 180.20 3362.10
   06:42:47.400.08-Aug-2020 5176.51 2065.19 80.41 4.00 180.40 3362.10
   06:42:47.600.08-Aug-2020 5176.51 2065.79 80.41 4.00 180.60 3362.10
   06:42:47.800.08-Aug-2020 5176.51 2066.37 80.41 4.00 180.80 3362.10
   06:42:48.000.08-Aug-2020 5176.51 2066.96 80.41 4.00 181.00 3362.10
   06:42:48.200.08-Aug-2020 5176.51 2066.96 80.41 4.00 181.20 3362.10
   06:42:48.400.08-Aug-2020 5176.51 2068.16 80.41 4.00 181.40 3362.10
   06:42:48.600.08-Aug-2020 5176.51 2068.73 80.41 4.00 181.60 3362.10
   06:42:48.800.08-Aug-2020 5176.51 2069.29 80.41 4.00 181.80 3362.10
   06:42:49.000.08-Aug-2020 5176.51 2069.84 80.41 4.00 182.00 3362.10
   06:42:49.200.08-Aug-2020 5176.51 2069.84 80.41 4.00 182.20 3362.10
   06:42:49.400.08-Aug-2020 5176.51 2070.89 80.41 4.00 182.40 3362.10
   06:42:49.600.08-Aug-2020 5176.51 2072.02 80.41 4.00 182.60 3362.10
   06:42:49.800.08-Aug-2020 5176.51 2072.79 80.41 4.00 182.80 3362.10
   06:42:50.000.08-Aug-2020 5176.51 2073.23 80.41 4.00 183.00 3362.10
   06:42:50.200.08-Aug-2020 5176.51 2073.81 80.41 4.00 183.20 3362.10
   06:42:50.400.08-Aug-2020 5176.51 2074.33 80.41 4.00 183.40 3362.10
   06:42:50.600.08-Aug-2020 5176.51 2074.84 80.41 4.00 183.60 3362.10
   06:42:50.800.08-Aug-2020 5176.51 2075.40 80.41 4.00 183.80 3362.10
