~Version Information
 VERS.                  2.0:   CWLS log ASCII Standard -VERSION 2.0
 WRAP.                   NO:   One line per depth step
~Well Information Block
#MNEM.UNIT     VALUE/NAME     DESCRIPTION
#---------     -----------    ---------------------------
 STRT.S             05:51:10 08-Aug-20: START TIME 05:51:10 08-Aug-20
 STOP.S             05:59:38 08-Aug-20: STOP TIME  05:59:38 08-Aug-20
 STEP.S                   0.00: STEP TIME
 NULL.                 -999.25: NULL VALUE
 DFWT.                        :  DIST FWL TEXT
 DFST.                        :  DIST FSL TEXT
 DMF .             Drill Floor:  DRILL MEAS FROM
 STIM.      13.47.44 07-Jun-20:  START TIME
 DATE.      13.47.44 27-Jul-20:  END TIME
 SPUD.               07-Jun-20:  SPUD DATE
 NREF.                    Grid:  NORTH REFERENCE
 HPTY.       Minimum Curvature:  HOLE POS TYPE
 DMOD.             Drill Model:  DRILL MOD DESC
 SVYD.                  Survey:  SURVEY DESC
 ILTD.               Lithology:  INTERP LTH DESC
 FTOP.          Formation Tops:  FORM TOPS DESC
 RIG .             West Chirag:  RIG NAME
 PDAT.          Mean Sea Level:  PERMANENT DATUM
 FLD .                     ACG:  FIELD NAME
 SON .        AZ-XX-0906363612:  JOB NUMBER
 CTRY.              Azerbaijan:  COUNTRY NAME
 WELL.           J25 (Slot 35):  WELL NAME
 SRVC.          Turan Drilling:  CONTRACTOR
 COMP.     BP Exploration (Caspian Sea) Ltd:  COMPANY
 UWI .                     N/A:  UNIQUE WELL IDENTIFIER
 API .                     N/A:  API NUMBER
 BASE.              Azerbaijan:  LOGGING EQUIPMENT BASE LOCATION
 REGN.                   EESSA:  REGION
 PROV.                    Baku:  PROVINCE
 STAT.                    Baku:  STATE NAME
 MWDS.                     N/A:  MWD SHOP
 DOE .                     N/A:  DOE NUMBER
 DCON.         Sperry Drilling:  DIRECTNL CONTR
 UNIT.                     N/A:  LOGGING EQUIPMENT ID
 MDS .        Operator Entered:  MAG DATA SOURCE
 JOBN.        AZ-XX-0906363612:  JOB TICKET NUMB
 WTYP.                Deviated:  WELL TYPE
 CNTY.                        :  COUNTY
 LOC .                        :  LOCATION
 LMF .             Drill Floor:  LOG MEASURED FROM
 TVDS.m                  43.00:  TVDSS CORRECTN
 LATI.deg                40.13:  LATITUDE
 LONG.deg                51.22:  LONGITUDE
 WHNS.m                  -7.90:  WELL HEAD N/S
 WHEW.m                  -3.35:  WELL HEAD E/W
 UTMX.m              519005.06:  UTM X
 UTMY.m             4443793.85:  UTM Y
 DFWL.m                   0.00:  DISTANCE FWL
 DFSL.m                   0.00:  DISTANCE FSL
 SDEP.m                   0.00:  START DEPTH
 TDD .m                   0.00:  TOTAL DEPTH (DRILLER)
 VSDR.deg               308.97:  VERT SEC DIRECT
 GVFD.g                   1.00:  GRAVITY FIELD
 MFLD.nT              50350.00:  MAGNETIC FIELD
 MDIP.deg                59.62:  MAGNETIC DIP
 MDEC.deg                 6.44:  MAGNETIC DECL
 GRDC.deg                 0.13:  GRID CORRECTION
 AZTC.deg                 6.32:  AZM TOTAL CORR
 EPD .m                   0.00:  ELEVATION
 EGL .m                   0.00:  GROUND ELEVATION
 WDMS.m                 169.80:  WD ELEV
 APD .m                  43.00:  DEPTH ABOVE PD
 DEP .m                 356.43:  DEPTH
 AGAP.m                  43.00:  AIR GAP
 VSEW.m                  -3.35:  VERT SEC E/W
 VSNS.m                  -7.90:  VERT SEC N/S
 EKB .m                  43.00:  KB ELEVATION
 EDF .m                  43.00:  DF ELEVATION
 TDL .m                 934.00:  TOTAL DEPTH (LOGGER)
 VSC .                       0:  VS TO CLOSURE
 MAGU.                 1852825:  MAGUTM CHECKSUM
~Parameter Information Block
#MNEM.UNIT       Value        Description
#---------     -----------    ---------------------------
 AV  .mps                 0.80:  Ann Velocity 
 AVMX.mps                 1.70:  Max Ann Veloc 
 AZIF.deg               311.41:  Azm, Final 
 BHAT.        Rotary Steerable:  BHA Type 
 BROT.°/30m               0.09:  Build Rotating 
 BS  .in                 12.25:  Bit Size 
 BSZ .in                 12.25:  Bit Size 
 BTPL.psig              800.00:  Bit Press Loss 
 CABU.                      No:  Customer Abuse 
 COMM.                     ¤'V:  Run Comments 1 
 TCS .hr                 96.00:  Time Ciculation Ended 
 CV  .mps                 2.03:  Crit Velocity 
 CVMX.mps                 2.42:  Max Crit Veloc 
 DD1 .          Taghi Taghiyev:  Direct Drillr 1 
 DD2 .      Tariel Pirmammadov:  Direct Drillr 2 
 DD3 .          Teymur Aghayev:  Direct Drillr 3 
 DDSV.                 iCruise:  DD Service 
 DEFF.%                  98.70:  % Det Eff 
 DLRX.°/30m               1.00:  Dogleg Rot Max 
 DLSO.°/30m               1.80:  Dogleg Oriented 
 DLSX.°/30m               3.16:  Dogleg Str Max 
 DRET.      15.00.00 07-Aug-20:  Drill End Time 
 DRST.      17.00.00 02-Aug-20:  Drill Start Tim 
 DTIM.hr                 45.90:  Time Drilling 
 EDEP.m                5298.01:  End Depth 
 ENG1.       Seymur Iskandarov:  Engineer 1 
 ENG2.         Yevgeniy Ulikov:  Engineer 2 
 ENG3.      Artemiy Matviyanov:  Engineer 3 
 ENG4.         Bahruz Mehdiyev:  Engineer 4 
 ETIM.      05.00.00 10-Aug-20:  End Time 
 FLOI.gpm              1150.00:  Flow In 
 FLON.gpm               900.00:  Flow In Min 
 FLOS.cptm                0.00:  Fluid Loss 
 FLOX.gpm              1200.00:  Flow In Max 
 FTRO.     Connectivity, Formation Presure:  FTWD Run Obj 
 HFLO.                      No:  High Flow 
 HPRE.                     Yes:  High Pressure 
 HTEM.                      No:  High Temp 
 HYDO.m                   1.80:  Hydro Offset 
 IFIN.deg                 9.71:  Inc, Final 
 IMAX.deg                63.81:  Inc Max 
 IMIN.deg                 9.53:  Inc Min 
 IMND.m                5075.52:  Inc Min Depth 
 IMXD.m                4367.08:  Inc Max Depth 
 JARR.                      No:  Jarring 
 LETM.      15.00.00 07-Aug-20:  Log End Time 
 LOST.hr                     2:  Lost Rig Time 
 LSTM.      17.00.00 02-Aug-20:  Log Start Time 
 MDCL.ppm             42500.00:  Mud Chlorides 
 MDES.     Inversion Oil/Synthetic:  Mud Desc 
 DFD .sg                  1.46:  Mud Density 
 MDMN.sg                  1.46:  Dens Mud Min 
 MDMX.sg                  1.46:  Dens Mud Max 
 MOIL.                      56:  Run Mud Oil % 
 MOWR.                   70:30:  Run Mud OWR 
 MSND.                     0.1:  Run Mud Sand % 
 MSOL.                      19:  Run Mud Solids% 
 DFV .spqt               83.00:  Mud Viscosity 
 MWOD.in                  8.00:  MWD Tool OD 
 MWSI.                     Yes:  Serv Intrp, MWD 
 OTIM.hr                196.57:  Time Operating 
 PCON.           Look Like New:  Pad Condition 
 PMAX.psia             7400.00:  Press Op, Max 
 PV  .cP                 36.00:  Mud PV 
 RUN .                    1000:  Run Number 
 ROPA.m/hr               25.00:  ROP Avg 
 ROPN.m/hr               10.00:  ROP Min 
 ROPX.m/hr               32.00:  ROP Max 
 RPMA.rpm               120.00:  RPM Surface Avg 
 RPMN.rpm               100.00:  RPM Surface Min 
 RPMX.rpm               140.00:  RPM Surface Max 
 RRUN.                    L504:  Rig Run Number 
 SAZI.deg               308.25:  Azm, Start 
 SDEP.m                4364.01:  Start Depth 
 SIDD.                      No:  Serv Intrp, DD 
 SINC.deg                63.81:  Inc, Start 
 SPPA.psig             5800.00:  SPP Avg 
 SPPN.psig             4200.00:  SPP Min 
 SPPX.psig             5950.00:  SPP Max 
 STIM.      18.00.00 01-Aug-20:  Start Time 
 SVCS.                 DD, MWD:  Services 
 SVER.                    9.20:  Sperry Version 
 TDAT.m                 934.00:  Tot Depth Attmp 
 TDDF.                      No:  Trip for DD 
 TDLG.m                 934.00:  Tot Depth Loggd 
 TFF .                      No:  Trip for Fail 
 TQAA.f-kp               31.00:  Torque Abs Avg 
 TQAN.f-kp               25.00:  Torque Abs Min 
 TQAX.f-kp               35.00:  Torque Abs Max 
 TRRT.°/30m              -0.75:  Turn Rotating 
 MRT .                  EWR-M5:  Maximum Recorded Temperature 
 TTMX.degC               95.00:  Max Tool Temp 
 VS01.                90516060:  Virtual Str1 SN 
 VS02.                90528488:  Virtual Str2 SN 
 VS03.                90577970:  Virtual Str3 SN 
 VS04.                12385033:  Virtual Str4 SN 
 VS05.                90522069:  Virtual Str5 SN 
 VS06.                13124134:  Virtual Str6 SN 
 WBMN.klb                20.00:  WOB Min 
 WITN.         Alistair Sprott:  Customer Rep 
 WITN.     Ronal van der Kraan:  Customer Rep 2 
 WOBA.klb                25.00:  WOB Avg 
 WOBX.klb                31.00:  WOB Max 
 YP  .lhf2               32.00:  Yield Point 
~Curve Information Block
#MNEM.UNIT                 API CODE     Curve Description
#---------               -----------    ---------------------------
 TIME.HHMMSS            00 000 000 000:  GT Time & Date
 GTDEPTH.m              00 000 000 000:  GT Depth
 GTPQH.psia             00 000 000 000:  GT HR Quartz Pressure
 GTTQ.degC              00 000 000 000:  GT Quartz Temperature
 GTTN.NONE              00 000 000 000:  GT Test Number
 GTET.sec               00 000 000 000:  GT Elapsed Test Time
 GTTVD.m                00 000 000 000:  GT True Vertical Depth
#Other Information
#
#WARRANTY: Halliburton will use its best efforts to furnish customers with 
#accurate information and interpretations that are part of, and incident to, the services 
#provided.  However, Halliburton cannot and does not warrant the accuracy 
#or correctness of such information and interpretations.  Under no circumstances should any 
#such information or interpretation be relied upon as the sole basis for any drilling, 
#completion, production, or financial decision or any procedure involving any risk to the 
#safety of any drilling venture, drilling rig or its crew or any other third party.  The 
#Customer has full responsibility for all drilling, completion and production operation.  
#Halliburton makes no representations or warranties, either expressed or 
#implied, including, but not limited to, the implied warranties of merchantability or fitness 
#for a particular purpose, with respect to the services rendered.  In no event will 
#Halliburton be liable for failure to obtain any particular results or for 
#any damages, including, but not limited to, indirect, special or consequential damages, 
#resulting from the use of any information or interpretation provided by Halliburton.
#
~A           TIME           GTDEPTH  GTPQH  GTTQ  GTTN  GTET   GTTVD  
# ...
   05:53:51.812.08-Aug-2020 5190.42 6428.23 82.91 3.00 160.92 3375.81
   05:53:52.012.08-Aug-2020 5190.42 6428.23 82.91 3.00 161.12 3375.81
   05:53:52.212.08-Aug-2020 5190.42 6429.81 82.91 3.00 161.32 3375.81
   05:53:52.412.08-Aug-2020 5190.42 6430.95 82.91 3.00 161.52 3375.81
   05:53:52.612.08-Aug-2020 5190.42 6431.91 82.91 3.00 161.72 3375.81
   05:53:52.812.08-Aug-2020 5190.42 6432.56 82.90 3.00 161.92 3375.81
   05:53:53.012.08-Aug-2020 5190.42 6432.56 82.90 3.00 162.12 3375.81
   05:53:53.211.08-Aug-2020 5190.42 6434.27 82.90 3.00 162.32 3375.81
   05:53:53.411.08-Aug-2020 5190.42 6435.02 82.90 3.00 162.52 3375.81
   05:53:53.611.08-Aug-2020 5190.42 6435.61 82.90 3.00 162.72 3375.81
   05:53:53.811.08-Aug-2020 5190.42 6436.36 82.90 3.00 162.92 3375.81
   05:53:54.011.08-Aug-2020 5190.42 6436.36 82.90 3.00 163.12 3375.81
   05:53:54.211.08-Aug-2020 5190.42 6438.05 82.90 3.00 163.32 3375.81
   05:53:54.411.08-Aug-2020 5190.42 6439.07 82.90 3.00 163.52 3375.81
   05:53:54.611.08-Aug-2020 5190.42 6439.92 82.90 3.00 163.72 3375.81
   05:53:54.811.08-Aug-2020 5190.42 6440.65 82.90 3.00 163.92 3375.81
   05:53:55.011.08-Aug-2020 5190.42 6440.65 82.90 3.00 164.12 3375.81
   05:53:55.210.08-Aug-2020 5190.42 6441.84 82.90 3.00 164.32 3375.81
   05:53:55.410.08-Aug-2020 5190.42 6442.68 82.90 3.00 164.52 3375.81
   05:53:55.610.08-Aug-2020 5190.42 6443.14 82.90 3.00 164.72 3375.81
   05:53:55.810.08-Aug-2020 5190.42 6443.95 82.90 3.00 164.92 3375.81
   05:53:56.010.08-Aug-2020 5190.42 6443.95 82.90 3.00 165.12 3375.81
   05:53:56.210.08-Aug-2020 5190.42 6445.25 82.90 3.00 165.32 3375.81
   05:53:56.410.08-Aug-2020 5190.42 6445.71 82.90 3.00 165.52 3375.81
   05:53:56.610.08-Aug-2020 5190.42 6446.22 82.90 3.00 165.72 3375.81
   05:53:56.810.08-Aug-2020 5190.42 6447.00 82.90 3.00 165.92 3375.81
   05:53:57.010.08-Aug-2020 5190.42 6447.00 82.90 3.00 166.12 3375.81
   05:53:57.209.08-Aug-2020 5190.42 6448.56 82.90 3.00 166.32 3375.81
   05:53:57.409.08-Aug-2020 5190.42 6449.23 82.90 3.00 166.52 3375.81
   05:53:57.609.08-Aug-2020 5190.42 6450.15 82.90 3.00 166.72 3375.81
   05:53:57.809.08-Aug-2020 5190.42 6451.22 82.89 3.00 166.92 3375.81
   05:53:58.009.08-Aug-2020 5190.42 6451.22 82.89 3.00 167.11 3375.81
   05:53:58.209.08-Aug-2020 5190.42 6452.62 82.89 3.00 167.31 3375.81
   05:53:58.409.08-Aug-2020 5190.42 6453.10 82.89 3.00 167.51 3375.81
   05:53:58.609.08-Aug-2020 5190.42 6453.60 82.89 3.00 167.71 3375.81
   05:53:58.809.08-Aug-2020 5190.42 6454.18 82.89 3.00 167.91 3375.81
   05:53:59.008.08-Aug-2020 5190.42 6454.18 82.89 3.00 168.11 3375.81
   05:53:59.208.08-Aug-2020 5190.42 6455.46 82.89 3.00 168.31 3375.81
   05:53:59.408.08-Aug-2020 5190.42 6455.33 82.89 3.00 168.51 3375.81
   05:53:59.608.08-Aug-2020 5190.42 6455.53 82.89 3.00 168.71 3375.81
   05:53:59.808.08-Aug-2020 5190.42 6456.16 82.89 3.00 168.91 3375.81
   05:54:00.008.08-Aug-2020 5190.42 6456.16 82.89 3.00 169.11 3375.81
   05:54:00.208.08-Aug-2020 5190.42 6457.11 82.89 3.00 169.31 3375.81
   05:54:00.408.08-Aug-2020 5190.42 6457.67 82.89 3.00 169.51 3375.81
   05:54:00.608.08-Aug-2020 5190.42 6458.30 82.89 3.00 169.71 3375.81
   05:54:00.808.08-Aug-2020 5190.42 6458.61 82.89 3.00 169.91 3375.81
   05:54:01.007.08-Aug-2020 5190.42 6458.61 82.89 3.00 170.11 3375.81
   05:54:01.207.08-Aug-2020 5190.42 6460.83 82.89 3.00 170.31 3375.81
   05:54:01.407.08-Aug-2020 5190.42 6461.35 82.89 3.00 170.51 3375.81
   05:54:01.607.08-Aug-2020 5190.42 6462.01 82.89 3.00 170.71 3375.81
   05:54:01.807.08-Aug-2020 5190.42 6462.34 82.89 3.00 170.91 3375.81
   05:54:02.007.08-Aug-2020 5190.42 6462.34 82.89 3.00 171.11 3375.81
   05:54:02.207.08-Aug-2020 5190.42 6463.61 82.89 3.00 171.31 3375.81
   05:54:02.407.08-Aug-2020 5190.42 6464.96 82.89 3.00 171.51 3375.81
   05:54:02.607.08-Aug-2020 5190.42 6465.50 82.89 3.00 171.71 3375.81
   05:54:02.807.08-Aug-2020 5190.42 6465.99 82.88 3.00 171.91 3375.81
   05:54:03.006.08-Aug-2020 5190.42 6465.99 82.88 3.00 172.11 3375.81
   05:54:03.206.08-Aug-2020 5190.42 6467.22 82.88 3.00 172.31 3375.81
   05:54:03.406.08-Aug-2020 5190.42 6467.57 82.88 3.00 172.51 3375.81
   05:54:03.606.08-Aug-2020 5190.42 6467.89 82.88 3.00 172.71 3375.81
   05:54:03.806.08-Aug-2020 5190.42 6468.37 82.88 3.00 172.91 3375.81
   05:54:04.006.08-Aug-2020 5190.42 6468.37 82.88 3.00 173.11 3375.81
   05:54:04.206.08-Aug-2020 5190.42 6469.78 82.88 3.00 173.31 3375.81
   05:54:04.406.08-Aug-2020 5190.42 6470.53 82.88 3.00 173.51 3375.81
   05:54:04.606.08-Aug-2020 5190.42 6471.29 82.88 3.00 173.71 3375.81
   05:54:04.806.08-Aug-2020 5190.42 6472.16 82.88 3.00 173.91 3375.81
   05:54:05.005.08-Aug-2020 5190.42 6472.16 82.88 3.00 174.11 3375.81
   05:54:05.205.08-Aug-2020 5190.42 6473.27 82.88 3.00 174.31 3375.81
   05:54:05.405.08-Aug-2020 5190.42 6473.78 82.88 3.00 174.51 3375.81
   05:54:05.605.08-Aug-2020 5190.42 6474.43 82.88 3.00 174.71 3375.81
   05:54:05.805.08-Aug-2020 5190.42 6475.69 82.88 3.00 174.91 3375.81
   05:54:06.005.08-Aug-2020 5190.42 6475.69 82.88 3.00 175.11 3375.81
   05:54:06.205.08-Aug-2020 5190.42 6477.06 82.88 3.00 175.31 3375.81
   05:54:06.405.08-Aug-2020 5190.42 6477.36 82.88 3.00 175.51 3375.81
   05:54:06.605.08-Aug-2020 5190.42 6477.78 82.88 3.00 175.71 3375.81
   05:54:06.805.08-Aug-2020 5190.42 6478.31 82.88 3.00 175.91 3375.81
   05:54:07.004.08-Aug-2020 5190.42 6478.31 82.88 3.00 176.11 3375.81
   05:54:07.204.08-Aug-2020 5190.42 6479.60 82.88 3.00 176.31 3375.81
   05:54:07.404.08-Aug-2020 5190.42 6480.14 82.88 3.00 176.51 3375.81
   05:54:07.604.08-Aug-2020 5190.42 6480.85 82.88 3.00 176.71 3375.81
   05:54:07.804.08-Aug-2020 5190.42 6481.72 82.87 3.00 176.91 3375.81
   05:54:08.004.08-Aug-2020 5190.42 6481.72 82.87 3.00 177.11 3375.81
   05:54:08.204.08-Aug-2020 5190.42 6482.71 82.87 3.00 177.31 3375.81
   05:54:08.404.08-Aug-2020 5190.42 6483.29 82.87 3.00 177.51 3375.81
   05:54:08.604.08-Aug-2020 5190.42 6483.88 82.87 3.00 177.71 3375.81
   05:54:08.804.08-Aug-2020 5190.42 6484.68 82.87 3.00 177.91 3375.81
   05:54:09.003.08-Aug-2020 5190.42 6484.68 82.87 3.00 178.11 3375.81
   05:54:09.203.08-Aug-2020 5190.42 6486.09 82.87 3.00 178.31 3375.81
   05:54:09.403.08-Aug-2020 5190.42 6485.92 82.87 3.00 178.51 3375.81
   05:54:09.603.08-Aug-2020 5190.42 6486.28 82.87 3.00 178.71 3375.81
   05:54:09.803.08-Aug-2020 5190.42 6487.11 82.87 3.00 178.91 3375.81
   05:54:10.003.08-Aug-2020 5190.42 6487.11 82.87 3.00 179.11 3375.81
   05:54:10.203.08-Aug-2020 5190.42 6487.94 82.87 3.00 179.31 3375.81
   05:54:10.403.08-Aug-2020 5190.42 6488.11 82.87 3.00 179.51 3375.81
   05:54:10.603.08-Aug-2020 5190.42 6488.84 82.87 3.00 179.71 3375.81
   05:54:10.802.08-Aug-2020 5190.42 6489.58 82.87 3.00 179.91 3375.81
   05:54:11.002.08-Aug-2020 5190.42 6489.58 82.87 3.00 180.11 3375.81
   05:54:11.202.08-Aug-2020 5190.42 6490.49 82.87 3.00 180.31 3375.81
   05:54:11.402.08-Aug-2020 5190.42 6492.02 82.87 3.00 180.51 3375.81
   05:54:11.602.08-Aug-2020 5190.42 6492.69 82.87 3.00 180.71 3375.81
   05:54:11.802.08-Aug-2020 5190.42 6493.00 82.87 3.00 180.91 3375.81
   05:54:12.002.08-Aug-2020 5190.42 6493.00 82.87 3.00 181.11 3375.81
   05:54:12.202.08-Aug-2020 5190.42 6493.47 82.87 3.00 181.31 3375.81
   05:54:12.402.08-Aug-2020 5190.42 6494.59 82.87 3.00 181.51 3375.81
   05:54:12.602.08-Aug-2020 5190.42 6495.34 82.87 3.00 181.71 3375.81
   05:54:12.801.08-Aug-2020 5190.42 6495.74 82.86 3.00 181.91 3375.81
   05:54:13.001.08-Aug-2020 5190.42 6495.74 82.86 3.00 182.11 3375.81
   05:54:13.201.08-Aug-2020 5190.42 6496.94 82.86 3.00 182.31 3375.81
   05:54:13.401.08-Aug-2020 5190.42 6497.52 82.86 3.00 182.51 3375.81
   05:54:13.601.08-Aug-2020 5190.42 6497.69 82.86 3.00 182.71 3375.81
   05:54:13.801.08-Aug-2020 5190.42 6498.13 82.86 3.00 182.91 3375.81
   05:54:14.001.08-Aug-2020 5190.42 6498.13 82.86 3.00 183.11 3375.81
   05:54:14.201.08-Aug-2020 5190.42 6498.87 82.86 3.00 183.31 3375.81
   05:54:14.401.08-Aug-2020 5190.42 6499.77 82.86 3.00 183.51 3375.81
   05:54:14.601.08-Aug-2020 5190.42 6500.30 82.86 3.00 183.71 3375.81
