~Version Information
 VERS.                  2.0:   CWLS log ASCII Standard -VERSION 2.0
 WRAP.                   NO:   One line per depth step
~Well Information Block
#MNEM.UNIT     VALUE/NAME     DESCRIPTION
#---------     -----------    ---------------------------
 STRT.S             03:17:15 08-Aug-20: START TIME 03:17:15 08-Aug-20
 STOP.S             03:24:06 08-Aug-20: STOP TIME  03:24:06 08-Aug-20
 STEP.S                   0.00: STEP TIME
 NULL.                 -999.25: NULL VALUE
 DFWT.                        :  DIST FWL TEXT
 DFST.                        :  DIST FSL TEXT
 DMF .             Drill Floor:  DRILL MEAS FROM
 STIM.      13.47.44 07-Jun-20:  START TIME
 DATE.      13.47.44 27-Jul-20:  END TIME
 SPUD.               07-Jun-20:  SPUD DATE
 NREF.                    Grid:  NORTH REFERENCE
 HPTY.       Minimum Curvature:  HOLE POS TYPE
 DMOD.             Drill Model:  DRILL MOD DESC
 SVYD.                  Survey:  SURVEY DESC
 ILTD.               Lithology:  INTERP LTH DESC
 FTOP.          Formation Tops:  FORM TOPS DESC
 RIG .             West Chirag:  RIG NAME
 PDAT.          Mean Sea Level:  PERMANENT DATUM
 FLD .                     ACG:  FIELD NAME
 SON .        AZ-XX-0906363612:  JOB NUMBER
 CTRY.              Azerbaijan:  COUNTRY NAME
 WELL.           J25 (Slot 35):  WELL NAME
 SRVC.          Turan Drilling:  CONTRACTOR
 COMP.     BP Exploration (Caspian Sea) Ltd:  COMPANY
 UWI .                     N/A:  UNIQUE WELL IDENTIFIER
 API .                     N/A:  API NUMBER
 BASE.              Azerbaijan:  LOGGING EQUIPMENT BASE LOCATION
 REGN.                   EESSA:  REGION
 PROV.                    Baku:  PROVINCE
 STAT.                    Baku:  STATE NAME
 MWDS.                     N/A:  MWD SHOP
 DOE .                     N/A:  DOE NUMBER
 DCON.         Sperry Drilling:  DIRECTNL CONTR
 UNIT.                     N/A:  LOGGING EQUIPMENT ID
 MDS .        Operator Entered:  MAG DATA SOURCE
 JOBN.        AZ-XX-0906363612:  JOB TICKET NUMB
 WTYP.                Deviated:  WELL TYPE
 CNTY.                        :  COUNTY
 LOC .                        :  LOCATION
 LMF .             Drill Floor:  LOG MEASURED FROM
 TVDS.m                  43.00:  TVDSS CORRECTN
 LATI.deg                40.13:  LATITUDE
 LONG.deg                51.22:  LONGITUDE
 WHNS.m                  -7.90:  WELL HEAD N/S
 WHEW.m                  -3.35:  WELL HEAD E/W
 UTMX.m              519005.06:  UTM X
 UTMY.m             4443793.85:  UTM Y
 DFWL.m                   0.00:  DISTANCE FWL
 DFSL.m                   0.00:  DISTANCE FSL
 SDEP.m                   0.00:  START DEPTH
 TDD .m                   0.00:  TOTAL DEPTH (DRILLER)
 VSDR.deg               308.97:  VERT SEC DIRECT
 GVFD.g                   1.00:  GRAVITY FIELD
 MFLD.nT              50350.00:  MAGNETIC FIELD
 MDIP.deg                59.62:  MAGNETIC DIP
 MDEC.deg                 6.44:  MAGNETIC DECL
 GRDC.deg                 0.13:  GRID CORRECTION
 AZTC.deg                 6.32:  AZM TOTAL CORR
 EPD .m                   0.00:  ELEVATION
 EGL .m                   0.00:  GROUND ELEVATION
 WDMS.m                 169.80:  WD ELEV
 APD .m                  43.00:  DEPTH ABOVE PD
 DEP .m                 356.43:  DEPTH
 AGAP.m                  43.00:  AIR GAP
 VSEW.m                  -3.35:  VERT SEC E/W
 VSNS.m                  -7.90:  VERT SEC N/S
 EKB .m                  43.00:  KB ELEVATION
 EDF .m                  43.00:  DF ELEVATION
 TDL .m                 934.00:  TOTAL DEPTH (LOGGER)
 VSC .                       0:  VS TO CLOSURE
 MAGU.                 1852825:  MAGUTM CHECKSUM
~Parameter Information Block
#MNEM.UNIT       Value        Description
#---------     -----------    ---------------------------
 AV  .mps                 0.80:  Ann Velocity 
 AVMX.mps                 1.70:  Max Ann Veloc 
 AZIF.deg               311.41:  Azm, Final 
 BHAT.        Rotary Steerable:  BHA Type 
 BROT.°/30m               0.09:  Build Rotating 
 BS  .in                 12.25:  Bit Size 
 BSZ .in                 12.25:  Bit Size 
 BTPL.psig              800.00:  Bit Press Loss 
 CABU.                      No:  Customer Abuse 
 COMM.                     k:  Run Comments 1 
 TCS .hr                 96.00:  Time Ciculation Ended 
 CV  .mps                 2.03:  Crit Velocity 
 CVMX.mps                 2.42:  Max Crit Veloc 
 DD1 .          Taghi Taghiyev:  Direct Drillr 1 
 DD2 .      Tariel Pirmammadov:  Direct Drillr 2 
 DD3 .          Teymur Aghayev:  Direct Drillr 3 
 DDSV.                 iCruise:  DD Service 
 DEFF.%                  98.70:  % Det Eff 
 DLRX.°/30m               1.00:  Dogleg Rot Max 
 DLSO.°/30m               1.80:  Dogleg Oriented 
 DLSX.°/30m               3.16:  Dogleg Str Max 
 DRET.      15.00.00 07-Aug-20:  Drill End Time 
 DRST.      17.00.00 02-Aug-20:  Drill Start Tim 
 DTIM.hr                 45.90:  Time Drilling 
 EDEP.m                5298.01:  End Depth 
 ENG1.       Seymur Iskandarov:  Engineer 1 
 ENG2.         Yevgeniy Ulikov:  Engineer 2 
 ENG3.      Artemiy Matviyanov:  Engineer 3 
 ENG4.         Bahruz Mehdiyev:  Engineer 4 
 ETIM.      05.00.00 10-Aug-20:  End Time 
 FLOI.gpm              1150.00:  Flow In 
 FLON.gpm               900.00:  Flow In Min 
 FLOS.cptm                0.00:  Fluid Loss 
 FLOX.gpm              1200.00:  Flow In Max 
 FTRO.     Connectivity, Formation Presure:  FTWD Run Obj 
 HFLO.                      No:  High Flow 
 HPRE.                     Yes:  High Pressure 
 HTEM.                      No:  High Temp 
 HYDO.m                   1.80:  Hydro Offset 
 IFIN.deg                 9.71:  Inc, Final 
 IMAX.deg                63.81:  Inc Max 
 IMIN.deg                 9.53:  Inc Min 
 IMND.m                5075.52:  Inc Min Depth 
 IMXD.m                4367.08:  Inc Max Depth 
 JARR.                      No:  Jarring 
 LETM.      15.00.00 07-Aug-20:  Log End Time 
 LOST.hr                     2:  Lost Rig Time 
 LSTM.      17.00.00 02-Aug-20:  Log Start Time 
 MDCL.ppm             42500.00:  Mud Chlorides 
 MDES.     Inversion Oil/Synthetic:  Mud Desc 
 DFD .sg                  1.46:  Mud Density 
 MDMN.sg                  1.46:  Dens Mud Min 
 MDMX.sg                  1.46:  Dens Mud Max 
 MOIL.                      56:  Run Mud Oil % 
 MOWR.                   70:30:  Run Mud OWR 
 MSND.                     0.1:  Run Mud Sand % 
 MSOL.                      19:  Run Mud Solids% 
 DFV .spqt               83.00:  Mud Viscosity 
 MWOD.in                  8.00:  MWD Tool OD 
 MWSI.                     Yes:  Serv Intrp, MWD 
 OTIM.hr                196.57:  Time Operating 
 PCON.           Look Like New:  Pad Condition 
 PMAX.psia             7400.00:  Press Op, Max 
 PV  .cP                 36.00:  Mud PV 
 RUN .                    1000:  Run Number 
 ROPA.m/hr               25.00:  ROP Avg 
 ROPN.m/hr               10.00:  ROP Min 
 ROPX.m/hr               32.00:  ROP Max 
 RPMA.rpm               120.00:  RPM Surface Avg 
 RPMN.rpm               100.00:  RPM Surface Min 
 RPMX.rpm               140.00:  RPM Surface Max 
 RRUN.                    L504:  Rig Run Number 
 SAZI.deg               308.25:  Azm, Start 
 SDEP.m                4364.01:  Start Depth 
 SIDD.                      No:  Serv Intrp, DD 
 SINC.deg                63.81:  Inc, Start 
 SPPA.psig             5800.00:  SPP Avg 
 SPPN.psig             4200.00:  SPP Min 
 SPPX.psig             5950.00:  SPP Max 
 STIM.      18.00.00 01-Aug-20:  Start Time 
 SVCS.                 DD, MWD:  Services 
 SVER.                    9.20:  Sperry Version 
 TDAT.m                 934.00:  Tot Depth Attmp 
 TDDF.                      No:  Trip for DD 
 TDLG.m                 934.00:  Tot Depth Loggd 
 TFF .                      No:  Trip for Fail 
 TQAA.f-kp               31.00:  Torque Abs Avg 
 TQAN.f-kp               25.00:  Torque Abs Min 
 TQAX.f-kp               35.00:  Torque Abs Max 
 TRRT.°/30m              -0.75:  Turn Rotating 
 MRT .                  EWR-M5:  Maximum Recorded Temperature 
 TTMX.degC               95.00:  Max Tool Temp 
 VS01.                90516060:  Virtual Str1 SN 
 VS02.                90528488:  Virtual Str2 SN 
 VS03.                90577970:  Virtual Str3 SN 
 VS04.                12385033:  Virtual Str4 SN 
 VS05.                90522069:  Virtual Str5 SN 
 VS06.                13124134:  Virtual Str6 SN 
 WBMN.klb                20.00:  WOB Min 
 WITN.         Alistair Sprott:  Customer Rep 
 WITN.     Ronal van der Kraan:  Customer Rep 2 
 WOBA.klb                25.00:  WOB Avg 
 WOBX.klb                31.00:  WOB Max 
 YP  .lhf2               32.00:  Yield Point 
~Curve Information Block
#MNEM.UNIT                 API CODE     Curve Description
#---------               -----------    ---------------------------
 TIME.HHMMSS            00 000 000 000:  GT Time & Date
 GTDEPTH.m              00 000 000 000:  GT Depth
 GTPQH.psia             00 000 000 000:  GT HR Quartz Pressure
 GTTQ.degC              00 000 000 000:  GT Quartz Temperature
 GTTN.NONE              00 000 000 000:  GT Test Number
 GTET.sec               00 000 000 000:  GT Elapsed Test Time
 GTTVD.m                00 000 000 000:  GT True Vertical Depth
#Other Information
#
#WARRANTY: Halliburton will use its best efforts to furnish customers with 
#accurate information and interpretations that are part of, and incident to, the services 
#provided.  However, Halliburton cannot and does not warrant the accuracy 
#or correctness of such information and interpretations.  Under no circumstances should any 
#such information or interpretation be relied upon as the sole basis for any drilling, 
#completion, production, or financial decision or any procedure involving any risk to the 
#safety of any drilling venture, drilling rig or its crew or any other third party.  The 
#Customer has full responsibility for all drilling, completion and production operation.  
#Halliburton makes no representations or warranties, either expressed or 
#implied, including, but not limited to, the implied warranties of merchantability or fitness 
#for a particular purpose, with respect to the services rendered.  In no event will 
#Halliburton be liable for failure to obtain any particular results or for 
#any damages, including, but not limited to, indirect, special or consequential damages, 
#resulting from the use of any information or interpretation provided by Halliburton.
#
~A           TIME           GTDEPTH  GTPQH  GTTQ  GTTN  GTET   GTTVD  
# ...
   03:23:00.420.08-Aug-2020 5190.56 3788.02 85.86 1.00 344.82 3375.95
   03:23:00.620.08-Aug-2020 5190.56 3788.02 85.86 1.00 345.02 3375.95
   03:23:00.820.08-Aug-2020 5190.56 3798.03 85.86 1.00 345.22 3375.95
   03:23:01.020.08-Aug-2020 5190.56 3802.74 85.86 1.00 345.42 3375.95
   03:23:01.220.08-Aug-2020 5190.56 3807.82 85.86 1.00 345.62 3375.95
   03:23:01.420.08-Aug-2020 5190.56 3812.89 85.86 1.00 345.82 3375.95
   03:23:01.620.08-Aug-2020 5190.56 3812.89 85.86 1.00 346.02 3375.95
   03:23:01.820.08-Aug-2020 5190.56 3822.87 85.86 1.00 346.22 3375.95
   03:23:02.020.08-Aug-2020 5190.56 3827.86 85.86 1.00 346.42 3375.95
   03:23:02.219.08-Aug-2020 5190.56 3832.83 85.86 1.00 346.62 3375.95
   03:23:02.419.08-Aug-2020 5190.56 3837.87 85.86 1.00 346.82 3375.95
   03:23:02.619.08-Aug-2020 5190.56 3837.87 85.86 1.00 347.02 3375.95
   03:23:02.819.08-Aug-2020 5190.56 3847.07 85.86 1.00 347.22 3375.95
   03:23:03.019.08-Aug-2020 5190.56 3852.16 85.86 1.00 347.42 3375.95
   03:23:03.219.08-Aug-2020 5190.56 3857.24 85.86 1.00 347.62 3375.95
   03:23:03.419.08-Aug-2020 5190.56 3862.21 85.86 1.00 347.82 3375.95
   03:23:03.619.08-Aug-2020 5190.56 3866.98 85.86 1.00 348.02 3375.95
   03:23:03.819.08-Aug-2020 5190.56 3871.81 85.86 1.00 348.22 3375.95
   03:23:04.019.08-Aug-2020 5190.56 3876.47 85.86 1.00 348.42 3375.95
   03:23:04.218.08-Aug-2020 5190.56 3881.19 85.86 1.00 348.62 3375.95
   03:23:04.418.08-Aug-2020 5190.56 3886.31 85.86 1.00 348.82 3375.95
   03:23:04.618.08-Aug-2020 5190.56 3886.31 85.86 1.00 349.02 3375.95
   03:23:04.818.08-Aug-2020 5190.56 3896.48 85.86 1.00 349.22 3375.95
   03:23:05.018.08-Aug-2020 5190.56 3900.90 85.86 1.00 349.42 3375.95
   03:23:05.218.08-Aug-2020 5190.56 3905.58 85.86 1.00 349.62 3375.95
   03:23:05.418.08-Aug-2020 5190.56 3910.42 85.86 1.00 349.82 3375.95
   03:23:05.618.08-Aug-2020 5190.56 3910.42 85.86 1.00 350.02 3375.95
   03:23:05.818.08-Aug-2020 5190.56 3920.45 85.86 1.00 350.22 3375.95
   03:23:06.018.08-Aug-2020 5190.56 3925.32 85.86 1.00 350.42 3375.95
   03:23:06.217.08-Aug-2020 5190.56 3930.03 85.86 1.00 350.62 3375.95
   03:23:06.417.08-Aug-2020 5190.56 3934.84 85.86 1.00 350.82 3375.95
   03:23:06.617.08-Aug-2020 5190.56 3934.84 85.86 1.00 351.02 3375.95
   03:23:06.817.08-Aug-2020 5190.56 3944.60 85.86 1.00 351.22 3375.95
   03:23:07.017.08-Aug-2020 5190.56 3949.21 85.86 1.00 351.42 3375.95
   03:23:07.217.08-Aug-2020 5190.56 3953.21 85.86 1.00 351.62 3375.95
   03:23:07.417.08-Aug-2020 5190.56 3958.40 85.86 1.00 351.82 3375.95
   03:23:07.617.08-Aug-2020 5190.56 3962.89 85.86 1.00 352.02 3375.95
   03:23:07.817.08-Aug-2020 5190.56 3967.64 85.86 1.00 352.22 3375.95
   03:23:08.017.08-Aug-2020 5190.56 3972.16 85.86 1.00 352.42 3375.95
   03:23:08.216.08-Aug-2020 5190.56 3976.84 85.86 1.00 352.62 3375.95
   03:23:08.416.08-Aug-2020 5190.56 3981.51 85.86 1.00 352.82 3375.95
   03:23:08.616.08-Aug-2020 5190.56 3981.51 85.86 1.00 353.02 3375.95
   03:23:08.816.08-Aug-2020 5190.56 3991.28 85.86 1.00 353.22 3375.95
   03:23:09.016.08-Aug-2020 5190.56 3995.52 85.86 1.00 353.42 3375.95
   03:23:09.216.08-Aug-2020 5190.56 3999.94 85.86 1.00 353.62 3375.95
   03:23:09.416.08-Aug-2020 5190.56 4004.68 85.86 1.00 353.82 3375.95
   03:23:09.616.08-Aug-2020 5190.56 4004.68 85.86 1.00 354.02 3375.95
   03:23:09.816.08-Aug-2020 5190.56 4014.01 85.86 1.00 354.22 3375.95
   03:23:10.016.08-Aug-2020 5190.56 4018.66 85.86 1.00 354.42 3375.95
   03:23:10.215.08-Aug-2020 5190.56 4022.97 85.86 1.00 354.62 3375.95
   03:23:10.415.08-Aug-2020 5190.56 4027.53 85.86 1.00 354.82 3375.95
   03:23:10.615.08-Aug-2020 5190.56 4027.53 85.86 1.00 355.02 3375.95
   03:23:10.815.08-Aug-2020 5190.56 4036.17 85.86 1.00 355.22 3375.95
   03:23:11.015.08-Aug-2020 5190.56 4040.83 85.86 1.00 355.42 3375.95
   03:23:11.215.08-Aug-2020 5190.56 4045.02 85.86 1.00 355.62 3375.95
   03:23:11.415.08-Aug-2020 5190.56 4049.42 85.86 1.00 355.82 3375.95
   03:23:11.615.08-Aug-2020 5190.56 4054.35 85.86 1.00 356.02 3375.95
   03:23:11.815.08-Aug-2020 5190.56 4058.92 85.86 1.00 356.22 3375.95
   03:23:12.015.08-Aug-2020 5190.56 4063.28 85.86 1.00 356.42 3375.95
   03:23:12.214.08-Aug-2020 5190.56 4066.98 85.86 1.00 356.62 3375.95
   03:23:12.414.08-Aug-2020 5190.56 4071.99 85.86 1.00 356.82 3375.95
   03:23:12.614.08-Aug-2020 5190.56 4071.99 85.86 1.00 357.02 3375.95
   03:23:12.814.08-Aug-2020 5190.56 4080.49 85.86 1.00 357.22 3375.95
   03:23:13.014.08-Aug-2020 5190.56 4085.26 85.86 1.00 357.42 3375.95
   03:23:13.214.08-Aug-2020 5190.56 4089.62 85.86 1.00 357.62 3375.95
   03:23:13.414.08-Aug-2020 5190.56 4094.10 85.86 1.00 357.82 3375.95
   03:23:13.614.08-Aug-2020 5190.56 4094.10 85.86 1.00 358.02 3375.95
   03:23:13.814.08-Aug-2020 5190.56 4102.71 85.86 1.00 358.22 3375.95
   03:23:14.013.08-Aug-2020 5190.56 4106.90 85.86 1.00 358.42 3375.95
   03:23:14.213.08-Aug-2020 5190.56 4111.67 85.86 1.00 358.62 3375.95
   03:23:14.413.08-Aug-2020 5190.56 4115.78 85.86 1.00 358.82 3375.95
   03:23:14.613.08-Aug-2020 5190.56 4115.78 85.86 1.00 359.02 3375.95
   03:23:14.813.08-Aug-2020 5190.56 4124.71 85.86 1.00 359.22 3375.95
   03:23:15.013.08-Aug-2020 5190.56 4128.78 85.86 1.00 359.42 3375.95
   03:23:15.213.08-Aug-2020 5190.56 4133.22 85.86 1.00 359.62 3375.95
   03:23:15.413.08-Aug-2020 5190.56 4137.66 85.86 1.00 359.82 3375.95
   03:23:15.613.08-Aug-2020 5190.56 4137.66 85.86 1.00 360.02 3375.95
   03:23:15.813.08-Aug-2020 5190.56 4146.53 85.86 1.00 360.22 3375.95
   03:23:16.012.08-Aug-2020 5190.56 4150.73 85.86 1.00 360.42 3375.95
   03:23:16.212.08-Aug-2020 5190.56 4155.10 85.86 1.00 360.62 3375.95
   03:23:16.412.08-Aug-2020 5190.56 4159.50 85.86 1.00 360.82 3375.95
   03:23:16.612.08-Aug-2020 5190.56 4159.50 85.86 1.00 361.02 3375.95
   03:23:16.812.08-Aug-2020 5190.56 4168.13 85.86 1.00 361.22 3375.95
   03:23:17.012.08-Aug-2020 5190.56 4172.33 85.86 1.00 361.42 3375.95
   03:23:17.212.08-Aug-2020 5190.56 4176.35 85.86 1.00 361.62 3375.95
   03:23:17.412.08-Aug-2020 5190.56 4180.61 85.86 1.00 361.82 3375.95
   03:23:17.612.08-Aug-2020 5190.56 4180.61 85.86 1.00 362.02 3375.95
   03:23:17.812.08-Aug-2020 5190.56 4189.12 85.86 1.00 362.22 3375.95
   03:23:18.011.08-Aug-2020 5190.56 4193.12 85.86 1.00 362.42 3375.95
   03:23:18.211.08-Aug-2020 5190.56 4197.25 85.86 1.00 362.62 3375.95
   03:23:18.411.08-Aug-2020 5190.56 4201.11 85.86 1.00 362.82 3375.95
   03:23:18.611.08-Aug-2020 5190.56 4201.11 85.86 1.00 363.02 3375.95
   03:23:18.811.08-Aug-2020 5190.56 4209.66 85.86 1.00 363.22 3375.95
   03:23:19.011.08-Aug-2020 5190.56 4213.99 85.86 1.00 363.41 3375.95
   03:23:19.211.08-Aug-2020 5190.56 4218.31 85.86 1.00 363.61 3375.95
   03:23:19.411.08-Aug-2020 5190.56 4222.43 85.86 1.00 363.81 3375.95
   03:23:19.611.08-Aug-2020 5190.56 4226.59 85.86 1.00 364.01 3375.95
   03:23:19.811.08-Aug-2020 5190.56 4230.99 85.87 1.00 364.21 3375.95
   03:23:20.010.08-Aug-2020 5190.56 4235.18 85.86 1.00 364.41 3375.95
   03:23:20.210.08-Aug-2020 5190.56 4239.43 85.87 1.00 364.61 3375.95
   03:23:20.410.08-Aug-2020 5190.56 4242.88 85.86 1.00 364.81 3375.95
   03:23:20.610.08-Aug-2020 5190.56 4242.88 85.86 1.00 365.01 3375.95
   03:23:20.810.08-Aug-2020 5190.56 4250.89 85.87 1.00 365.21 3375.95
   03:23:21.010.08-Aug-2020 5190.56 4255.10 85.86 1.00 365.41 3375.95
   03:23:21.210.08-Aug-2020 5190.56 4259.15 85.87 1.00 365.61 3375.95
   03:23:21.410.08-Aug-2020 5190.56 4262.64 85.86 1.00 365.81 3375.95
   03:23:21.610.08-Aug-2020 5190.56 4262.64 85.86 1.00 366.01 3375.95
   03:23:21.810.08-Aug-2020 5190.56 4270.50 85.87 1.00 366.21 3375.95
   03:23:22.009.08-Aug-2020 5190.56 4274.63 85.86 1.00 366.41 3375.95
   03:23:22.209.08-Aug-2020 5190.56 4278.94 85.87 1.00 366.61 3375.95
   03:23:22.409.08-Aug-2020 5190.56 4282.47 85.86 1.00 366.81 3375.95
   03:23:22.609.08-Aug-2020 5190.56 4282.47 85.86 1.00 367.01 3375.95
   03:23:22.809.08-Aug-2020 5190.56 4290.23 85.87 1.00 367.21 3375.95
   03:23:23.009.08-Aug-2020 5190.56 4294.24 85.86 1.00 367.41 3375.95
   03:23:23.209.08-Aug-2020 5190.56 4298.03 85.87 1.00 367.61 3375.95
