~Version Information
 VERS.                  2.0:   CWLS log ASCII Standard -VERSION 2.0
 WRAP.                   NO:   One line per depth step
~Well Information Block
#MNEM.UNIT     VALUE/NAME     DESCRIPTION
#---------     -----------    ---------------------------
 STRT.S             07:09:07 08-Aug-20: START TIME 07:09:07 08-Aug-20
 STOP.S             07:17:38 08-Aug-20: STOP TIME  07:17:38 08-Aug-20
 STEP.S                   0.00: STEP TIME
 NULL.                 -999.25: NULL VALUE
 DFWT.                        :  DIST FWL TEXT
 DFST.                        :  DIST FSL TEXT
 DMF .             Drill Floor:  DRILL MEAS FROM
 STIM.      13.47.44 07-Jun-20:  START TIME
 DATE.      13.47.44 27-Jul-20:  END TIME
 SPUD.               07-Jun-20:  SPUD DATE
 NREF.                    Grid:  NORTH REFERENCE
 HPTY.       Minimum Curvature:  HOLE POS TYPE
 DMOD.             Drill Model:  DRILL MOD DESC
 SVYD.                  Survey:  SURVEY DESC
 ILTD.               Lithology:  INTERP LTH DESC
 FTOP.          Formation Tops:  FORM TOPS DESC
 RIG .             West Chirag:  RIG NAME
 PDAT.          Mean Sea Level:  PERMANENT DATUM
 FLD .                     ACG:  FIELD NAME
 SON .        AZ-XX-0906363612:  JOB NUMBER
 CTRY.              Azerbaijan:  COUNTRY NAME
 WELL.           J25 (Slot 35):  WELL NAME
 SRVC.          Turan Drilling:  CONTRACTOR
 COMP.     BP Exploration (Caspian Sea) Ltd:  COMPANY
 UWI .                     N/A:  UNIQUE WELL IDENTIFIER
 API .                     N/A:  API NUMBER
 BASE.              Azerbaijan:  LOGGING EQUIPMENT BASE LOCATION
 REGN.                   EESSA:  REGION
 PROV.                    Baku:  PROVINCE
 STAT.                    Baku:  STATE NAME
 MWDS.                     N/A:  MWD SHOP
 DOE .                     N/A:  DOE NUMBER
 DCON.         Sperry Drilling:  DIRECTNL CONTR
 UNIT.                     N/A:  LOGGING EQUIPMENT ID
 MDS .        Operator Entered:  MAG DATA SOURCE
 JOBN.        AZ-XX-0906363612:  JOB TICKET NUMB
 WTYP.                Deviated:  WELL TYPE
 CNTY.                        :  COUNTY
 LOC .                        :  LOCATION
 LMF .             Drill Floor:  LOG MEASURED FROM
 TVDS.m                  43.00:  TVDSS CORRECTN
 LATI.deg                40.13:  LATITUDE
 LONG.deg                51.22:  LONGITUDE
 WHNS.m                  -7.90:  WELL HEAD N/S
 WHEW.m                  -3.35:  WELL HEAD E/W
 UTMX.m              519005.06:  UTM X
 UTMY.m             4443793.85:  UTM Y
 DFWL.m                   0.00:  DISTANCE FWL
 DFSL.m                   0.00:  DISTANCE FSL
 SDEP.m                   0.00:  START DEPTH
 TDD .m                   0.00:  TOTAL DEPTH (DRILLER)
 VSDR.deg               308.97:  VERT SEC DIRECT
 GVFD.g                   1.00:  GRAVITY FIELD
 MFLD.nT              50350.00:  MAGNETIC FIELD
 MDIP.deg                59.62:  MAGNETIC DIP
 MDEC.deg                 6.44:  MAGNETIC DECL
 GRDC.deg                 0.13:  GRID CORRECTION
 AZTC.deg                 6.32:  AZM TOTAL CORR
 EPD .m                   0.00:  ELEVATION
 EGL .m                   0.00:  GROUND ELEVATION
 WDMS.m                 169.80:  WD ELEV
 APD .m                  43.00:  DEPTH ABOVE PD
 DEP .m                 356.43:  DEPTH
 AGAP.m                  43.00:  AIR GAP
 VSEW.m                  -3.35:  VERT SEC E/W
 VSNS.m                  -7.90:  VERT SEC N/S
 EKB .m                  43.00:  KB ELEVATION
 EDF .m                  43.00:  DF ELEVATION
 TDL .m                 934.00:  TOTAL DEPTH (LOGGER)
 VSC .                       0:  VS TO CLOSURE
 MAGU.                 1852825:  MAGUTM CHECKSUM
~Parameter Information Block
#MNEM.UNIT       Value        Description
#---------     -----------    ---------------------------
 AV  .mps                 0.80:  Ann Velocity 
 AVMX.mps                 1.70:  Max Ann Veloc 
 AZIF.deg               311.41:  Azm, Final 
 BHAT.        Rotary Steerable:  BHA Type 
 BROT.°/30m               0.09:  Build Rotating 
 BS  .in                 12.25:  Bit Size 
 BSZ .in                 12.25:  Bit Size 
 BTPL.psig              800.00:  Bit Press Loss 
 CABU.                      No:  Customer Abuse 
 COMM.                     „Òs:  Run Comments 1 
 TCS .hr                 96.00:  Time Ciculation Ended 
 CV  .mps                 2.03:  Crit Velocity 
 CVMX.mps                 2.42:  Max Crit Veloc 
 DD1 .          Taghi Taghiyev:  Direct Drillr 1 
 DD2 .      Tariel Pirmammadov:  Direct Drillr 2 
 DD3 .          Teymur Aghayev:  Direct Drillr 3 
 DDSV.                 iCruise:  DD Service 
 DEFF.%                  98.70:  % Det Eff 
 DLRX.°/30m               1.00:  Dogleg Rot Max 
 DLSO.°/30m               1.80:  Dogleg Oriented 
 DLSX.°/30m               3.16:  Dogleg Str Max 
 DRET.      15.00.00 07-Aug-20:  Drill End Time 
 DRST.      17.00.00 02-Aug-20:  Drill Start Tim 
 DTIM.hr                 45.90:  Time Drilling 
 EDEP.m                5298.01:  End Depth 
 ENG1.       Seymur Iskandarov:  Engineer 1 
 ENG2.         Yevgeniy Ulikov:  Engineer 2 
 ENG3.      Artemiy Matviyanov:  Engineer 3 
 ENG4.         Bahruz Mehdiyev:  Engineer 4 
 ETIM.      05.00.00 10-Aug-20:  End Time 
 FLOI.gpm              1150.00:  Flow In 
 FLON.gpm               900.00:  Flow In Min 
 FLOS.cptm                0.00:  Fluid Loss 
 FLOX.gpm              1200.00:  Flow In Max 
 FTRO.     Connectivity, Formation Presure:  FTWD Run Obj 
 HFLO.                      No:  High Flow 
 HPRE.                     Yes:  High Pressure 
 HTEM.                      No:  High Temp 
 HYDO.m                   1.80:  Hydro Offset 
 IFIN.deg                 9.71:  Inc, Final 
 IMAX.deg                63.81:  Inc Max 
 IMIN.deg                 9.53:  Inc Min 
 IMND.m                5075.52:  Inc Min Depth 
 IMXD.m                4367.08:  Inc Max Depth 
 JARR.                      No:  Jarring 
 LETM.      15.00.00 07-Aug-20:  Log End Time 
 LOST.hr                     2:  Lost Rig Time 
 LSTM.      17.00.00 02-Aug-20:  Log Start Time 
 MDCL.ppm             42500.00:  Mud Chlorides 
 MDES.     Inversion Oil/Synthetic:  Mud Desc 
 DFD .sg                  1.46:  Mud Density 
 MDMN.sg                  1.46:  Dens Mud Min 
 MDMX.sg                  1.46:  Dens Mud Max 
 MOIL.                      56:  Run Mud Oil % 
 MOWR.                   70:30:  Run Mud OWR 
 MSND.                     0.1:  Run Mud Sand % 
 MSOL.                      19:  Run Mud Solids% 
 DFV .spqt               83.00:  Mud Viscosity 
 MWOD.in                  8.00:  MWD Tool OD 
 MWSI.                     Yes:  Serv Intrp, MWD 
 OTIM.hr                196.57:  Time Operating 
 PCON.           Look Like New:  Pad Condition 
 PMAX.psia             7400.00:  Press Op, Max 
 PV  .cP                 36.00:  Mud PV 
 RUN .                    1000:  Run Number 
 ROPA.m/hr               25.00:  ROP Avg 
 ROPN.m/hr               10.00:  ROP Min 
 ROPX.m/hr               32.00:  ROP Max 
 RPMA.rpm               120.00:  RPM Surface Avg 
 RPMN.rpm               100.00:  RPM Surface Min 
 RPMX.rpm               140.00:  RPM Surface Max 
 RRUN.                    L504:  Rig Run Number 
 SAZI.deg               308.25:  Azm, Start 
 SDEP.m                4364.01:  Start Depth 
 SIDD.                      No:  Serv Intrp, DD 
 SINC.deg                63.81:  Inc, Start 
 SPPA.psig             5800.00:  SPP Avg 
 SPPN.psig             4200.00:  SPP Min 
 SPPX.psig             5950.00:  SPP Max 
 STIM.      18.00.00 01-Aug-20:  Start Time 
 SVCS.                 DD, MWD:  Services 
 SVER.                    9.20:  Sperry Version 
 TDAT.m                 934.00:  Tot Depth Attmp 
 TDDF.                      No:  Trip for DD 
 TDLG.m                 934.00:  Tot Depth Loggd 
 TFF .                      No:  Trip for Fail 
 TQAA.f-kp               31.00:  Torque Abs Avg 
 TQAN.f-kp               25.00:  Torque Abs Min 
 TQAX.f-kp               35.00:  Torque Abs Max 
 TRRT.°/30m              -0.75:  Turn Rotating 
 MRT .                  EWR-M5:  Maximum Recorded Temperature 
 TTMX.degC               95.00:  Max Tool Temp 
 VS01.                90516060:  Virtual Str1 SN 
 VS02.                90528488:  Virtual Str2 SN 
 VS03.                90577970:  Virtual Str3 SN 
 VS04.                12385033:  Virtual Str4 SN 
 VS05.                90522069:  Virtual Str5 SN 
 VS06.                13124134:  Virtual Str6 SN 
 WBMN.klb                20.00:  WOB Min 
 WITN.         Alistair Sprott:  Customer Rep 
 WITN.     Ronal van der Kraan:  Customer Rep 2 
 WOBA.klb                25.00:  WOB Avg 
 WOBX.klb                31.00:  WOB Max 
 YP  .lhf2               32.00:  Yield Point 
~Curve Information Block
#MNEM.UNIT                 API CODE     Curve Description
#---------               -----------    ---------------------------
 TIME.HHMMSS            00 000 000 000:  GT Time & Date
 GTDEPTH.m              00 000 000 000:  GT Depth
 GTPQH.psia             00 000 000 000:  GT HR Quartz Pressure
 GTTQ.degC              00 000 000 000:  GT Quartz Temperature
 GTTN.NONE              00 000 000 000:  GT Test Number
 GTET.sec               00 000 000 000:  GT Elapsed Test Time
 GTTVD.m                00 000 000 000:  GT True Vertical Depth
#Other Information
#
#WARRANTY: Halliburton will use its best efforts to furnish customers with 
#accurate information and interpretations that are part of, and incident to, the services 
#provided.  However, Halliburton cannot and does not warrant the accuracy 
#or correctness of such information and interpretations.  Under no circumstances should any 
#such information or interpretation be relied upon as the sole basis for any drilling, 
#completion, production, or financial decision or any procedure involving any risk to the 
#safety of any drilling venture, drilling rig or its crew or any other third party.  The 
#Customer has full responsibility for all drilling, completion and production operation.  
#Halliburton makes no representations or warranties, either expressed or 
#implied, including, but not limited to, the implied warranties of merchantability or fitness 
#for a particular purpose, with respect to the services rendered.  In no event will 
#Halliburton be liable for failure to obtain any particular results or for 
#any damages, including, but not limited to, indirect, special or consequential damages, 
#resulting from the use of any information or interpretation provided by Halliburton.
#
~A           TIME           GTDEPTH  GTPQH  GTTQ  GTTN  GTET   GTTVD  
# ...
   07:10:39.000.08-Aug-2020 5163.51 4257.79 78.29 5.00  92.00 3349.29
   07:10:39.200.08-Aug-2020 5163.51 4257.79 78.29 5.00  92.20 3349.29
   07:10:39.400.08-Aug-2020 5163.51 4257.67 78.29 5.00  92.40 3349.29
   07:10:39.600.08-Aug-2020 5163.51 4258.04 78.29 5.00  92.60 3349.29
   07:10:39.800.08-Aug-2020 5163.51 4258.34 78.29 5.00  92.80 3349.29
   07:10:40.000.08-Aug-2020 5163.51 4257.96 78.29 5.00  93.00 3349.29
   07:10:40.200.08-Aug-2020 5163.51 4257.96 78.29 5.00  93.20 3349.29
   07:10:40.400.08-Aug-2020 5163.51 4257.95 78.29 5.00  93.40 3349.29
   07:10:40.600.08-Aug-2020 5163.51 4257.94 78.29 5.00  93.60 3349.29
   07:10:40.800.08-Aug-2020 5163.51 4257.95 78.29 5.00  93.80 3349.29
   07:10:41.000.08-Aug-2020 5163.51 4257.97 78.29 5.00  94.00 3349.29
   07:10:41.200.08-Aug-2020 5163.51 4257.95 78.29 5.00  94.20 3349.29
   07:10:41.400.08-Aug-2020 5163.51 4258.01 78.29 5.00  94.40 3349.29
   07:10:41.600.08-Aug-2020 5163.51 4258.03 78.29 5.00  94.60 3349.29
   07:10:41.800.08-Aug-2020 5163.51 4258.03 78.29 5.00  94.80 3349.29
   07:10:42.000.08-Aug-2020 5163.51 4258.03 78.29 5.00  95.00 3349.29
   07:10:42.200.08-Aug-2020 5163.51 4258.03 78.29 5.00  95.20 3349.29
   07:10:42.400.08-Aug-2020 5163.51 4258.08 78.29 5.00  95.40 3349.29
   07:10:42.600.08-Aug-2020 5163.51 4257.89 78.29 5.00  95.60 3349.29
   07:10:42.800.08-Aug-2020 5163.51 4258.32 78.29 5.00  95.80 3349.29
   07:10:43.000.08-Aug-2020 5163.51 4258.69 78.29 5.00  96.00 3349.29
   07:10:43.200.08-Aug-2020 5163.51 4258.69 78.29 5.00  96.20 3349.29
   07:10:43.400.08-Aug-2020 5163.51 4258.82 78.29 5.00  96.40 3349.29
   07:10:43.600.08-Aug-2020 5163.51 4259.11 78.29 5.00  96.60 3349.29
   07:10:43.800.08-Aug-2020 5163.51 4258.34 78.29 5.00  96.80 3349.29
   07:10:44.000.08-Aug-2020 5163.51 4258.48 78.29 5.00  97.00 3349.29
   07:10:44.200.08-Aug-2020 5163.51 4258.48 78.29 5.00  97.20 3349.29
   07:10:44.400.08-Aug-2020 5163.51 4258.11 78.29 5.00  97.40 3349.29
   07:10:44.600.08-Aug-2020 5163.51 4258.68 78.29 5.00  97.60 3349.29
   07:10:44.800.08-Aug-2020 5163.51 4259.12 78.29 5.00  97.80 3349.29
   07:10:45.000.08-Aug-2020 5163.51 4258.46 78.29 5.00  98.00 3349.29
   07:10:45.200.08-Aug-2020 5163.51 4258.46 78.29 5.00  98.20 3349.29
   07:10:45.400.08-Aug-2020 5163.51 4259.57 78.29 5.00  98.40 3349.29
   07:10:45.600.08-Aug-2020 5163.51 4258.85 78.29 5.00  98.60 3349.29
   07:10:45.800.08-Aug-2020 5163.51 4258.84 78.29 5.00  98.80 3349.29
   07:10:46.000.08-Aug-2020 5163.51 4258.90 78.29 5.00  99.00 3349.29
   07:10:46.200.08-Aug-2020 5163.51 4258.90 78.29 5.00  99.20 3349.29
   07:10:46.400.08-Aug-2020 5163.51 4259.29 78.29 5.00  99.40 3349.29
   07:10:46.600.08-Aug-2020 5163.51 4259.04 78.29 5.00  99.60 3349.29
   07:10:46.800.08-Aug-2020 5163.51 4258.96 78.29 5.00  99.80 3349.29
   07:10:47.000.08-Aug-2020 5163.51 4258.60 78.29 5.00 100.00 3349.29
   07:10:47.200.08-Aug-2020 5163.51 4258.60 78.29 5.00 100.20 3349.29
   07:10:47.400.08-Aug-2020 5163.51 4258.70 78.29 5.00 100.40 3349.29
   07:10:47.600.08-Aug-2020 5163.51 4258.54 78.29 5.00 100.60 3349.29
   07:10:47.800.08-Aug-2020 5163.51 4258.67 78.29 5.00 100.80 3349.29
   07:10:48.000.08-Aug-2020 5163.51 4258.49 78.29 5.00 101.00 3349.29
   07:10:48.200.08-Aug-2020 5163.51 4258.49 78.29 5.00 101.20 3349.29
   07:10:48.400.08-Aug-2020 5163.51 4258.56 78.29 5.00 101.40 3349.29
   07:10:48.600.08-Aug-2020 5163.51 4258.49 78.28 5.00 101.60 3349.29
   07:10:48.800.08-Aug-2020 5163.51 4258.43 78.29 5.00 101.80 3349.29
   07:10:49.000.08-Aug-2020 5163.51 4258.57 78.29 5.00 102.00 3349.29
   07:10:49.200.08-Aug-2020 5163.51 4258.57 78.29 5.00 102.20 3349.29
   07:10:49.400.08-Aug-2020 5163.51 4258.65 78.29 5.00 102.40 3349.29
   07:10:49.600.08-Aug-2020 5163.51 4258.92 78.28 5.00 102.60 3349.29
   07:10:49.800.08-Aug-2020 5163.51 4258.85 78.28 5.00 102.80 3349.29
   07:10:50.000.08-Aug-2020 5163.51 4258.65 78.28 5.00 103.00 3349.29
   07:10:50.200.08-Aug-2020 5163.51 4258.65 78.28 5.00 103.20 3349.29
   07:10:50.400.08-Aug-2020 5163.51 4258.54 78.28 5.00 103.40 3349.29
   07:10:50.600.08-Aug-2020 5163.51 4258.46 78.28 5.00 103.60 3349.29
   07:10:50.800.08-Aug-2020 5163.51 4258.43 78.28 5.00 103.80 3349.29
   07:10:51.000.08-Aug-2020 5163.51 4258.45 78.28 5.00 104.00 3349.29
   07:10:51.200.08-Aug-2020 5163.51 4258.56 78.28 5.00 104.20 3349.29
   07:10:51.400.08-Aug-2020 5163.51 4258.60 78.28 5.00 104.40 3349.29
   07:10:51.600.08-Aug-2020 5163.51 4258.62 78.28 5.00 104.60 3349.29
   07:10:51.800.08-Aug-2020 5163.51 4258.62 78.28 5.00 104.80 3349.29
   07:10:52.000.08-Aug-2020 5163.51 4258.58 78.28 5.00 105.00 3349.29
   07:10:52.200.08-Aug-2020 5163.51 4258.58 78.28 5.00 105.20 3349.29
   07:10:52.400.08-Aug-2020 5163.51 4258.51 78.28 5.00 105.40 3349.29
   07:10:52.600.08-Aug-2020 5163.51 4258.70 78.28 5.00 105.60 3349.29
   07:10:52.800.08-Aug-2020 5163.51 4258.87 78.28 5.00 105.80 3349.29
   07:10:53.000.08-Aug-2020 5163.51 4258.93 78.28 5.00 106.00 3349.29
   07:10:53.200.08-Aug-2020 5163.51 4258.93 78.28 5.00 106.20 3349.29
   07:10:53.400.08-Aug-2020 5163.51 4259.08 78.28 5.00 106.40 3349.29
   07:10:53.600.08-Aug-2020 5163.51 4258.87 78.28 5.00 106.60 3349.29
   07:10:53.800.08-Aug-2020 5163.51 4258.78 78.28 5.00 106.80 3349.29
   07:10:54.000.08-Aug-2020 5163.51 4258.83 78.28 5.00 107.00 3349.29
   07:10:54.200.08-Aug-2020 5163.51 4258.83 78.28 5.00 107.20 3349.29
   07:10:54.400.08-Aug-2020 5163.51 4258.93 78.28 5.00 107.40 3349.29
   07:10:54.600.08-Aug-2020 5163.51 4258.86 78.28 5.00 107.60 3349.29
   07:10:54.800.08-Aug-2020 5163.51 4258.92 78.28 5.00 107.80 3349.29
   07:10:55.000.08-Aug-2020 5163.51 4258.80 78.28 5.00 108.00 3349.29
   07:10:55.200.08-Aug-2020 5163.51 4258.80 78.28 5.00 108.20 3349.29
   07:10:55.400.08-Aug-2020 5163.51 4259.01 78.28 5.00 108.40 3349.29
   07:10:55.600.08-Aug-2020 5163.51 4258.94 78.28 5.00 108.60 3349.29
   07:10:55.800.08-Aug-2020 5163.51 4258.71 78.28 5.00 108.80 3349.29
   07:10:56.000.08-Aug-2020 5163.51 4258.78 78.28 5.00 109.00 3349.29
   07:10:56.200.08-Aug-2020 5163.51 4258.78 78.28 5.00 109.20 3349.29
   07:10:56.400.08-Aug-2020 5163.51 4259.02 78.28 5.00 109.40 3349.29
   07:10:56.600.08-Aug-2020 5163.51 4258.85 78.28 5.00 109.60 3349.29
   07:10:56.800.08-Aug-2020 5163.51 4258.83 78.28 5.00 109.80 3349.29
   07:10:57.000.08-Aug-2020 5163.51 4258.69 78.28 5.00 110.00 3349.29
   07:10:57.200.08-Aug-2020 5163.51 4258.75 78.28 5.00 110.20 3349.29
   07:10:57.400.08-Aug-2020 5163.51 4258.74 78.28 5.00 110.40 3349.29
   07:10:57.600.08-Aug-2020 5163.51 4258.70 78.28 5.00 110.60 3349.29
   07:10:57.800.08-Aug-2020 5163.51 4258.79 78.28 5.00 110.80 3349.29
   07:10:58.000.08-Aug-2020 5163.51 4258.79 78.28 5.00 111.00 3349.29
   07:10:58.200.08-Aug-2020 5163.51 4258.79 78.28 5.00 111.20 3349.29
   07:10:58.400.08-Aug-2020 5163.51 4258.87 78.28 5.00 111.40 3349.29
   07:10:58.600.08-Aug-2020 5163.51 4258.86 78.28 5.00 111.60 3349.29
   07:10:58.800.08-Aug-2020 5163.51 4258.86 78.28 5.00 111.80 3349.29
   07:10:59.000.08-Aug-2020 5163.51 4258.84 78.28 5.00 112.00 3349.29
   07:10:59.200.08-Aug-2020 5163.51 4258.84 78.28 5.00 112.20 3349.29
   07:10:59.400.08-Aug-2020 5163.51 4259.04 78.28 5.00 112.40 3349.29
   07:10:59.600.08-Aug-2020 5163.51 4259.10 78.28 5.00 112.60 3349.29
   07:10:59.800.08-Aug-2020 5163.51 4259.23 78.28 5.00 112.80 3349.29
   07:11:00.000.08-Aug-2020 5163.51 4259.02 78.28 5.00 113.00 3349.29
   07:11:00.200.08-Aug-2020 5163.51 4259.02 78.28 5.00 113.20 3349.29
   07:11:00.400.08-Aug-2020 5163.51 4258.90 78.28 5.00 113.40 3349.29
   07:11:00.600.08-Aug-2020 5163.51 4258.84 78.28 5.00 113.60 3349.29
   07:11:00.800.08-Aug-2020 5163.51 4258.78 78.28 5.00 113.80 3349.29
   07:11:01.000.08-Aug-2020 5163.51 4258.76 78.28 5.00 114.00 3349.29
   07:11:01.200.08-Aug-2020 5163.51 4258.76 78.28 5.00 114.20 3349.29
   07:11:01.400.08-Aug-2020 5163.51 4258.83 78.28 5.00 114.40 3349.29
   07:11:01.600.08-Aug-2020 5163.51 4258.95 78.28 5.00 114.60 3349.29
   07:11:01.800.08-Aug-2020 5163.51 4259.04 78.28 5.00 114.80 3349.29
