~Version Information
 VERS.                  2.0:   CWLS log ASCII Standard -VERSION 2.0
 WRAP.                   NO:   One line per depth step
~Well Information Block
#MNEM.UNIT     VALUE/NAME     DESCRIPTION
#---------     -----------    ---------------------------
 STRT.S             05:51:10 08-Aug-20: START TIME 05:51:10 08-Aug-20
 STOP.S             05:59:38 08-Aug-20: STOP TIME  05:59:38 08-Aug-20
 STEP.S                   0.00: STEP TIME
 NULL.                 -999.25: NULL VALUE
 DFWT.                        :  DIST FWL TEXT
 DFST.                        :  DIST FSL TEXT
 DMF .             Drill Floor:  DRILL MEAS FROM
 STIM.      13.47.44 07-Jun-20:  START TIME
 DATE.      13.47.44 27-Jul-20:  END TIME
 SPUD.               07-Jun-20:  SPUD DATE
 NREF.                    Grid:  NORTH REFERENCE
 HPTY.       Minimum Curvature:  HOLE POS TYPE
 DMOD.             Drill Model:  DRILL MOD DESC
 SVYD.                  Survey:  SURVEY DESC
 ILTD.               Lithology:  INTERP LTH DESC
 FTOP.          Formation Tops:  FORM TOPS DESC
 RIG .             West Chirag:  RIG NAME
 PDAT.          Mean Sea Level:  PERMANENT DATUM
 FLD .                     ACG:  FIELD NAME
 SON .        AZ-XX-0906363612:  JOB NUMBER
 CTRY.              Azerbaijan:  COUNTRY NAME
 WELL.           J25 (Slot 35):  WELL NAME
 SRVC.          Turan Drilling:  CONTRACTOR
 COMP.     BP Exploration (Caspian Sea) Ltd:  COMPANY
 UWI .                     N/A:  UNIQUE WELL IDENTIFIER
 API .                     N/A:  API NUMBER
 BASE.              Azerbaijan:  LOGGING EQUIPMENT BASE LOCATION
 REGN.                   EESSA:  REGION
 PROV.                    Baku:  PROVINCE
 STAT.                    Baku:  STATE NAME
 MWDS.                     N/A:  MWD SHOP
 DOE .                     N/A:  DOE NUMBER
 DCON.         Sperry Drilling:  DIRECTNL CONTR
 UNIT.                     N/A:  LOGGING EQUIPMENT ID
 MDS .        Operator Entered:  MAG DATA SOURCE
 JOBN.        AZ-XX-0906363612:  JOB TICKET NUMB
 WTYP.                Deviated:  WELL TYPE
 CNTY.                        :  COUNTY
 LOC .                        :  LOCATION
 LMF .             Drill Floor:  LOG MEASURED FROM
 TVDS.m                  43.00:  TVDSS CORRECTN
 LATI.deg                40.13:  LATITUDE
 LONG.deg                51.22:  LONGITUDE
 WHNS.m                  -7.90:  WELL HEAD N/S
 WHEW.m                  -3.35:  WELL HEAD E/W
 UTMX.m              519005.06:  UTM X
 UTMY.m             4443793.85:  UTM Y
 DFWL.m                   0.00:  DISTANCE FWL
 DFSL.m                   0.00:  DISTANCE FSL
 SDEP.m                   0.00:  START DEPTH
 TDD .m                   0.00:  TOTAL DEPTH (DRILLER)
 VSDR.deg               308.97:  VERT SEC DIRECT
 GVFD.g                   1.00:  GRAVITY FIELD
 MFLD.nT              50350.00:  MAGNETIC FIELD
 MDIP.deg                59.62:  MAGNETIC DIP
 MDEC.deg                 6.44:  MAGNETIC DECL
 GRDC.deg                 0.13:  GRID CORRECTION
 AZTC.deg                 6.32:  AZM TOTAL CORR
 EPD .m                   0.00:  ELEVATION
 EGL .m                   0.00:  GROUND ELEVATION
 WDMS.m                 169.80:  WD ELEV
 APD .m                  43.00:  DEPTH ABOVE PD
 DEP .m                 356.43:  DEPTH
 AGAP.m                  43.00:  AIR GAP
 VSEW.m                  -3.35:  VERT SEC E/W
 VSNS.m                  -7.90:  VERT SEC N/S
 EKB .m                  43.00:  KB ELEVATION
 EDF .m                  43.00:  DF ELEVATION
 TDL .m                 934.00:  TOTAL DEPTH (LOGGER)
 VSC .                       0:  VS TO CLOSURE
 MAGU.                 1852825:  MAGUTM CHECKSUM
~Parameter Information Block
#MNEM.UNIT       Value        Description
#---------     -----------    ---------------------------
 AV  .mps                 0.80:  Ann Velocity 
 AVMX.mps                 1.70:  Max Ann Veloc 
 AZIF.deg               311.41:  Azm, Final 
 BHAT.        Rotary Steerable:  BHA Type 
 BROT.°/30m               0.09:  Build Rotating 
 BS  .in                 12.25:  Bit Size 
 BSZ .in                 12.25:  Bit Size 
 BTPL.psig              800.00:  Bit Press Loss 
 CABU.                      No:  Customer Abuse 
 COMM.                     ¤'V:  Run Comments 1 
 TCS .hr                 96.00:  Time Ciculation Ended 
 CV  .mps                 2.03:  Crit Velocity 
 CVMX.mps                 2.42:  Max Crit Veloc 
 DD1 .          Taghi Taghiyev:  Direct Drillr 1 
 DD2 .      Tariel Pirmammadov:  Direct Drillr 2 
 DD3 .          Teymur Aghayev:  Direct Drillr 3 
 DDSV.                 iCruise:  DD Service 
 DEFF.%                  98.70:  % Det Eff 
 DLRX.°/30m               1.00:  Dogleg Rot Max 
 DLSO.°/30m               1.80:  Dogleg Oriented 
 DLSX.°/30m               3.16:  Dogleg Str Max 
 DRET.      15.00.00 07-Aug-20:  Drill End Time 
 DRST.      17.00.00 02-Aug-20:  Drill Start Tim 
 DTIM.hr                 45.90:  Time Drilling 
 EDEP.m                5298.01:  End Depth 
 ENG1.       Seymur Iskandarov:  Engineer 1 
 ENG2.         Yevgeniy Ulikov:  Engineer 2 
 ENG3.      Artemiy Matviyanov:  Engineer 3 
 ENG4.         Bahruz Mehdiyev:  Engineer 4 
 ETIM.      05.00.00 10-Aug-20:  End Time 
 FLOI.gpm              1150.00:  Flow In 
 FLON.gpm               900.00:  Flow In Min 
 FLOS.cptm                0.00:  Fluid Loss 
 FLOX.gpm              1200.00:  Flow In Max 
 FTRO.     Connectivity, Formation Presure:  FTWD Run Obj 
 HFLO.                      No:  High Flow 
 HPRE.                     Yes:  High Pressure 
 HTEM.                      No:  High Temp 
 HYDO.m                   1.80:  Hydro Offset 
 IFIN.deg                 9.71:  Inc, Final 
 IMAX.deg                63.81:  Inc Max 
 IMIN.deg                 9.53:  Inc Min 
 IMND.m                5075.52:  Inc Min Depth 
 IMXD.m                4367.08:  Inc Max Depth 
 JARR.                      No:  Jarring 
 LETM.      15.00.00 07-Aug-20:  Log End Time 
 LOST.hr                     2:  Lost Rig Time 
 LSTM.      17.00.00 02-Aug-20:  Log Start Time 
 MDCL.ppm             42500.00:  Mud Chlorides 
 MDES.     Inversion Oil/Synthetic:  Mud Desc 
 DFD .sg                  1.46:  Mud Density 
 MDMN.sg                  1.46:  Dens Mud Min 
 MDMX.sg                  1.46:  Dens Mud Max 
 MOIL.                      56:  Run Mud Oil % 
 MOWR.                   70:30:  Run Mud OWR 
 MSND.                     0.1:  Run Mud Sand % 
 MSOL.                      19:  Run Mud Solids% 
 DFV .spqt               83.00:  Mud Viscosity 
 MWOD.in                  8.00:  MWD Tool OD 
 MWSI.                     Yes:  Serv Intrp, MWD 
 OTIM.hr                196.57:  Time Operating 
 PCON.           Look Like New:  Pad Condition 
 PMAX.psia             7400.00:  Press Op, Max 
 PV  .cP                 36.00:  Mud PV 
 RUN .                    1000:  Run Number 
 ROPA.m/hr               25.00:  ROP Avg 
 ROPN.m/hr               10.00:  ROP Min 
 ROPX.m/hr               32.00:  ROP Max 
 RPMA.rpm               120.00:  RPM Surface Avg 
 RPMN.rpm               100.00:  RPM Surface Min 
 RPMX.rpm               140.00:  RPM Surface Max 
 RRUN.                    L504:  Rig Run Number 
 SAZI.deg               308.25:  Azm, Start 
 SDEP.m                4364.01:  Start Depth 
 SIDD.                      No:  Serv Intrp, DD 
 SINC.deg                63.81:  Inc, Start 
 SPPA.psig             5800.00:  SPP Avg 
 SPPN.psig             4200.00:  SPP Min 
 SPPX.psig             5950.00:  SPP Max 
 STIM.      18.00.00 01-Aug-20:  Start Time 
 SVCS.                 DD, MWD:  Services 
 SVER.                    9.20:  Sperry Version 
 TDAT.m                 934.00:  Tot Depth Attmp 
 TDDF.                      No:  Trip for DD 
 TDLG.m                 934.00:  Tot Depth Loggd 
 TFF .                      No:  Trip for Fail 
 TQAA.f-kp               31.00:  Torque Abs Avg 
 TQAN.f-kp               25.00:  Torque Abs Min 
 TQAX.f-kp               35.00:  Torque Abs Max 
 TRRT.°/30m              -0.75:  Turn Rotating 
 MRT .                  EWR-M5:  Maximum Recorded Temperature 
 TTMX.degC               95.00:  Max Tool Temp 
 VS01.                90516060:  Virtual Str1 SN 
 VS02.                90528488:  Virtual Str2 SN 
 VS03.                90577970:  Virtual Str3 SN 
 VS04.                12385033:  Virtual Str4 SN 
 VS05.                90522069:  Virtual Str5 SN 
 VS06.                13124134:  Virtual Str6 SN 
 WBMN.klb                20.00:  WOB Min 
 WITN.         Alistair Sprott:  Customer Rep 
 WITN.     Ronal van der Kraan:  Customer Rep 2 
 WOBA.klb                25.00:  WOB Avg 
 WOBX.klb                31.00:  WOB Max 
 YP  .lhf2               32.00:  Yield Point 
~Curve Information Block
#MNEM.UNIT                 API CODE     Curve Description
#---------               -----------    ---------------------------
 TIME.HHMMSS            00 000 000 000:  GT Time & Date
 GTDEPTH.m              00 000 000 000:  GT Depth
 GTPQH.psia             00 000 000 000:  GT HR Quartz Pressure
 GTTQ.degC              00 000 000 000:  GT Quartz Temperature
 GTTN.NONE              00 000 000 000:  GT Test Number
 GTET.sec               00 000 000 000:  GT Elapsed Test Time
 GTTVD.m                00 000 000 000:  GT True Vertical Depth
#Other Information
#
#WARRANTY: Halliburton will use its best efforts to furnish customers with 
#accurate information and interpretations that are part of, and incident to, the services 
#provided.  However, Halliburton cannot and does not warrant the accuracy 
#or correctness of such information and interpretations.  Under no circumstances should any 
#such information or interpretation be relied upon as the sole basis for any drilling, 
#completion, production, or financial decision or any procedure involving any risk to the 
#safety of any drilling venture, drilling rig or its crew or any other third party.  The 
#Customer has full responsibility for all drilling, completion and production operation.  
#Halliburton makes no representations or warranties, either expressed or 
#implied, including, but not limited to, the implied warranties of merchantability or fitness 
#for a particular purpose, with respect to the services rendered.  In no event will 
#Halliburton be liable for failure to obtain any particular results or for 
#any damages, including, but not limited to, indirect, special or consequential damages, 
#resulting from the use of any information or interpretation provided by Halliburton.
#
~A           TIME           GTDEPTH  GTPQH  GTTQ  GTTN  GTET   GTTVD  
# ...
   05:52:19.859.08-Aug-2020 5190.42 5039.95 83.12 3.00  68.96 3375.81
   05:52:20.059.08-Aug-2020 5190.42 5039.95 83.12 3.00  69.16 3375.81
   05:52:20.259.08-Aug-2020 5190.42 4894.70 83.11 3.00  69.36 3375.81
   05:52:20.459.08-Aug-2020 5190.42 4828.66 83.11 3.00  69.56 3375.81
   05:52:20.659.08-Aug-2020 5190.42 4755.99 83.11 3.00  69.76 3375.81
   05:52:20.858.08-Aug-2020 5190.42 4672.31 83.11 3.00  69.96 3375.81
   05:52:21.058.08-Aug-2020 5190.42 4672.31 83.11 3.00  70.16 3375.81
   05:52:21.258.08-Aug-2020 5190.42 4471.21 83.10 3.00  70.36 3375.81
   05:52:21.458.08-Aug-2020 5190.42 4315.29 83.10 3.00  70.56 3375.81
   05:52:21.658.08-Aug-2020 5190.42 4151.69 83.10 3.00  70.76 3375.81
   05:52:21.858.08-Aug-2020 5190.42 3995.43 83.10 3.00  70.96 3375.81
   05:52:22.058.08-Aug-2020 5190.42 3995.43 83.10 3.00  71.16 3375.81
   05:52:22.258.08-Aug-2020 5190.42 3689.89 83.09 3.00  71.36 3375.81
   05:52:22.458.08-Aug-2020 5190.42 3548.89 83.09 3.00  71.56 3375.81
   05:52:22.658.08-Aug-2020 5190.42 3424.79 83.09 3.00  71.76 3375.81
   05:52:22.857.08-Aug-2020 5190.42 3293.71 83.09 3.00  71.96 3375.81
   05:52:23.057.08-Aug-2020 5190.42 3293.71 83.08 3.00  72.16 3375.81
   05:52:23.257.08-Aug-2020 5190.42 3040.67 83.08 3.00  72.36 3375.81
   05:52:23.457.08-Aug-2020 5190.42 2913.32 83.08 3.00  72.56 3375.81
   05:52:23.657.08-Aug-2020 5190.42 2820.17 83.08 3.00  72.76 3375.81
   05:52:23.857.08-Aug-2020 5190.42 2757.10 83.07 3.00  72.96 3375.81
   05:52:24.057.08-Aug-2020 5190.42 2757.10 83.07 3.00  73.16 3375.81
   05:52:24.257.08-Aug-2020 5190.42 2651.39 83.07 3.00  73.36 3375.81
   05:52:24.457.08-Aug-2020 5190.42 2645.43 83.06 3.00  73.56 3375.81
   05:52:24.657.08-Aug-2020 5190.42 2751.29 83.06 3.00  73.76 3375.81
   05:52:24.856.08-Aug-2020 5190.42 2852.66 83.06 3.00  73.96 3375.81
   05:52:25.056.08-Aug-2020 5190.42 2852.66 83.06 3.00  74.16 3375.81
   05:52:25.256.08-Aug-2020 5190.42 3032.83 83.05 3.00  74.36 3375.81
   05:52:25.456.08-Aug-2020 5190.42 3115.43 83.05 3.00  74.56 3375.81
   05:52:25.656.08-Aug-2020 5190.42 3194.10 83.05 3.00  74.76 3375.81
   05:52:25.856.08-Aug-2020 5190.42 3270.17 83.04 3.00  74.96 3375.81
   05:52:26.056.08-Aug-2020 5190.42 3270.17 83.04 3.00  75.16 3375.81
   05:52:26.256.08-Aug-2020 5190.42 3409.70 83.04 3.00  75.36 3375.81
   05:52:26.456.08-Aug-2020 5190.42 3475.13 83.03 3.00  75.56 3375.81
   05:52:26.656.08-Aug-2020 5190.42 3538.34 83.03 3.00  75.76 3375.81
   05:52:26.855.08-Aug-2020 5190.42 3598.60 83.03 3.00  75.96 3375.81
   05:52:27.055.08-Aug-2020 5190.42 3598.60 83.03 3.00  76.16 3375.81
   05:52:27.255.08-Aug-2020 5190.42 3711.95 83.02 3.00  76.36 3375.81
   05:52:27.455.08-Aug-2020 5190.42 3765.49 83.02 3.00  76.56 3375.81
   05:52:27.655.08-Aug-2020 5190.42 3815.87 83.02 3.00  76.76 3375.81
   05:52:27.855.08-Aug-2020 5190.42 3866.33 83.02 3.00  76.96 3375.81
   05:52:28.055.08-Aug-2020 5190.42 3866.33 83.02 3.00  77.16 3375.81
   05:52:28.255.08-Aug-2020 5190.42 3963.37 83.01 3.00  77.36 3375.81
   05:52:28.455.08-Aug-2020 5190.42 4008.75 83.01 3.00  77.56 3375.81
   05:52:28.654.08-Aug-2020 5190.42 4053.03 83.01 3.00  77.76 3375.81
   05:52:28.854.08-Aug-2020 5190.42 4096.13 83.00 3.00  77.96 3375.81
   05:52:29.054.08-Aug-2020 5190.42 4096.13 83.00 3.00  78.16 3375.81
   05:52:29.254.08-Aug-2020 5190.42 4177.81 83.00 3.00  78.36 3375.81
   05:52:29.454.08-Aug-2020 5190.42 4215.82 83.00 3.00  78.56 3375.81
   05:52:29.654.08-Aug-2020 5190.42 4254.42 83.00 3.00  78.76 3375.81
   05:52:29.854.08-Aug-2020 5190.42 4290.97 83.00 3.00  78.96 3375.81
   05:52:30.054.08-Aug-2020 5190.42 4290.97 83.00 3.00  79.16 3375.81
   05:52:30.254.08-Aug-2020 5190.42 4360.96 82.99 3.00  79.36 3375.81
   05:52:30.454.08-Aug-2020 5190.42 4395.74 82.99 3.00  79.56 3375.81
   05:52:30.653.08-Aug-2020 5190.42 4429.17 82.99 3.00  79.76 3375.81
   05:52:30.853.08-Aug-2020 5190.42 4462.13 82.99 3.00  79.96 3375.81
   05:52:31.053.08-Aug-2020 5190.42 4462.13 82.99 3.00  80.16 3375.81
   05:52:31.253.08-Aug-2020 5190.42 4524.82 82.99 3.00  80.36 3375.81
   05:52:31.453.08-Aug-2020 5190.42 4555.49 82.99 3.00  80.56 3375.81
   05:52:31.653.08-Aug-2020 5190.42 4584.90 82.99 3.00  80.76 3375.81
   05:52:31.853.08-Aug-2020 5190.42 4613.86 82.99 3.00  80.96 3375.81
   05:52:32.053.08-Aug-2020 5190.42 4613.86 82.99 3.00  81.16 3375.81
   05:52:32.253.08-Aug-2020 5190.42 4669.65 82.99 3.00  81.36 3375.81
   05:52:32.453.08-Aug-2020 5190.42 4696.52 82.99 3.00  81.56 3375.81
   05:52:32.652.08-Aug-2020 5190.42 4722.40 82.98 3.00  81.76 3375.81
   05:52:32.852.08-Aug-2020 5190.42 4747.93 82.98 3.00  81.96 3375.81
   05:52:33.052.08-Aug-2020 5190.42 4747.93 82.98 3.00  82.16 3375.81
   05:52:33.252.08-Aug-2020 5190.42 4797.45 82.98 3.00  82.36 3375.81
   05:52:33.452.08-Aug-2020 5190.42 4819.66 82.98 3.00  82.56 3375.81
   05:52:33.652.08-Aug-2020 5190.42 4841.30 82.98 3.00  82.76 3375.81
   05:52:33.852.08-Aug-2020 5190.42 4864.43 82.98 3.00  82.96 3375.81
   05:52:34.052.08-Aug-2020 5190.42 4864.43 82.98 3.00  83.16 3375.81
   05:52:34.252.08-Aug-2020 5190.42 4908.60 82.98 3.00  83.36 3375.81
   05:52:34.452.08-Aug-2020 5190.42 4930.63 82.98 3.00  83.56 3375.81
   05:52:34.651.08-Aug-2020 5190.42 4951.71 82.98 3.00  83.76 3375.81
   05:52:34.851.08-Aug-2020 5190.42 4972.27 82.98 3.00  83.96 3375.81
   05:52:35.051.08-Aug-2020 5190.42 4972.27 82.98 3.00  84.16 3375.81
   05:52:35.251.08-Aug-2020 5190.42 5012.07 82.98 3.00  84.36 3375.81
   05:52:35.451.08-Aug-2020 5190.42 5031.43 82.99 3.00  84.56 3375.81
   05:52:35.651.08-Aug-2020 5190.42 5050.49 82.99 3.00  84.76 3375.81
   05:52:35.851.08-Aug-2020 5190.42 5068.90 82.99 3.00  84.96 3375.81
   05:52:36.051.08-Aug-2020 5190.42 5068.90 82.99 3.00  85.16 3375.81
   05:52:36.251.08-Aug-2020 5190.42 5104.75 82.99 3.00  85.36 3375.81
   05:52:36.451.08-Aug-2020 5190.42 5121.39 82.99 3.00  85.56 3375.81
   05:52:36.650.08-Aug-2020 5190.42 5135.82 82.99 3.00  85.76 3375.81
   05:52:36.850.08-Aug-2020 5190.42 5152.76 82.99 3.00  85.96 3375.81
   05:52:37.050.08-Aug-2020 5190.42 5152.76 82.99 3.00  86.16 3375.81
   05:52:37.250.08-Aug-2020 5190.42 5181.07 82.99 3.00  86.36 3375.81
   05:52:37.450.08-Aug-2020 5190.42 5196.91 82.99 3.00  86.56 3375.81
   05:52:37.650.08-Aug-2020 5190.42 5213.11 82.99 3.00  86.76 3375.81
   05:52:37.850.08-Aug-2020 5190.42 5227.34 82.99 3.00  86.96 3375.81
   05:52:38.050.08-Aug-2020 5190.42 5227.34 82.99 3.00  87.16 3375.81
   05:52:38.250.08-Aug-2020 5190.42 5256.43 82.99 3.00  87.36 3375.81
   05:52:38.450.08-Aug-2020 5190.42 5270.93 82.99 3.00  87.56 3375.81
   05:52:38.649.08-Aug-2020 5190.42 5284.24 82.99 3.00  87.76 3375.81
   05:52:38.849.08-Aug-2020 5190.42 5297.41 82.99 3.00  87.96 3375.81
   05:52:39.049.08-Aug-2020 5190.42 5297.41 82.99 3.00  88.16 3375.81
   05:52:39.249.08-Aug-2020 5190.42 5323.19 82.99 3.00  88.36 3375.81
   05:52:39.449.08-Aug-2020 5190.42 5335.74 82.99 3.00  88.55 3375.81
   05:52:39.649.08-Aug-2020 5190.42 5349.63 82.99 3.00  88.75 3375.81
   05:52:39.849.08-Aug-2020 5190.42 5362.27 82.99 3.00  88.95 3375.81
   05:52:40.049.08-Aug-2020 5190.42 5362.27 82.99 3.00  89.15 3375.81
   05:52:40.249.08-Aug-2020 5190.42 5388.16 83.00 3.00  89.35 3375.81
   05:52:40.448.08-Aug-2020 5190.42 5400.46 83.00 3.00  89.55 3375.81
   05:52:40.648.08-Aug-2020 5190.42 5412.70 83.00 3.00  89.75 3375.81
   05:52:40.848.08-Aug-2020 5190.42 5424.66 83.00 3.00  89.95 3375.81
   05:52:41.048.08-Aug-2020 5190.42 5424.66 83.00 3.00  90.15 3375.81
   05:52:41.248.08-Aug-2020 5190.42 5448.14 83.00 3.00  90.35 3375.81
   05:52:41.448.08-Aug-2020 5190.42 5459.29 83.00 3.00  90.55 3375.81
   05:52:41.648.08-Aug-2020 5190.42 5470.33 83.00 3.00  90.75 3375.81
   05:52:41.848.08-Aug-2020 5190.42 5481.14 83.00 3.00  90.95 3375.81
   05:52:42.048.08-Aug-2020 5190.42 5481.14 83.00 3.00  91.15 3375.81
   05:52:42.248.08-Aug-2020 5190.42 5502.62 83.00 3.00  91.35 3375.81
   05:52:42.447.08-Aug-2020 5190.42 5513.09 83.00 3.00  91.55 3375.81
   05:52:42.647.08-Aug-2020 5190.42 5522.23 83.00 3.00  91.75 3375.81
