~Version Information
 VERS.                  2.0:   CWLS log ASCII Standard -VERSION 2.0
 WRAP.                   NO:   One line per depth step
~Well Information Block
#MNEM.UNIT     VALUE/NAME     DESCRIPTION
#---------     -----------    ---------------------------
 STRT.S             07:09:07 08-Aug-20: START TIME 07:09:07 08-Aug-20
 STOP.S             07:17:38 08-Aug-20: STOP TIME  07:17:38 08-Aug-20
 STEP.S                   0.00: STEP TIME
 NULL.                 -999.25: NULL VALUE
 DFWT.                        :  DIST FWL TEXT
 DFST.                        :  DIST FSL TEXT
 DMF .             Drill Floor:  DRILL MEAS FROM
 STIM.      13.47.44 07-Jun-20:  START TIME
 DATE.      13.47.44 27-Jul-20:  END TIME
 SPUD.               07-Jun-20:  SPUD DATE
 NREF.                    Grid:  NORTH REFERENCE
 HPTY.       Minimum Curvature:  HOLE POS TYPE
 DMOD.             Drill Model:  DRILL MOD DESC
 SVYD.                  Survey:  SURVEY DESC
 ILTD.               Lithology:  INTERP LTH DESC
 FTOP.          Formation Tops:  FORM TOPS DESC
 RIG .             West Chirag:  RIG NAME
 PDAT.          Mean Sea Level:  PERMANENT DATUM
 FLD .                     ACG:  FIELD NAME
 SON .        AZ-XX-0906363612:  JOB NUMBER
 CTRY.              Azerbaijan:  COUNTRY NAME
 WELL.           J25 (Slot 35):  WELL NAME
 SRVC.          Turan Drilling:  CONTRACTOR
 COMP.     BP Exploration (Caspian Sea) Ltd:  COMPANY
 UWI .                     N/A:  UNIQUE WELL IDENTIFIER
 API .                     N/A:  API NUMBER
 BASE.              Azerbaijan:  LOGGING EQUIPMENT BASE LOCATION
 REGN.                   EESSA:  REGION
 PROV.                    Baku:  PROVINCE
 STAT.                    Baku:  STATE NAME
 MWDS.                     N/A:  MWD SHOP
 DOE .                     N/A:  DOE NUMBER
 DCON.         Sperry Drilling:  DIRECTNL CONTR
 UNIT.                     N/A:  LOGGING EQUIPMENT ID
 MDS .        Operator Entered:  MAG DATA SOURCE
 JOBN.        AZ-XX-0906363612:  JOB TICKET NUMB
 WTYP.                Deviated:  WELL TYPE
 CNTY.                        :  COUNTY
 LOC .                        :  LOCATION
 LMF .             Drill Floor:  LOG MEASURED FROM
 TVDS.m                  43.00:  TVDSS CORRECTN
 LATI.deg                40.13:  LATITUDE
 LONG.deg                51.22:  LONGITUDE
 WHNS.m                  -7.90:  WELL HEAD N/S
 WHEW.m                  -3.35:  WELL HEAD E/W
 UTMX.m              519005.06:  UTM X
 UTMY.m             4443793.85:  UTM Y
 DFWL.m                   0.00:  DISTANCE FWL
 DFSL.m                   0.00:  DISTANCE FSL
 SDEP.m                   0.00:  START DEPTH
 TDD .m                   0.00:  TOTAL DEPTH (DRILLER)
 VSDR.deg               308.97:  VERT SEC DIRECT
 GVFD.g                   1.00:  GRAVITY FIELD
 MFLD.nT              50350.00:  MAGNETIC FIELD
 MDIP.deg                59.62:  MAGNETIC DIP
 MDEC.deg                 6.44:  MAGNETIC DECL
 GRDC.deg                 0.13:  GRID CORRECTION
 AZTC.deg                 6.32:  AZM TOTAL CORR
 EPD .m                   0.00:  ELEVATION
 EGL .m                   0.00:  GROUND ELEVATION
 WDMS.m                 169.80:  WD ELEV
 APD .m                  43.00:  DEPTH ABOVE PD
 DEP .m                 356.43:  DEPTH
 AGAP.m                  43.00:  AIR GAP
 VSEW.m                  -3.35:  VERT SEC E/W
 VSNS.m                  -7.90:  VERT SEC N/S
 EKB .m                  43.00:  KB ELEVATION
 EDF .m                  43.00:  DF ELEVATION
 TDL .m                 934.00:  TOTAL DEPTH (LOGGER)
 VSC .                       0:  VS TO CLOSURE
 MAGU.                 1852825:  MAGUTM CHECKSUM
~Parameter Information Block
#MNEM.UNIT       Value        Description
#---------     -----------    ---------------------------
 AV  .mps                 0.80:  Ann Velocity 
 AVMX.mps                 1.70:  Max Ann Veloc 
 AZIF.deg               311.41:  Azm, Final 
 BHAT.        Rotary Steerable:  BHA Type 
 BROT.°/30m               0.09:  Build Rotating 
 BS  .in                 12.25:  Bit Size 
 BSZ .in                 12.25:  Bit Size 
 BTPL.psig              800.00:  Bit Press Loss 
 CABU.                      No:  Customer Abuse 
 COMM.                     „Òs:  Run Comments 1 
 TCS .hr                 96.00:  Time Ciculation Ended 
 CV  .mps                 2.03:  Crit Velocity 
 CVMX.mps                 2.42:  Max Crit Veloc 
 DD1 .          Taghi Taghiyev:  Direct Drillr 1 
 DD2 .      Tariel Pirmammadov:  Direct Drillr 2 
 DD3 .          Teymur Aghayev:  Direct Drillr 3 
 DDSV.                 iCruise:  DD Service 
 DEFF.%                  98.70:  % Det Eff 
 DLRX.°/30m               1.00:  Dogleg Rot Max 
 DLSO.°/30m               1.80:  Dogleg Oriented 
 DLSX.°/30m               3.16:  Dogleg Str Max 
 DRET.      15.00.00 07-Aug-20:  Drill End Time 
 DRST.      17.00.00 02-Aug-20:  Drill Start Tim 
 DTIM.hr                 45.90:  Time Drilling 
 EDEP.m                5298.01:  End Depth 
 ENG1.       Seymur Iskandarov:  Engineer 1 
 ENG2.         Yevgeniy Ulikov:  Engineer 2 
 ENG3.      Artemiy Matviyanov:  Engineer 3 
 ENG4.         Bahruz Mehdiyev:  Engineer 4 
 ETIM.      05.00.00 10-Aug-20:  End Time 
 FLOI.gpm              1150.00:  Flow In 
 FLON.gpm               900.00:  Flow In Min 
 FLOS.cptm                0.00:  Fluid Loss 
 FLOX.gpm              1200.00:  Flow In Max 
 FTRO.     Connectivity, Formation Presure:  FTWD Run Obj 
 HFLO.                      No:  High Flow 
 HPRE.                     Yes:  High Pressure 
 HTEM.                      No:  High Temp 
 HYDO.m                   1.80:  Hydro Offset 
 IFIN.deg                 9.71:  Inc, Final 
 IMAX.deg                63.81:  Inc Max 
 IMIN.deg                 9.53:  Inc Min 
 IMND.m                5075.52:  Inc Min Depth 
 IMXD.m                4367.08:  Inc Max Depth 
 JARR.                      No:  Jarring 
 LETM.      15.00.00 07-Aug-20:  Log End Time 
 LOST.hr                     2:  Lost Rig Time 
 LSTM.      17.00.00 02-Aug-20:  Log Start Time 
 MDCL.ppm             42500.00:  Mud Chlorides 
 MDES.     Inversion Oil/Synthetic:  Mud Desc 
 DFD .sg                  1.46:  Mud Density 
 MDMN.sg                  1.46:  Dens Mud Min 
 MDMX.sg                  1.46:  Dens Mud Max 
 MOIL.                      56:  Run Mud Oil % 
 MOWR.                   70:30:  Run Mud OWR 
 MSND.                     0.1:  Run Mud Sand % 
 MSOL.                      19:  Run Mud Solids% 
 DFV .spqt               83.00:  Mud Viscosity 
 MWOD.in                  8.00:  MWD Tool OD 
 MWSI.                     Yes:  Serv Intrp, MWD 
 OTIM.hr                196.57:  Time Operating 
 PCON.           Look Like New:  Pad Condition 
 PMAX.psia             7400.00:  Press Op, Max 
 PV  .cP                 36.00:  Mud PV 
 RUN .                    1000:  Run Number 
 ROPA.m/hr               25.00:  ROP Avg 
 ROPN.m/hr               10.00:  ROP Min 
 ROPX.m/hr               32.00:  ROP Max 
 RPMA.rpm               120.00:  RPM Surface Avg 
 RPMN.rpm               100.00:  RPM Surface Min 
 RPMX.rpm               140.00:  RPM Surface Max 
 RRUN.                    L504:  Rig Run Number 
 SAZI.deg               308.25:  Azm, Start 
 SDEP.m                4364.01:  Start Depth 
 SIDD.                      No:  Serv Intrp, DD 
 SINC.deg                63.81:  Inc, Start 
 SPPA.psig             5800.00:  SPP Avg 
 SPPN.psig             4200.00:  SPP Min 
 SPPX.psig             5950.00:  SPP Max 
 STIM.      18.00.00 01-Aug-20:  Start Time 
 SVCS.                 DD, MWD:  Services 
 SVER.                    9.20:  Sperry Version 
 TDAT.m                 934.00:  Tot Depth Attmp 
 TDDF.                      No:  Trip for DD 
 TDLG.m                 934.00:  Tot Depth Loggd 
 TFF .                      No:  Trip for Fail 
 TQAA.f-kp               31.00:  Torque Abs Avg 
 TQAN.f-kp               25.00:  Torque Abs Min 
 TQAX.f-kp               35.00:  Torque Abs Max 
 TRRT.°/30m              -0.75:  Turn Rotating 
 MRT .                  EWR-M5:  Maximum Recorded Temperature 
 TTMX.degC               95.00:  Max Tool Temp 
 VS01.                90516060:  Virtual Str1 SN 
 VS02.                90528488:  Virtual Str2 SN 
 VS03.                90577970:  Virtual Str3 SN 
 VS04.                12385033:  Virtual Str4 SN 
 VS05.                90522069:  Virtual Str5 SN 
 VS06.                13124134:  Virtual Str6 SN 
 WBMN.klb                20.00:  WOB Min 
 WITN.         Alistair Sprott:  Customer Rep 
 WITN.     Ronal van der Kraan:  Customer Rep 2 
 WOBA.klb                25.00:  WOB Avg 
 WOBX.klb                31.00:  WOB Max 
 YP  .lhf2               32.00:  Yield Point 
~Curve Information Block
#MNEM.UNIT                 API CODE     Curve Description
#---------               -----------    ---------------------------
 TIME.HHMMSS            00 000 000 000:  GT Time & Date
 GTDEPTH.m              00 000 000 000:  GT Depth
 GTPQH.psia             00 000 000 000:  GT HR Quartz Pressure
 GTTQ.degC              00 000 000 000:  GT Quartz Temperature
 GTTN.NONE              00 000 000 000:  GT Test Number
 GTET.sec               00 000 000 000:  GT Elapsed Test Time
 GTTVD.m                00 000 000 000:  GT True Vertical Depth
#Other Information
#
#WARRANTY: Halliburton will use its best efforts to furnish customers with 
#accurate information and interpretations that are part of, and incident to, the services 
#provided.  However, Halliburton cannot and does not warrant the accuracy 
#or correctness of such information and interpretations.  Under no circumstances should any 
#such information or interpretation be relied upon as the sole basis for any drilling, 
#completion, production, or financial decision or any procedure involving any risk to the 
#safety of any drilling venture, drilling rig or its crew or any other third party.  The 
#Customer has full responsibility for all drilling, completion and production operation.  
#Halliburton makes no representations or warranties, either expressed or 
#implied, including, but not limited to, the implied warranties of merchantability or fitness 
#for a particular purpose, with respect to the services rendered.  In no event will 
#Halliburton be liable for failure to obtain any particular results or for 
#any damages, including, but not limited to, indirect, special or consequential damages, 
#resulting from the use of any information or interpretation provided by Halliburton.
#
~A           TIME           GTDEPTH  GTPQH  GTTQ  GTTN  GTET   GTTVD  
# ...
   07:09:30.000.08-Aug-2020 5163.51 7163.50 78.46 5.00  23.00 3349.29
   07:09:30.200.08-Aug-2020 5163.51 7163.50 78.46 5.00  23.20 3349.29
   07:09:30.400.08-Aug-2020 5163.51 7163.29 78.46 5.00  23.40 3349.29
   07:09:30.600.08-Aug-2020 5163.51 7163.68 78.46 5.00  23.60 3349.29
   07:09:30.800.08-Aug-2020 5163.51 7166.05 78.46 5.00  23.80 3349.29
   07:09:31.000.08-Aug-2020 5163.51 7166.97 78.46 5.00  24.00 3349.29
   07:09:31.200.08-Aug-2020 5163.51 7166.97 78.46 5.00  24.20 3349.29
   07:09:31.400.08-Aug-2020 5163.51 7163.99 78.46 5.00  24.40 3349.29
   07:09:31.600.08-Aug-2020 5163.51 7165.29 78.46 5.00  24.60 3349.29
   07:09:31.800.08-Aug-2020 5163.51 7164.98 78.46 5.00  24.80 3349.29
   07:09:32.000.08-Aug-2020 5163.51 7164.43 78.46 5.00  25.00 3349.29
   07:09:32.200.08-Aug-2020 5163.51 7164.43 78.46 5.00  25.20 3349.29
   07:09:32.400.08-Aug-2020 5163.51 7163.12 78.46 5.00  25.40 3349.29
   07:09:32.600.08-Aug-2020 5163.51 7163.88 78.46 5.00  25.60 3349.29
   07:09:32.800.08-Aug-2020 5163.51 7163.36 78.46 5.00  25.80 3349.29
   07:09:33.000.08-Aug-2020 5163.51 7163.32 78.46 5.00  26.00 3349.29
   07:09:33.200.08-Aug-2020 5163.51 7162.95 78.46 5.00  26.20 3349.29
   07:09:33.400.08-Aug-2020 5163.51 7162.51 78.46 5.00  26.40 3349.29
   07:09:33.600.08-Aug-2020 5163.51 7161.89 78.46 5.00  26.60 3349.29
   07:09:33.800.08-Aug-2020 5163.51 7161.68 78.46 5.00  26.80 3349.29
   07:09:34.000.08-Aug-2020 5163.51 7161.63 78.45 5.00  27.00 3349.29
   07:09:34.200.08-Aug-2020 5163.51 7161.63 78.45 5.00  27.20 3349.29
   07:09:34.400.08-Aug-2020 5163.51 7162.62 78.45 5.00  27.40 3349.29
   07:09:34.600.08-Aug-2020 5163.51 7164.03 78.45 5.00  27.60 3349.29
   07:09:34.800.08-Aug-2020 5163.51 7162.79 78.45 5.00  27.80 3349.29
   07:09:35.000.08-Aug-2020 5163.51 7162.85 78.45 5.00  28.00 3349.29
   07:09:35.200.08-Aug-2020 5163.51 7162.85 78.45 5.00  28.20 3349.29
   07:09:35.400.08-Aug-2020 5163.51 7163.01 78.45 5.00  28.40 3349.29
   07:09:35.600.08-Aug-2020 5163.51 7163.66 78.45 5.00  28.60 3349.29
   07:09:35.800.08-Aug-2020 5163.51 7164.06 78.45 5.00  28.80 3349.29
   07:09:36.000.08-Aug-2020 5163.51 7163.32 78.45 5.00  29.00 3349.29
   07:09:36.200.08-Aug-2020 5163.51 7163.32 78.45 5.00  29.20 3349.29
   07:09:36.400.08-Aug-2020 5163.51 7164.79 78.45 5.00  29.40 3349.29
   07:09:36.600.08-Aug-2020 5163.51 7164.89 78.45 5.00  29.60 3349.29
   07:09:36.800.08-Aug-2020 5163.51 7165.04 78.45 5.00  29.80 3349.29
   07:09:37.000.08-Aug-2020 5163.51 7164.82 78.45 5.00  30.00 3349.29
   07:09:37.200.08-Aug-2020 5163.51 7164.42 78.45 5.00  30.20 3349.29
   07:09:37.400.08-Aug-2020 5163.51 7164.69 78.45 5.00  30.40 3349.29
   07:09:37.600.08-Aug-2020 5163.51 7167.96 78.45 5.00  30.60 3349.29
   07:09:37.800.08-Aug-2020 5163.51 7167.66 78.45 5.00  30.80 3349.29
   07:09:38.000.08-Aug-2020 5163.51 7165.04 78.45 5.00  31.00 3349.29
   07:09:38.200.08-Aug-2020 5163.51 7165.04 78.45 5.00  31.20 3349.29
   07:09:38.400.08-Aug-2020 5163.51 7167.76 78.45 5.00  31.40 3349.29
   07:09:38.600.08-Aug-2020 5163.51 7165.37 78.45 5.00  31.60 3349.29
   07:09:38.800.08-Aug-2020 5163.51 7165.03 78.45 5.00  31.80 3349.29
   07:09:39.000.08-Aug-2020 5163.51 7165.54 78.45 5.00  32.00 3349.29
   07:09:39.200.08-Aug-2020 5163.51 7165.54 78.45 5.00  32.20 3349.29
   07:09:39.400.08-Aug-2020 5163.51 7171.15 78.45 5.00  32.40 3349.29
   07:09:39.600.08-Aug-2020 5163.51 7164.09 78.45 5.00  32.60 3349.29
   07:09:39.800.08-Aug-2020 5163.51 7166.74 78.45 5.00  32.80 3349.29
   07:09:40.000.08-Aug-2020 5163.51 7166.34 78.45 5.00  33.00 3349.29
   07:09:40.200.08-Aug-2020 5163.51 7166.34 78.45 5.00  33.20 3349.29
   07:09:40.400.08-Aug-2020 5163.51 7166.21 78.44 5.00  33.40 3349.29
   07:09:40.600.08-Aug-2020 5163.51 7165.86 78.44 5.00  33.60 3349.29
   07:09:40.800.08-Aug-2020 5163.51 7169.70 78.44 5.00  33.80 3349.29
   07:09:41.000.08-Aug-2020 5163.51 7166.36 78.44 5.00  34.00 3349.29
   07:09:41.200.08-Aug-2020 5163.51 7166.45 78.44 5.00  34.20 3349.29
   07:09:41.400.08-Aug-2020 5163.51 7165.21 78.44 5.00  34.40 3349.29
   07:09:41.600.08-Aug-2020 5163.51 7172.06 78.44 5.00  34.60 3349.29
   07:09:41.800.08-Aug-2020 5163.51 7164.97 78.44 5.00  34.80 3349.29
   07:09:42.000.08-Aug-2020 5163.51 7167.66 78.44 5.00  35.00 3349.29
   07:09:42.200.08-Aug-2020 5163.51 7167.66 78.44 5.00  35.20 3349.29
   07:09:42.400.08-Aug-2020 5163.51 7165.31 78.44 5.00  35.40 3349.29
   07:09:42.600.08-Aug-2020 5163.51 7166.19 78.44 5.00  35.60 3349.29
   07:09:42.800.08-Aug-2020 5163.51 7165.26 78.44 5.00  35.80 3349.29
   07:09:43.000.08-Aug-2020 5163.51 7166.25 78.44 5.00  36.00 3349.29
   07:09:43.200.08-Aug-2020 5163.51 7166.25 78.44 5.00  36.20 3349.29
   07:09:43.400.08-Aug-2020 5163.51 7166.18 78.44 5.00  36.40 3349.29
   07:09:43.600.08-Aug-2020 5163.51 7165.90 78.44 5.00  36.60 3349.29
   07:09:43.800.08-Aug-2020 5163.51 7166.85 78.44 5.00  36.80 3349.29
   07:09:44.000.08-Aug-2020 5163.51 7167.13 78.44 5.00  37.00 3349.29
   07:09:44.200.08-Aug-2020 5163.51 7167.13 78.44 5.00  37.20 3349.29
   07:09:44.400.08-Aug-2020 5163.51 7167.10 78.44 5.00  37.40 3349.29
   07:09:44.600.08-Aug-2020 5163.51 7166.99 78.44 5.00  37.60 3349.29
   07:09:44.800.08-Aug-2020 5163.51 7167.12 78.44 5.00  37.80 3349.29
   07:09:45.000.08-Aug-2020 5163.51 7166.25 78.44 5.00  38.00 3349.29
   07:09:45.200.08-Aug-2020 5163.51 7172.61 78.44 5.00  38.20 3349.29
   07:09:45.400.08-Aug-2020 5163.51 7165.28 78.44 5.00  38.40 3349.29
   07:09:45.600.08-Aug-2020 5163.51 7166.90 78.44 5.00  38.60 3349.29
   07:09:45.800.08-Aug-2020 5163.51 7166.89 78.44 5.00  38.80 3349.29
   07:09:46.000.08-Aug-2020 5163.51 7166.99 78.44 5.00  39.00 3349.29
   07:09:46.200.08-Aug-2020 5163.51 7166.93 78.44 5.00  39.20 3349.29
   07:09:46.400.08-Aug-2020 5163.51 7167.11 78.44 5.00  39.40 3349.29
   07:09:46.600.08-Aug-2020 5163.51 7167.60 78.44 5.00  39.60 3349.29
   07:09:46.800.08-Aug-2020 5163.51 7167.22 78.44 5.00  39.80 3349.29
   07:09:47.000.08-Aug-2020 5163.51 7166.99 78.43 5.00  40.00 3349.29
   07:09:47.200.08-Aug-2020 5163.51 7166.99 78.43 5.00  40.20 3349.29
   07:09:47.400.08-Aug-2020 5163.51 7168.24 78.43 5.00  40.40 3349.29
   07:09:47.600.08-Aug-2020 5163.51 7167.93 78.43 5.00  40.60 3349.29
   07:09:47.800.08-Aug-2020 5163.51 7167.66 78.43 5.00  40.80 3349.29
   07:09:48.000.08-Aug-2020 5163.51 7167.58 78.43 5.00  41.00 3349.29
   07:09:48.200.08-Aug-2020 5163.51 7167.58 78.43 5.00  41.20 3349.29
   07:09:48.400.08-Aug-2020 5163.51 7170.17 78.43 5.00  41.40 3349.29
   07:09:48.600.08-Aug-2020 5163.51 7169.40 78.43 5.00  41.60 3349.29
   07:09:48.800.08-Aug-2020 5163.51 7166.49 78.43 5.00  41.80 3349.29
   07:09:49.000.08-Aug-2020 5163.51 7165.73 78.43 5.00  42.00 3349.29
   07:09:49.200.08-Aug-2020 5163.51 7165.68 78.43 5.00  42.20 3349.29
   07:09:49.400.08-Aug-2020 5163.51 7171.23 78.43 5.00  42.40 3349.29
   07:09:49.600.08-Aug-2020 5163.51 7163.47 78.43 5.00  42.60 3349.29
   07:09:49.800.08-Aug-2020 5163.51 7167.47 78.43 5.00  42.80 3349.29
   07:09:50.000.08-Aug-2020 5163.51 7164.91 78.43 5.00  43.00 3349.29
   07:09:50.200.08-Aug-2020 5163.51 7164.91 78.43 5.00  43.20 3349.29
   07:09:50.400.08-Aug-2020 5163.51 7169.00 78.43 5.00  43.40 3349.29
   07:09:50.600.08-Aug-2020 5163.51 7166.79 78.43 5.00  43.60 3349.29
   07:09:50.800.08-Aug-2020 5163.51 7167.87 78.43 5.00  43.80 3349.29
   07:09:51.000.08-Aug-2020 5163.51 7166.00 78.43 5.00  44.00 3349.29
   07:09:51.200.08-Aug-2020 5163.51 7166.00 78.43 5.00  44.20 3349.29
   07:09:51.400.08-Aug-2020 5163.51 7168.16 78.43 5.00  44.40 3349.29
   07:09:51.600.08-Aug-2020 5163.51 7166.50 78.43 5.00  44.60 3349.29
   07:09:51.800.08-Aug-2020 5163.51 7167.59 78.43 5.00  44.80 3349.29
   07:09:52.000.08-Aug-2020 5163.51 7166.03 78.43 5.00  45.00 3349.29
   07:09:52.200.08-Aug-2020 5163.51 7166.03 78.43 5.00  45.20 3349.29
   07:09:52.400.08-Aug-2020 5163.51 7168.32 78.43 5.00  45.40 3349.29
   07:09:52.600.08-Aug-2020 5163.51 7164.64 78.43 5.00  45.60 3349.29
   07:09:52.800.08-Aug-2020 5163.51 7164.95 78.43 5.00  45.80 3349.29
