~Version Information
 VERS.                  2.0:   CWLS log ASCII Standard -VERSION 2.0
 WRAP.                   NO:   One line per depth step
~Well Information Block
#MNEM.UNIT     VALUE/NAME     DESCRIPTION
#---------     -----------    ---------------------------
 STRT.S             05:51:10 08-Aug-20: START TIME 05:51:10 08-Aug-20
 STOP.S             05:59:38 08-Aug-20: STOP TIME  05:59:38 08-Aug-20
 STEP.S                   0.00: STEP TIME
 NULL.                 -999.25: NULL VALUE
 DFWT.                        :  DIST FWL TEXT
 DFST.                        :  DIST FSL TEXT
 DMF .             Drill Floor:  DRILL MEAS FROM
 STIM.      13.47.44 07-Jun-20:  START TIME
 DATE.      13.47.44 27-Jul-20:  END TIME
 SPUD.               07-Jun-20:  SPUD DATE
 NREF.                    Grid:  NORTH REFERENCE
 HPTY.       Minimum Curvature:  HOLE POS TYPE
 DMOD.             Drill Model:  DRILL MOD DESC
 SVYD.                  Survey:  SURVEY DESC
 ILTD.               Lithology:  INTERP LTH DESC
 FTOP.          Formation Tops:  FORM TOPS DESC
 RIG .             West Chirag:  RIG NAME
 PDAT.          Mean Sea Level:  PERMANENT DATUM
 FLD .                     ACG:  FIELD NAME
 SON .        AZ-XX-0906363612:  JOB NUMBER
 CTRY.              Azerbaijan:  COUNTRY NAME
 WELL.           J25 (Slot 35):  WELL NAME
 SRVC.          Turan Drilling:  CONTRACTOR
 COMP.     BP Exploration (Caspian Sea) Ltd:  COMPANY
 UWI .                     N/A:  UNIQUE WELL IDENTIFIER
 API .                     N/A:  API NUMBER
 BASE.              Azerbaijan:  LOGGING EQUIPMENT BASE LOCATION
 REGN.                   EESSA:  REGION
 PROV.                    Baku:  PROVINCE
 STAT.                    Baku:  STATE NAME
 MWDS.                     N/A:  MWD SHOP
 DOE .                     N/A:  DOE NUMBER
 DCON.         Sperry Drilling:  DIRECTNL CONTR
 UNIT.                     N/A:  LOGGING EQUIPMENT ID
 MDS .        Operator Entered:  MAG DATA SOURCE
 JOBN.        AZ-XX-0906363612:  JOB TICKET NUMB
 WTYP.                Deviated:  WELL TYPE
 CNTY.                        :  COUNTY
 LOC .                        :  LOCATION
 LMF .             Drill Floor:  LOG MEASURED FROM
 TVDS.m                  43.00:  TVDSS CORRECTN
 LATI.deg                40.13:  LATITUDE
 LONG.deg                51.22:  LONGITUDE
 WHNS.m                  -7.90:  WELL HEAD N/S
 WHEW.m                  -3.35:  WELL HEAD E/W
 UTMX.m              519005.06:  UTM X
 UTMY.m             4443793.85:  UTM Y
 DFWL.m                   0.00:  DISTANCE FWL
 DFSL.m                   0.00:  DISTANCE FSL
 SDEP.m                   0.00:  START DEPTH
 TDD .m                   0.00:  TOTAL DEPTH (DRILLER)
 VSDR.deg               308.97:  VERT SEC DIRECT
 GVFD.g                   1.00:  GRAVITY FIELD
 MFLD.nT              50350.00:  MAGNETIC FIELD
 MDIP.deg                59.62:  MAGNETIC DIP
 MDEC.deg                 6.44:  MAGNETIC DECL
 GRDC.deg                 0.13:  GRID CORRECTION
 AZTC.deg                 6.32:  AZM TOTAL CORR
 EPD .m                   0.00:  ELEVATION
 EGL .m                   0.00:  GROUND ELEVATION
 WDMS.m                 169.80:  WD ELEV
 APD .m                  43.00:  DEPTH ABOVE PD
 DEP .m                 356.43:  DEPTH
 AGAP.m                  43.00:  AIR GAP
 VSEW.m                  -3.35:  VERT SEC E/W
 VSNS.m                  -7.90:  VERT SEC N/S
 EKB .m                  43.00:  KB ELEVATION
 EDF .m                  43.00:  DF ELEVATION
 TDL .m                 934.00:  TOTAL DEPTH (LOGGER)
 VSC .                       0:  VS TO CLOSURE
 MAGU.                 1852825:  MAGUTM CHECKSUM
~Parameter Information Block
#MNEM.UNIT       Value        Description
#---------     -----------    ---------------------------
 AV  .mps                 0.80:  Ann Velocity 
 AVMX.mps                 1.70:  Max Ann Veloc 
 AZIF.deg               311.41:  Azm, Final 
 BHAT.        Rotary Steerable:  BHA Type 
 BROT.°/30m               0.09:  Build Rotating 
 BS  .in                 12.25:  Bit Size 
 BSZ .in                 12.25:  Bit Size 
 BTPL.psig              800.00:  Bit Press Loss 
 CABU.                      No:  Customer Abuse 
 COMM.                     ¤'V:  Run Comments 1 
 TCS .hr                 96.00:  Time Ciculation Ended 
 CV  .mps                 2.03:  Crit Velocity 
 CVMX.mps                 2.42:  Max Crit Veloc 
 DD1 .          Taghi Taghiyev:  Direct Drillr 1 
 DD2 .      Tariel Pirmammadov:  Direct Drillr 2 
 DD3 .          Teymur Aghayev:  Direct Drillr 3 
 DDSV.                 iCruise:  DD Service 
 DEFF.%                  98.70:  % Det Eff 
 DLRX.°/30m               1.00:  Dogleg Rot Max 
 DLSO.°/30m               1.80:  Dogleg Oriented 
 DLSX.°/30m               3.16:  Dogleg Str Max 
 DRET.      15.00.00 07-Aug-20:  Drill End Time 
 DRST.      17.00.00 02-Aug-20:  Drill Start Tim 
 DTIM.hr                 45.90:  Time Drilling 
 EDEP.m                5298.01:  End Depth 
 ENG1.       Seymur Iskandarov:  Engineer 1 
 ENG2.         Yevgeniy Ulikov:  Engineer 2 
 ENG3.      Artemiy Matviyanov:  Engineer 3 
 ENG4.         Bahruz Mehdiyev:  Engineer 4 
 ETIM.      05.00.00 10-Aug-20:  End Time 
 FLOI.gpm              1150.00:  Flow In 
 FLON.gpm               900.00:  Flow In Min 
 FLOS.cptm                0.00:  Fluid Loss 
 FLOX.gpm              1200.00:  Flow In Max 
 FTRO.     Connectivity, Formation Presure:  FTWD Run Obj 
 HFLO.                      No:  High Flow 
 HPRE.                     Yes:  High Pressure 
 HTEM.                      No:  High Temp 
 HYDO.m                   1.80:  Hydro Offset 
 IFIN.deg                 9.71:  Inc, Final 
 IMAX.deg                63.81:  Inc Max 
 IMIN.deg                 9.53:  Inc Min 
 IMND.m                5075.52:  Inc Min Depth 
 IMXD.m                4367.08:  Inc Max Depth 
 JARR.                      No:  Jarring 
 LETM.      15.00.00 07-Aug-20:  Log End Time 
 LOST.hr                     2:  Lost Rig Time 
 LSTM.      17.00.00 02-Aug-20:  Log Start Time 
 MDCL.ppm             42500.00:  Mud Chlorides 
 MDES.     Inversion Oil/Synthetic:  Mud Desc 
 DFD .sg                  1.46:  Mud Density 
 MDMN.sg                  1.46:  Dens Mud Min 
 MDMX.sg                  1.46:  Dens Mud Max 
 MOIL.                      56:  Run Mud Oil % 
 MOWR.                   70:30:  Run Mud OWR 
 MSND.                     0.1:  Run Mud Sand % 
 MSOL.                      19:  Run Mud Solids% 
 DFV .spqt               83.00:  Mud Viscosity 
 MWOD.in                  8.00:  MWD Tool OD 
 MWSI.                     Yes:  Serv Intrp, MWD 
 OTIM.hr                196.57:  Time Operating 
 PCON.           Look Like New:  Pad Condition 
 PMAX.psia             7400.00:  Press Op, Max 
 PV  .cP                 36.00:  Mud PV 
 RUN .                    1000:  Run Number 
 ROPA.m/hr               25.00:  ROP Avg 
 ROPN.m/hr               10.00:  ROP Min 
 ROPX.m/hr               32.00:  ROP Max 
 RPMA.rpm               120.00:  RPM Surface Avg 
 RPMN.rpm               100.00:  RPM Surface Min 
 RPMX.rpm               140.00:  RPM Surface Max 
 RRUN.                    L504:  Rig Run Number 
 SAZI.deg               308.25:  Azm, Start 
 SDEP.m                4364.01:  Start Depth 
 SIDD.                      No:  Serv Intrp, DD 
 SINC.deg                63.81:  Inc, Start 
 SPPA.psig             5800.00:  SPP Avg 
 SPPN.psig             4200.00:  SPP Min 
 SPPX.psig             5950.00:  SPP Max 
 STIM.      18.00.00 01-Aug-20:  Start Time 
 SVCS.                 DD, MWD:  Services 
 SVER.                    9.20:  Sperry Version 
 TDAT.m                 934.00:  Tot Depth Attmp 
 TDDF.                      No:  Trip for DD 
 TDLG.m                 934.00:  Tot Depth Loggd 
 TFF .                      No:  Trip for Fail 
 TQAA.f-kp               31.00:  Torque Abs Avg 
 TQAN.f-kp               25.00:  Torque Abs Min 
 TQAX.f-kp               35.00:  Torque Abs Max 
 TRRT.°/30m              -0.75:  Turn Rotating 
 MRT .                  EWR-M5:  Maximum Recorded Temperature 
 TTMX.degC               95.00:  Max Tool Temp 
 VS01.                90516060:  Virtual Str1 SN 
 VS02.                90528488:  Virtual Str2 SN 
 VS03.                90577970:  Virtual Str3 SN 
 VS04.                12385033:  Virtual Str4 SN 
 VS05.                90522069:  Virtual Str5 SN 
 VS06.                13124134:  Virtual Str6 SN 
 WBMN.klb                20.00:  WOB Min 
 WITN.         Alistair Sprott:  Customer Rep 
 WITN.     Ronal van der Kraan:  Customer Rep 2 
 WOBA.klb                25.00:  WOB Avg 
 WOBX.klb                31.00:  WOB Max 
 YP  .lhf2               32.00:  Yield Point 
~Curve Information Block
#MNEM.UNIT                 API CODE     Curve Description
#---------               -----------    ---------------------------
 TIME.HHMMSS            00 000 000 000:  GT Time & Date
 GTDEPTH.m              00 000 000 000:  GT Depth
 GTPQH.psia             00 000 000 000:  GT HR Quartz Pressure
 GTTQ.degC              00 000 000 000:  GT Quartz Temperature
 GTTN.NONE              00 000 000 000:  GT Test Number
 GTET.sec               00 000 000 000:  GT Elapsed Test Time
 GTTVD.m                00 000 000 000:  GT True Vertical Depth
#Other Information
#
#WARRANTY: Halliburton will use its best efforts to furnish customers with 
#accurate information and interpretations that are part of, and incident to, the services 
#provided.  However, Halliburton cannot and does not warrant the accuracy 
#or correctness of such information and interpretations.  Under no circumstances should any 
#such information or interpretation be relied upon as the sole basis for any drilling, 
#completion, production, or financial decision or any procedure involving any risk to the 
#safety of any drilling venture, drilling rig or its crew or any other third party.  The 
#Customer has full responsibility for all drilling, completion and production operation.  
#Halliburton makes no representations or warranties, either expressed or 
#implied, including, but not limited to, the implied warranties of merchantability or fitness 
#for a particular purpose, with respect to the services rendered.  In no event will 
#Halliburton be liable for failure to obtain any particular results or for 
#any damages, including, but not limited to, indirect, special or consequential damages, 
#resulting from the use of any information or interpretation provided by Halliburton.
#
~A           TIME           GTDEPTH  GTPQH  GTTQ  GTTN  GTET   GTTVD  
# ...
   05:54:14.800.08-Aug-2020 5190.42 6500.95 82.86 3.00 183.91 3375.81
   05:54:15.000.08-Aug-2020 5190.42 6500.95 82.86 3.00 184.11 3375.81
   05:54:15.200.08-Aug-2020 5190.42 6501.80 82.86 3.00 184.31 3375.81
   05:54:15.400.08-Aug-2020 5190.42 6502.44 82.86 3.00 184.51 3375.81
   05:54:15.600.08-Aug-2020 5190.42 6502.83 82.86 3.00 184.71 3375.81
   05:54:15.800.08-Aug-2020 5190.42 6503.97 82.86 3.00 184.91 3375.81
   05:54:16.000.08-Aug-2020 5190.42 6503.97 82.86 3.00 185.11 3375.81
   05:54:16.200.08-Aug-2020 5190.42 6504.90 82.86 3.00 185.31 3375.81
   05:54:16.400.08-Aug-2020 5190.42 6505.34 82.86 3.00 185.51 3375.81
   05:54:16.600.08-Aug-2020 5190.42 6505.58 82.86 3.00 185.71 3375.81
   05:54:16.799.08-Aug-2020 5190.42 6505.90 82.86 3.00 185.91 3375.81
   05:54:16.999.08-Aug-2020 5190.42 6505.90 82.86 3.00 186.11 3375.81
   05:54:17.199.08-Aug-2020 5190.42 6506.76 82.86 3.00 186.31 3375.81
   05:54:17.399.08-Aug-2020 5190.42 6507.39 82.86 3.00 186.51 3375.81
   05:54:17.599.08-Aug-2020 5190.42 6508.01 82.86 3.00 186.70 3375.81
   05:54:17.799.08-Aug-2020 5190.42 6508.46 82.86 3.00 186.90 3375.81
   05:54:17.999.08-Aug-2020 5190.42 6508.46 82.86 3.00 187.10 3375.81
   05:54:18.199.08-Aug-2020 5190.42 6509.40 82.85 3.00 187.30 3375.81
   05:54:18.399.08-Aug-2020 5190.42 6509.72 82.85 3.00 187.50 3375.81
   05:54:18.599.08-Aug-2020 5190.42 6510.15 82.85 3.00 187.70 3375.81
   05:54:18.798.08-Aug-2020 5190.42 6510.65 82.85 3.00 187.90 3375.81
   05:54:18.998.08-Aug-2020 5190.42 6510.65 82.85 3.00 188.10 3375.81
   05:54:19.198.08-Aug-2020 5190.42 6512.33 82.85 3.00 188.30 3375.81
   05:54:19.398.08-Aug-2020 5190.42 6512.59 82.85 3.00 188.50 3375.81
   05:54:19.598.08-Aug-2020 5190.42 6513.04 82.85 3.00 188.70 3375.81
   05:54:19.798.08-Aug-2020 5190.42 6513.35 82.85 3.00 188.90 3375.81
   05:54:19.998.08-Aug-2020 5190.42 6513.35 82.85 3.00 189.10 3375.81
   05:54:20.198.08-Aug-2020 5190.42 6513.52 82.85 3.00 189.30 3375.81
   05:54:20.398.08-Aug-2020 5190.42 6513.85 82.85 3.00 189.50 3375.81
   05:54:20.597.08-Aug-2020 5190.42 6514.64 82.85 3.00 189.70 3375.81
   05:54:20.797.08-Aug-2020 5190.42 6514.75 82.85 3.00 189.90 3375.81
   05:54:20.997.08-Aug-2020 5190.42 6514.75 82.85 3.00 190.10 3375.81
   05:54:21.197.08-Aug-2020 5190.42 6516.04 82.85 3.00 190.30 3375.81
   05:54:21.397.08-Aug-2020 5190.42 6516.34 82.85 3.00 190.50 3375.81
   05:54:21.597.08-Aug-2020 5190.42 6517.42 82.85 3.00 190.70 3375.81
   05:54:21.797.08-Aug-2020 5190.42 6517.90 82.85 3.00 190.90 3375.81
   05:54:21.997.08-Aug-2020 5190.42 6517.90 82.85 3.00 191.10 3375.81
   05:54:22.197.08-Aug-2020 5190.42 6518.48 82.85 3.00 191.30 3375.81
   05:54:22.397.08-Aug-2020 5190.42 6518.77 82.85 3.00 191.50 3375.81
   05:54:22.596.08-Aug-2020 5190.42 6519.80 82.85 3.00 191.70 3375.81
   05:54:22.796.08-Aug-2020 5190.42 6520.36 82.85 3.00 191.90 3375.81
   05:54:22.996.08-Aug-2020 5190.42 6520.36 82.85 3.00 192.10 3375.81
   05:54:23.196.08-Aug-2020 5190.42 6520.90 82.84 3.00 192.30 3375.81
   05:54:23.396.08-Aug-2020 5190.42 6521.14 82.84 3.00 192.50 3375.81
   05:54:23.596.08-Aug-2020 5190.42 6521.63 82.84 3.00 192.70 3375.81
   05:54:23.796.08-Aug-2020 5190.42 6521.80 82.84 3.00 192.90 3375.81
   05:54:23.996.08-Aug-2020 5190.42 6521.80 82.84 3.00 193.10 3375.81
   05:54:24.196.08-Aug-2020 5190.42 6523.24 82.84 3.00 193.30 3375.81
   05:54:24.396.08-Aug-2020 5190.42 6523.57 82.84 3.00 193.50 3375.81
   05:54:24.595.08-Aug-2020 5190.42 6523.86 82.84 3.00 193.70 3375.81
   05:54:24.795.08-Aug-2020 5190.42 6524.11 82.84 3.00 193.90 3375.81
   05:54:24.995.08-Aug-2020 5190.42 6524.11 82.84 3.00 194.10 3375.81
   05:54:25.195.08-Aug-2020 5190.42 6525.25 82.84 3.00 194.30 3375.81
   05:54:25.395.08-Aug-2020 5190.42 6525.75 82.84 3.00 194.50 3375.81
   05:54:25.595.08-Aug-2020 5190.42 6526.27 82.84 3.00 194.70 3375.81
   05:54:25.795.08-Aug-2020 5190.42 6526.58 82.84 3.00 194.90 3375.81
   05:54:25.995.08-Aug-2020 5190.42 6526.58 82.84 3.00 195.10 3375.81
   05:54:26.195.08-Aug-2020 5190.42 6528.18 82.84 3.00 195.30 3375.81
   05:54:26.395.08-Aug-2020 5190.42 6528.65 82.84 3.00 195.50 3375.81
   05:54:26.594.08-Aug-2020 5190.42 6529.36 82.84 3.00 195.70 3375.81
   05:54:26.794.08-Aug-2020 5190.42 6529.50 82.84 3.00 195.90 3375.81
   05:54:26.994.08-Aug-2020 5190.42 6529.50 82.84 3.00 196.10 3375.81
   05:54:27.194.08-Aug-2020 5190.42 6529.96 82.84 3.00 196.30 3375.81
   05:54:27.394.08-Aug-2020 5190.42 6530.13 82.84 3.00 196.50 3375.81
   05:54:27.594.08-Aug-2020 5190.42 6530.70 82.84 3.00 196.70 3375.81
   05:54:27.794.08-Aug-2020 5190.42 6531.14 82.84 3.00 196.90 3375.81
   05:54:27.994.08-Aug-2020 5190.42 6531.14 82.83 3.00 197.10 3375.81
   05:54:28.194.08-Aug-2020 5190.42 6532.46 82.83 3.00 197.30 3375.81
   05:54:28.394.08-Aug-2020 5190.42 6532.77 82.83 3.00 197.50 3375.81
   05:54:28.593.08-Aug-2020 5190.42 6533.17 82.83 3.00 197.70 3375.81
   05:54:28.793.08-Aug-2020 5190.42 6533.79 82.83 3.00 197.90 3375.81
   05:54:28.993.08-Aug-2020 5190.42 6533.79 82.83 3.00 198.10 3375.81
   05:54:29.193.08-Aug-2020 5190.42 6534.68 82.83 3.00 198.30 3375.81
   05:54:29.393.08-Aug-2020 5190.42 6535.73 82.83 3.00 198.50 3375.81
   05:54:29.593.08-Aug-2020 5190.42 6536.22 82.83 3.00 198.70 3375.81
   05:54:29.793.08-Aug-2020 5190.42 6536.33 82.83 3.00 198.90 3375.81
   05:54:29.993.08-Aug-2020 5190.42 6536.33 82.83 3.00 199.10 3375.81
   05:54:30.193.08-Aug-2020 5190.42 6537.12 82.83 3.00 199.30 3375.81
   05:54:30.393.08-Aug-2020 5190.42 6537.27 82.83 3.00 199.50 3375.81
   05:54:30.592.08-Aug-2020 5190.42 6537.26 82.83 3.00 199.70 3375.81
   05:54:30.792.08-Aug-2020 5190.42 6537.48 82.83 3.00 199.90 3375.81
   05:54:30.992.08-Aug-2020 5190.42 6537.48 82.83 3.00 200.10 3375.81
   05:54:31.192.08-Aug-2020 5190.42 6538.74 82.83 3.00 200.30 3375.81
   05:54:31.392.08-Aug-2020 5190.42 6539.67 82.83 3.00 200.50 3375.81
   05:54:31.592.08-Aug-2020 5190.42 6539.76 82.83 3.00 200.70 3375.81
   05:54:31.792.08-Aug-2020 5190.42 6177.86 82.83 3.00 200.90 3375.81
   05:54:31.992.08-Aug-2020 5190.42 6177.86 82.83 3.00 201.10 3375.81
   05:54:32.192.08-Aug-2020 5190.42 5337.62 82.83 3.00 201.30 3375.81
   05:54:32.391.08-Aug-2020 5190.42 5032.04 82.83 3.00 201.50 3375.81
   05:54:32.591.08-Aug-2020 5190.42 4768.75 82.83 3.00 201.70 3375.81
   05:54:32.791.08-Aug-2020 5190.42 4541.77 82.83 3.00 201.90 3375.81
   05:54:32.991.08-Aug-2020 5190.42 4541.77 82.83 3.00 202.10 3375.81
   05:54:33.191.08-Aug-2020 5190.42 4163.16 82.82 3.00 202.30 3375.81
   05:54:33.391.08-Aug-2020 5190.42 3998.42 82.82 3.00 202.50 3375.81
   05:54:33.591.08-Aug-2020 5190.42 3840.68 82.82 3.00 202.70 3375.81
   05:54:33.791.08-Aug-2020 5190.42 3685.93 82.82 3.00 202.90 3375.81
   05:54:33.991.08-Aug-2020 5190.42 3685.93 82.82 3.00 203.10 3375.81
   05:54:34.191.08-Aug-2020 5190.42 3384.12 82.82 3.00 203.30 3375.81
   05:54:34.390.08-Aug-2020 5190.42 3239.40 82.82 3.00 203.50 3375.81
   05:54:34.590.08-Aug-2020 5190.42 3101.17 82.82 3.00 203.70 3375.81
   05:54:34.790.08-Aug-2020 5190.42 2968.19 82.81 3.00 203.90 3375.81
   05:54:34.990.08-Aug-2020 5190.42 2968.19 82.81 3.00 204.10 3375.81
   05:54:35.190.08-Aug-2020 5190.42 2774.04 82.81 3.00 204.30 3375.81
   05:54:35.390.08-Aug-2020 5190.42 2711.92 82.81 3.00 204.50 3375.81
   05:54:35.590.08-Aug-2020 5190.42 2661.68 82.81 3.00 204.70 3375.81
   05:54:35.790.08-Aug-2020 5190.42 2613.04 82.80 3.00 204.90 3375.81
   05:54:35.990.08-Aug-2020 5190.42 2613.04 82.80 3.00 205.10 3375.81
   05:54:36.190.08-Aug-2020 5190.42 2515.14 82.80 3.00 205.30 3375.81
   05:54:36.389.08-Aug-2020 5190.42 2465.78 82.80 3.00 205.50 3375.81
   05:54:36.589.08-Aug-2020 5190.42 2418.19 82.79 3.00 205.70 3375.81
   05:54:36.789.08-Aug-2020 5190.42 2365.37 82.79 3.00 205.90 3375.81
   05:54:36.989.08-Aug-2020 5190.42 2365.37 82.79 3.00 206.10 3375.81
   05:54:37.189.08-Aug-2020 5190.42 2268.46 82.79 3.00 206.29 3375.81
   05:54:37.389.08-Aug-2020 5190.42 2222.02 82.78 3.00 206.49 3375.81
   05:54:37.589.08-Aug-2020 5190.42 2174.28 82.78 3.00 206.69 3375.81
