~Version Information
 VERS.                  2.0:   CWLS log ASCII Standard -VERSION 2.0
 WRAP.                   NO:   One line per depth step
~Well Information Block
#MNEM.UNIT     VALUE/NAME     DESCRIPTION
#---------     -----------    ---------------------------
 STRT.S             09:23:14 08-Aug-20: START TIME 09:23:14 08-Aug-20
 STOP.S             09:28:51 08-Aug-20: STOP TIME  09:28:51 08-Aug-20
 STEP.S                   0.00: STEP TIME
 NULL.                 -999.25: NULL VALUE
 DFWT.                        :  DIST FWL TEXT
 DFST.                        :  DIST FSL TEXT
 DMF .             Drill Floor:  DRILL MEAS FROM
 STIM.      13.47.44 07-Jun-20:  START TIME
 DATE.      13.47.44 27-Jul-20:  END TIME
 SPUD.               07-Jun-20:  SPUD DATE
 NREF.                    Grid:  NORTH REFERENCE
 HPTY.       Minimum Curvature:  HOLE POS TYPE
 DMOD.             Drill Model:  DRILL MOD DESC
 SVYD.                  Survey:  SURVEY DESC
 ILTD.               Lithology:  INTERP LTH DESC
 FTOP.          Formation Tops:  FORM TOPS DESC
 RIG .             West Chirag:  RIG NAME
 PDAT.          Mean Sea Level:  PERMANENT DATUM
 FLD .                     ACG:  FIELD NAME
 SON .        AZ-XX-0906363612:  JOB NUMBER
 CTRY.              Azerbaijan:  COUNTRY NAME
 WELL.           J25 (Slot 35):  WELL NAME
 SRVC.          Turan Drilling:  CONTRACTOR
 COMP.     BP Exploration (Caspian Sea) Ltd:  COMPANY
 UWI .                     N/A:  UNIQUE WELL IDENTIFIER
 API .                     N/A:  API NUMBER
 BASE.              Azerbaijan:  LOGGING EQUIPMENT BASE LOCATION
 REGN.                   EESSA:  REGION
 PROV.                    Baku:  PROVINCE
 STAT.                    Baku:  STATE NAME
 MWDS.                     N/A:  MWD SHOP
 DOE .                     N/A:  DOE NUMBER
 DCON.         Sperry Drilling:  DIRECTNL CONTR
 UNIT.                     N/A:  LOGGING EQUIPMENT ID
 MDS .        Operator Entered:  MAG DATA SOURCE
 JOBN.        AZ-XX-0906363612:  JOB TICKET NUMB
 WTYP.                Deviated:  WELL TYPE
 CNTY.                        :  COUNTY
 LOC .                        :  LOCATION
 LMF .             Drill Floor:  LOG MEASURED FROM
 TVDS.m                  43.00:  TVDSS CORRECTN
 LATI.deg                40.13:  LATITUDE
 LONG.deg                51.22:  LONGITUDE
 WHNS.m                  -7.90:  WELL HEAD N/S
 WHEW.m                  -3.35:  WELL HEAD E/W
 UTMX.m              519005.06:  UTM X
 UTMY.m             4443793.85:  UTM Y
 DFWL.m                   0.00:  DISTANCE FWL
 DFSL.m                   0.00:  DISTANCE FSL
 SDEP.m                   0.00:  START DEPTH
 TDD .m                   0.00:  TOTAL DEPTH (DRILLER)
 VSDR.deg               308.97:  VERT SEC DIRECT
 GVFD.g                   1.00:  GRAVITY FIELD
 MFLD.nT              50350.00:  MAGNETIC FIELD
 MDIP.deg                59.62:  MAGNETIC DIP
 MDEC.deg                 6.44:  MAGNETIC DECL
 GRDC.deg                 0.13:  GRID CORRECTION
 AZTC.deg                 6.32:  AZM TOTAL CORR
 EPD .m                   0.00:  ELEVATION
 EGL .m                   0.00:  GROUND ELEVATION
 WDMS.m                 169.80:  WD ELEV
 APD .m                  43.00:  DEPTH ABOVE PD
 DEP .m                 356.43:  DEPTH
 AGAP.m                  43.00:  AIR GAP
 VSEW.m                  -3.35:  VERT SEC E/W
 VSNS.m                  -7.90:  VERT SEC N/S
 EKB .m                  43.00:  KB ELEVATION
 EDF .m                  43.00:  DF ELEVATION
 TDL .m                 934.00:  TOTAL DEPTH (LOGGER)
 VSC .                       0:  VS TO CLOSURE
 MAGU.                 1852825:  MAGUTM CHECKSUM
~Parameter Information Block
#MNEM.UNIT       Value        Description
#---------     -----------    ---------------------------
 AV  .mps                 0.80:  Ann Velocity 
 AVMX.mps                 1.70:  Max Ann Veloc 
 AZIF.deg               311.41:  Azm, Final 
 BHAT.        Rotary Steerable:  BHA Type 
 BROT.°/30m               0.09:  Build Rotating 
 BS  .in                 12.25:  Bit Size 
 BSZ .in                 12.25:  Bit Size 
 BTPL.psig              800.00:  Bit Press Loss 
 CABU.                      No:  Customer Abuse 
 TCS .hr                 96.00:  Time Ciculation Ended 
 CV  .mps                 2.03:  Crit Velocity 
 CVMX.mps                 2.42:  Max Crit Veloc 
 DD1 .          Taghi Taghiyev:  Direct Drillr 1 
 DD2 .      Tariel Pirmammadov:  Direct Drillr 2 
 DD3 .          Teymur Aghayev:  Direct Drillr 3 
 DDSV.                 iCruise:  DD Service 
 DEFF.%                  98.70:  % Det Eff 
 DLRX.°/30m               1.00:  Dogleg Rot Max 
 DLSO.°/30m               1.80:  Dogleg Oriented 
 DLSX.°/30m               3.16:  Dogleg Str Max 
 DRET.      15.00.00 07-Aug-20:  Drill End Time 
 DRST.      17.00.00 02-Aug-20:  Drill Start Tim 
 DTIM.hr                 45.90:  Time Drilling 
 EDEP.m                5298.01:  End Depth 
 ENG1.       Seymur Iskandarov:  Engineer 1 
 ENG2.         Yevgeniy Ulikov:  Engineer 2 
 ENG3.      Artemiy Matviyanov:  Engineer 3 
 ENG4.         Bahruz Mehdiyev:  Engineer 4 
 ETIM.      05.00.00 10-Aug-20:  End Time 
 FLOI.gpm              1150.00:  Flow In 
 FLON.gpm               900.00:  Flow In Min 
 FLOS.cptm                0.00:  Fluid Loss 
 FLOX.gpm              1200.00:  Flow In Max 
 FTRO.     Connectivity, Formation Presure:  FTWD Run Obj 
 HFLO.                      No:  High Flow 
 HPRE.                     Yes:  High Pressure 
 HTEM.                      No:  High Temp 
 HYDO.m                   1.80:  Hydro Offset 
 IFIN.deg                 9.71:  Inc, Final 
 IMAX.deg                63.81:  Inc Max 
 IMIN.deg                 9.53:  Inc Min 
 IMND.m                5075.52:  Inc Min Depth 
 IMXD.m                4367.08:  Inc Max Depth 
 JARR.                      No:  Jarring 
 LETM.      15.00.00 07-Aug-20:  Log End Time 
 LOST.hr                     2:  Lost Rig Time 
 LSTM.      17.00.00 02-Aug-20:  Log Start Time 
 MDCL.ppm             42500.00:  Mud Chlorides 
 MDES.     Inversion Oil/Synthetic:  Mud Desc 
 DFD .sg                  1.46:  Mud Density 
 MDMN.sg                  1.46:  Dens Mud Min 
 MDMX.sg                  1.46:  Dens Mud Max 
 MOIL.                      56:  Run Mud Oil % 
 MOWR.                   70:30:  Run Mud OWR 
 MSND.                     0.1:  Run Mud Sand % 
 MSOL.                      19:  Run Mud Solids% 
 DFV .spqt               83.00:  Mud Viscosity 
 MWOD.in                  8.00:  MWD Tool OD 
 MWSI.                     Yes:  Serv Intrp, MWD 
 OTIM.hr                196.57:  Time Operating 
 PCON.           Look Like New:  Pad Condition 
 PMAX.psia             7400.00:  Press Op, Max 
 PV  .cP                 36.00:  Mud PV 
 RUN .                    1000:  Run Number 
 ROPA.m/hr               25.00:  ROP Avg 
 ROPN.m/hr               10.00:  ROP Min 
 ROPX.m/hr               32.00:  ROP Max 
 RPMA.rpm               120.00:  RPM Surface Avg 
 RPMN.rpm               100.00:  RPM Surface Min 
 RPMX.rpm               140.00:  RPM Surface Max 
 RRUN.                    L504:  Rig Run Number 
 SAZI.deg               308.25:  Azm, Start 
 SDEP.m                4364.01:  Start Depth 
 SIDD.                      No:  Serv Intrp, DD 
 SINC.deg                63.81:  Inc, Start 
 SPPA.psig             5800.00:  SPP Avg 
 SPPN.psig             4200.00:  SPP Min 
 SPPX.psig             5950.00:  SPP Max 
 STIM.      18.00.00 01-Aug-20:  Start Time 
 SVCS.                 DD, MWD:  Services 
 SVER.                    9.20:  Sperry Version 
 TDAT.m                 934.00:  Tot Depth Attmp 
 TDDF.                      No:  Trip for DD 
 TDLG.m                 934.00:  Tot Depth Loggd 
 TFF .                      No:  Trip for Fail 
 TQAA.f-kp               31.00:  Torque Abs Avg 
 TQAN.f-kp               25.00:  Torque Abs Min 
 TQAX.f-kp               35.00:  Torque Abs Max 
 TRRT.°/30m              -0.75:  Turn Rotating 
 MRT .                  EWR-M5:  Maximum Recorded Temperature 
 TTMX.degC               95.00:  Max Tool Temp 
 VS01.                90516060:  Virtual Str1 SN 
 VS02.                90528488:  Virtual Str2 SN 
 VS03.                90577970:  Virtual Str3 SN 
 VS04.                12385033:  Virtual Str4 SN 
 VS05.                90522069:  Virtual Str5 SN 
 VS06.                13124134:  Virtual Str6 SN 
 WBMN.klb                20.00:  WOB Min 
 WITN.         Alistair Sprott:  Customer Rep 
 WITN.     Ronal van der Kraan:  Customer Rep 2 
 WOBA.klb                25.00:  WOB Avg 
 WOBX.klb                31.00:  WOB Max 
 YP  .lhf2               32.00:  Yield Point 
~Curve Information Block
#MNEM.UNIT                 API CODE     Curve Description
#---------               -----------    ---------------------------
 TIME.HHMMSS            00 000 000 000:  GT Time & Date
 GTDEPTH.m              00 000 000 000:  GT Depth
 GTPQH.psia             00 000 000 000:  GT HR Quartz Pressure
 GTTQ.degC              00 000 000 000:  GT Quartz Temperature
 GTTN.NONE              00 000 000 000:  GT Test Number
 GTET.sec               00 000 000 000:  GT Elapsed Test Time
 GTTVD.m                00 000 000 000:  GT True Vertical Depth
#Other Information
#
#WARRANTY: Halliburton will use its best efforts to furnish customers with 
#accurate information and interpretations that are part of, and incident to, the services 
#provided.  However, Halliburton cannot and does not warrant the accuracy 
#or correctness of such information and interpretations.  Under no circumstances should any 
#such information or interpretation be relied upon as the sole basis for any drilling, 
#completion, production, or financial decision or any procedure involving any risk to the 
#safety of any drilling venture, drilling rig or its crew or any other third party.  The 
#Customer has full responsibility for all drilling, completion and production operation.  
#Halliburton makes no representations or warranties, either expressed or 
#implied, including, but not limited to, the implied warranties of merchantability or fitness 
#for a particular purpose, with respect to the services rendered.  In no event will 
#Halliburton be liable for failure to obtain any particular results or for 
#any damages, including, but not limited to, indirect, special or consequential damages, 
#resulting from the use of any information or interpretation provided by Halliburton.
#
~A           TIME           GTDEPTH  GTPQH  GTTQ  GTTN  GTET   GTTVD  
# ...
   09:26:19.093.08-Aug-2020 5133.51 4124.87 75.06 8.00 184.10 3319.72
   09:26:19.293.08-Aug-2020 5133.51 4124.87 75.06 8.00 184.30 3319.72
   09:26:19.493.08-Aug-2020 5133.51 4124.89 75.06 8.00 184.50 3319.72
   09:26:19.693.08-Aug-2020 5133.51 4124.86 75.06 8.00 184.70 3319.72
   09:26:19.893.08-Aug-2020 5133.51 4124.89 75.06 8.00 184.90 3319.72
   09:26:20.093.08-Aug-2020 5133.51 4124.92 75.06 8.00 185.10 3319.72
   09:26:20.293.08-Aug-2020 5133.51 4124.92 75.06 8.00 185.30 3319.72
   09:26:20.494.08-Aug-2020 5133.51 4124.88 75.06 8.00 185.50 3319.72
   09:26:20.694.08-Aug-2020 5133.51 4124.90 75.06 8.00 185.70 3319.72
   09:26:20.894.08-Aug-2020 5133.51 4124.58 75.06 8.00 185.90 3319.72
   09:26:21.094.08-Aug-2020 5133.51 4125.00 75.06 8.00 186.10 3319.72
   09:26:21.294.08-Aug-2020 5133.51 4125.00 75.06 8.00 186.30 3319.72
   09:26:21.494.08-Aug-2020 5133.51 4124.92 75.06 8.00 186.50 3319.72
   09:26:21.694.08-Aug-2020 5133.51 4124.81 75.06 8.00 186.70 3319.72
   09:26:21.894.08-Aug-2020 5133.51 4124.92 75.06 8.00 186.90 3319.72
   09:26:22.094.08-Aug-2020 5133.51 4124.87 75.06 8.00 187.10 3319.72
   09:26:22.295.08-Aug-2020 5133.51 4124.86 75.06 8.00 187.30 3319.72
   09:26:22.495.08-Aug-2020 5133.51 4124.91 75.06 8.00 187.50 3319.72
   09:26:22.695.08-Aug-2020 5133.51 4124.91 75.06 8.00 187.70 3319.72
   09:26:22.895.08-Aug-2020 5133.51 4124.85 75.06 8.00 187.90 3319.72
   09:26:23.095.08-Aug-2020 5133.51 4124.89 75.06 8.00 188.10 3319.72
   09:26:23.295.08-Aug-2020 5133.51 4124.89 75.06 8.00 188.30 3319.72
   09:26:23.495.08-Aug-2020 5133.51 4124.91 75.06 8.00 188.50 3319.72
   09:26:23.695.08-Aug-2020 5133.51 4124.88 75.06 8.00 188.70 3319.72
   09:26:23.895.08-Aug-2020 5133.51 4124.89 75.06 8.00 188.90 3319.72
   09:26:24.095.08-Aug-2020 5133.51 4124.62 75.06 8.00 189.10 3319.72
   09:26:24.296.08-Aug-2020 5133.51 4124.62 75.06 8.00 189.30 3319.72
   09:26:24.496.08-Aug-2020 5133.51 4124.76 75.06 8.00 189.50 3319.72
   09:26:24.696.08-Aug-2020 5133.51 4124.56 75.06 8.00 189.70 3319.72
   09:26:24.896.08-Aug-2020 5133.51 4124.92 75.06 8.00 189.90 3319.72
   09:26:25.096.08-Aug-2020 5133.51 4124.84 75.06 8.00 190.10 3319.72
   09:26:25.296.08-Aug-2020 5133.51 4124.84 75.06 8.00 190.30 3319.72
   09:26:25.496.08-Aug-2020 5133.51 4124.68 75.06 8.00 190.50 3319.72
   09:26:25.696.08-Aug-2020 5133.51 4124.88 75.06 8.00 190.70 3319.72
   09:26:25.896.08-Aug-2020 5133.51 4124.90 75.06 8.00 190.90 3319.72
   09:26:26.097.08-Aug-2020 5133.51 4124.78 75.06 8.00 191.10 3319.72
   09:26:26.297.08-Aug-2020 5133.51 4124.78 75.06 8.00 191.30 3319.72
   09:26:26.497.08-Aug-2020 5133.51 4124.97 75.05 8.00 191.50 3319.72
   09:26:26.697.08-Aug-2020 5133.51 4124.81 75.06 8.00 191.70 3319.72
   09:26:26.897.08-Aug-2020 5133.51 4124.78 75.05 8.00 191.90 3319.72
   09:26:27.097.08-Aug-2020 5133.51 4124.73 75.05 8.00 192.10 3319.72
   09:26:27.297.08-Aug-2020 5133.51 4124.73 75.05 8.00 192.30 3319.72
   09:26:27.497.08-Aug-2020 5133.51 4124.88 75.05 8.00 192.50 3319.72
   09:26:27.697.08-Aug-2020 5133.51 4124.78 75.05 8.00 192.70 3319.72
   09:26:27.897.08-Aug-2020 5133.51 4124.96 75.05 8.00 192.90 3319.72
   09:26:28.098.08-Aug-2020 5133.51 4124.81 75.05 8.00 193.10 3319.72
   09:26:28.298.08-Aug-2020 5133.51 4124.81 75.05 8.00 193.30 3319.72
   09:26:28.498.08-Aug-2020 5133.51 4124.84 75.05 8.00 193.50 3319.72
   09:26:28.698.08-Aug-2020 5133.51 4124.88 75.05 8.00 193.70 3319.72
   09:26:28.898.08-Aug-2020 5133.51 4124.89 75.05 8.00 193.90 3319.72
   09:26:29.098.08-Aug-2020 5133.51 4124.93 75.05 8.00 194.10 3319.72
   09:26:29.298.08-Aug-2020 5133.51 4124.93 75.05 8.00 194.30 3319.72
   09:26:29.498.08-Aug-2020 5133.51 4124.91 75.05 8.00 194.50 3319.72
   09:26:29.698.08-Aug-2020 5133.51 4124.90 75.05 8.00 194.70 3319.72
   09:26:29.899.08-Aug-2020 5133.51 4124.93 75.05 8.00 194.90 3319.72
   09:26:30.099.08-Aug-2020 5133.51 4124.88 75.05 8.00 195.10 3319.72
   09:26:30.299.08-Aug-2020 5133.51 4124.65 75.05 8.00 195.30 3319.72
   09:26:30.499.08-Aug-2020 5133.51 4124.76 75.05 8.00 195.50 3319.72
   09:26:30.699.08-Aug-2020 5133.51 4124.84 75.05 8.00 195.70 3319.72
   09:26:30.899.08-Aug-2020 5133.51 4124.88 75.05 8.00 195.90 3319.72
   09:26:31.099.08-Aug-2020 5133.51 4124.82 75.05 8.00 196.10 3319.72
   09:26:31.299.08-Aug-2020 5133.51 4124.82 75.05 8.00 196.30 3319.72
   09:26:31.499.08-Aug-2020 5133.51 4124.83 75.05 8.00 196.50 3319.72
   09:26:31.700.08-Aug-2020 5133.51 4124.89 75.05 8.00 196.70 3319.72
   09:26:31.900.08-Aug-2020 5133.51 4124.90 75.05 8.00 196.90 3319.72
   09:26:32.100.08-Aug-2020 5133.51 4124.86 75.05 8.00 197.10 3319.72
   09:26:32.300.08-Aug-2020 5133.51 4124.86 75.05 8.00 197.30 3319.72
   09:26:32.500.08-Aug-2020 5133.51 4124.90 75.05 8.00 197.50 3319.72
   09:26:32.700.08-Aug-2020 5133.51 4124.91 75.05 8.00 197.70 3319.72
   09:26:32.900.08-Aug-2020 5133.51 4124.90 75.05 8.00 197.90 3319.72
   09:26:33.100.08-Aug-2020 5133.51 4124.86 75.05 8.00 198.10 3319.72
   09:26:33.300.08-Aug-2020 5133.51 4124.86 75.05 8.00 198.30 3319.72
   09:26:33.500.08-Aug-2020 5133.51 4122.42 75.05 8.00 198.51 3319.72
   09:26:33.701.08-Aug-2020 5133.51 4105.96 75.05 8.00 198.71 3319.72
   09:26:33.901.08-Aug-2020 5133.51 4105.31 75.05 8.00 198.91 3319.72
   09:26:34.101.08-Aug-2020 5133.51 4104.42 75.05 8.00 199.11 3319.72
   09:26:34.301.08-Aug-2020 5133.51 4104.90 75.05 8.00 199.31 3319.72
   09:26:34.501.08-Aug-2020 5133.51 4104.71 75.05 8.00 199.51 3319.72
   09:26:34.701.08-Aug-2020 5133.51 4104.57 75.05 8.00 199.71 3319.72
   09:26:34.901.08-Aug-2020 5133.51 4106.30 75.05 8.00 199.91 3319.72
   09:26:35.101.08-Aug-2020 5133.51 4106.04 75.05 8.00 200.11 3319.72
   09:26:35.301.08-Aug-2020 5133.51 4106.04 75.05 8.00 200.31 3319.72
   09:26:35.502.08-Aug-2020 5133.51 4106.57 75.05 8.00 200.51 3319.72
   09:26:35.702.08-Aug-2020 5133.51 4103.34 75.05 8.00 200.71 3319.72
   09:26:35.902.08-Aug-2020 5133.51 4104.17 75.05 8.00 200.91 3319.72
   09:26:36.102.08-Aug-2020 5133.51 4104.59 75.05 8.00 201.11 3319.72
   09:26:36.302.08-Aug-2020 5133.51 4104.59 75.05 8.00 201.31 3319.72
   09:26:36.502.08-Aug-2020 5133.51 4104.76 75.05 8.00 201.51 3319.72
   09:26:36.702.08-Aug-2020 5133.51 4105.21 75.05 8.00 201.71 3319.72
   09:26:36.902.08-Aug-2020 5133.51 4104.32 75.05 8.00 201.91 3319.72
   09:26:37.102.08-Aug-2020 5133.51 4104.54 75.05 8.00 202.11 3319.72
   09:26:37.302.08-Aug-2020 5133.51 4104.54 75.05 8.00 202.31 3319.72
   09:26:37.503.08-Aug-2020 5133.51 4104.67 75.05 8.00 202.51 3319.72
   09:26:37.703.08-Aug-2020 5133.51 4104.56 75.05 8.00 202.71 3319.72
   09:26:37.903.08-Aug-2020 5133.51 4104.57 75.05 8.00 202.91 3319.72
   09:26:38.103.08-Aug-2020 5133.51 4104.28 75.05 8.00 203.11 3319.72
   09:26:38.303.08-Aug-2020 5133.51 4104.64 75.05 8.00 203.31 3319.72
   09:26:38.503.08-Aug-2020 5133.51 4104.31 75.05 8.00 203.51 3319.72
   09:26:38.703.08-Aug-2020 5133.51 4104.60 75.05 8.00 203.71 3319.72
   09:26:38.903.08-Aug-2020 5133.51 4104.75 75.05 8.00 203.91 3319.72
   09:26:39.103.08-Aug-2020 5133.51 4104.40 75.05 8.00 204.11 3319.72
   09:26:39.304.08-Aug-2020 5133.51 4104.39 75.05 8.00 204.31 3319.72
   09:26:39.504.08-Aug-2020 5133.51 4104.51 75.05 8.00 204.51 3319.72
   09:26:39.704.08-Aug-2020 5133.51 4103.79 75.05 8.00 204.71 3319.72
   09:26:39.904.08-Aug-2020 5133.51 4105.08 75.05 8.00 204.91 3319.72
   09:26:40.104.08-Aug-2020 5133.51 4105.12 75.05 8.00 205.11 3319.72
   09:26:40.304.08-Aug-2020 5133.51 4105.12 75.05 8.00 205.31 3319.72
   09:26:40.504.08-Aug-2020 5133.51 4104.42 75.05 8.00 205.51 3319.72
   09:26:40.704.08-Aug-2020 5133.51 4104.41 75.05 8.00 205.71 3319.72
   09:26:40.904.08-Aug-2020 5133.51 4104.60 75.05 8.00 205.91 3319.72
   09:26:41.104.08-Aug-2020 5133.51 4104.81 75.05 8.00 206.11 3319.72
   09:26:41.305.08-Aug-2020 5133.51 4104.81 75.05 8.00 206.31 3319.72
   09:26:41.505.08-Aug-2020 5133.51 4104.23 75.05 8.00 206.51 3319.72
   09:26:41.705.08-Aug-2020 5133.51 4104.57 75.05 8.00 206.71 3319.72
   09:26:41.905.08-Aug-2020 5133.51 4104.55 75.05 8.00 206.91 3319.72
