~Version Information
 VERS.                  2.0:   CWLS log ASCII Standard -VERSION 2.0
 WRAP.                   NO:   One line per depth step
~Well Information Block
#MNEM.UNIT     VALUE/NAME     DESCRIPTION
#---------     -----------    ---------------------------
 STRT.S             09:23:14 08-Aug-20: START TIME 09:23:14 08-Aug-20
 STOP.S             09:28:51 08-Aug-20: STOP TIME  09:28:51 08-Aug-20
 STEP.S                   0.00: STEP TIME
 NULL.                 -999.25: NULL VALUE
 DFWT.                        :  DIST FWL TEXT
 DFST.                        :  DIST FSL TEXT
 DMF .             Drill Floor:  DRILL MEAS FROM
 STIM.      13.47.44 07-Jun-20:  START TIME
 DATE.      13.47.44 27-Jul-20:  END TIME
 SPUD.               07-Jun-20:  SPUD DATE
 NREF.                    Grid:  NORTH REFERENCE
 HPTY.       Minimum Curvature:  HOLE POS TYPE
 DMOD.             Drill Model:  DRILL MOD DESC
 SVYD.                  Survey:  SURVEY DESC
 ILTD.               Lithology:  INTERP LTH DESC
 FTOP.          Formation Tops:  FORM TOPS DESC
 RIG .             West Chirag:  RIG NAME
 PDAT.          Mean Sea Level:  PERMANENT DATUM
 FLD .                     ACG:  FIELD NAME
 SON .        AZ-XX-0906363612:  JOB NUMBER
 CTRY.              Azerbaijan:  COUNTRY NAME
 WELL.           J25 (Slot 35):  WELL NAME
 SRVC.          Turan Drilling:  CONTRACTOR
 COMP.     BP Exploration (Caspian Sea) Ltd:  COMPANY
 UWI .                     N/A:  UNIQUE WELL IDENTIFIER
 API .                     N/A:  API NUMBER
 BASE.              Azerbaijan:  LOGGING EQUIPMENT BASE LOCATION
 REGN.                   EESSA:  REGION
 PROV.                    Baku:  PROVINCE
 STAT.                    Baku:  STATE NAME
 MWDS.                     N/A:  MWD SHOP
 DOE .                     N/A:  DOE NUMBER
 DCON.         Sperry Drilling:  DIRECTNL CONTR
 UNIT.                     N/A:  LOGGING EQUIPMENT ID
 MDS .        Operator Entered:  MAG DATA SOURCE
 JOBN.        AZ-XX-0906363612:  JOB TICKET NUMB
 WTYP.                Deviated:  WELL TYPE
 CNTY.                        :  COUNTY
 LOC .                        :  LOCATION
 LMF .             Drill Floor:  LOG MEASURED FROM
 TVDS.m                  43.00:  TVDSS CORRECTN
 LATI.deg                40.13:  LATITUDE
 LONG.deg                51.22:  LONGITUDE
 WHNS.m                  -7.90:  WELL HEAD N/S
 WHEW.m                  -3.35:  WELL HEAD E/W
 UTMX.m              519005.06:  UTM X
 UTMY.m             4443793.85:  UTM Y
 DFWL.m                   0.00:  DISTANCE FWL
 DFSL.m                   0.00:  DISTANCE FSL
 SDEP.m                   0.00:  START DEPTH
 TDD .m                   0.00:  TOTAL DEPTH (DRILLER)
 VSDR.deg               308.97:  VERT SEC DIRECT
 GVFD.g                   1.00:  GRAVITY FIELD
 MFLD.nT              50350.00:  MAGNETIC FIELD
 MDIP.deg                59.62:  MAGNETIC DIP
 MDEC.deg                 6.44:  MAGNETIC DECL
 GRDC.deg                 0.13:  GRID CORRECTION
 AZTC.deg                 6.32:  AZM TOTAL CORR
 EPD .m                   0.00:  ELEVATION
 EGL .m                   0.00:  GROUND ELEVATION
 WDMS.m                 169.80:  WD ELEV
 APD .m                  43.00:  DEPTH ABOVE PD
 DEP .m                 356.43:  DEPTH
 AGAP.m                  43.00:  AIR GAP
 VSEW.m                  -3.35:  VERT SEC E/W
 VSNS.m                  -7.90:  VERT SEC N/S
 EKB .m                  43.00:  KB ELEVATION
 EDF .m                  43.00:  DF ELEVATION
 TDL .m                 934.00:  TOTAL DEPTH (LOGGER)
 VSC .                       0:  VS TO CLOSURE
 MAGU.                 1852825:  MAGUTM CHECKSUM
~Parameter Information Block
#MNEM.UNIT       Value        Description
#---------     -----------    ---------------------------
 AV  .mps                 0.80:  Ann Velocity 
 AVMX.mps                 1.70:  Max Ann Veloc 
 AZIF.deg               311.41:  Azm, Final 
 BHAT.        Rotary Steerable:  BHA Type 
 BROT.°/30m               0.09:  Build Rotating 
 BS  .in                 12.25:  Bit Size 
 BSZ .in                 12.25:  Bit Size 
 BTPL.psig              800.00:  Bit Press Loss 
 CABU.                      No:  Customer Abuse 
 TCS .hr                 96.00:  Time Ciculation Ended 
 CV  .mps                 2.03:  Crit Velocity 
 CVMX.mps                 2.42:  Max Crit Veloc 
 DD1 .          Taghi Taghiyev:  Direct Drillr 1 
 DD2 .      Tariel Pirmammadov:  Direct Drillr 2 
 DD3 .          Teymur Aghayev:  Direct Drillr 3 
 DDSV.                 iCruise:  DD Service 
 DEFF.%                  98.70:  % Det Eff 
 DLRX.°/30m               1.00:  Dogleg Rot Max 
 DLSO.°/30m               1.80:  Dogleg Oriented 
 DLSX.°/30m               3.16:  Dogleg Str Max 
 DRET.      15.00.00 07-Aug-20:  Drill End Time 
 DRST.      17.00.00 02-Aug-20:  Drill Start Tim 
 DTIM.hr                 45.90:  Time Drilling 
 EDEP.m                5298.01:  End Depth 
 ENG1.       Seymur Iskandarov:  Engineer 1 
 ENG2.         Yevgeniy Ulikov:  Engineer 2 
 ENG3.      Artemiy Matviyanov:  Engineer 3 
 ENG4.         Bahruz Mehdiyev:  Engineer 4 
 ETIM.      05.00.00 10-Aug-20:  End Time 
 FLOI.gpm              1150.00:  Flow In 
 FLON.gpm               900.00:  Flow In Min 
 FLOS.cptm                0.00:  Fluid Loss 
 FLOX.gpm              1200.00:  Flow In Max 
 FTRO.     Connectivity, Formation Presure:  FTWD Run Obj 
 HFLO.                      No:  High Flow 
 HPRE.                     Yes:  High Pressure 
 HTEM.                      No:  High Temp 
 HYDO.m                   1.80:  Hydro Offset 
 IFIN.deg                 9.71:  Inc, Final 
 IMAX.deg                63.81:  Inc Max 
 IMIN.deg                 9.53:  Inc Min 
 IMND.m                5075.52:  Inc Min Depth 
 IMXD.m                4367.08:  Inc Max Depth 
 JARR.                      No:  Jarring 
 LETM.      15.00.00 07-Aug-20:  Log End Time 
 LOST.hr                     2:  Lost Rig Time 
 LSTM.      17.00.00 02-Aug-20:  Log Start Time 
 MDCL.ppm             42500.00:  Mud Chlorides 
 MDES.     Inversion Oil/Synthetic:  Mud Desc 
 DFD .sg                  1.46:  Mud Density 
 MDMN.sg                  1.46:  Dens Mud Min 
 MDMX.sg                  1.46:  Dens Mud Max 
 MOIL.                      56:  Run Mud Oil % 
 MOWR.                   70:30:  Run Mud OWR 
 MSND.                     0.1:  Run Mud Sand % 
 MSOL.                      19:  Run Mud Solids% 
 DFV .spqt               83.00:  Mud Viscosity 
 MWOD.in                  8.00:  MWD Tool OD 
 MWSI.                     Yes:  Serv Intrp, MWD 
 OTIM.hr                196.57:  Time Operating 
 PCON.           Look Like New:  Pad Condition 
 PMAX.psia             7400.00:  Press Op, Max 
 PV  .cP                 36.00:  Mud PV 
 RUN .                    1000:  Run Number 
 ROPA.m/hr               25.00:  ROP Avg 
 ROPN.m/hr               10.00:  ROP Min 
 ROPX.m/hr               32.00:  ROP Max 
 RPMA.rpm               120.00:  RPM Surface Avg 
 RPMN.rpm               100.00:  RPM Surface Min 
 RPMX.rpm               140.00:  RPM Surface Max 
 RRUN.                    L504:  Rig Run Number 
 SAZI.deg               308.25:  Azm, Start 
 SDEP.m                4364.01:  Start Depth 
 SIDD.                      No:  Serv Intrp, DD 
 SINC.deg                63.81:  Inc, Start 
 SPPA.psig             5800.00:  SPP Avg 
 SPPN.psig             4200.00:  SPP Min 
 SPPX.psig             5950.00:  SPP Max 
 STIM.      18.00.00 01-Aug-20:  Start Time 
 SVCS.                 DD, MWD:  Services 
 SVER.                    9.20:  Sperry Version 
 TDAT.m                 934.00:  Tot Depth Attmp 
 TDDF.                      No:  Trip for DD 
 TDLG.m                 934.00:  Tot Depth Loggd 
 TFF .                      No:  Trip for Fail 
 TQAA.f-kp               31.00:  Torque Abs Avg 
 TQAN.f-kp               25.00:  Torque Abs Min 
 TQAX.f-kp               35.00:  Torque Abs Max 
 TRRT.°/30m              -0.75:  Turn Rotating 
 MRT .                  EWR-M5:  Maximum Recorded Temperature 
 TTMX.degC               95.00:  Max Tool Temp 
 VS01.                90516060:  Virtual Str1 SN 
 VS02.                90528488:  Virtual Str2 SN 
 VS03.                90577970:  Virtual Str3 SN 
 VS04.                12385033:  Virtual Str4 SN 
 VS05.                90522069:  Virtual Str5 SN 
 VS06.                13124134:  Virtual Str6 SN 
 WBMN.klb                20.00:  WOB Min 
 WITN.         Alistair Sprott:  Customer Rep 
 WITN.     Ronal van der Kraan:  Customer Rep 2 
 WOBA.klb                25.00:  WOB Avg 
 WOBX.klb                31.00:  WOB Max 
 YP  .lhf2               32.00:  Yield Point 
~Curve Information Block
#MNEM.UNIT                 API CODE     Curve Description
#---------               -----------    ---------------------------
 TIME.HHMMSS            00 000 000 000:  GT Time & Date
 GTDEPTH.m              00 000 000 000:  GT Depth
 GTPQH.psia             00 000 000 000:  GT HR Quartz Pressure
 GTTQ.degC              00 000 000 000:  GT Quartz Temperature
 GTTN.NONE              00 000 000 000:  GT Test Number
 GTET.sec               00 000 000 000:  GT Elapsed Test Time
 GTTVD.m                00 000 000 000:  GT True Vertical Depth
#Other Information
#
#WARRANTY: Halliburton will use its best efforts to furnish customers with 
#accurate information and interpretations that are part of, and incident to, the services 
#provided.  However, Halliburton cannot and does not warrant the accuracy 
#or correctness of such information and interpretations.  Under no circumstances should any 
#such information or interpretation be relied upon as the sole basis for any drilling, 
#completion, production, or financial decision or any procedure involving any risk to the 
#safety of any drilling venture, drilling rig or its crew or any other third party.  The 
#Customer has full responsibility for all drilling, completion and production operation.  
#Halliburton makes no representations or warranties, either expressed or 
#implied, including, but not limited to, the implied warranties of merchantability or fitness 
#for a particular purpose, with respect to the services rendered.  In no event will 
#Halliburton be liable for failure to obtain any particular results or for 
#any damages, including, but not limited to, indirect, special or consequential damages, 
#resulting from the use of any information or interpretation provided by Halliburton.
#
~A           TIME           GTDEPTH  GTPQH  GTTQ  GTTN  GTET   GTTVD  
# ...
   09:24:24.032.08-Aug-2020 5133.51 4105.42 75.12 8.00  69.04 3319.72
   09:24:24.232.08-Aug-2020 5133.51 4105.42 75.12 8.00  69.24 3319.72
   09:24:24.432.08-Aug-2020 5133.51 4104.92 75.12 8.00  69.44 3319.72
   09:24:24.632.08-Aug-2020 5133.51 4104.37 75.11 8.00  69.64 3319.72
   09:24:24.832.08-Aug-2020 5133.51 4104.49 75.11 8.00  69.84 3319.72
   09:24:25.032.08-Aug-2020 5133.51 4104.14 75.11 8.00  70.04 3319.72
   09:24:25.233.08-Aug-2020 5133.51 4104.14 75.11 8.00  70.24 3319.72
   09:24:25.433.08-Aug-2020 5133.51 4103.90 75.11 8.00  70.44 3319.72
   09:24:25.633.08-Aug-2020 5133.51 4103.45 75.11 8.00  70.64 3319.72
   09:24:25.833.08-Aug-2020 5133.51 4103.29 75.10 8.00  70.84 3319.72
   09:24:26.033.08-Aug-2020 5133.51 4114.58 75.10 8.00  71.04 3319.72
   09:24:26.233.08-Aug-2020 5133.51 4114.58 75.10 8.00  71.24 3319.72
   09:24:26.433.08-Aug-2020 5133.51 4124.90 75.10 8.00  71.44 3319.72
   09:24:26.633.08-Aug-2020 5133.51 4124.68 75.10 8.00  71.64 3319.72
   09:24:26.833.08-Aug-2020 5133.51 4124.75 75.10 8.00  71.84 3319.72
   09:24:27.034.08-Aug-2020 5133.51 4124.94 75.09 8.00  72.04 3319.72
   09:24:27.234.08-Aug-2020 5133.51 4124.94 75.09 8.00  72.24 3319.72
   09:24:27.434.08-Aug-2020 5133.51 4124.97 75.09 8.00  72.44 3319.72
   09:24:27.634.08-Aug-2020 5133.51 4124.86 75.09 8.00  72.64 3319.72
   09:24:27.834.08-Aug-2020 5133.51 4124.89 75.09 8.00  72.84 3319.72
   09:24:28.034.08-Aug-2020 5133.51 4124.91 75.09 8.00  73.04 3319.72
   09:24:28.234.08-Aug-2020 5133.51 4124.91 75.09 8.00  73.24 3319.72
   09:24:28.434.08-Aug-2020 5133.51 4124.86 75.09 8.00  73.44 3319.72
   09:24:28.634.08-Aug-2020 5133.51 4124.95 75.08 8.00  73.64 3319.72
   09:24:28.835.08-Aug-2020 5133.51 4124.81 75.08 8.00  73.84 3319.72
   09:24:29.035.08-Aug-2020 5133.51 4124.91 75.08 8.00  74.04 3319.72
   09:24:29.235.08-Aug-2020 5133.51 4124.91 75.08 8.00  74.24 3319.72
   09:24:29.435.08-Aug-2020 5133.51 4124.83 75.08 8.00  74.44 3319.72
   09:24:29.635.08-Aug-2020 5133.51 4124.29 75.08 8.00  74.64 3319.72
   09:24:29.835.08-Aug-2020 5133.51 4124.43 75.08 8.00  74.84 3319.72
   09:24:30.035.08-Aug-2020 5133.51 4124.75 75.08 8.00  75.04 3319.72
   09:24:30.235.08-Aug-2020 5133.51 4124.22 75.08 8.00  75.24 3319.72
   09:24:30.435.08-Aug-2020 5133.51 4124.45 75.08 8.00  75.44 3319.72
   09:24:30.635.08-Aug-2020 5133.51 4124.77 75.07 8.00  75.64 3319.72
   09:24:30.836.08-Aug-2020 5133.51 4124.58 75.07 8.00  75.84 3319.72
   09:24:31.036.08-Aug-2020 5133.51 4124.41 75.07 8.00  76.04 3319.72
   09:24:31.236.08-Aug-2020 5133.51 4124.41 75.07 8.00  76.24 3319.72
   09:24:31.436.08-Aug-2020 5133.51 4124.73 75.07 8.00  76.44 3319.72
   09:24:31.636.08-Aug-2020 5133.51 4124.58 75.07 8.00  76.64 3319.72
   09:24:31.836.08-Aug-2020 5133.51 4124.73 75.07 8.00  76.84 3319.72
   09:24:32.036.08-Aug-2020 5133.51 4124.32 75.07 8.00  77.04 3319.72
   09:24:32.236.08-Aug-2020 5133.51 4124.32 75.07 8.00  77.24 3319.72
   09:24:32.436.08-Aug-2020 5133.51 4124.75 75.07 8.00  77.44 3319.72
   09:24:32.637.08-Aug-2020 5133.51 4124.50 75.07 8.00  77.64 3319.72
   09:24:32.837.08-Aug-2020 5133.51 4124.34 75.07 8.00  77.84 3319.72
   09:24:33.037.08-Aug-2020 5133.51 4124.75 75.07 8.00  78.04 3319.72
   09:24:33.237.08-Aug-2020 5133.51 4124.75 75.07 8.00  78.24 3319.72
   09:24:33.437.08-Aug-2020 5133.51 4124.46 75.07 8.00  78.44 3319.72
   09:24:33.637.08-Aug-2020 5133.51 4124.72 75.07 8.00  78.64 3319.72
   09:24:33.837.08-Aug-2020 5133.51 4124.58 75.07 8.00  78.84 3319.72
   09:24:34.037.08-Aug-2020 5133.51 4124.78 75.07 8.00  79.04 3319.72
   09:24:34.237.08-Aug-2020 5133.51 4124.72 75.07 8.00  79.24 3319.72
   09:24:34.437.08-Aug-2020 5133.51 4124.81 75.07 8.00  79.44 3319.72
   09:24:34.638.08-Aug-2020 5133.51 4124.74 75.07 8.00  79.64 3319.72
   09:24:34.838.08-Aug-2020 5133.51 4124.78 75.06 8.00  79.84 3319.72
   09:24:35.038.08-Aug-2020 5133.51 4124.81 75.06 8.00  80.04 3319.72
   09:24:35.238.08-Aug-2020 5133.51 4124.81 75.06 8.00  80.24 3319.72
   09:24:35.438.08-Aug-2020 5133.51 4124.82 75.06 8.00  80.44 3319.72
   09:24:35.638.08-Aug-2020 5133.51 4124.83 75.06 8.00  80.64 3319.72
   09:24:35.838.08-Aug-2020 5133.51 4124.83 75.06 8.00  80.84 3319.72
   09:24:36.038.08-Aug-2020 5133.51 4124.84 75.06 8.00  81.04 3319.72
   09:24:36.238.08-Aug-2020 5133.51 4124.84 75.06 8.00  81.24 3319.72
   09:24:36.439.08-Aug-2020 5133.51 4124.65 75.06 8.00  81.44 3319.72
   09:24:36.639.08-Aug-2020 5133.51 4124.44 75.06 8.00  81.64 3319.72
   09:24:36.839.08-Aug-2020 5133.51 4124.50 75.06 8.00  81.84 3319.72
   09:24:37.039.08-Aug-2020 5133.51 4124.67 75.06 8.00  82.04 3319.72
   09:24:37.239.08-Aug-2020 5133.51 4124.67 75.06 8.00  82.24 3319.72
   09:24:37.439.08-Aug-2020 5133.51 4124.72 75.06 8.00  82.44 3319.72
   09:24:37.639.08-Aug-2020 5133.51 4124.67 75.06 8.00  82.64 3319.72
   09:24:37.839.08-Aug-2020 5133.51 4124.77 75.06 8.00  82.84 3319.72
   09:24:38.039.08-Aug-2020 5133.51 4124.80 75.06 8.00  83.04 3319.72
   09:24:38.239.08-Aug-2020 5133.51 4124.80 75.06 8.00  83.24 3319.72
   09:24:38.440.08-Aug-2020 5133.51 4124.80 75.06 8.00  83.44 3319.72
   09:24:38.640.08-Aug-2020 5133.51 4124.82 75.06 8.00  83.64 3319.72
   09:24:38.840.08-Aug-2020 5133.51 4124.86 75.06 8.00  83.84 3319.72
   09:24:39.040.08-Aug-2020 5133.51 4124.81 75.06 8.00  84.04 3319.72
   09:24:39.240.08-Aug-2020 5133.51 4124.76 75.06 8.00  84.24 3319.72
   09:24:39.440.08-Aug-2020 5133.51 4124.41 75.06 8.00  84.44 3319.72
   09:24:39.640.08-Aug-2020 5133.51 4124.73 75.06 8.00  84.64 3319.72
   09:24:39.840.08-Aug-2020 5133.51 4124.41 75.06 8.00  84.84 3319.72
   09:24:40.040.08-Aug-2020 5133.51 4124.35 75.06 8.00  85.04 3319.72
   09:24:40.241.08-Aug-2020 5133.51 4124.35 75.06 8.00  85.25 3319.72
   09:24:40.441.08-Aug-2020 5133.51 4124.56 75.06 8.00  85.45 3319.72
   09:24:40.641.08-Aug-2020 5133.51 4124.77 75.06 8.00  85.65 3319.72
   09:24:40.841.08-Aug-2020 5133.51 4124.69 75.06 8.00  85.85 3319.72
   09:24:41.041.08-Aug-2020 5133.51 4124.61 75.06 8.00  86.05 3319.72
   09:24:41.241.08-Aug-2020 5133.51 4124.61 75.06 8.00  86.25 3319.72
   09:24:41.441.08-Aug-2020 5133.51 4124.70 75.06 8.00  86.45 3319.72
   09:24:41.641.08-Aug-2020 5133.51 4124.70 75.06 8.00  86.65 3319.72
   09:24:41.841.08-Aug-2020 5133.51 4124.90 75.06 8.00  86.85 3319.72
   09:24:42.041.08-Aug-2020 5133.51 4124.60 75.06 8.00  87.05 3319.72
   09:24:42.242.08-Aug-2020 5133.51 4124.76 75.06 8.00  87.25 3319.72
   09:24:42.442.08-Aug-2020 5133.51 4124.69 75.06 8.00  87.45 3319.72
   09:24:42.642.08-Aug-2020 5133.51 4124.60 75.06 8.00  87.65 3319.72
   09:24:42.842.08-Aug-2020 5133.51 4125.04 75.06 8.00  87.85 3319.72
   09:24:43.042.08-Aug-2020 5133.51 4124.67 75.06 8.00  88.05 3319.72
   09:24:43.242.08-Aug-2020 5133.51 4124.67 75.06 8.00  88.25 3319.72
   09:24:43.442.08-Aug-2020 5133.51 4124.85 75.06 8.00  88.45 3319.72
   09:24:43.642.08-Aug-2020 5133.51 4124.84 75.06 8.00  88.65 3319.72
   09:24:43.842.08-Aug-2020 5133.51 4124.92 75.06 8.00  88.85 3319.72
   09:24:44.043.08-Aug-2020 5133.51 4124.92 75.06 8.00  89.05 3319.72
   09:24:44.243.08-Aug-2020 5133.51 4124.92 75.06 8.00  89.25 3319.72
   09:24:44.443.08-Aug-2020 5133.51 4124.97 75.06 8.00  89.45 3319.72
   09:24:44.643.08-Aug-2020 5133.51 4124.97 75.06 8.00  89.65 3319.72
   09:24:44.843.08-Aug-2020 5133.51 4125.07 75.06 8.00  89.85 3319.72
   09:24:45.043.08-Aug-2020 5133.51 4125.06 75.06 8.00  90.05 3319.72
   09:24:45.243.08-Aug-2020 5133.51 4125.06 75.06 8.00  90.25 3319.72
   09:24:45.443.08-Aug-2020 5133.51 4125.05 75.06 8.00  90.45 3319.72
   09:24:45.643.08-Aug-2020 5133.51 4125.09 75.06 8.00  90.65 3319.72
   09:24:45.844.08-Aug-2020 5133.51 4124.71 75.06 8.00  90.85 3319.72
   09:24:46.044.08-Aug-2020 5133.51 4124.74 75.06 8.00  91.05 3319.72
   09:24:46.244.08-Aug-2020 5133.51 4124.74 75.06 8.00  91.25 3319.72
   09:24:46.444.08-Aug-2020 5133.51 4124.72 75.06 8.00  91.45 3319.72
   09:24:46.644.08-Aug-2020 5133.51 4124.97 75.06 8.00  91.65 3319.72
   09:24:46.844.08-Aug-2020 5133.51 4124.88 75.06 8.00  91.85 3319.72
