~Version Information
 VERS.                  2.0:   CWLS log ASCII Standard -VERSION 2.0
 WRAP.                   NO:   One line per depth step
~Well Information Block
#MNEM.UNIT     VALUE/NAME     DESCRIPTION
#---------     -----------    ---------------------------
 STRT.S             08:45:48 08-Aug-20: START TIME 08:45:48 08-Aug-20
 STOP.S             08:54:16 08-Aug-20: STOP TIME  08:54:16 08-Aug-20
 STEP.S                   0.00: STEP TIME
 NULL.                 -999.25: NULL VALUE
 DFWT.                        :  DIST FWL TEXT
 DFST.                        :  DIST FSL TEXT
 DMF .             Drill Floor:  DRILL MEAS FROM
 STIM.      13.47.44 07-Jun-20:  START TIME
 DATE.      13.47.44 27-Jul-20:  END TIME
 SPUD.               07-Jun-20:  SPUD DATE
 NREF.                    Grid:  NORTH REFERENCE
 HPTY.       Minimum Curvature:  HOLE POS TYPE
 DMOD.             Drill Model:  DRILL MOD DESC
 SVYD.                  Survey:  SURVEY DESC
 ILTD.               Lithology:  INTERP LTH DESC
 FTOP.          Formation Tops:  FORM TOPS DESC
 RIG .             West Chirag:  RIG NAME
 PDAT.          Mean Sea Level:  PERMANENT DATUM
 FLD .                     ACG:  FIELD NAME
 SON .        AZ-XX-0906363612:  JOB NUMBER
 CTRY.              Azerbaijan:  COUNTRY NAME
 WELL.           J25 (Slot 35):  WELL NAME
 SRVC.          Turan Drilling:  CONTRACTOR
 COMP.     BP Exploration (Caspian Sea) Ltd:  COMPANY
 UWI .                     N/A:  UNIQUE WELL IDENTIFIER
 API .                     N/A:  API NUMBER
 BASE.              Azerbaijan:  LOGGING EQUIPMENT BASE LOCATION
 REGN.                   EESSA:  REGION
 PROV.                    Baku:  PROVINCE
 STAT.                    Baku:  STATE NAME
 MWDS.                     N/A:  MWD SHOP
 DOE .                     N/A:  DOE NUMBER
 DCON.         Sperry Drilling:  DIRECTNL CONTR
 UNIT.                     N/A:  LOGGING EQUIPMENT ID
 MDS .        Operator Entered:  MAG DATA SOURCE
 JOBN.        AZ-XX-0906363612:  JOB TICKET NUMB
 WTYP.                Deviated:  WELL TYPE
 CNTY.                        :  COUNTY
 LOC .                        :  LOCATION
 LMF .             Drill Floor:  LOG MEASURED FROM
 TVDS.m                  43.00:  TVDSS CORRECTN
 LATI.deg                40.13:  LATITUDE
 LONG.deg                51.22:  LONGITUDE
 WHNS.m                  -7.90:  WELL HEAD N/S
 WHEW.m                  -3.35:  WELL HEAD E/W
 UTMX.m              519005.06:  UTM X
 UTMY.m             4443793.85:  UTM Y
 DFWL.m                   0.00:  DISTANCE FWL
 DFSL.m                   0.00:  DISTANCE FSL
 SDEP.m                   0.00:  START DEPTH
 TDD .m                   0.00:  TOTAL DEPTH (DRILLER)
 VSDR.deg               308.97:  VERT SEC DIRECT
 GVFD.g                   1.00:  GRAVITY FIELD
 MFLD.nT              50350.00:  MAGNETIC FIELD
 MDIP.deg                59.62:  MAGNETIC DIP
 MDEC.deg                 6.44:  MAGNETIC DECL
 GRDC.deg                 0.13:  GRID CORRECTION
 AZTC.deg                 6.32:  AZM TOTAL CORR
 EPD .m                   0.00:  ELEVATION
 EGL .m                   0.00:  GROUND ELEVATION
 WDMS.m                 169.80:  WD ELEV
 APD .m                  43.00:  DEPTH ABOVE PD
 DEP .m                 356.43:  DEPTH
 AGAP.m                  43.00:  AIR GAP
 VSEW.m                  -3.35:  VERT SEC E/W
 VSNS.m                  -7.90:  VERT SEC N/S
 EKB .m                  43.00:  KB ELEVATION
 EDF .m                  43.00:  DF ELEVATION
 TDL .m                 934.00:  TOTAL DEPTH (LOGGER)
 VSC .                       0:  VS TO CLOSURE
 MAGU.                 1852825:  MAGUTM CHECKSUM
~Parameter Information Block
#MNEM.UNIT       Value        Description
#---------     -----------    ---------------------------
 AV  .mps                 0.80:  Ann Velocity 
 AVMX.mps                 1.70:  Max Ann Veloc 
 AZIF.deg               311.41:  Azm, Final 
 BHAT.        Rotary Steerable:  BHA Type 
 BROT.°/30m               0.09:  Build Rotating 
 BS  .in                 12.25:  Bit Size 
 BSZ .in                 12.25:  Bit Size 
 BTPL.psig              800.00:  Bit Press Loss 
 CABU.                      No:  Customer Abuse 
 COMM.                     ôS:  Run Comments 1 
 TCS .hr                 96.00:  Time Ciculation Ended 
 CV  .mps                 2.03:  Crit Velocity 
 CVMX.mps                 2.42:  Max Crit Veloc 
 DD1 .          Taghi Taghiyev:  Direct Drillr 1 
 DD2 .      Tariel Pirmammadov:  Direct Drillr 2 
 DD3 .          Teymur Aghayev:  Direct Drillr 3 
 DDSV.                 iCruise:  DD Service 
 DEFF.%                  98.70:  % Det Eff 
 DLRX.°/30m               1.00:  Dogleg Rot Max 
 DLSO.°/30m               1.80:  Dogleg Oriented 
 DLSX.°/30m               3.16:  Dogleg Str Max 
 DRET.      15.00.00 07-Aug-20:  Drill End Time 
 DRST.      17.00.00 02-Aug-20:  Drill Start Tim 
 DTIM.hr                 45.90:  Time Drilling 
 EDEP.m                5298.01:  End Depth 
 ENG1.       Seymur Iskandarov:  Engineer 1 
 ENG2.         Yevgeniy Ulikov:  Engineer 2 
 ENG3.      Artemiy Matviyanov:  Engineer 3 
 ENG4.         Bahruz Mehdiyev:  Engineer 4 
 ETIM.      05.00.00 10-Aug-20:  End Time 
 FLOI.gpm              1150.00:  Flow In 
 FLON.gpm               900.00:  Flow In Min 
 FLOS.cptm                0.00:  Fluid Loss 
 FLOX.gpm              1200.00:  Flow In Max 
 FTRO.     Connectivity, Formation Presure:  FTWD Run Obj 
 HFLO.                      No:  High Flow 
 HPRE.                     Yes:  High Pressure 
 HTEM.                      No:  High Temp 
 HYDO.m                   1.80:  Hydro Offset 
 IFIN.deg                 9.71:  Inc, Final 
 IMAX.deg                63.81:  Inc Max 
 IMIN.deg                 9.53:  Inc Min 
 IMND.m                5075.52:  Inc Min Depth 
 IMXD.m                4367.08:  Inc Max Depth 
 JARR.                      No:  Jarring 
 LETM.      15.00.00 07-Aug-20:  Log End Time 
 LOST.hr                     2:  Lost Rig Time 
 LSTM.      17.00.00 02-Aug-20:  Log Start Time 
 MDCL.ppm             42500.00:  Mud Chlorides 
 MDES.     Inversion Oil/Synthetic:  Mud Desc 
 DFD .sg                  1.46:  Mud Density 
 MDMN.sg                  1.46:  Dens Mud Min 
 MDMX.sg                  1.46:  Dens Mud Max 
 MOIL.                      56:  Run Mud Oil % 
 MOWR.                   70:30:  Run Mud OWR 
 MSND.                     0.1:  Run Mud Sand % 
 MSOL.                      19:  Run Mud Solids% 
 DFV .spqt               83.00:  Mud Viscosity 
 MWOD.in                  8.00:  MWD Tool OD 
 MWSI.                     Yes:  Serv Intrp, MWD 
 OTIM.hr                196.57:  Time Operating 
 PCON.           Look Like New:  Pad Condition 
 PMAX.psia             7400.00:  Press Op, Max 
 PV  .cP                 36.00:  Mud PV 
 RUN .                    1000:  Run Number 
 ROPA.m/hr               25.00:  ROP Avg 
 ROPN.m/hr               10.00:  ROP Min 
 ROPX.m/hr               32.00:  ROP Max 
 RPMA.rpm               120.00:  RPM Surface Avg 
 RPMN.rpm               100.00:  RPM Surface Min 
 RPMX.rpm               140.00:  RPM Surface Max 
 RRUN.                    L504:  Rig Run Number 
 SAZI.deg               308.25:  Azm, Start 
 SDEP.m                4364.01:  Start Depth 
 SIDD.                      No:  Serv Intrp, DD 
 SINC.deg                63.81:  Inc, Start 
 SPPA.psig             5800.00:  SPP Avg 
 SPPN.psig             4200.00:  SPP Min 
 SPPX.psig             5950.00:  SPP Max 
 STIM.      18.00.00 01-Aug-20:  Start Time 
 SVCS.                 DD, MWD:  Services 
 SVER.                    9.20:  Sperry Version 
 TDAT.m                 934.00:  Tot Depth Attmp 
 TDDF.                      No:  Trip for DD 
 TDLG.m                 934.00:  Tot Depth Loggd 
 TFF .                      No:  Trip for Fail 
 TQAA.f-kp               31.00:  Torque Abs Avg 
 TQAN.f-kp               25.00:  Torque Abs Min 
 TQAX.f-kp               35.00:  Torque Abs Max 
 TRRT.°/30m              -0.75:  Turn Rotating 
 MRT .                  EWR-M5:  Maximum Recorded Temperature 
 TTMX.degC               95.00:  Max Tool Temp 
 VS01.                90516060:  Virtual Str1 SN 
 VS02.                90528488:  Virtual Str2 SN 
 VS03.                90577970:  Virtual Str3 SN 
 VS04.                12385033:  Virtual Str4 SN 
 VS05.                90522069:  Virtual Str5 SN 
 VS06.                13124134:  Virtual Str6 SN 
 WBMN.klb                20.00:  WOB Min 
 WITN.         Alistair Sprott:  Customer Rep 
 WITN.     Ronal van der Kraan:  Customer Rep 2 
 WOBA.klb                25.00:  WOB Avg 
 WOBX.klb                31.00:  WOB Max 
 YP  .lhf2               32.00:  Yield Point 
~Curve Information Block
#MNEM.UNIT                 API CODE     Curve Description
#---------               -----------    ---------------------------
 TIME.HHMMSS            00 000 000 000:  GT Time & Date
 GTDEPTH.m              00 000 000 000:  GT Depth
 GTPQH.psia             00 000 000 000:  GT HR Quartz Pressure
 GTTQ.degC              00 000 000 000:  GT Quartz Temperature
 GTTN.NONE              00 000 000 000:  GT Test Number
 GTET.sec               00 000 000 000:  GT Elapsed Test Time
 GTTVD.m                00 000 000 000:  GT True Vertical Depth
#Other Information
#
#WARRANTY: Halliburton will use its best efforts to furnish customers with 
#accurate information and interpretations that are part of, and incident to, the services 
#provided.  However, Halliburton cannot and does not warrant the accuracy 
#or correctness of such information and interpretations.  Under no circumstances should any 
#such information or interpretation be relied upon as the sole basis for any drilling, 
#completion, production, or financial decision or any procedure involving any risk to the 
#safety of any drilling venture, drilling rig or its crew or any other third party.  The 
#Customer has full responsibility for all drilling, completion and production operation.  
#Halliburton makes no representations or warranties, either expressed or 
#implied, including, but not limited to, the implied warranties of merchantability or fitness 
#for a particular purpose, with respect to the services rendered.  In no event will 
#Halliburton be liable for failure to obtain any particular results or for 
#any damages, including, but not limited to, indirect, special or consequential damages, 
#resulting from the use of any information or interpretation provided by Halliburton.
#
~A           TIME           GTDEPTH  GTPQH  GTTQ  GTTN  GTET   GTTVD  
# ...
   08:46:57.844.08-Aug-2020 5134.01 3421.34 76.28 7.00  69.04 3320.21
   08:46:58.044.08-Aug-2020 5134.01 3421.34 76.28 7.00  69.24 3320.21
   08:46:58.244.08-Aug-2020 5134.01 2989.56 76.28 7.00  69.44 3320.21
   08:46:58.444.08-Aug-2020 5134.01 2816.74 76.28 7.00  69.64 3320.21
   08:46:58.644.08-Aug-2020 5134.01 2718.66 76.27 7.00  69.84 3320.21
   08:46:58.844.08-Aug-2020 5134.01 2628.83 76.27 7.00  70.04 3320.21
   08:46:59.044.08-Aug-2020 5134.01 2628.83 76.27 7.00  70.24 3320.21
   08:46:59.244.08-Aug-2020 5134.01 2474.08 76.27 7.00  70.44 3320.21
   08:46:59.445.08-Aug-2020 5134.01 2391.35 76.27 7.00  70.64 3320.21
   08:46:59.645.08-Aug-2020 5134.01 2312.92 76.26 7.00  70.84 3320.21
   08:46:59.845.08-Aug-2020 5134.01 2232.52 76.26 7.00  71.04 3320.21
   08:47:00.045.08-Aug-2020 5134.01 2232.52 76.26 7.00  71.24 3320.21
   08:47:00.245.08-Aug-2020 5134.01 2073.96 76.25 7.00  71.44 3320.21
   08:47:00.445.08-Aug-2020 5134.01 1995.30 76.25 7.00  71.64 3320.21
   08:47:00.645.08-Aug-2020 5134.01 1919.67 76.25 7.00  71.84 3320.21
   08:47:00.845.08-Aug-2020 5134.01 1839.97 76.25 7.00  72.04 3320.21
   08:47:01.045.08-Aug-2020 5134.01 1839.97 76.25 7.00  72.24 3320.21
   08:47:01.246.08-Aug-2020 5134.01 1688.18 76.24 7.00  72.44 3320.21
   08:47:01.446.08-Aug-2020 5134.01 1611.12 76.24 7.00  72.64 3320.21
   08:47:01.646.08-Aug-2020 5134.01 1528.04 76.23 7.00  72.84 3320.21
   08:47:01.846.08-Aug-2020 5134.01 1447.95 76.23 7.00  73.04 3320.21
   08:47:02.046.08-Aug-2020 5134.01 1365.71 76.23 7.00  73.24 3320.21
   08:47:02.246.08-Aug-2020 5134.01 1311.75 76.22 7.00  73.44 3320.21
   08:47:02.446.08-Aug-2020 5134.01 1297.93 76.22 7.00  73.64 3320.21
   08:47:02.646.08-Aug-2020 5134.01 1297.21 76.22 7.00  73.84 3320.21
   08:47:02.846.08-Aug-2020 5134.01 1296.58 76.21 7.00  74.04 3320.21
   08:47:03.046.08-Aug-2020 5134.01 1296.58 76.21 7.00  74.24 3320.21
   08:47:03.247.08-Aug-2020 5134.01 1292.57 76.21 7.00  74.44 3320.21
   08:47:03.447.08-Aug-2020 5134.01 1291.19 76.20 7.00  74.64 3320.21
   08:47:03.647.08-Aug-2020 5134.01 1292.26 76.20 7.00  74.84 3320.21
   08:47:03.847.08-Aug-2020 5134.01 1308.88 76.19 7.00  75.04 3320.21
   08:47:04.047.08-Aug-2020 5134.01 1308.88 76.19 7.00  75.24 3320.21
   08:47:04.247.08-Aug-2020 5134.01 1332.00 76.19 7.00  75.44 3320.21
   08:47:04.447.08-Aug-2020 5134.01 1342.55 76.19 7.00  75.64 3320.21
   08:47:04.647.08-Aug-2020 5134.01 1352.61 76.18 7.00  75.84 3320.21
   08:47:04.847.08-Aug-2020 5134.01 1362.35 76.18 7.00  76.04 3320.21
   08:47:05.048.08-Aug-2020 5134.01 1371.83 76.18 7.00  76.24 3320.21
   08:47:05.248.08-Aug-2020 5134.01 1381.00 76.17 7.00  76.44 3320.21
   08:47:05.448.08-Aug-2020 5134.01 1389.91 76.17 7.00  76.64 3320.21
   08:47:05.648.08-Aug-2020 5134.01 1398.62 76.17 7.00  76.84 3320.21
   08:47:05.848.08-Aug-2020 5134.01 1407.96 76.16 7.00  77.04 3320.21
   08:47:06.048.08-Aug-2020 5134.01 1417.53 76.16 7.00  77.24 3320.21
   08:47:06.248.08-Aug-2020 5134.01 1425.82 76.16 7.00  77.44 3320.21
   08:47:06.448.08-Aug-2020 5134.01 1433.82 76.16 7.00  77.64 3320.21
   08:47:06.648.08-Aug-2020 5134.01 1441.55 76.15 7.00  77.84 3320.21
   08:47:06.848.08-Aug-2020 5134.01 1449.19 76.15 7.00  78.04 3320.21
   08:47:07.049.08-Aug-2020 5134.01 1449.19 76.15 7.00  78.24 3320.21
   08:47:07.249.08-Aug-2020 5134.01 1463.97 76.15 7.00  78.44 3320.21
   08:47:07.449.08-Aug-2020 5134.01 1471.12 76.14 7.00  78.64 3320.21
   08:47:07.649.08-Aug-2020 5134.01 1478.35 76.14 7.00  78.84 3320.21
   08:47:07.849.08-Aug-2020 5134.01 1485.36 76.14 7.00  79.04 3320.21
   08:47:08.049.08-Aug-2020 5134.01 1485.36 76.14 7.00  79.24 3320.21
   08:47:08.249.08-Aug-2020 5134.01 1499.08 76.14 7.00  79.44 3320.21
   08:47:08.449.08-Aug-2020 5134.01 1505.78 76.13 7.00  79.64 3320.21
   08:47:08.649.08-Aug-2020 5134.01 1512.35 76.13 7.00  79.84 3320.21
   08:47:08.850.08-Aug-2020 5134.01 1518.89 76.13 7.00  80.04 3320.21
   08:47:09.050.08-Aug-2020 5134.01 1518.89 76.13 7.00  80.24 3320.21
   08:47:09.250.08-Aug-2020 5134.01 1532.37 76.13 7.00  80.44 3320.21
   08:47:09.450.08-Aug-2020 5134.01 1538.86 76.13 7.00  80.64 3320.21
   08:47:09.650.08-Aug-2020 5134.01 1545.38 76.12 7.00  80.84 3320.21
   08:47:09.850.08-Aug-2020 5134.01 1552.22 76.12 7.00  81.04 3320.21
   08:47:10.050.08-Aug-2020 5134.01 1552.22 76.12 7.00  81.24 3320.21
   08:47:10.250.08-Aug-2020 5134.01 1564.84 76.12 7.00  81.44 3320.21
   08:47:10.450.08-Aug-2020 5134.01 1571.16 76.12 7.00  81.64 3320.21
   08:47:10.650.08-Aug-2020 5134.01 1577.47 76.12 7.00  81.84 3320.21
   08:47:10.851.08-Aug-2020 5134.01 1583.48 76.12 7.00  82.04 3320.21
   08:47:11.051.08-Aug-2020 5134.01 1583.48 76.12 7.00  82.24 3320.21
   08:47:11.251.08-Aug-2020 5134.01 1595.11 76.11 7.00  82.44 3320.21
   08:47:11.451.08-Aug-2020 5134.01 1600.95 76.11 7.00  82.64 3320.21
   08:47:11.651.08-Aug-2020 5134.01 1606.77 76.11 7.00  82.84 3320.21
   08:47:11.851.08-Aug-2020 5134.01 1612.78 76.11 7.00  83.04 3320.21
   08:47:12.051.08-Aug-2020 5134.01 1612.78 76.11 7.00  83.24 3320.21
   08:47:12.251.08-Aug-2020 5134.01 1624.18 76.11 7.00  83.44 3320.21
   08:47:12.451.08-Aug-2020 5134.01 1630.00 76.11 7.00  83.64 3320.21
   08:47:12.652.08-Aug-2020 5134.01 1635.59 76.11 7.00  83.84 3320.21
   08:47:12.852.08-Aug-2020 5134.01 1640.97 76.11 7.00  84.04 3320.21
   08:47:13.052.08-Aug-2020 5134.01 1640.97 76.11 7.00  84.24 3320.21
   08:47:13.252.08-Aug-2020 5134.01 1651.56 76.11 7.00  84.44 3320.21
   08:47:13.452.08-Aug-2020 5134.01 1656.85 76.11 7.00  84.64 3320.21
   08:47:13.652.08-Aug-2020 5134.01 1661.99 76.11 7.00  84.84 3320.21
   08:47:13.852.08-Aug-2020 5134.01 1667.14 76.11 7.00  85.04 3320.21
   08:47:14.052.08-Aug-2020 5134.01 1667.14 76.11 7.00  85.25 3320.21
   08:47:14.252.08-Aug-2020 5134.01 1677.46 76.11 7.00  85.45 3320.21
   08:47:14.452.08-Aug-2020 5134.01 1682.50 76.11 7.00  85.65 3320.21
   08:47:14.653.08-Aug-2020 5134.01 1687.52 76.11 7.00  85.85 3320.21
   08:47:14.853.08-Aug-2020 5134.01 1692.52 76.11 7.00  86.05 3320.21
   08:47:15.053.08-Aug-2020 5134.01 1692.52 76.11 7.00  86.25 3320.21
   08:47:15.253.08-Aug-2020 5134.01 1702.33 76.11 7.00  86.45 3320.21
   08:47:15.453.08-Aug-2020 5134.01 1707.16 76.11 7.00  86.65 3320.21
   08:47:15.653.08-Aug-2020 5134.01 1712.10 76.11 7.00  86.85 3320.21
   08:47:15.853.08-Aug-2020 5134.01 1716.99 76.11 7.00  87.05 3320.21
   08:47:16.053.08-Aug-2020 5134.01 1716.99 76.11 7.00  87.25 3320.21
   08:47:16.253.08-Aug-2020 5134.01 1726.51 76.11 7.00  87.45 3320.21
   08:47:16.454.08-Aug-2020 5134.01 1731.20 76.11 7.00  87.65 3320.21
   08:47:16.654.08-Aug-2020 5134.01 1735.90 76.11 7.00  87.85 3320.21
   08:47:16.854.08-Aug-2020 5134.01 1740.54 76.11 7.00  88.05 3320.21
   08:47:17.054.08-Aug-2020 5134.01 1740.54 76.11 7.00  88.25 3320.21
   08:47:17.254.08-Aug-2020 5134.01 1749.68 76.11 7.00  88.45 3320.21
   08:47:17.454.08-Aug-2020 5134.01 1754.31 76.11 7.00  88.65 3320.21
   08:47:17.654.08-Aug-2020 5134.01 1758.81 76.11 7.00  88.85 3320.21
   08:47:17.854.08-Aug-2020 5134.01 1763.36 76.11 7.00  89.05 3320.21
   08:47:18.054.08-Aug-2020 5134.01 1763.36 76.11 7.00  89.25 3320.21
   08:47:18.255.08-Aug-2020 5134.01 1772.31 76.11 7.00  89.45 3320.21
   08:47:18.455.08-Aug-2020 5134.01 1776.75 76.11 7.00  89.65 3320.21
   08:47:18.655.08-Aug-2020 5134.01 1781.14 76.11 7.00  89.85 3320.21
   08:47:18.855.08-Aug-2020 5134.01 1785.68 76.11 7.00  90.05 3320.21
   08:47:19.055.08-Aug-2020 5134.01 1785.68 76.11 7.00  90.25 3320.21
   08:47:19.255.08-Aug-2020 5134.01 1794.41 76.11 7.00  90.45 3320.21
   08:47:19.455.08-Aug-2020 5134.01 1798.89 76.11 7.00  90.65 3320.21
   08:47:19.655.08-Aug-2020 5134.01 1803.31 76.11 7.00  90.85 3320.21
   08:47:19.855.08-Aug-2020 5134.01 1807.56 76.11 7.00  91.05 3320.21
   08:47:20.055.08-Aug-2020 5134.01 1807.56 76.11 7.00  91.25 3320.21
   08:47:20.256.08-Aug-2020 5134.01 1815.98 76.11 7.00  91.45 3320.21
   08:47:20.456.08-Aug-2020 5134.01 1820.19 76.11 7.00  91.65 3320.21
   08:47:20.656.08-Aug-2020 5134.01 1824.49 76.11 7.00  91.85 3320.21
