~Version Information
 VERS.                  2.0:   CWLS log ASCII Standard -VERSION 2.0
 WRAP.                   NO:   One line per depth step
~Well Information Block
#MNEM.UNIT     VALUE/NAME     DESCRIPTION
#---------     -----------    ---------------------------
 STRT.S             09:23:14 08-Aug-20: START TIME 09:23:14 08-Aug-20
 STOP.S             09:28:51 08-Aug-20: STOP TIME  09:28:51 08-Aug-20
 STEP.S                   0.00: STEP TIME
 NULL.                 -999.25: NULL VALUE
 DFWT.                        :  DIST FWL TEXT
 DFST.                        :  DIST FSL TEXT
 DMF .             Drill Floor:  DRILL MEAS FROM
 STIM.      13.47.44 07-Jun-20:  START TIME
 DATE.      13.47.44 27-Jul-20:  END TIME
 SPUD.               07-Jun-20:  SPUD DATE
 NREF.                    Grid:  NORTH REFERENCE
 HPTY.       Minimum Curvature:  HOLE POS TYPE
 DMOD.             Drill Model:  DRILL MOD DESC
 SVYD.                  Survey:  SURVEY DESC
 ILTD.               Lithology:  INTERP LTH DESC
 FTOP.          Formation Tops:  FORM TOPS DESC
 RIG .             West Chirag:  RIG NAME
 PDAT.          Mean Sea Level:  PERMANENT DATUM
 FLD .                     ACG:  FIELD NAME
 SON .        AZ-XX-0906363612:  JOB NUMBER
 CTRY.              Azerbaijan:  COUNTRY NAME
 WELL.           J25 (Slot 35):  WELL NAME
 SRVC.          Turan Drilling:  CONTRACTOR
 COMP.     BP Exploration (Caspian Sea) Ltd:  COMPANY
 UWI .                     N/A:  UNIQUE WELL IDENTIFIER
 API .                     N/A:  API NUMBER
 BASE.              Azerbaijan:  LOGGING EQUIPMENT BASE LOCATION
 REGN.                   EESSA:  REGION
 PROV.                    Baku:  PROVINCE
 STAT.                    Baku:  STATE NAME
 MWDS.                     N/A:  MWD SHOP
 DOE .                     N/A:  DOE NUMBER
 DCON.         Sperry Drilling:  DIRECTNL CONTR
 UNIT.                     N/A:  LOGGING EQUIPMENT ID
 MDS .        Operator Entered:  MAG DATA SOURCE
 JOBN.        AZ-XX-0906363612:  JOB TICKET NUMB
 WTYP.                Deviated:  WELL TYPE
 CNTY.                        :  COUNTY
 LOC .                        :  LOCATION
 LMF .             Drill Floor:  LOG MEASURED FROM
 TVDS.m                  43.00:  TVDSS CORRECTN
 LATI.deg                40.13:  LATITUDE
 LONG.deg                51.22:  LONGITUDE
 WHNS.m                  -7.90:  WELL HEAD N/S
 WHEW.m                  -3.35:  WELL HEAD E/W
 UTMX.m              519005.06:  UTM X
 UTMY.m             4443793.85:  UTM Y
 DFWL.m                   0.00:  DISTANCE FWL
 DFSL.m                   0.00:  DISTANCE FSL
 SDEP.m                   0.00:  START DEPTH
 TDD .m                   0.00:  TOTAL DEPTH (DRILLER)
 VSDR.deg               308.97:  VERT SEC DIRECT
 GVFD.g                   1.00:  GRAVITY FIELD
 MFLD.nT              50350.00:  MAGNETIC FIELD
 MDIP.deg                59.62:  MAGNETIC DIP
 MDEC.deg                 6.44:  MAGNETIC DECL
 GRDC.deg                 0.13:  GRID CORRECTION
 AZTC.deg                 6.32:  AZM TOTAL CORR
 EPD .m                   0.00:  ELEVATION
 EGL .m                   0.00:  GROUND ELEVATION
 WDMS.m                 169.80:  WD ELEV
 APD .m                  43.00:  DEPTH ABOVE PD
 DEP .m                 356.43:  DEPTH
 AGAP.m                  43.00:  AIR GAP
 VSEW.m                  -3.35:  VERT SEC E/W
 VSNS.m                  -7.90:  VERT SEC N/S
 EKB .m                  43.00:  KB ELEVATION
 EDF .m                  43.00:  DF ELEVATION
 TDL .m                 934.00:  TOTAL DEPTH (LOGGER)
 VSC .                       0:  VS TO CLOSURE
 MAGU.                 1852825:  MAGUTM CHECKSUM
~Parameter Information Block
#MNEM.UNIT       Value        Description
#---------     -----------    ---------------------------
 AV  .mps                 0.80:  Ann Velocity 
 AVMX.mps                 1.70:  Max Ann Veloc 
 AZIF.deg               311.41:  Azm, Final 
 BHAT.        Rotary Steerable:  BHA Type 
 BROT.°/30m               0.09:  Build Rotating 
 BS  .in                 12.25:  Bit Size 
 BSZ .in                 12.25:  Bit Size 
 BTPL.psig              800.00:  Bit Press Loss 
 CABU.                      No:  Customer Abuse 
 TCS .hr                 96.00:  Time Ciculation Ended 
 CV  .mps                 2.03:  Crit Velocity 
 CVMX.mps                 2.42:  Max Crit Veloc 
 DD1 .          Taghi Taghiyev:  Direct Drillr 1 
 DD2 .      Tariel Pirmammadov:  Direct Drillr 2 
 DD3 .          Teymur Aghayev:  Direct Drillr 3 
 DDSV.                 iCruise:  DD Service 
 DEFF.%                  98.70:  % Det Eff 
 DLRX.°/30m               1.00:  Dogleg Rot Max 
 DLSO.°/30m               1.80:  Dogleg Oriented 
 DLSX.°/30m               3.16:  Dogleg Str Max 
 DRET.      15.00.00 07-Aug-20:  Drill End Time 
 DRST.      17.00.00 02-Aug-20:  Drill Start Tim 
 DTIM.hr                 45.90:  Time Drilling 
 EDEP.m                5298.01:  End Depth 
 ENG1.       Seymur Iskandarov:  Engineer 1 
 ENG2.         Yevgeniy Ulikov:  Engineer 2 
 ENG3.      Artemiy Matviyanov:  Engineer 3 
 ENG4.         Bahruz Mehdiyev:  Engineer 4 
 ETIM.      05.00.00 10-Aug-20:  End Time 
 FLOI.gpm              1150.00:  Flow In 
 FLON.gpm               900.00:  Flow In Min 
 FLOS.cptm                0.00:  Fluid Loss 
 FLOX.gpm              1200.00:  Flow In Max 
 FTRO.     Connectivity, Formation Presure:  FTWD Run Obj 
 HFLO.                      No:  High Flow 
 HPRE.                     Yes:  High Pressure 
 HTEM.                      No:  High Temp 
 HYDO.m                   1.80:  Hydro Offset 
 IFIN.deg                 9.71:  Inc, Final 
 IMAX.deg                63.81:  Inc Max 
 IMIN.deg                 9.53:  Inc Min 
 IMND.m                5075.52:  Inc Min Depth 
 IMXD.m                4367.08:  Inc Max Depth 
 JARR.                      No:  Jarring 
 LETM.      15.00.00 07-Aug-20:  Log End Time 
 LOST.hr                     2:  Lost Rig Time 
 LSTM.      17.00.00 02-Aug-20:  Log Start Time 
 MDCL.ppm             42500.00:  Mud Chlorides 
 MDES.     Inversion Oil/Synthetic:  Mud Desc 
 DFD .sg                  1.46:  Mud Density 
 MDMN.sg                  1.46:  Dens Mud Min 
 MDMX.sg                  1.46:  Dens Mud Max 
 MOIL.                      56:  Run Mud Oil % 
 MOWR.                   70:30:  Run Mud OWR 
 MSND.                     0.1:  Run Mud Sand % 
 MSOL.                      19:  Run Mud Solids% 
 DFV .spqt               83.00:  Mud Viscosity 
 MWOD.in                  8.00:  MWD Tool OD 
 MWSI.                     Yes:  Serv Intrp, MWD 
 OTIM.hr                196.57:  Time Operating 
 PCON.           Look Like New:  Pad Condition 
 PMAX.psia             7400.00:  Press Op, Max 
 PV  .cP                 36.00:  Mud PV 
 RUN .                    1000:  Run Number 
 ROPA.m/hr               25.00:  ROP Avg 
 ROPN.m/hr               10.00:  ROP Min 
 ROPX.m/hr               32.00:  ROP Max 
 RPMA.rpm               120.00:  RPM Surface Avg 
 RPMN.rpm               100.00:  RPM Surface Min 
 RPMX.rpm               140.00:  RPM Surface Max 
 RRUN.                    L504:  Rig Run Number 
 SAZI.deg               308.25:  Azm, Start 
 SDEP.m                4364.01:  Start Depth 
 SIDD.                      No:  Serv Intrp, DD 
 SINC.deg                63.81:  Inc, Start 
 SPPA.psig             5800.00:  SPP Avg 
 SPPN.psig             4200.00:  SPP Min 
 SPPX.psig             5950.00:  SPP Max 
 STIM.      18.00.00 01-Aug-20:  Start Time 
 SVCS.                 DD, MWD:  Services 
 SVER.                    9.20:  Sperry Version 
 TDAT.m                 934.00:  Tot Depth Attmp 
 TDDF.                      No:  Trip for DD 
 TDLG.m                 934.00:  Tot Depth Loggd 
 TFF .                      No:  Trip for Fail 
 TQAA.f-kp               31.00:  Torque Abs Avg 
 TQAN.f-kp               25.00:  Torque Abs Min 
 TQAX.f-kp               35.00:  Torque Abs Max 
 TRRT.°/30m              -0.75:  Turn Rotating 
 MRT .                  EWR-M5:  Maximum Recorded Temperature 
 TTMX.degC               95.00:  Max Tool Temp 
 VS01.                90516060:  Virtual Str1 SN 
 VS02.                90528488:  Virtual Str2 SN 
 VS03.                90577970:  Virtual Str3 SN 
 VS04.                12385033:  Virtual Str4 SN 
 VS05.                90522069:  Virtual Str5 SN 
 VS06.                13124134:  Virtual Str6 SN 
 WBMN.klb                20.00:  WOB Min 
 WITN.         Alistair Sprott:  Customer Rep 
 WITN.     Ronal van der Kraan:  Customer Rep 2 
 WOBA.klb                25.00:  WOB Avg 
 WOBX.klb                31.00:  WOB Max 
 YP  .lhf2               32.00:  Yield Point 
~Curve Information Block
#MNEM.UNIT                 API CODE     Curve Description
#---------               -----------    ---------------------------
 TIME.HHMMSS            00 000 000 000:  GT Time & Date
 GTDEPTH.m              00 000 000 000:  GT Depth
 GTPQH.psia             00 000 000 000:  GT HR Quartz Pressure
 GTTQ.degC              00 000 000 000:  GT Quartz Temperature
 GTTN.NONE              00 000 000 000:  GT Test Number
 GTET.sec               00 000 000 000:  GT Elapsed Test Time
 GTTVD.m                00 000 000 000:  GT True Vertical Depth
#Other Information
#
#WARRANTY: Halliburton will use its best efforts to furnish customers with 
#accurate information and interpretations that are part of, and incident to, the services 
#provided.  However, Halliburton cannot and does not warrant the accuracy 
#or correctness of such information and interpretations.  Under no circumstances should any 
#such information or interpretation be relied upon as the sole basis for any drilling, 
#completion, production, or financial decision or any procedure involving any risk to the 
#safety of any drilling venture, drilling rig or its crew or any other third party.  The 
#Customer has full responsibility for all drilling, completion and production operation.  
#Halliburton makes no representations or warranties, either expressed or 
#implied, including, but not limited to, the implied warranties of merchantability or fitness 
#for a particular purpose, with respect to the services rendered.  In no event will 
#Halliburton be liable for failure to obtain any particular results or for 
#any damages, including, but not limited to, indirect, special or consequential damages, 
#resulting from the use of any information or interpretation provided by Halliburton.
#
~A           TIME           GTDEPTH  GTPQH  GTTQ  GTTN  GTET   GTTVD  
# ...
   09:24:47.044.08-Aug-2020 5133.51 4124.90 75.06 8.00  92.05 3319.72
   09:24:47.244.08-Aug-2020 5133.51 4124.90 75.06 8.00  92.25 3319.72
   09:24:47.444.08-Aug-2020 5133.51 4125.00 75.06 8.00  92.45 3319.72
   09:24:47.644.08-Aug-2020 5133.51 4125.02 75.06 8.00  92.65 3319.72
   09:24:47.845.08-Aug-2020 5133.51 4125.05 75.07 8.00  92.85 3319.72
   09:24:48.045.08-Aug-2020 5133.51 4125.08 75.06 8.00  93.05 3319.72
   09:24:48.245.08-Aug-2020 5133.51 4125.08 75.06 8.00  93.25 3319.72
   09:24:48.445.08-Aug-2020 5133.51 4125.02 75.07 8.00  93.45 3319.72
   09:24:48.645.08-Aug-2020 5133.51 4125.08 75.07 8.00  93.65 3319.72
   09:24:48.845.08-Aug-2020 5133.51 4124.97 75.07 8.00  93.85 3319.72
   09:24:49.045.08-Aug-2020 5133.51 4124.46 75.07 8.00  94.05 3319.72
   09:24:49.245.08-Aug-2020 5133.51 4124.46 75.07 8.00  94.25 3319.72
   09:24:49.445.08-Aug-2020 5133.51 4124.92 75.07 8.00  94.45 3319.72
   09:24:49.646.08-Aug-2020 5133.51 4124.34 75.07 8.00  94.65 3319.72
   09:24:49.846.08-Aug-2020 5133.51 4124.76 75.07 8.00  94.85 3319.72
   09:24:50.046.08-Aug-2020 5133.51 4124.96 75.07 8.00  95.05 3319.72
   09:24:50.246.08-Aug-2020 5133.51 4124.96 75.07 8.00  95.25 3319.72
   09:24:50.446.08-Aug-2020 5133.51 4124.92 75.07 8.00  95.45 3319.72
   09:24:50.646.08-Aug-2020 5133.51 4124.68 75.07 8.00  95.65 3319.72
   09:24:50.846.08-Aug-2020 5133.51 4124.78 75.07 8.00  95.85 3319.72
   09:24:51.046.08-Aug-2020 5133.51 4124.98 75.07 8.00  96.05 3319.72
   09:24:51.246.08-Aug-2020 5133.51 4124.98 75.07 8.00  96.25 3319.72
   09:24:51.446.08-Aug-2020 5133.51 4124.81 75.07 8.00  96.45 3319.72
   09:24:51.647.08-Aug-2020 5133.51 4124.92 75.07 8.00  96.65 3319.72
   09:24:51.847.08-Aug-2020 5133.51 4124.42 75.07 8.00  96.85 3319.72
   09:24:52.047.08-Aug-2020 5133.51 4124.94 75.07 8.00  97.05 3319.72
   09:24:52.247.08-Aug-2020 5133.51 4124.94 75.07 8.00  97.25 3319.72
   09:24:52.447.08-Aug-2020 5133.51 4124.81 75.07 8.00  97.45 3319.72
   09:24:52.647.08-Aug-2020 5133.51 4124.92 75.07 8.00  97.65 3319.72
   09:24:52.847.08-Aug-2020 5133.51 4124.78 75.07 8.00  97.85 3319.72
   09:24:53.047.08-Aug-2020 5133.51 4124.97 75.07 8.00  98.05 3319.72
   09:24:53.247.08-Aug-2020 5133.51 4124.97 75.07 8.00  98.25 3319.72
   09:24:53.448.08-Aug-2020 5133.51 4124.96 75.07 8.00  98.45 3319.72
   09:24:53.648.08-Aug-2020 5133.51 4124.94 75.07 8.00  98.65 3319.72
   09:24:53.848.08-Aug-2020 5133.51 4124.98 75.07 8.00  98.85 3319.72
   09:24:54.048.08-Aug-2020 5133.51 4125.03 75.07 8.00  99.05 3319.72
   09:24:54.248.08-Aug-2020 5133.51 4124.99 75.07 8.00  99.25 3319.72
   09:24:54.448.08-Aug-2020 5133.51 4125.02 75.07 8.00  99.45 3319.72
   09:24:54.648.08-Aug-2020 5133.51 4125.05 75.07 8.00  99.65 3319.72
   09:24:54.848.08-Aug-2020 5133.51 4125.06 75.07 8.00  99.85 3319.72
   09:24:55.048.08-Aug-2020 5133.51 4125.06 75.07 8.00 100.05 3319.72
   09:24:55.248.08-Aug-2020 5133.51 4125.06 75.07 8.00 100.25 3319.72
   09:24:55.449.08-Aug-2020 5133.51 4124.99 75.07 8.00 100.45 3319.72
   09:24:55.649.08-Aug-2020 5133.51 4124.76 75.07 8.00 100.65 3319.72
   09:24:55.849.08-Aug-2020 5133.51 4124.89 75.07 8.00 100.85 3319.72
   09:24:56.049.08-Aug-2020 5133.51 4124.98 75.07 8.00 101.05 3319.72
   09:24:56.249.08-Aug-2020 5133.51 4124.98 75.07 8.00 101.25 3319.72
   09:24:56.449.08-Aug-2020 5133.51 4124.99 75.07 8.00 101.45 3319.72
   09:24:56.649.08-Aug-2020 5133.51 4124.96 75.07 8.00 101.65 3319.72
   09:24:56.849.08-Aug-2020 5133.51 4125.03 75.07 8.00 101.85 3319.72
   09:24:57.049.08-Aug-2020 5133.51 4125.00 75.07 8.00 102.05 3319.72
   09:24:57.250.08-Aug-2020 5133.51 4125.00 75.07 8.00 102.25 3319.72
   09:24:57.450.08-Aug-2020 5133.51 4125.10 75.07 8.00 102.45 3319.72
   09:24:57.650.08-Aug-2020 5133.51 4125.04 75.07 8.00 102.65 3319.72
   09:24:57.850.08-Aug-2020 5133.51 4125.10 75.07 8.00 102.85 3319.72
   09:24:58.050.08-Aug-2020 5133.51 4125.08 75.07 8.00 103.05 3319.72
   09:24:58.250.08-Aug-2020 5133.51 4125.07 75.07 8.00 103.25 3319.72
   09:24:58.450.08-Aug-2020 5133.51 4124.50 75.07 8.00 103.45 3319.72
   09:24:58.650.08-Aug-2020 5133.51 4124.96 75.07 8.00 103.65 3319.72
   09:24:58.850.08-Aug-2020 5133.51 4124.69 75.07 8.00 103.85 3319.72
   09:24:59.050.08-Aug-2020 5133.51 4124.49 75.07 8.00 104.06 3319.72
   09:24:59.251.08-Aug-2020 5133.51 4124.49 75.07 8.00 104.26 3319.72
   09:24:59.451.08-Aug-2020 5133.51 4124.66 75.07 8.00 104.46 3319.72
   09:24:59.651.08-Aug-2020 5133.51 4124.93 75.07 8.00 104.66 3319.72
   09:24:59.851.08-Aug-2020 5133.51 4124.32 75.07 8.00 104.86 3319.72
   09:25:00.051.08-Aug-2020 5133.51 4124.66 75.07 8.00 105.06 3319.72
   09:25:00.251.08-Aug-2020 5133.51 4124.66 75.07 8.00 105.26 3319.72
   09:25:00.451.08-Aug-2020 5133.51 4124.79 75.07 8.00 105.46 3319.72
   09:25:00.651.08-Aug-2020 5133.51 4124.69 75.07 8.00 105.66 3319.72
   09:25:00.851.08-Aug-2020 5133.51 4124.99 75.07 8.00 105.86 3319.72
   09:25:01.052.08-Aug-2020 5133.51 4124.74 75.07 8.00 106.06 3319.72
   09:25:01.252.08-Aug-2020 5133.51 4124.74 75.07 8.00 106.26 3319.72
   09:25:01.452.08-Aug-2020 5133.51 4124.50 75.07 8.00 106.46 3319.72
   09:25:01.652.08-Aug-2020 5133.51 4124.73 75.07 8.00 106.66 3319.72
   09:25:01.852.08-Aug-2020 5133.51 4125.03 75.07 8.00 106.86 3319.72
   09:25:02.052.08-Aug-2020 5133.51 4124.76 75.07 8.00 107.06 3319.72
   09:25:02.252.08-Aug-2020 5133.51 4125.02 75.07 8.00 107.26 3319.72
   09:25:02.452.08-Aug-2020 5133.51 4124.82 75.07 8.00 107.46 3319.72
   09:25:02.652.08-Aug-2020 5133.51 4124.95 75.07 8.00 107.66 3319.72
   09:25:02.852.08-Aug-2020 5133.51 4124.92 75.07 8.00 107.86 3319.72
   09:25:03.053.08-Aug-2020 5133.51 4125.01 75.07 8.00 108.06 3319.72
   09:25:03.253.08-Aug-2020 5133.51 4125.01 75.07 8.00 108.26 3319.72
   09:25:03.453.08-Aug-2020 5133.51 4125.00 75.07 8.00 108.46 3319.72
   09:25:03.653.08-Aug-2020 5133.51 4125.00 75.07 8.00 108.66 3319.72
   09:25:03.853.08-Aug-2020 5133.51 4125.03 75.07 8.00 108.86 3319.72
   09:25:04.053.08-Aug-2020 5133.51 4125.02 75.07 8.00 109.06 3319.72
   09:25:04.253.08-Aug-2020 5133.51 4125.02 75.07 8.00 109.26 3319.72
   09:25:04.453.08-Aug-2020 5133.51 4125.05 75.07 8.00 109.46 3319.72
   09:25:04.653.08-Aug-2020 5133.51 4125.13 75.07 8.00 109.66 3319.72
   09:25:04.854.08-Aug-2020 5133.51 4124.58 75.07 8.00 109.86 3319.72
   09:25:05.054.08-Aug-2020 5133.51 4124.85 75.07 8.00 110.06 3319.72
   09:25:05.254.08-Aug-2020 5133.51 4124.85 75.07 8.00 110.26 3319.72
   09:25:05.454.08-Aug-2020 5133.51 4124.81 75.07 8.00 110.46 3319.72
   09:25:05.654.08-Aug-2020 5133.51 4125.01 75.07 8.00 110.66 3319.72
   09:25:05.854.08-Aug-2020 5133.51 4124.92 75.07 8.00 110.86 3319.72
   09:25:06.054.08-Aug-2020 5133.51 4124.99 75.07 8.00 111.06 3319.72
   09:25:06.254.08-Aug-2020 5133.51 4124.99 75.07 8.00 111.26 3319.72
   09:25:06.454.08-Aug-2020 5133.51 4125.06 75.07 8.00 111.46 3319.72
   09:25:06.655.08-Aug-2020 5133.51 4125.03 75.07 8.00 111.66 3319.72
   09:25:06.855.08-Aug-2020 5133.51 4125.03 75.07 8.00 111.86 3319.72
   09:25:07.055.08-Aug-2020 5133.51 4125.06 75.07 8.00 112.06 3319.72
   09:25:07.255.08-Aug-2020 5133.51 4125.06 75.07 8.00 112.26 3319.72
   09:25:07.455.08-Aug-2020 5133.51 4125.07 75.07 8.00 112.46 3319.72
   09:25:07.655.08-Aug-2020 5133.51 4125.08 75.07 8.00 112.66 3319.72
   09:25:07.855.08-Aug-2020 5133.51 4125.10 75.07 8.00 112.86 3319.72
   09:25:08.055.08-Aug-2020 5133.51 4124.61 75.07 8.00 113.06 3319.72
   09:25:08.255.08-Aug-2020 5133.51 4124.61 75.07 8.00 113.26 3319.72
   09:25:08.455.08-Aug-2020 5133.51 4125.06 75.07 8.00 113.46 3319.72
   09:25:08.656.08-Aug-2020 5133.51 4124.49 75.07 8.00 113.66 3319.72
   09:25:08.856.08-Aug-2020 5133.51 4124.95 75.07 8.00 113.86 3319.72
   09:25:09.056.08-Aug-2020 5133.51 4125.00 75.07 8.00 114.06 3319.72
   09:25:09.256.08-Aug-2020 5133.51 4125.00 75.07 8.00 114.26 3319.72
   09:25:09.456.08-Aug-2020 5133.51 4125.06 75.07 8.00 114.46 3319.72
   09:25:09.656.08-Aug-2020 5133.51 4124.75 75.07 8.00 114.66 3319.72
   09:25:09.856.08-Aug-2020 5133.51 4124.93 75.07 8.00 114.86 3319.72
