~Version Information
 VERS.                  2.0:   CWLS log ASCII Standard -VERSION 2.0
 WRAP.                   NO:   One line per depth step
~Well Information Block
#MNEM.UNIT     VALUE/NAME     DESCRIPTION
#---------     -----------    ---------------------------
 STRT.S             08:45:48 08-Aug-20: START TIME 08:45:48 08-Aug-20
 STOP.S             08:54:16 08-Aug-20: STOP TIME  08:54:16 08-Aug-20
 STEP.S                   0.00: STEP TIME
 NULL.                 -999.25: NULL VALUE
 DFWT.                        :  DIST FWL TEXT
 DFST.                        :  DIST FSL TEXT
 DMF .             Drill Floor:  DRILL MEAS FROM
 STIM.      13.47.44 07-Jun-20:  START TIME
 DATE.      13.47.44 27-Jul-20:  END TIME
 SPUD.               07-Jun-20:  SPUD DATE
 NREF.                    Grid:  NORTH REFERENCE
 HPTY.       Minimum Curvature:  HOLE POS TYPE
 DMOD.             Drill Model:  DRILL MOD DESC
 SVYD.                  Survey:  SURVEY DESC
 ILTD.               Lithology:  INTERP LTH DESC
 FTOP.          Formation Tops:  FORM TOPS DESC
 RIG .             West Chirag:  RIG NAME
 PDAT.          Mean Sea Level:  PERMANENT DATUM
 FLD .                     ACG:  FIELD NAME
 SON .        AZ-XX-0906363612:  JOB NUMBER
 CTRY.              Azerbaijan:  COUNTRY NAME
 WELL.           J25 (Slot 35):  WELL NAME
 SRVC.          Turan Drilling:  CONTRACTOR
 COMP.     BP Exploration (Caspian Sea) Ltd:  COMPANY
 UWI .                     N/A:  UNIQUE WELL IDENTIFIER
 API .                     N/A:  API NUMBER
 BASE.              Azerbaijan:  LOGGING EQUIPMENT BASE LOCATION
 REGN.                   EESSA:  REGION
 PROV.                    Baku:  PROVINCE
 STAT.                    Baku:  STATE NAME
 MWDS.                     N/A:  MWD SHOP
 DOE .                     N/A:  DOE NUMBER
 DCON.         Sperry Drilling:  DIRECTNL CONTR
 UNIT.                     N/A:  LOGGING EQUIPMENT ID
 MDS .        Operator Entered:  MAG DATA SOURCE
 JOBN.        AZ-XX-0906363612:  JOB TICKET NUMB
 WTYP.                Deviated:  WELL TYPE
 CNTY.                        :  COUNTY
 LOC .                        :  LOCATION
 LMF .             Drill Floor:  LOG MEASURED FROM
 TVDS.m                  43.00:  TVDSS CORRECTN
 LATI.deg                40.13:  LATITUDE
 LONG.deg                51.22:  LONGITUDE
 WHNS.m                  -7.90:  WELL HEAD N/S
 WHEW.m                  -3.35:  WELL HEAD E/W
 UTMX.m              519005.06:  UTM X
 UTMY.m             4443793.85:  UTM Y
 DFWL.m                   0.00:  DISTANCE FWL
 DFSL.m                   0.00:  DISTANCE FSL
 SDEP.m                   0.00:  START DEPTH
 TDD .m                   0.00:  TOTAL DEPTH (DRILLER)
 VSDR.deg               308.97:  VERT SEC DIRECT
 GVFD.g                   1.00:  GRAVITY FIELD
 MFLD.nT              50350.00:  MAGNETIC FIELD
 MDIP.deg                59.62:  MAGNETIC DIP
 MDEC.deg                 6.44:  MAGNETIC DECL
 GRDC.deg                 0.13:  GRID CORRECTION
 AZTC.deg                 6.32:  AZM TOTAL CORR
 EPD .m                   0.00:  ELEVATION
 EGL .m                   0.00:  GROUND ELEVATION
 WDMS.m                 169.80:  WD ELEV
 APD .m                  43.00:  DEPTH ABOVE PD
 DEP .m                 356.43:  DEPTH
 AGAP.m                  43.00:  AIR GAP
 VSEW.m                  -3.35:  VERT SEC E/W
 VSNS.m                  -7.90:  VERT SEC N/S
 EKB .m                  43.00:  KB ELEVATION
 EDF .m                  43.00:  DF ELEVATION
 TDL .m                 934.00:  TOTAL DEPTH (LOGGER)
 VSC .                       0:  VS TO CLOSURE
 MAGU.                 1852825:  MAGUTM CHECKSUM
~Parameter Information Block
#MNEM.UNIT       Value        Description
#---------     -----------    ---------------------------
 AV  .mps                 0.80:  Ann Velocity 
 AVMX.mps                 1.70:  Max Ann Veloc 
 AZIF.deg               311.41:  Azm, Final 
 BHAT.        Rotary Steerable:  BHA Type 
 BROT.°/30m               0.09:  Build Rotating 
 BS  .in                 12.25:  Bit Size 
 BSZ .in                 12.25:  Bit Size 
 BTPL.psig              800.00:  Bit Press Loss 
 CABU.                      No:  Customer Abuse 
 COMM.                     ôS:  Run Comments 1 
 TCS .hr                 96.00:  Time Ciculation Ended 
 CV  .mps                 2.03:  Crit Velocity 
 CVMX.mps                 2.42:  Max Crit Veloc 
 DD1 .          Taghi Taghiyev:  Direct Drillr 1 
 DD2 .      Tariel Pirmammadov:  Direct Drillr 2 
 DD3 .          Teymur Aghayev:  Direct Drillr 3 
 DDSV.                 iCruise:  DD Service 
 DEFF.%                  98.70:  % Det Eff 
 DLRX.°/30m               1.00:  Dogleg Rot Max 
 DLSO.°/30m               1.80:  Dogleg Oriented 
 DLSX.°/30m               3.16:  Dogleg Str Max 
 DRET.      15.00.00 07-Aug-20:  Drill End Time 
 DRST.      17.00.00 02-Aug-20:  Drill Start Tim 
 DTIM.hr                 45.90:  Time Drilling 
 EDEP.m                5298.01:  End Depth 
 ENG1.       Seymur Iskandarov:  Engineer 1 
 ENG2.         Yevgeniy Ulikov:  Engineer 2 
 ENG3.      Artemiy Matviyanov:  Engineer 3 
 ENG4.         Bahruz Mehdiyev:  Engineer 4 
 ETIM.      05.00.00 10-Aug-20:  End Time 
 FLOI.gpm              1150.00:  Flow In 
 FLON.gpm               900.00:  Flow In Min 
 FLOS.cptm                0.00:  Fluid Loss 
 FLOX.gpm              1200.00:  Flow In Max 
 FTRO.     Connectivity, Formation Presure:  FTWD Run Obj 
 HFLO.                      No:  High Flow 
 HPRE.                     Yes:  High Pressure 
 HTEM.                      No:  High Temp 
 HYDO.m                   1.80:  Hydro Offset 
 IFIN.deg                 9.71:  Inc, Final 
 IMAX.deg                63.81:  Inc Max 
 IMIN.deg                 9.53:  Inc Min 
 IMND.m                5075.52:  Inc Min Depth 
 IMXD.m                4367.08:  Inc Max Depth 
 JARR.                      No:  Jarring 
 LETM.      15.00.00 07-Aug-20:  Log End Time 
 LOST.hr                     2:  Lost Rig Time 
 LSTM.      17.00.00 02-Aug-20:  Log Start Time 
 MDCL.ppm             42500.00:  Mud Chlorides 
 MDES.     Inversion Oil/Synthetic:  Mud Desc 
 DFD .sg                  1.46:  Mud Density 
 MDMN.sg                  1.46:  Dens Mud Min 
 MDMX.sg                  1.46:  Dens Mud Max 
 MOIL.                      56:  Run Mud Oil % 
 MOWR.                   70:30:  Run Mud OWR 
 MSND.                     0.1:  Run Mud Sand % 
 MSOL.                      19:  Run Mud Solids% 
 DFV .spqt               83.00:  Mud Viscosity 
 MWOD.in                  8.00:  MWD Tool OD 
 MWSI.                     Yes:  Serv Intrp, MWD 
 OTIM.hr                196.57:  Time Operating 
 PCON.           Look Like New:  Pad Condition 
 PMAX.psia             7400.00:  Press Op, Max 
 PV  .cP                 36.00:  Mud PV 
 RUN .                    1000:  Run Number 
 ROPA.m/hr               25.00:  ROP Avg 
 ROPN.m/hr               10.00:  ROP Min 
 ROPX.m/hr               32.00:  ROP Max 
 RPMA.rpm               120.00:  RPM Surface Avg 
 RPMN.rpm               100.00:  RPM Surface Min 
 RPMX.rpm               140.00:  RPM Surface Max 
 RRUN.                    L504:  Rig Run Number 
 SAZI.deg               308.25:  Azm, Start 
 SDEP.m                4364.01:  Start Depth 
 SIDD.                      No:  Serv Intrp, DD 
 SINC.deg                63.81:  Inc, Start 
 SPPA.psig             5800.00:  SPP Avg 
 SPPN.psig             4200.00:  SPP Min 
 SPPX.psig             5950.00:  SPP Max 
 STIM.      18.00.00 01-Aug-20:  Start Time 
 SVCS.                 DD, MWD:  Services 
 SVER.                    9.20:  Sperry Version 
 TDAT.m                 934.00:  Tot Depth Attmp 
 TDDF.                      No:  Trip for DD 
 TDLG.m                 934.00:  Tot Depth Loggd 
 TFF .                      No:  Trip for Fail 
 TQAA.f-kp               31.00:  Torque Abs Avg 
 TQAN.f-kp               25.00:  Torque Abs Min 
 TQAX.f-kp               35.00:  Torque Abs Max 
 TRRT.°/30m              -0.75:  Turn Rotating 
 MRT .                  EWR-M5:  Maximum Recorded Temperature 
 TTMX.degC               95.00:  Max Tool Temp 
 VS01.                90516060:  Virtual Str1 SN 
 VS02.                90528488:  Virtual Str2 SN 
 VS03.                90577970:  Virtual Str3 SN 
 VS04.                12385033:  Virtual Str4 SN 
 VS05.                90522069:  Virtual Str5 SN 
 VS06.                13124134:  Virtual Str6 SN 
 WBMN.klb                20.00:  WOB Min 
 WITN.         Alistair Sprott:  Customer Rep 
 WITN.     Ronal van der Kraan:  Customer Rep 2 
 WOBA.klb                25.00:  WOB Avg 
 WOBX.klb                31.00:  WOB Max 
 YP  .lhf2               32.00:  Yield Point 
~Curve Information Block
#MNEM.UNIT                 API CODE     Curve Description
#---------               -----------    ---------------------------
 TIME.HHMMSS            00 000 000 000:  GT Time & Date
 GTDEPTH.m              00 000 000 000:  GT Depth
 GTPQH.psia             00 000 000 000:  GT HR Quartz Pressure
 GTTQ.degC              00 000 000 000:  GT Quartz Temperature
 GTTN.NONE              00 000 000 000:  GT Test Number
 GTET.sec               00 000 000 000:  GT Elapsed Test Time
 GTTVD.m                00 000 000 000:  GT True Vertical Depth
#Other Information
#
#WARRANTY: Halliburton will use its best efforts to furnish customers with 
#accurate information and interpretations that are part of, and incident to, the services 
#provided.  However, Halliburton cannot and does not warrant the accuracy 
#or correctness of such information and interpretations.  Under no circumstances should any 
#such information or interpretation be relied upon as the sole basis for any drilling, 
#completion, production, or financial decision or any procedure involving any risk to the 
#safety of any drilling venture, drilling rig or its crew or any other third party.  The 
#Customer has full responsibility for all drilling, completion and production operation.  
#Halliburton makes no representations or warranties, either expressed or 
#implied, including, but not limited to, the implied warranties of merchantability or fitness 
#for a particular purpose, with respect to the services rendered.  In no event will 
#Halliburton be liable for failure to obtain any particular results or for 
#any damages, including, but not limited to, indirect, special or consequential damages, 
#resulting from the use of any information or interpretation provided by Halliburton.
#
~A           TIME           GTDEPTH  GTPQH  GTTQ  GTTN  GTET   GTTVD  
# ...
   08:51:33.990.08-Aug-2020 5134.01 1333.37 76.01 7.00 345.18 3320.21
   08:51:34.190.08-Aug-2020 5134.01 1333.37 76.01 7.00 345.38 3320.21
   08:51:34.390.08-Aug-2020 5134.01 1325.87 76.01 7.00 345.58 3320.21
   08:51:34.590.08-Aug-2020 5134.01 1327.37 76.01 7.00 345.78 3320.21
   08:51:34.790.08-Aug-2020 5134.01 1327.48 76.01 7.00 345.98 3320.21
   08:51:34.990.08-Aug-2020 5134.01 1326.05 76.01 7.00 346.18 3320.21
   08:51:35.190.08-Aug-2020 5134.01 1326.05 76.01 7.00 346.38 3320.21
   08:51:35.391.08-Aug-2020 5134.01 1323.76 76.01 7.00 346.58 3320.21
   08:51:35.591.08-Aug-2020 5134.01 1316.57 76.01 7.00 346.78 3320.21
   08:51:35.791.08-Aug-2020 5134.01 1311.98 76.00 7.00 346.98 3320.21
   08:51:35.991.08-Aug-2020 5134.01 1309.84 76.00 7.00 347.18 3320.21
   08:51:36.191.08-Aug-2020 5134.01 1309.84 76.00 7.00 347.38 3320.21
   08:51:36.391.08-Aug-2020 5134.01 1297.31 76.00 7.00 347.58 3320.21
   08:51:36.591.08-Aug-2020 5134.01 1298.72 76.00 7.00 347.78 3320.21
   08:51:36.791.08-Aug-2020 5134.01 1300.62 76.00 7.00 347.98 3320.21
   08:51:36.991.08-Aug-2020 5134.01 1299.23 76.00 7.00 348.18 3320.21
   08:51:37.191.08-Aug-2020 5134.01 1301.28 76.00 7.00 348.38 3320.21
   08:51:37.392.08-Aug-2020 5134.01 1303.61 76.00 7.00 348.58 3320.21
   08:51:37.592.08-Aug-2020 5134.01 1305.65 76.00 7.00 348.78 3320.21
   08:51:37.792.08-Aug-2020 5134.01 1305.80 76.00 7.00 348.98 3320.21
   08:51:37.992.08-Aug-2020 5134.01 1306.94 76.00 7.00 349.18 3320.21
   08:51:38.192.08-Aug-2020 5134.01 1307.97 75.99 7.00 349.38 3320.21
   08:51:38.392.08-Aug-2020 5134.01 1308.46 75.99 7.00 349.58 3320.21
   08:51:38.592.08-Aug-2020 5134.01 1304.84 75.99 7.00 349.79 3320.21
   08:51:38.792.08-Aug-2020 5134.01 1301.28 75.99 7.00 349.99 3320.21
   08:51:38.992.08-Aug-2020 5134.01 1298.25 75.99 7.00 350.19 3320.21
   08:51:39.193.08-Aug-2020 5134.01 1298.25 75.99 7.00 350.39 3320.21
   08:51:39.393.08-Aug-2020 5134.01 1280.10 75.99 7.00 350.59 3320.21
   08:51:39.593.08-Aug-2020 5134.01 1280.17 75.99 7.00 350.79 3320.21
   08:51:39.793.08-Aug-2020 5134.01 1284.13 75.99 7.00 350.99 3320.21
   08:51:39.993.08-Aug-2020 5134.01 1291.49 75.99 7.00 351.19 3320.21
   08:51:40.193.08-Aug-2020 5134.01 1291.49 75.99 7.00 351.39 3320.21
   08:51:40.393.08-Aug-2020 5134.01 1297.80 75.99 7.00 351.59 3320.21
   08:51:40.593.08-Aug-2020 5134.01 1300.93 75.99 7.00 351.79 3320.21
   08:51:40.793.08-Aug-2020 5134.01 1303.35 75.99 7.00 351.99 3320.21
   08:51:40.994.08-Aug-2020 5134.01 1305.91 75.99 7.00 352.19 3320.21
   08:51:41.194.08-Aug-2020 5134.01 1308.44 75.99 7.00 352.39 3320.21
   08:51:41.394.08-Aug-2020 5134.01 1310.97 75.98 7.00 352.59 3320.21
   08:51:41.594.08-Aug-2020 5134.01 1313.51 75.98 7.00 352.79 3320.21
   08:51:41.794.08-Aug-2020 5134.01 1316.01 75.98 7.00 352.99 3320.21
   08:51:41.994.08-Aug-2020 5134.01 1318.47 75.98 7.00 353.19 3320.21
   08:51:42.194.08-Aug-2020 5134.01 1320.94 75.98 7.00 353.39 3320.21
   08:51:42.394.08-Aug-2020 5134.01 1323.44 75.98 7.00 353.59 3320.21
   08:51:42.594.08-Aug-2020 5134.01 1325.89 75.98 7.00 353.79 3320.21
   08:51:42.794.08-Aug-2020 5134.01 1328.31 75.98 7.00 353.99 3320.21
   08:51:42.995.08-Aug-2020 5134.01 1330.70 75.98 7.00 354.19 3320.21
   08:51:43.195.08-Aug-2020 5134.01 1333.12 75.98 7.00 354.39 3320.21
   08:51:43.395.08-Aug-2020 5134.01 1335.58 75.98 7.00 354.59 3320.21
   08:51:43.595.08-Aug-2020 5134.01 1338.00 75.98 7.00 354.79 3320.21
   08:51:43.795.08-Aug-2020 5134.01 1340.40 75.98 7.00 354.99 3320.21
   08:51:43.995.08-Aug-2020 5134.01 1342.76 75.98 7.00 355.19 3320.21
   08:51:44.195.08-Aug-2020 5134.01 1342.76 75.98 7.00 355.39 3320.21
   08:51:44.395.08-Aug-2020 5134.01 1347.76 75.98 7.00 355.59 3320.21
   08:51:44.595.08-Aug-2020 5134.01 1350.11 75.98 7.00 355.79 3320.21
   08:51:44.796.08-Aug-2020 5134.01 1352.77 75.98 7.00 355.99 3320.21
   08:51:44.996.08-Aug-2020 5134.01 1355.26 75.98 7.00 356.19 3320.21
   08:51:45.196.08-Aug-2020 5134.01 1355.26 75.98 7.00 356.39 3320.21
   08:51:45.396.08-Aug-2020 5134.01 1359.90 75.98 7.00 356.59 3320.21
   08:51:45.596.08-Aug-2020 5134.01 1362.50 75.98 7.00 356.79 3320.21
   08:51:45.796.08-Aug-2020 5134.01 1364.87 75.98 7.00 356.99 3320.21
   08:51:45.996.08-Aug-2020 5134.01 1367.06 75.98 7.00 357.19 3320.21
   08:51:46.196.08-Aug-2020 5134.01 1367.06 75.98 7.00 357.39 3320.21
   08:51:46.396.08-Aug-2020 5134.01 1371.68 75.98 7.00 357.59 3320.21
   08:51:46.596.08-Aug-2020 5134.01 1374.07 75.98 7.00 357.79 3320.21
   08:51:46.797.08-Aug-2020 5134.01 1376.51 75.98 7.00 357.99 3320.21
   08:51:46.997.08-Aug-2020 5134.01 1378.57 75.98 7.00 358.19 3320.21
   08:51:47.197.08-Aug-2020 5134.01 1378.57 75.98 7.00 358.39 3320.21
   08:51:47.397.08-Aug-2020 5134.01 1383.05 75.98 7.00 358.59 3320.21
   08:51:47.597.08-Aug-2020 5134.01 1385.37 75.98 7.00 358.79 3320.21
   08:51:47.797.08-Aug-2020 5134.01 1387.52 75.98 7.00 358.99 3320.21
   08:51:47.997.08-Aug-2020 5134.01 1389.73 75.97 7.00 359.19 3320.21
   08:51:48.197.08-Aug-2020 5134.01 1389.73 75.97 7.00 359.39 3320.21
   08:51:48.397.08-Aug-2020 5134.01 1394.08 75.97 7.00 359.59 3320.21
   08:51:48.598.08-Aug-2020 5134.01 1396.34 75.97 7.00 359.79 3320.21
   08:51:48.798.08-Aug-2020 5134.01 1398.50 75.97 7.00 359.99 3320.21
   08:51:48.998.08-Aug-2020 5134.01 1400.67 75.97 7.00 360.19 3320.21
   08:51:49.198.08-Aug-2020 5134.01 1400.67 75.97 7.00 360.39 3320.21
   08:51:49.398.08-Aug-2020 5134.01 1404.98 75.97 7.00 360.59 3320.21
   08:51:49.598.08-Aug-2020 5134.01 1407.10 75.97 7.00 360.79 3320.21
   08:51:49.798.08-Aug-2020 5134.01 1409.25 75.97 7.00 360.99 3320.21
   08:51:49.998.08-Aug-2020 5134.01 1411.59 75.97 7.00 361.19 3320.21
   08:51:50.198.08-Aug-2020 5134.01 1411.59 75.97 7.00 361.39 3320.21
   08:51:50.398.08-Aug-2020 5134.01 1415.76 75.97 7.00 361.59 3320.21
   08:51:50.599.08-Aug-2020 5134.01 1417.89 75.97 7.00 361.79 3320.21
   08:51:50.799.08-Aug-2020 5134.01 1419.97 75.97 7.00 361.99 3320.21
   08:51:50.999.08-Aug-2020 5134.01 1422.10 75.97 7.00 362.19 3320.21
   08:51:51.199.08-Aug-2020 5134.01 1422.10 75.97 7.00 362.39 3320.21
   08:51:51.399.08-Aug-2020 5134.01 1426.26 75.97 7.00 362.59 3320.21
   08:51:51.599.08-Aug-2020 5134.01 1428.33 75.97 7.00 362.79 3320.21
   08:51:51.799.08-Aug-2020 5134.01 1430.40 75.97 7.00 362.99 3320.21
   08:51:51.999.08-Aug-2020 5134.01 1432.53 75.97 7.00 363.19 3320.21
   08:51:52.199.08-Aug-2020 5134.01 1432.53 75.97 7.00 363.39 3320.21
   08:51:52.400.08-Aug-2020 5134.01 1436.70 75.97 7.00 363.59 3320.21
   08:51:52.600.08-Aug-2020 5134.01 1438.75 75.97 7.00 363.79 3320.21
   08:51:52.800.08-Aug-2020 5134.01 1440.79 75.97 7.00 363.99 3320.21
   08:51:53.000.08-Aug-2020 5134.01 1442.94 75.97 7.00 364.19 3320.21
   08:51:53.200.08-Aug-2020 5134.01 1445.05 75.97 7.00 364.39 3320.21
   08:51:53.400.08-Aug-2020 5134.01 1447.13 75.97 7.00 364.59 3320.21
   08:51:53.600.08-Aug-2020 5134.01 1449.15 75.97 7.00 364.79 3320.21
   08:51:53.800.08-Aug-2020 5134.01 1451.37 75.97 7.00 364.99 3320.21
   08:51:54.000.08-Aug-2020 5134.01 1453.50 75.97 7.00 365.19 3320.21
   08:51:54.200.08-Aug-2020 5134.01 1453.50 75.97 7.00 365.39 3320.21
   08:51:54.401.08-Aug-2020 5134.01 1457.44 75.97 7.00 365.59 3320.21
   08:51:54.601.08-Aug-2020 5134.01 1459.68 75.97 7.00 365.79 3320.21
   08:51:54.801.08-Aug-2020 5134.01 1461.76 75.97 7.00 365.99 3320.21
   08:51:55.001.08-Aug-2020 5134.01 1463.55 75.97 7.00 366.19 3320.21
   08:51:55.201.08-Aug-2020 5134.01 1463.55 75.97 7.00 366.39 3320.21
   08:51:55.401.08-Aug-2020 5134.01 1467.73 75.97 7.00 366.59 3320.21
   08:51:55.601.08-Aug-2020 5134.01 1469.71 75.97 7.00 366.79 3320.21
   08:51:55.801.08-Aug-2020 5134.01 1471.82 75.97 7.00 366.99 3320.21
   08:51:56.001.08-Aug-2020 5134.01 1473.90 75.97 7.00 367.19 3320.21
   08:51:56.202.08-Aug-2020 5134.01 1473.90 75.97 7.00 367.39 3320.21
   08:51:56.402.08-Aug-2020 5134.01 1477.81 75.97 7.00 367.59 3320.21
   08:51:56.602.08-Aug-2020 5134.01 1479.84 75.97 7.00 367.79 3320.21
   08:51:56.802.08-Aug-2020 5134.01 1481.75 75.97 7.00 367.99 3320.21
