~Version Information
 VERS.                  2.0:   CWLS log ASCII Standard -VERSION 2.0
 WRAP.                   NO:   One line per depth step
~Well Information Block
#MNEM.UNIT     VALUE/NAME     DESCRIPTION
#---------     -----------    ---------------------------
 STRT.S             03:17:15 08-Aug-20: START TIME 03:17:15 08-Aug-20
 STOP.S             03:24:06 08-Aug-20: STOP TIME  03:24:06 08-Aug-20
 STEP.S                   0.00: STEP TIME
 NULL.                 -999.25: NULL VALUE
 DFWT.                        :  DIST FWL TEXT
 DFST.                        :  DIST FSL TEXT
 DMF .             Drill Floor:  DRILL MEAS FROM
 STIM.      13.47.44 07-Jun-20:  START TIME
 DATE.      13.47.44 27-Jul-20:  END TIME
 SPUD.               07-Jun-20:  SPUD DATE
 NREF.                    Grid:  NORTH REFERENCE
 HPTY.       Minimum Curvature:  HOLE POS TYPE
 DMOD.             Drill Model:  DRILL MOD DESC
 SVYD.                  Survey:  SURVEY DESC
 ILTD.               Lithology:  INTERP LTH DESC
 FTOP.          Formation Tops:  FORM TOPS DESC
 RIG .             West Chirag:  RIG NAME
 PDAT.          Mean Sea Level:  PERMANENT DATUM
 FLD .                     ACG:  FIELD NAME
 SON .        AZ-XX-0906363612:  JOB NUMBER
 CTRY.              Azerbaijan:  COUNTRY NAME
 WELL.           J25 (Slot 35):  WELL NAME
 SRVC.          Turan Drilling:  CONTRACTOR
 COMP.     BP Exploration (Caspian Sea) Ltd:  COMPANY
 UWI .                     N/A:  UNIQUE WELL IDENTIFIER
 API .                     N/A:  API NUMBER
 BASE.              Azerbaijan:  LOGGING EQUIPMENT BASE LOCATION
 REGN.                   EESSA:  REGION
 PROV.                    Baku:  PROVINCE
 STAT.                    Baku:  STATE NAME
 MWDS.                     N/A:  MWD SHOP
 DOE .                     N/A:  DOE NUMBER
 DCON.         Sperry Drilling:  DIRECTNL CONTR
 UNIT.                     N/A:  LOGGING EQUIPMENT ID
 MDS .        Operator Entered:  MAG DATA SOURCE
 JOBN.        AZ-XX-0906363612:  JOB TICKET NUMB
 WTYP.                Deviated:  WELL TYPE
 CNTY.                        :  COUNTY
 LOC .                        :  LOCATION
 LMF .             Drill Floor:  LOG MEASURED FROM
 TVDS.m                  43.00:  TVDSS CORRECTN
 LATI.deg                40.13:  LATITUDE
 LONG.deg                51.22:  LONGITUDE
 WHNS.m                  -7.90:  WELL HEAD N/S
 WHEW.m                  -3.35:  WELL HEAD E/W
 UTMX.m              519005.06:  UTM X
 UTMY.m             4443793.85:  UTM Y
 DFWL.m                   0.00:  DISTANCE FWL
 DFSL.m                   0.00:  DISTANCE FSL
 SDEP.m                   0.00:  START DEPTH
 TDD .m                   0.00:  TOTAL DEPTH (DRILLER)
 VSDR.deg               308.97:  VERT SEC DIRECT
 GVFD.g                   1.00:  GRAVITY FIELD
 MFLD.nT              50350.00:  MAGNETIC FIELD
 MDIP.deg                59.62:  MAGNETIC DIP
 MDEC.deg                 6.44:  MAGNETIC DECL
 GRDC.deg                 0.13:  GRID CORRECTION
 AZTC.deg                 6.32:  AZM TOTAL CORR
 EPD .m                   0.00:  ELEVATION
 EGL .m                   0.00:  GROUND ELEVATION
 WDMS.m                 169.80:  WD ELEV
 APD .m                  43.00:  DEPTH ABOVE PD
 DEP .m                 356.43:  DEPTH
 AGAP.m                  43.00:  AIR GAP
 VSEW.m                  -3.35:  VERT SEC E/W
 VSNS.m                  -7.90:  VERT SEC N/S
 EKB .m                  43.00:  KB ELEVATION
 EDF .m                  43.00:  DF ELEVATION
 TDL .m                 934.00:  TOTAL DEPTH (LOGGER)
 VSC .                       0:  VS TO CLOSURE
 MAGU.                 1852825:  MAGUTM CHECKSUM
~Parameter Information Block
#MNEM.UNIT       Value        Description
#---------     -----------    ---------------------------
 AV  .mps                 0.80:  Ann Velocity 
 AVMX.mps                 1.70:  Max Ann Veloc 
 AZIF.deg               311.41:  Azm, Final 
 BHAT.        Rotary Steerable:  BHA Type 
 BROT.°/30m               0.09:  Build Rotating 
 BS  .in                 12.25:  Bit Size 
 BSZ .in                 12.25:  Bit Size 
 BTPL.psig              800.00:  Bit Press Loss 
 CABU.                      No:  Customer Abuse 
 COMM.                     k:  Run Comments 1 
 TCS .hr                 96.00:  Time Ciculation Ended 
 CV  .mps                 2.03:  Crit Velocity 
 CVMX.mps                 2.42:  Max Crit Veloc 
 DD1 .          Taghi Taghiyev:  Direct Drillr 1 
 DD2 .      Tariel Pirmammadov:  Direct Drillr 2 
 DD3 .          Teymur Aghayev:  Direct Drillr 3 
 DDSV.                 iCruise:  DD Service 
 DEFF.%                  98.70:  % Det Eff 
 DLRX.°/30m               1.00:  Dogleg Rot Max 
 DLSO.°/30m               1.80:  Dogleg Oriented 
 DLSX.°/30m               3.16:  Dogleg Str Max 
 DRET.      15.00.00 07-Aug-20:  Drill End Time 
 DRST.      17.00.00 02-Aug-20:  Drill Start Tim 
 DTIM.hr                 45.90:  Time Drilling 
 EDEP.m                5298.01:  End Depth 
 ENG1.       Seymur Iskandarov:  Engineer 1 
 ENG2.         Yevgeniy Ulikov:  Engineer 2 
 ENG3.      Artemiy Matviyanov:  Engineer 3 
 ENG4.         Bahruz Mehdiyev:  Engineer 4 
 ETIM.      05.00.00 10-Aug-20:  End Time 
 FLOI.gpm              1150.00:  Flow In 
 FLON.gpm               900.00:  Flow In Min 
 FLOS.cptm                0.00:  Fluid Loss 
 FLOX.gpm              1200.00:  Flow In Max 
 FTRO.     Connectivity, Formation Presure:  FTWD Run Obj 
 HFLO.                      No:  High Flow 
 HPRE.                     Yes:  High Pressure 
 HTEM.                      No:  High Temp 
 HYDO.m                   1.80:  Hydro Offset 
 IFIN.deg                 9.71:  Inc, Final 
 IMAX.deg                63.81:  Inc Max 
 IMIN.deg                 9.53:  Inc Min 
 IMND.m                5075.52:  Inc Min Depth 
 IMXD.m                4367.08:  Inc Max Depth 
 JARR.                      No:  Jarring 
 LETM.      15.00.00 07-Aug-20:  Log End Time 
 LOST.hr                     2:  Lost Rig Time 
 LSTM.      17.00.00 02-Aug-20:  Log Start Time 
 MDCL.ppm             42500.00:  Mud Chlorides 
 MDES.     Inversion Oil/Synthetic:  Mud Desc 
 DFD .sg                  1.46:  Mud Density 
 MDMN.sg                  1.46:  Dens Mud Min 
 MDMX.sg                  1.46:  Dens Mud Max 
 MOIL.                      56:  Run Mud Oil % 
 MOWR.                   70:30:  Run Mud OWR 
 MSND.                     0.1:  Run Mud Sand % 
 MSOL.                      19:  Run Mud Solids% 
 DFV .spqt               83.00:  Mud Viscosity 
 MWOD.in                  8.00:  MWD Tool OD 
 MWSI.                     Yes:  Serv Intrp, MWD 
 OTIM.hr                196.57:  Time Operating 
 PCON.           Look Like New:  Pad Condition 
 PMAX.psia             7400.00:  Press Op, Max 
 PV  .cP                 36.00:  Mud PV 
 RUN .                    1000:  Run Number 
 ROPA.m/hr               25.00:  ROP Avg 
 ROPN.m/hr               10.00:  ROP Min 
 ROPX.m/hr               32.00:  ROP Max 
 RPMA.rpm               120.00:  RPM Surface Avg 
 RPMN.rpm               100.00:  RPM Surface Min 
 RPMX.rpm               140.00:  RPM Surface Max 
 RRUN.                    L504:  Rig Run Number 
 SAZI.deg               308.25:  Azm, Start 
 SDEP.m                4364.01:  Start Depth 
 SIDD.                      No:  Serv Intrp, DD 
 SINC.deg                63.81:  Inc, Start 
 SPPA.psig             5800.00:  SPP Avg 
 SPPN.psig             4200.00:  SPP Min 
 SPPX.psig             5950.00:  SPP Max 
 STIM.      18.00.00 01-Aug-20:  Start Time 
 SVCS.                 DD, MWD:  Services 
 SVER.                    9.20:  Sperry Version 
 TDAT.m                 934.00:  Tot Depth Attmp 
 TDDF.                      No:  Trip for DD 
 TDLG.m                 934.00:  Tot Depth Loggd 
 TFF .                      No:  Trip for Fail 
 TQAA.f-kp               31.00:  Torque Abs Avg 
 TQAN.f-kp               25.00:  Torque Abs Min 
 TQAX.f-kp               35.00:  Torque Abs Max 
 TRRT.°/30m              -0.75:  Turn Rotating 
 MRT .                  EWR-M5:  Maximum Recorded Temperature 
 TTMX.degC               95.00:  Max Tool Temp 
 VS01.                90516060:  Virtual Str1 SN 
 VS02.                90528488:  Virtual Str2 SN 
 VS03.                90577970:  Virtual Str3 SN 
 VS04.                12385033:  Virtual Str4 SN 
 VS05.                90522069:  Virtual Str5 SN 
 VS06.                13124134:  Virtual Str6 SN 
 WBMN.klb                20.00:  WOB Min 
 WITN.         Alistair Sprott:  Customer Rep 
 WITN.     Ronal van der Kraan:  Customer Rep 2 
 WOBA.klb                25.00:  WOB Avg 
 WOBX.klb                31.00:  WOB Max 
 YP  .lhf2               32.00:  Yield Point 
~Curve Information Block
#MNEM.UNIT                 API CODE     Curve Description
#---------               -----------    ---------------------------
 TIME.HHMMSS            00 000 000 000:  GT Time & Date
 GTDEPTH.m              00 000 000 000:  GT Depth
 GTPQH.psia             00 000 000 000:  GT HR Quartz Pressure
 GTTQ.degC              00 000 000 000:  GT Quartz Temperature
 GTTN.NONE              00 000 000 000:  GT Test Number
 GTET.sec               00 000 000 000:  GT Elapsed Test Time
 GTTVD.m                00 000 000 000:  GT True Vertical Depth
#Other Information
#
#WARRANTY: Halliburton will use its best efforts to furnish customers with 
#accurate information and interpretations that are part of, and incident to, the services 
#provided.  However, Halliburton cannot and does not warrant the accuracy 
#or correctness of such information and interpretations.  Under no circumstances should any 
#such information or interpretation be relied upon as the sole basis for any drilling, 
#completion, production, or financial decision or any procedure involving any risk to the 
#safety of any drilling venture, drilling rig or its crew or any other third party.  The 
#Customer has full responsibility for all drilling, completion and production operation.  
#Halliburton makes no representations or warranties, either expressed or 
#implied, including, but not limited to, the implied warranties of merchantability or fitness 
#for a particular purpose, with respect to the services rendered.  In no event will 
#Halliburton be liable for failure to obtain any particular results or for 
#any damages, including, but not limited to, indirect, special or consequential damages, 
#resulting from the use of any information or interpretation provided by Halliburton.
#
~A           TIME           GTDEPTH  GTPQH  GTTQ  GTTN  GTET   GTTVD  
# ...
   03:19:10.537.08-Aug-2020 5190.56 3707.31 85.85 1.00 114.94 3375.95
   03:19:10.737.08-Aug-2020 5190.56 3707.31 85.85 1.00 115.14 3375.95
   03:19:10.937.08-Aug-2020 5190.56 3720.65 85.85 1.00 115.34 3375.95
   03:19:11.137.08-Aug-2020 5190.56 3727.45 85.85 1.00 115.54 3375.95
   03:19:11.337.08-Aug-2020 5190.56 3734.49 85.85 1.00 115.74 3375.95
   03:19:11.537.08-Aug-2020 5190.56 3741.72 85.85 1.00 115.94 3375.95
   03:19:11.737.08-Aug-2020 5190.56 3741.72 85.86 1.00 116.14 3375.95
   03:19:11.937.08-Aug-2020 5190.56 3754.43 85.86 1.00 116.34 3375.95
   03:19:12.137.08-Aug-2020 5190.56 3761.13 85.86 1.00 116.54 3375.95
   03:19:12.337.08-Aug-2020 5190.56 3767.35 85.86 1.00 116.74 3375.95
   03:19:12.536.08-Aug-2020 5190.56 3773.52 85.86 1.00 116.94 3375.95
   03:19:12.736.08-Aug-2020 5190.56 3780.27 85.86 1.00 117.14 3375.95
   03:19:12.936.08-Aug-2020 5190.56 3787.23 85.86 1.00 117.34 3375.95
   03:19:13.136.08-Aug-2020 5190.56 3794.15 85.86 1.00 117.54 3375.95
   03:19:13.336.08-Aug-2020 5190.56 3801.03 85.86 1.00 117.74 3375.95
   03:19:13.536.08-Aug-2020 5190.56 3807.53 85.86 1.00 117.94 3375.95
   03:19:13.736.08-Aug-2020 5190.56 3807.53 85.86 1.00 118.14 3375.95
   03:19:13.936.08-Aug-2020 5190.56 3820.96 85.86 1.00 118.34 3375.95
   03:19:14.136.08-Aug-2020 5190.56 3827.93 85.86 1.00 118.54 3375.95
   03:19:14.336.08-Aug-2020 5190.56 3834.76 85.86 1.00 118.74 3375.95
   03:19:14.535.08-Aug-2020 5190.56 3841.27 85.86 1.00 118.94 3375.95
   03:19:14.735.08-Aug-2020 5190.56 3841.27 85.86 1.00 119.14 3375.95
   03:19:14.935.08-Aug-2020 5190.56 3854.02 85.86 1.00 119.34 3375.95
   03:19:15.135.08-Aug-2020 5190.56 3860.68 85.86 1.00 119.54 3375.95
   03:19:15.335.08-Aug-2020 5190.56 3867.42 85.86 1.00 119.74 3375.95
   03:19:15.535.08-Aug-2020 5190.56 3873.94 85.86 1.00 119.94 3375.95
   03:19:15.735.08-Aug-2020 5190.56 3873.94 85.86 1.00 120.14 3375.95
   03:19:15.935.08-Aug-2020 5190.56 3886.36 85.86 1.00 120.34 3375.95
   03:19:16.135.08-Aug-2020 5190.56 3892.20 85.86 1.00 120.54 3375.95
   03:19:16.335.08-Aug-2020 5190.56 3898.43 85.86 1.00 120.74 3375.95
   03:19:16.534.08-Aug-2020 5190.56 3905.09 85.86 1.00 120.94 3375.95
   03:19:16.734.08-Aug-2020 5190.56 3911.69 85.86 1.00 121.14 3375.95
   03:19:16.934.08-Aug-2020 5190.56 3918.32 85.86 1.00 121.34 3375.95
   03:19:17.134.08-Aug-2020 5190.56 3924.41 85.86 1.00 121.54 3375.95
   03:19:17.334.08-Aug-2020 5190.56 3930.77 85.86 1.00 121.74 3375.95
   03:19:17.534.08-Aug-2020 5190.56 3937.19 85.86 1.00 121.94 3375.95
   03:19:17.734.08-Aug-2020 5190.56 3937.19 85.86 1.00 122.14 3375.95
   03:19:17.934.08-Aug-2020 5190.56 3949.71 85.86 1.00 122.34 3375.95
   03:19:18.134.08-Aug-2020 5190.56 3955.52 85.86 1.00 122.54 3375.95
   03:19:18.333.08-Aug-2020 5190.56 3961.98 85.87 1.00 122.74 3375.95
   03:19:18.533.08-Aug-2020 5190.56 3968.43 85.87 1.00 122.94 3375.95
   03:19:18.733.08-Aug-2020 5190.56 3968.43 85.87 1.00 123.14 3375.95
   03:19:18.933.08-Aug-2020 5190.56 3980.31 85.87 1.00 123.34 3375.95
   03:19:19.133.08-Aug-2020 5190.56 3985.96 85.87 1.00 123.54 3375.95
   03:19:19.333.08-Aug-2020 5190.56 3991.82 85.87 1.00 123.74 3375.95
   03:19:19.533.08-Aug-2020 5190.56 3997.72 85.87 1.00 123.94 3375.95
   03:19:19.733.08-Aug-2020 5190.56 3997.72 85.87 1.00 124.14 3375.95
   03:19:19.933.08-Aug-2020 5190.56 4008.62 85.87 1.00 124.34 3375.95
   03:19:20.133.08-Aug-2020 5190.56 4014.69 85.87 1.00 124.54 3375.95
   03:19:20.332.08-Aug-2020 5190.56 4020.39 85.87 1.00 124.74 3375.95
   03:19:20.532.08-Aug-2020 5190.56 4026.56 85.87 1.00 124.94 3375.95
   03:19:20.732.08-Aug-2020 5190.56 4032.11 85.87 1.00 125.14 3375.95
   03:19:20.932.08-Aug-2020 5190.56 4038.41 85.87 1.00 125.34 3375.95
   03:19:21.132.08-Aug-2020 5190.56 4044.24 85.87 1.00 125.54 3375.95
   03:19:21.332.08-Aug-2020 5190.56 4050.06 85.87 1.00 125.74 3375.95
   03:19:21.532.08-Aug-2020 5190.56 4055.65 85.87 1.00 125.94 3375.95
   03:19:21.732.08-Aug-2020 5190.56 4055.65 85.87 1.00 126.14 3375.95
   03:19:21.932.08-Aug-2020 5190.56 4067.10 85.87 1.00 126.34 3375.95
   03:19:22.132.08-Aug-2020 5190.56 4073.12 85.87 1.00 126.54 3375.95
   03:19:22.331.08-Aug-2020 5190.56 4078.49 85.87 1.00 126.74 3375.95
   03:19:22.531.08-Aug-2020 5190.56 4084.21 85.87 1.00 126.94 3375.95
   03:19:22.731.08-Aug-2020 5190.56 4084.21 85.87 1.00 127.14 3375.95
   03:19:22.931.08-Aug-2020 5190.56 4096.13 85.87 1.00 127.34 3375.95
   03:19:23.131.08-Aug-2020 5190.56 4101.93 85.87 1.00 127.54 3375.95
   03:19:23.331.08-Aug-2020 5190.56 4107.62 85.87 1.00 127.73 3375.95
   03:19:23.531.08-Aug-2020 5190.56 4113.17 85.87 1.00 127.93 3375.95
   03:19:23.731.08-Aug-2020 5190.56 4113.17 85.87 1.00 128.13 3375.95
   03:19:23.931.08-Aug-2020 5190.56 4124.71 85.87 1.00 128.33 3375.95
   03:19:24.131.08-Aug-2020 5190.56 4130.87 85.87 1.00 128.53 3375.95
   03:19:24.330.08-Aug-2020 5190.56 4136.46 85.87 1.00 128.73 3375.95
   03:19:24.530.08-Aug-2020 5190.56 4141.81 85.87 1.00 128.93 3375.95
   03:19:24.730.08-Aug-2020 5190.56 4147.53 85.87 1.00 129.13 3375.95
   03:19:24.930.08-Aug-2020 5190.56 4153.35 85.87 1.00 129.33 3375.95
   03:19:25.130.08-Aug-2020 5190.56 4159.02 85.87 1.00 129.53 3375.95
   03:19:25.330.08-Aug-2020 5190.56 4164.45 85.87 1.00 129.73 3375.95
   03:19:25.530.08-Aug-2020 5190.56 4169.19 85.87 1.00 129.93 3375.95
   03:19:25.730.08-Aug-2020 5190.56 4169.19 85.87 1.00 130.13 3375.95
   03:19:25.930.08-Aug-2020 5190.56 4180.31 85.87 1.00 130.33 3375.95
   03:19:26.130.08-Aug-2020 5190.56 4185.88 85.87 1.00 130.53 3375.95
   03:19:26.329.08-Aug-2020 5190.56 4191.24 85.87 1.00 130.73 3375.95
   03:19:26.529.08-Aug-2020 5190.56 4196.83 85.87 1.00 130.93 3375.95
   03:19:26.729.08-Aug-2020 5190.56 4196.83 85.87 1.00 131.13 3375.95
   03:19:26.929.08-Aug-2020 5190.56 4207.98 85.88 1.00 131.33 3375.95
   03:19:27.129.08-Aug-2020 5190.56 4213.42 85.88 1.00 131.53 3375.95
   03:19:27.329.08-Aug-2020 5190.56 4218.09 85.88 1.00 131.73 3375.95
   03:19:27.529.08-Aug-2020 5190.56 4223.64 85.88 1.00 131.93 3375.95
   03:19:27.729.08-Aug-2020 5190.56 4223.64 85.88 1.00 132.13 3375.95
   03:19:27.929.08-Aug-2020 5190.56 4234.86 85.88 1.00 132.33 3375.95
   03:19:28.128.08-Aug-2020 5190.56 4240.28 85.88 1.00 132.53 3375.95
   03:19:28.328.08-Aug-2020 5190.56 4245.42 85.88 1.00 132.73 3375.95
   03:19:28.528.08-Aug-2020 5190.56 4250.76 85.88 1.00 132.93 3375.95
   03:19:28.728.08-Aug-2020 5190.56 4255.41 85.88 1.00 133.13 3375.95
   03:19:28.928.08-Aug-2020 5190.56 4260.28 85.88 1.00 133.33 3375.95
   03:19:29.128.08-Aug-2020 5190.56 4265.73 85.88 1.00 133.53 3375.95
   03:19:29.328.08-Aug-2020 5190.56 4269.56 85.88 1.00 133.73 3375.95
   03:19:29.528.08-Aug-2020 5190.56 4299.46 85.88 1.00 133.93 3375.95
   03:19:29.728.08-Aug-2020 5190.56 4299.46 85.88 1.00 134.13 3375.95
   03:19:29.928.08-Aug-2020 5190.56 4309.70 85.88 1.00 134.33 3375.95
   03:19:30.127.08-Aug-2020 5190.56 4314.71 85.88 1.00 134.53 3375.95
   03:19:30.327.08-Aug-2020 5190.56 4320.42 85.88 1.00 134.73 3375.95
   03:19:30.527.08-Aug-2020 5190.56 4325.35 85.88 1.00 134.93 3375.95
   03:19:30.727.08-Aug-2020 5190.56 4325.35 85.88 1.00 135.13 3375.95
   03:19:30.927.08-Aug-2020 5190.56 4335.51 85.88 1.00 135.33 3375.95
   03:19:31.127.08-Aug-2020 5190.56 4340.70 85.88 1.00 135.53 3375.95
   03:19:31.327.08-Aug-2020 5190.56 4345.54 85.88 1.00 135.73 3375.95
   03:19:31.527.08-Aug-2020 5190.56 4350.50 85.88 1.00 135.93 3375.95
   03:19:31.727.08-Aug-2020 5190.56 4354.94 85.88 1.00 136.13 3375.95
   03:19:31.927.08-Aug-2020 5190.56 4360.18 85.88 1.00 136.33 3375.95
   03:19:32.126.08-Aug-2020 5190.56 4365.44 85.88 1.00 136.53 3375.95
   03:19:32.326.08-Aug-2020 5190.56 4370.45 85.88 1.00 136.73 3375.95
   03:19:32.526.08-Aug-2020 5190.56 4375.17 85.88 1.00 136.93 3375.95
   03:19:32.726.08-Aug-2020 5190.56 4375.17 85.88 1.00 137.13 3375.95
   03:19:32.926.08-Aug-2020 5190.56 4385.25 85.88 1.00 137.33 3375.95
   03:19:33.126.08-Aug-2020 5190.56 4390.19 85.88 1.00 137.53 3375.95
   03:19:33.326.08-Aug-2020 5190.56 4395.29 85.88 1.00 137.73 3375.95
