~Version Information
 VERS.                  2.0:   CWLS log ASCII Standard -VERSION 2.0
 WRAP.                   NO:   One line per depth step
~Well Information Block
#MNEM.UNIT     VALUE/NAME     DESCRIPTION
#---------     -----------    ---------------------------
 STRT.S             09:23:14 08-Aug-20: START TIME 09:23:14 08-Aug-20
 STOP.S             09:28:51 08-Aug-20: STOP TIME  09:28:51 08-Aug-20
 STEP.S                   0.00: STEP TIME
 NULL.                 -999.25: NULL VALUE
 DFWT.                        :  DIST FWL TEXT
 DFST.                        :  DIST FSL TEXT
 DMF .             Drill Floor:  DRILL MEAS FROM
 STIM.      13.47.44 07-Jun-20:  START TIME
 DATE.      13.47.44 27-Jul-20:  END TIME
 SPUD.               07-Jun-20:  SPUD DATE
 NREF.                    Grid:  NORTH REFERENCE
 HPTY.       Minimum Curvature:  HOLE POS TYPE
 DMOD.             Drill Model:  DRILL MOD DESC
 SVYD.                  Survey:  SURVEY DESC
 ILTD.               Lithology:  INTERP LTH DESC
 FTOP.          Formation Tops:  FORM TOPS DESC
 RIG .             West Chirag:  RIG NAME
 PDAT.          Mean Sea Level:  PERMANENT DATUM
 FLD .                     ACG:  FIELD NAME
 SON .        AZ-XX-0906363612:  JOB NUMBER
 CTRY.              Azerbaijan:  COUNTRY NAME
 WELL.           J25 (Slot 35):  WELL NAME
 SRVC.          Turan Drilling:  CONTRACTOR
 COMP.     BP Exploration (Caspian Sea) Ltd:  COMPANY
 UWI .                     N/A:  UNIQUE WELL IDENTIFIER
 API .                     N/A:  API NUMBER
 BASE.              Azerbaijan:  LOGGING EQUIPMENT BASE LOCATION
 REGN.                   EESSA:  REGION
 PROV.                    Baku:  PROVINCE
 STAT.                    Baku:  STATE NAME
 MWDS.                     N/A:  MWD SHOP
 DOE .                     N/A:  DOE NUMBER
 DCON.         Sperry Drilling:  DIRECTNL CONTR
 UNIT.                     N/A:  LOGGING EQUIPMENT ID
 MDS .        Operator Entered:  MAG DATA SOURCE
 JOBN.        AZ-XX-0906363612:  JOB TICKET NUMB
 WTYP.                Deviated:  WELL TYPE
 CNTY.                        :  COUNTY
 LOC .                        :  LOCATION
 LMF .             Drill Floor:  LOG MEASURED FROM
 TVDS.m                  43.00:  TVDSS CORRECTN
 LATI.deg                40.13:  LATITUDE
 LONG.deg                51.22:  LONGITUDE
 WHNS.m                  -7.90:  WELL HEAD N/S
 WHEW.m                  -3.35:  WELL HEAD E/W
 UTMX.m              519005.06:  UTM X
 UTMY.m             4443793.85:  UTM Y
 DFWL.m                   0.00:  DISTANCE FWL
 DFSL.m                   0.00:  DISTANCE FSL
 SDEP.m                   0.00:  START DEPTH
 TDD .m                   0.00:  TOTAL DEPTH (DRILLER)
 VSDR.deg               308.97:  VERT SEC DIRECT
 GVFD.g                   1.00:  GRAVITY FIELD
 MFLD.nT              50350.00:  MAGNETIC FIELD
 MDIP.deg                59.62:  MAGNETIC DIP
 MDEC.deg                 6.44:  MAGNETIC DECL
 GRDC.deg                 0.13:  GRID CORRECTION
 AZTC.deg                 6.32:  AZM TOTAL CORR
 EPD .m                   0.00:  ELEVATION
 EGL .m                   0.00:  GROUND ELEVATION
 WDMS.m                 169.80:  WD ELEV
 APD .m                  43.00:  DEPTH ABOVE PD
 DEP .m                 356.43:  DEPTH
 AGAP.m                  43.00:  AIR GAP
 VSEW.m                  -3.35:  VERT SEC E/W
 VSNS.m                  -7.90:  VERT SEC N/S
 EKB .m                  43.00:  KB ELEVATION
 EDF .m                  43.00:  DF ELEVATION
 TDL .m                 934.00:  TOTAL DEPTH (LOGGER)
 VSC .                       0:  VS TO CLOSURE
 MAGU.                 1852825:  MAGUTM CHECKSUM
~Parameter Information Block
#MNEM.UNIT       Value        Description
#---------     -----------    ---------------------------
 AV  .mps                 0.80:  Ann Velocity 
 AVMX.mps                 1.70:  Max Ann Veloc 
 AZIF.deg               311.41:  Azm, Final 
 BHAT.        Rotary Steerable:  BHA Type 
 BROT.°/30m               0.09:  Build Rotating 
 BS  .in                 12.25:  Bit Size 
 BSZ .in                 12.25:  Bit Size 
 BTPL.psig              800.00:  Bit Press Loss 
 CABU.                      No:  Customer Abuse 
 TCS .hr                 96.00:  Time Ciculation Ended 
 CV  .mps                 2.03:  Crit Velocity 
 CVMX.mps                 2.42:  Max Crit Veloc 
 DD1 .          Taghi Taghiyev:  Direct Drillr 1 
 DD2 .      Tariel Pirmammadov:  Direct Drillr 2 
 DD3 .          Teymur Aghayev:  Direct Drillr 3 
 DDSV.                 iCruise:  DD Service 
 DEFF.%                  98.70:  % Det Eff 
 DLRX.°/30m               1.00:  Dogleg Rot Max 
 DLSO.°/30m               1.80:  Dogleg Oriented 
 DLSX.°/30m               3.16:  Dogleg Str Max 
 DRET.      15.00.00 07-Aug-20:  Drill End Time 
 DRST.      17.00.00 02-Aug-20:  Drill Start Tim 
 DTIM.hr                 45.90:  Time Drilling 
 EDEP.m                5298.01:  End Depth 
 ENG1.       Seymur Iskandarov:  Engineer 1 
 ENG2.         Yevgeniy Ulikov:  Engineer 2 
 ENG3.      Artemiy Matviyanov:  Engineer 3 
 ENG4.         Bahruz Mehdiyev:  Engineer 4 
 ETIM.      05.00.00 10-Aug-20:  End Time 
 FLOI.gpm              1150.00:  Flow In 
 FLON.gpm               900.00:  Flow In Min 
 FLOS.cptm                0.00:  Fluid Loss 
 FLOX.gpm              1200.00:  Flow In Max 
 FTRO.     Connectivity, Formation Presure:  FTWD Run Obj 
 HFLO.                      No:  High Flow 
 HPRE.                     Yes:  High Pressure 
 HTEM.                      No:  High Temp 
 HYDO.m                   1.80:  Hydro Offset 
 IFIN.deg                 9.71:  Inc, Final 
 IMAX.deg                63.81:  Inc Max 
 IMIN.deg                 9.53:  Inc Min 
 IMND.m                5075.52:  Inc Min Depth 
 IMXD.m                4367.08:  Inc Max Depth 
 JARR.                      No:  Jarring 
 LETM.      15.00.00 07-Aug-20:  Log End Time 
 LOST.hr                     2:  Lost Rig Time 
 LSTM.      17.00.00 02-Aug-20:  Log Start Time 
 MDCL.ppm             42500.00:  Mud Chlorides 
 MDES.     Inversion Oil/Synthetic:  Mud Desc 
 DFD .sg                  1.46:  Mud Density 
 MDMN.sg                  1.46:  Dens Mud Min 
 MDMX.sg                  1.46:  Dens Mud Max 
 MOIL.                      56:  Run Mud Oil % 
 MOWR.                   70:30:  Run Mud OWR 
 MSND.                     0.1:  Run Mud Sand % 
 MSOL.                      19:  Run Mud Solids% 
 DFV .spqt               83.00:  Mud Viscosity 
 MWOD.in                  8.00:  MWD Tool OD 
 MWSI.                     Yes:  Serv Intrp, MWD 
 OTIM.hr                196.57:  Time Operating 
 PCON.           Look Like New:  Pad Condition 
 PMAX.psia             7400.00:  Press Op, Max 
 PV  .cP                 36.00:  Mud PV 
 RUN .                    1000:  Run Number 
 ROPA.m/hr               25.00:  ROP Avg 
 ROPN.m/hr               10.00:  ROP Min 
 ROPX.m/hr               32.00:  ROP Max 
 RPMA.rpm               120.00:  RPM Surface Avg 
 RPMN.rpm               100.00:  RPM Surface Min 
 RPMX.rpm               140.00:  RPM Surface Max 
 RRUN.                    L504:  Rig Run Number 
 SAZI.deg               308.25:  Azm, Start 
 SDEP.m                4364.01:  Start Depth 
 SIDD.                      No:  Serv Intrp, DD 
 SINC.deg                63.81:  Inc, Start 
 SPPA.psig             5800.00:  SPP Avg 
 SPPN.psig             4200.00:  SPP Min 
 SPPX.psig             5950.00:  SPP Max 
 STIM.      18.00.00 01-Aug-20:  Start Time 
 SVCS.                 DD, MWD:  Services 
 SVER.                    9.20:  Sperry Version 
 TDAT.m                 934.00:  Tot Depth Attmp 
 TDDF.                      No:  Trip for DD 
 TDLG.m                 934.00:  Tot Depth Loggd 
 TFF .                      No:  Trip for Fail 
 TQAA.f-kp               31.00:  Torque Abs Avg 
 TQAN.f-kp               25.00:  Torque Abs Min 
 TQAX.f-kp               35.00:  Torque Abs Max 
 TRRT.°/30m              -0.75:  Turn Rotating 
 MRT .                  EWR-M5:  Maximum Recorded Temperature 
 TTMX.degC               95.00:  Max Tool Temp 
 VS01.                90516060:  Virtual Str1 SN 
 VS02.                90528488:  Virtual Str2 SN 
 VS03.                90577970:  Virtual Str3 SN 
 VS04.                12385033:  Virtual Str4 SN 
 VS05.                90522069:  Virtual Str5 SN 
 VS06.                13124134:  Virtual Str6 SN 
 WBMN.klb                20.00:  WOB Min 
 WITN.         Alistair Sprott:  Customer Rep 
 WITN.     Ronal van der Kraan:  Customer Rep 2 
 WOBA.klb                25.00:  WOB Avg 
 WOBX.klb                31.00:  WOB Max 
 YP  .lhf2               32.00:  Yield Point 
~Curve Information Block
#MNEM.UNIT                 API CODE     Curve Description
#---------               -----------    ---------------------------
 TIME.HHMMSS            00 000 000 000:  GT Time & Date
 GTDEPTH.m              00 000 000 000:  GT Depth
 GTPQH.psia             00 000 000 000:  GT HR Quartz Pressure
 GTTQ.degC              00 000 000 000:  GT Quartz Temperature
 GTTN.NONE              00 000 000 000:  GT Test Number
 GTET.sec               00 000 000 000:  GT Elapsed Test Time
 GTTVD.m                00 000 000 000:  GT True Vertical Depth
#Other Information
#
#WARRANTY: Halliburton will use its best efforts to furnish customers with 
#accurate information and interpretations that are part of, and incident to, the services 
#provided.  However, Halliburton cannot and does not warrant the accuracy 
#or correctness of such information and interpretations.  Under no circumstances should any 
#such information or interpretation be relied upon as the sole basis for any drilling, 
#completion, production, or financial decision or any procedure involving any risk to the 
#safety of any drilling venture, drilling rig or its crew or any other third party.  The 
#Customer has full responsibility for all drilling, completion and production operation.  
#Halliburton makes no representations or warranties, either expressed or 
#implied, including, but not limited to, the implied warranties of merchantability or fitness 
#for a particular purpose, with respect to the services rendered.  In no event will 
#Halliburton be liable for failure to obtain any particular results or for 
#any damages, including, but not limited to, indirect, special or consequential damages, 
#resulting from the use of any information or interpretation provided by Halliburton.
#
~A           TIME           GTDEPTH  GTPQH  GTTQ  GTTN  GTET   GTTVD  
# ...
   09:27:05.117.08-Aug-2020 5133.51 4124.59 75.04 8.00 230.12 3319.72
   09:27:05.317.08-Aug-2020 5133.51 4124.59 75.04 8.00 230.32 3319.72
   09:27:05.517.08-Aug-2020 5133.51 4124.83 75.04 8.00 230.52 3319.72
   09:27:05.717.08-Aug-2020 5133.51 4124.44 75.04 8.00 230.72 3319.72
   09:27:05.918.08-Aug-2020 5133.51 4124.74 75.04 8.00 230.92 3319.72
   09:27:06.118.08-Aug-2020 5133.51 4124.55 75.04 8.00 231.12 3319.72
   09:27:06.318.08-Aug-2020 5133.51 4124.55 75.04 8.00 231.32 3319.72
   09:27:06.518.08-Aug-2020 5133.51 4124.64 75.04 8.00 231.52 3319.72
   09:27:06.718.08-Aug-2020 5133.51 4124.63 75.04 8.00 231.72 3319.72
   09:27:06.918.08-Aug-2020 5133.51 4124.66 75.04 8.00 231.92 3319.72
   09:27:07.118.08-Aug-2020 5133.51 4124.63 75.04 8.00 232.12 3319.72
   09:27:07.318.08-Aug-2020 5133.51 4124.63 75.04 8.00 232.32 3319.72
   09:27:07.518.08-Aug-2020 5133.51 4124.59 75.04 8.00 232.52 3319.72
   09:27:07.719.08-Aug-2020 5133.51 4124.65 75.04 8.00 232.72 3319.72
   09:27:07.919.08-Aug-2020 5133.51 4124.63 75.04 8.00 232.92 3319.72
   09:27:08.119.08-Aug-2020 5133.51 4124.67 75.04 8.00 233.12 3319.72
   09:27:08.319.08-Aug-2020 5133.51 4124.67 75.04 8.00 233.32 3319.72
   09:27:08.519.08-Aug-2020 5133.51 4124.60 75.04 8.00 233.52 3319.72
   09:27:08.719.08-Aug-2020 5133.51 4124.56 75.04 8.00 233.72 3319.72
   09:27:08.919.08-Aug-2020 5133.51 4124.79 75.04 8.00 233.92 3319.72
   09:27:09.119.08-Aug-2020 5133.51 4124.49 75.04 8.00 234.12 3319.72
   09:27:09.319.08-Aug-2020 5133.51 4124.49 75.04 8.00 234.32 3319.72
   09:27:09.520.08-Aug-2020 5133.51 4124.55 75.04 8.00 234.52 3319.72
   09:27:09.720.08-Aug-2020 5133.51 4124.67 75.04 8.00 234.72 3319.72
   09:27:09.920.08-Aug-2020 5133.51 4124.61 75.04 8.00 234.92 3319.72
   09:27:10.120.08-Aug-2020 5133.51 4124.60 75.04 8.00 235.12 3319.72
   09:27:10.320.08-Aug-2020 5133.51 4124.60 75.04 8.00 235.32 3319.72
   09:27:10.520.08-Aug-2020 5133.51 4124.65 75.04 8.00 235.52 3319.72
   09:27:10.720.08-Aug-2020 5133.51 4124.63 75.04 8.00 235.72 3319.72
   09:27:10.920.08-Aug-2020 5133.51 4124.61 75.04 8.00 235.92 3319.72
   09:27:11.120.08-Aug-2020 5133.51 4124.66 75.04 8.00 236.12 3319.72
   09:27:11.320.08-Aug-2020 5133.51 4124.66 75.04 8.00 236.33 3319.72
   09:27:11.521.08-Aug-2020 5133.51 4124.62 75.04 8.00 236.53 3319.72
   09:27:11.721.08-Aug-2020 5133.51 4124.63 75.04 8.00 236.73 3319.72
   09:27:11.921.08-Aug-2020 5133.51 4124.57 75.04 8.00 236.93 3319.72
   09:27:12.121.08-Aug-2020 5133.51 4124.79 75.04 8.00 237.13 3319.72
   09:27:12.321.08-Aug-2020 5133.51 4124.79 75.04 8.00 237.33 3319.72
   09:27:12.521.08-Aug-2020 5133.51 4124.66 75.04 8.00 237.53 3319.72
   09:27:12.721.08-Aug-2020 5133.51 4124.68 75.04 8.00 237.73 3319.72
   09:27:12.921.08-Aug-2020 5133.51 4124.61 75.04 8.00 237.93 3319.72
   09:27:13.121.08-Aug-2020 5133.51 4124.74 75.04 8.00 238.13 3319.72
   09:27:13.322.08-Aug-2020 5133.51 4124.74 75.04 8.00 238.33 3319.72
   09:27:13.522.08-Aug-2020 5133.51 4124.72 75.04 8.00 238.53 3319.72
   09:27:13.722.08-Aug-2020 5133.51 4124.59 75.04 8.00 238.73 3319.72
   09:27:13.922.08-Aug-2020 5133.51 4124.62 75.04 8.00 238.93 3319.72
   09:27:14.122.08-Aug-2020 5133.51 4124.63 75.04 8.00 239.13 3319.72
   09:27:14.322.08-Aug-2020 5133.51 4124.71 75.04 8.00 239.33 3319.72
   09:27:14.522.08-Aug-2020 5133.51 4124.56 75.04 8.00 239.53 3319.72
   09:27:14.722.08-Aug-2020 5133.51 4124.72 75.04 8.00 239.73 3319.72
   09:27:14.922.08-Aug-2020 5133.51 4124.36 75.04 8.00 239.93 3319.72
   09:27:15.122.08-Aug-2020 5133.51 4124.73 75.04 8.00 240.13 3319.72
   09:27:15.323.08-Aug-2020 5133.51 4124.73 75.04 8.00 240.33 3319.72
   09:27:15.523.08-Aug-2020 5133.51 4124.60 75.04 8.00 240.53 3319.72
   09:27:15.723.08-Aug-2020 5133.51 4124.68 75.04 8.00 240.73 3319.72
   09:27:15.923.08-Aug-2020 5133.51 4124.58 75.04 8.00 240.93 3319.72
   09:27:16.123.08-Aug-2020 5133.51 4124.68 75.04 8.00 241.13 3319.72
   09:27:16.323.08-Aug-2020 5133.51 4124.68 75.04 8.00 241.33 3319.72
   09:27:16.523.08-Aug-2020 5133.51 4124.68 75.04 8.00 241.53 3319.72
   09:27:16.723.08-Aug-2020 5133.51 4124.59 75.04 8.00 241.73 3319.72
   09:27:16.923.08-Aug-2020 5133.51 4124.66 75.04 8.00 241.93 3319.72
   09:27:17.124.08-Aug-2020 5133.51 4124.64 75.04 8.00 242.13 3319.72
   09:27:17.324.08-Aug-2020 5133.51 4124.64 75.04 8.00 242.33 3319.72
   09:27:17.524.08-Aug-2020 5133.51 4124.64 75.04 8.00 242.53 3319.72
   09:27:17.724.08-Aug-2020 5133.51 4124.64 75.04 8.00 242.73 3319.72
   09:27:17.924.08-Aug-2020 5133.51 4124.67 75.04 8.00 242.93 3319.72
   09:27:18.124.08-Aug-2020 5133.51 4124.60 75.04 8.00 243.13 3319.72
   09:27:18.324.08-Aug-2020 5133.51 4124.51 75.04 8.00 243.33 3319.72
   09:27:18.524.08-Aug-2020 5133.51 4124.67 75.04 8.00 243.53 3319.72
   09:27:18.724.08-Aug-2020 5133.51 4124.60 75.04 8.00 243.73 3319.72
   09:27:18.924.08-Aug-2020 5133.51 4124.63 75.04 8.00 243.93 3319.72
   09:27:19.125.08-Aug-2020 5133.51 4124.66 75.04 8.00 244.13 3319.72
   09:27:19.325.08-Aug-2020 5133.51 4124.66 75.04 8.00 244.33 3319.72
   09:27:19.525.08-Aug-2020 5133.51 4124.68 75.04 8.00 244.53 3319.72
   09:27:19.725.08-Aug-2020 5133.51 4124.63 75.04 8.00 244.73 3319.72
   09:27:19.925.08-Aug-2020 5133.51 4124.63 75.04 8.00 244.93 3319.72
   09:27:20.125.08-Aug-2020 5133.51 4124.63 75.04 8.00 245.13 3319.72
   09:27:20.325.08-Aug-2020 5133.51 4124.63 75.04 8.00 245.33 3319.72
   09:27:20.525.08-Aug-2020 5133.51 4124.61 75.04 8.00 245.53 3319.72
   09:27:20.725.08-Aug-2020 5133.51 4124.65 75.04 8.00 245.73 3319.72
   09:27:20.926.08-Aug-2020 5133.51 4124.61 75.04 8.00 245.93 3319.72
   09:27:21.126.08-Aug-2020 5133.51 4124.66 75.04 8.00 246.13 3319.72
   09:27:21.326.08-Aug-2020 5133.51 4124.66 75.04 8.00 246.33 3319.72
   09:27:21.526.08-Aug-2020 5133.51 4124.46 75.04 8.00 246.53 3319.72
   09:27:21.726.08-Aug-2020 5133.51 4124.73 75.04 8.00 246.73 3319.72
   09:27:21.926.08-Aug-2020 5133.51 4124.58 75.04 8.00 246.93 3319.72
   09:27:22.126.08-Aug-2020 5133.51 4124.51 75.04 8.00 247.13 3319.72
   09:27:22.326.08-Aug-2020 5133.51 4124.70 75.04 8.00 247.33 3319.72
   09:27:22.526.08-Aug-2020 5133.51 4124.57 75.04 8.00 247.53 3319.72
   09:27:22.726.08-Aug-2020 5133.51 4124.49 75.04 8.00 247.73 3319.72
   09:27:22.927.08-Aug-2020 5133.51 4124.77 75.04 8.00 247.93 3319.72
   09:27:23.127.08-Aug-2020 5133.51 4124.44 75.04 8.00 248.13 3319.72
   09:27:23.327.08-Aug-2020 5133.51 4124.44 75.04 8.00 248.33 3319.72
   09:27:23.527.08-Aug-2020 5133.51 4124.65 75.04 8.00 248.53 3319.72
   09:27:23.727.08-Aug-2020 5133.51 4124.59 75.04 8.00 248.73 3319.72
   09:27:23.927.08-Aug-2020 5133.51 4124.66 75.04 8.00 248.93 3319.72
   09:27:24.127.08-Aug-2020 5133.51 4124.61 75.04 8.00 249.13 3319.72
   09:27:24.327.08-Aug-2020 5133.51 4124.61 75.04 8.00 249.33 3319.72
   09:27:24.527.08-Aug-2020 5133.51 4124.81 75.04 8.00 249.53 3319.72
   09:27:24.728.08-Aug-2020 5133.51 4124.47 75.04 8.00 249.73 3319.72
   09:27:24.928.08-Aug-2020 5133.51 4124.72 75.04 8.00 249.93 3319.72
   09:27:25.128.08-Aug-2020 5133.51 4124.57 75.04 8.00 250.13 3319.72
   09:27:25.328.08-Aug-2020 5133.51 4124.57 75.04 8.00 250.33 3319.72
   09:27:25.528.08-Aug-2020 5133.51 4124.64 75.04 8.00 250.53 3319.72
   09:27:25.728.08-Aug-2020 5133.51 4124.62 75.04 8.00 250.73 3319.72
   09:27:25.928.08-Aug-2020 5133.51 4124.62 75.04 8.00 250.93 3319.72
   09:27:26.128.08-Aug-2020 5133.51 4124.65 75.04 8.00 251.13 3319.72
   09:27:26.328.08-Aug-2020 5133.51 4124.65 75.04 8.00 251.33 3319.72
   09:27:26.529.08-Aug-2020 5133.51 4124.64 75.04 8.00 251.53 3319.72
   09:27:26.729.08-Aug-2020 5133.51 4124.65 75.04 8.00 251.73 3319.72
   09:27:26.929.08-Aug-2020 5133.51 4124.61 75.04 8.00 251.93 3319.72
   09:27:27.129.08-Aug-2020 5133.51 4124.66 75.04 8.00 252.13 3319.72
   09:27:27.329.08-Aug-2020 5133.51 4124.66 75.04 8.00 252.33 3319.72
   09:27:27.529.08-Aug-2020 5133.51 4124.64 75.04 8.00 252.53 3319.72
   09:27:27.729.08-Aug-2020 5133.51 4124.51 75.04 8.00 252.73 3319.72
   09:27:27.929.08-Aug-2020 5133.51 4124.75 75.04 8.00 252.93 3319.72
