~Version Information
 VERS.                  2.0:   CWLS log ASCII Standard -VERSION 2.0
 WRAP.                   NO:   One line per depth step
~Well Information Block
#MNEM.UNIT     VALUE/NAME     DESCRIPTION
#---------     -----------    ---------------------------
 STRT.S             06:39:47 08-Aug-20: START TIME 06:39:47 08-Aug-20
 STOP.S             06:48:06 08-Aug-20: STOP TIME  06:48:06 08-Aug-20
 STEP.S                   0.00: STEP TIME
 NULL.                 -999.25: NULL VALUE
 DFWT.                        :  DIST FWL TEXT
 DFST.                        :  DIST FSL TEXT
 DMF .             Drill Floor:  DRILL MEAS FROM
 STIM.      13.47.44 07-Jun-20:  START TIME
 DATE.      13.47.44 27-Jul-20:  END TIME
 SPUD.               07-Jun-20:  SPUD DATE
 NREF.                    Grid:  NORTH REFERENCE
 HPTY.       Minimum Curvature:  HOLE POS TYPE
 DMOD.             Drill Model:  DRILL MOD DESC
 SVYD.                  Survey:  SURVEY DESC
 ILTD.               Lithology:  INTERP LTH DESC
 FTOP.          Formation Tops:  FORM TOPS DESC
 RIG .             West Chirag:  RIG NAME
 PDAT.          Mean Sea Level:  PERMANENT DATUM
 FLD .                     ACG:  FIELD NAME
 SON .        AZ-XX-0906363612:  JOB NUMBER
 CTRY.              Azerbaijan:  COUNTRY NAME
 WELL.           J25 (Slot 35):  WELL NAME
 SRVC.          Turan Drilling:  CONTRACTOR
 COMP.     BP Exploration (Caspian Sea) Ltd:  COMPANY
 UWI .                     N/A:  UNIQUE WELL IDENTIFIER
 API .                     N/A:  API NUMBER
 BASE.              Azerbaijan:  LOGGING EQUIPMENT BASE LOCATION
 REGN.                   EESSA:  REGION
 PROV.                    Baku:  PROVINCE
 STAT.                    Baku:  STATE NAME
 MWDS.                     N/A:  MWD SHOP
 DOE .                     N/A:  DOE NUMBER
 DCON.         Sperry Drilling:  DIRECTNL CONTR
 UNIT.                     N/A:  LOGGING EQUIPMENT ID
 MDS .        Operator Entered:  MAG DATA SOURCE
 JOBN.        AZ-XX-0906363612:  JOB TICKET NUMB
 WTYP.                Deviated:  WELL TYPE
 CNTY.                        :  COUNTY
 LOC .                        :  LOCATION
 LMF .             Drill Floor:  LOG MEASURED FROM
 TVDS.m                  43.00:  TVDSS CORRECTN
 LATI.deg                40.13:  LATITUDE
 LONG.deg                51.22:  LONGITUDE
 WHNS.m                  -7.90:  WELL HEAD N/S
 WHEW.m                  -3.35:  WELL HEAD E/W
 UTMX.m              519005.06:  UTM X
 UTMY.m             4443793.85:  UTM Y
 DFWL.m                   0.00:  DISTANCE FWL
 DFSL.m                   0.00:  DISTANCE FSL
 SDEP.m                   0.00:  START DEPTH
 TDD .m                   0.00:  TOTAL DEPTH (DRILLER)
 VSDR.deg               308.97:  VERT SEC DIRECT
 GVFD.g                   1.00:  GRAVITY FIELD
 MFLD.nT              50350.00:  MAGNETIC FIELD
 MDIP.deg                59.62:  MAGNETIC DIP
 MDEC.deg                 6.44:  MAGNETIC DECL
 GRDC.deg                 0.13:  GRID CORRECTION
 AZTC.deg                 6.32:  AZM TOTAL CORR
 EPD .m                   0.00:  ELEVATION
 EGL .m                   0.00:  GROUND ELEVATION
 WDMS.m                 169.80:  WD ELEV
 APD .m                  43.00:  DEPTH ABOVE PD
 DEP .m                 356.43:  DEPTH
 AGAP.m                  43.00:  AIR GAP
 VSEW.m                  -3.35:  VERT SEC E/W
 VSNS.m                  -7.90:  VERT SEC N/S
 EKB .m                  43.00:  KB ELEVATION
 EDF .m                  43.00:  DF ELEVATION
 TDL .m                 934.00:  TOTAL DEPTH (LOGGER)
 VSC .                       0:  VS TO CLOSURE
 MAGU.                 1852825:  MAGUTM CHECKSUM
~Parameter Information Block
#MNEM.UNIT       Value        Description
#---------     -----------    ---------------------------
 AV  .mps                 0.80:  Ann Velocity 
 AVMX.mps                 1.70:  Max Ann Veloc 
 AZIF.deg               311.41:  Azm, Final 
 BHAT.        Rotary Steerable:  BHA Type 
 BROT.°/30m               0.09:  Build Rotating 
 BS  .in                 12.25:  Bit Size 
 BSZ .in                 12.25:  Bit Size 
 BTPL.psig              800.00:  Bit Press Loss 
 CABU.                      No:  Customer Abuse 
 COMM.                     ´
n:  Run Comments 1 
 TCS .hr                 96.00:  Time Ciculation Ended 
 CV  .mps                 2.03:  Crit Velocity 
 CVMX.mps                 2.42:  Max Crit Veloc 
 DD1 .          Taghi Taghiyev:  Direct Drillr 1 
 DD2 .      Tariel Pirmammadov:  Direct Drillr 2 
 DD3 .          Teymur Aghayev:  Direct Drillr 3 
 DDSV.                 iCruise:  DD Service 
 DEFF.%                  98.70:  % Det Eff 
 DLRX.°/30m               1.00:  Dogleg Rot Max 
 DLSO.°/30m               1.80:  Dogleg Oriented 
 DLSX.°/30m               3.16:  Dogleg Str Max 
 DRET.      15.00.00 07-Aug-20:  Drill End Time 
 DRST.      17.00.00 02-Aug-20:  Drill Start Tim 
 DTIM.hr                 45.90:  Time Drilling 
 EDEP.m                5298.01:  End Depth 
 ENG1.       Seymur Iskandarov:  Engineer 1 
 ENG2.         Yevgeniy Ulikov:  Engineer 2 
 ENG3.      Artemiy Matviyanov:  Engineer 3 
 ENG4.         Bahruz Mehdiyev:  Engineer 4 
 ETIM.      05.00.00 10-Aug-20:  End Time 
 FLOI.gpm              1150.00:  Flow In 
 FLON.gpm               900.00:  Flow In Min 
 FLOS.cptm                0.00:  Fluid Loss 
 FLOX.gpm              1200.00:  Flow In Max 
 FTRO.     Connectivity, Formation Presure:  FTWD Run Obj 
 HFLO.                      No:  High Flow 
 HPRE.                     Yes:  High Pressure 
 HTEM.                      No:  High Temp 
 HYDO.m                   1.80:  Hydro Offset 
 IFIN.deg                 9.71:  Inc, Final 
 IMAX.deg                63.81:  Inc Max 
 IMIN.deg                 9.53:  Inc Min 
 IMND.m                5075.52:  Inc Min Depth 
 IMXD.m                4367.08:  Inc Max Depth 
 JARR.                      No:  Jarring 
 LETM.      15.00.00 07-Aug-20:  Log End Time 
 LOST.hr                     2:  Lost Rig Time 
 LSTM.      17.00.00 02-Aug-20:  Log Start Time 
 MDCL.ppm             42500.00:  Mud Chlorides 
 MDES.     Inversion Oil/Synthetic:  Mud Desc 
 DFD .sg                  1.46:  Mud Density 
 MDMN.sg                  1.46:  Dens Mud Min 
 MDMX.sg                  1.46:  Dens Mud Max 
 MOIL.                      56:  Run Mud Oil % 
 MOWR.                   70:30:  Run Mud OWR 
 MSND.                     0.1:  Run Mud Sand % 
 MSOL.                      19:  Run Mud Solids% 
 DFV .spqt               83.00:  Mud Viscosity 
 MWOD.in                  8.00:  MWD Tool OD 
 MWSI.                     Yes:  Serv Intrp, MWD 
 OTIM.hr                196.57:  Time Operating 
 PCON.           Look Like New:  Pad Condition 
 PMAX.psia             7400.00:  Press Op, Max 
 PV  .cP                 36.00:  Mud PV 
 RUN .                    1000:  Run Number 
 ROPA.m/hr               25.00:  ROP Avg 
 ROPN.m/hr               10.00:  ROP Min 
 ROPX.m/hr               32.00:  ROP Max 
 RPMA.rpm               120.00:  RPM Surface Avg 
 RPMN.rpm               100.00:  RPM Surface Min 
 RPMX.rpm               140.00:  RPM Surface Max 
 RRUN.                    L504:  Rig Run Number 
 SAZI.deg               308.25:  Azm, Start 
 SDEP.m                4364.01:  Start Depth 
 SIDD.                      No:  Serv Intrp, DD 
 SINC.deg                63.81:  Inc, Start 
 SPPA.psig             5800.00:  SPP Avg 
 SPPN.psig             4200.00:  SPP Min 
 SPPX.psig             5950.00:  SPP Max 
 STIM.      18.00.00 01-Aug-20:  Start Time 
 SVCS.                 DD, MWD:  Services 
 SVER.                    9.20:  Sperry Version 
 TDAT.m                 934.00:  Tot Depth Attmp 
 TDDF.                      No:  Trip for DD 
 TDLG.m                 934.00:  Tot Depth Loggd 
 TFF .                      No:  Trip for Fail 
 TQAA.f-kp               31.00:  Torque Abs Avg 
 TQAN.f-kp               25.00:  Torque Abs Min 
 TQAX.f-kp               35.00:  Torque Abs Max 
 TRRT.°/30m              -0.75:  Turn Rotating 
 MRT .                  EWR-M5:  Maximum Recorded Temperature 
 TTMX.degC               95.00:  Max Tool Temp 
 VS01.                90516060:  Virtual Str1 SN 
 VS02.                90528488:  Virtual Str2 SN 
 VS03.                90577970:  Virtual Str3 SN 
 VS04.                12385033:  Virtual Str4 SN 
 VS05.                90522069:  Virtual Str5 SN 
 VS06.                13124134:  Virtual Str6 SN 
 WBMN.klb                20.00:  WOB Min 
 WITN.         Alistair Sprott:  Customer Rep 
 WITN.     Ronal van der Kraan:  Customer Rep 2 
 WOBA.klb                25.00:  WOB Avg 
 WOBX.klb                31.00:  WOB Max 
 YP  .lhf2               32.00:  Yield Point 
~Curve Information Block
#MNEM.UNIT                 API CODE     Curve Description
#---------               -----------    ---------------------------
 TIME.HHMMSS            00 000 000 000:  GT Time & Date
 GTDEPTH.m              00 000 000 000:  GT Depth
 GTPQH.psia             00 000 000 000:  GT HR Quartz Pressure
 GTTQ.degC              00 000 000 000:  GT Quartz Temperature
 GTTN.NONE              00 000 000 000:  GT Test Number
 GTET.sec               00 000 000 000:  GT Elapsed Test Time
 GTTVD.m                00 000 000 000:  GT True Vertical Depth
#Other Information
#
#WARRANTY: Halliburton will use its best efforts to furnish customers with 
#accurate information and interpretations that are part of, and incident to, the services 
#provided.  However, Halliburton cannot and does not warrant the accuracy 
#or correctness of such information and interpretations.  Under no circumstances should any 
#such information or interpretation be relied upon as the sole basis for any drilling, 
#completion, production, or financial decision or any procedure involving any risk to the 
#safety of any drilling venture, drilling rig or its crew or any other third party.  The 
#Customer has full responsibility for all drilling, completion and production operation.  
#Halliburton makes no representations or warranties, either expressed or 
#implied, including, but not limited to, the implied warranties of merchantability or fitness 
#for a particular purpose, with respect to the services rendered.  In no event will 
#Halliburton be liable for failure to obtain any particular results or for 
#any damages, including, but not limited to, indirect, special or consequential damages, 
#resulting from the use of any information or interpretation provided by Halliburton.
#
~A           TIME           GTDEPTH  GTPQH  GTTQ  GTTN  GTET   GTTVD  
# ...
   06:46:18.000.08-Aug-2020 5176.51 1423.12 80.20 4.00 391.00 3362.10
   06:46:18.200.08-Aug-2020 5176.51 1423.36 80.20 4.00 391.20 3362.10
   06:46:18.400.08-Aug-2020 5176.51 1423.82 80.20 4.00 391.40 3362.10
   06:46:18.600.08-Aug-2020 5176.51 1424.77 80.20 4.00 391.60 3362.10
   06:46:18.800.08-Aug-2020 5176.51 1425.14 80.20 4.00 391.80 3362.10
   06:46:19.000.08-Aug-2020 5176.51 1425.36 80.20 4.00 392.00 3362.10
   06:46:19.200.08-Aug-2020 5176.51 1425.36 80.20 4.00 392.20 3362.10
   06:46:19.400.08-Aug-2020 5176.51 1426.43 80.20 4.00 392.40 3362.10
   06:46:19.600.08-Aug-2020 5176.51 1426.84 80.20 4.00 392.60 3362.10
   06:46:19.800.08-Aug-2020 5176.51 1427.13 80.20 4.00 392.80 3362.10
   06:46:20.000.08-Aug-2020 5176.51 1427.42 80.20 4.00 393.00 3362.10
   06:46:20.200.08-Aug-2020 5176.51 1427.42 80.20 4.00 393.20 3362.10
   06:46:20.400.08-Aug-2020 5176.51 1427.96 80.19 4.00 393.40 3362.10
   06:46:20.600.08-Aug-2020 5176.51 1428.91 80.19 4.00 393.60 3362.10
   06:46:20.800.08-Aug-2020 5176.51 1429.32 80.19 4.00 393.80 3362.10
   06:46:21.000.08-Aug-2020 5176.51 1429.45 80.19 4.00 394.00 3362.10
   06:46:21.200.08-Aug-2020 5176.51 1429.45 80.19 4.00 394.20 3362.10
   06:46:21.400.08-Aug-2020 5176.51 1430.85 80.19 4.00 394.40 3362.10
   06:46:21.600.08-Aug-2020 5176.51 1431.21 80.19 4.00 394.60 3362.10
   06:46:21.800.08-Aug-2020 5176.51 1431.70 80.19 4.00 394.80 3362.10
   06:46:22.000.08-Aug-2020 5176.51 1432.15 80.19 4.00 395.00 3362.10
   06:46:22.200.08-Aug-2020 5176.51 1432.15 80.19 4.00 395.20 3362.10
   06:46:22.400.08-Aug-2020 5176.51 1432.72 80.19 4.00 395.40 3362.10
   06:46:22.600.08-Aug-2020 5176.51 1433.06 80.19 4.00 395.60 3362.10
   06:46:22.800.08-Aug-2020 5176.51 1433.31 80.19 4.00 395.80 3362.10
   06:46:23.000.08-Aug-2020 5176.51 1433.61 80.19 4.00 396.00 3362.10
   06:46:23.200.08-Aug-2020 5176.51 1433.61 80.19 4.00 396.20 3362.10
   06:46:23.400.08-Aug-2020 5176.51 1434.18 80.19 4.00 396.40 3362.10
   06:46:23.600.08-Aug-2020 5176.51 1434.46 80.19 4.00 396.60 3362.10
   06:46:23.800.08-Aug-2020 5176.51 1434.72 80.19 4.00 396.80 3362.10
   06:46:24.000.08-Aug-2020 5176.51 1434.94 80.19 4.00 397.00 3362.10
   06:46:24.200.08-Aug-2020 5176.51 1434.94 80.19 4.00 397.20 3362.10
   06:46:24.400.08-Aug-2020 5176.51 1435.39 80.19 4.00 397.40 3362.10
   06:46:24.600.08-Aug-2020 5176.51 1436.35 80.19 4.00 397.60 3362.10
   06:46:24.800.08-Aug-2020 5176.51 1436.89 80.19 4.00 397.80 3362.10
   06:46:25.000.08-Aug-2020 5176.51 1437.07 80.19 4.00 398.00 3362.10
   06:46:25.200.08-Aug-2020 5176.51 1437.07 80.19 4.00 398.20 3362.10
   06:46:25.400.08-Aug-2020 5176.51 1437.72 80.19 4.00 398.40 3362.10
   06:46:25.600.08-Aug-2020 5176.51 1437.96 80.19 4.00 398.60 3362.10
   06:46:25.800.08-Aug-2020 5176.51 1438.23 80.19 4.00 398.80 3362.10
   06:46:26.000.08-Aug-2020 5176.51 1438.52 80.19 4.00 399.00 3362.10
   06:46:26.200.08-Aug-2020 5176.51 1438.52 80.19 4.00 399.20 3362.10
   06:46:26.400.08-Aug-2020 5176.51 1439.06 80.19 4.00 399.40 3362.10
   06:46:26.600.08-Aug-2020 5176.51 1439.34 80.19 4.00 399.60 3362.10
   06:46:26.800.08-Aug-2020 5176.51 1439.63 80.19 4.00 399.80 3362.10
   06:46:27.000.08-Aug-2020 5176.51 1439.88 80.19 4.00 400.00 3362.10
   06:46:27.200.08-Aug-2020 5176.51 1440.11 80.19 4.00 400.20 3362.10
   06:46:27.400.08-Aug-2020 5176.51 1440.37 80.19 4.00 400.40 3362.10
   06:46:27.600.08-Aug-2020 5176.51 1440.56 80.19 4.00 400.60 3362.10
   06:46:27.800.08-Aug-2020 5176.51 1441.50 80.19 4.00 400.80 3362.10
   06:46:28.000.08-Aug-2020 5176.51 1441.85 80.19 4.00 401.00 3362.10
   06:46:28.200.08-Aug-2020 5176.51 1441.85 80.19 4.00 401.20 3362.10
   06:46:28.400.08-Aug-2020 5176.51 1443.32 80.19 4.00 401.40 3362.10
   06:46:28.600.08-Aug-2020 5176.51 1443.64 80.19 4.00 401.60 3362.10
   06:46:28.800.08-Aug-2020 5176.51 1444.05 80.19 4.00 401.80 3362.10
   06:46:29.000.08-Aug-2020 5176.51 1444.45 80.19 4.00 402.00 3362.10
   06:46:29.200.08-Aug-2020 5176.51 1444.45 80.19 4.00 402.20 3362.10
   06:46:29.400.08-Aug-2020 5176.51 1445.18 80.19 4.00 402.40 3362.10
   06:46:29.600.08-Aug-2020 5176.51 1446.05 80.18 4.00 402.60 3362.10
   06:46:29.800.08-Aug-2020 5176.51 1446.38 80.18 4.00 402.80 3362.10
   06:46:30.000.08-Aug-2020 5176.51 1446.60 80.18 4.00 403.00 3362.10
   06:46:30.200.08-Aug-2020 5176.51 1446.60 80.18 4.00 403.20 3362.10
   06:46:30.400.08-Aug-2020 5176.51 1447.89 80.18 4.00 403.40 3362.10
   06:46:30.600.08-Aug-2020 5176.51 1448.16 80.18 4.00 403.60 3362.10
   06:46:30.800.08-Aug-2020 5176.51 1448.48 80.18 4.00 403.80 3362.10
   06:46:31.000.08-Aug-2020 5176.51 1448.73 80.18 4.00 404.00 3362.10
   06:46:31.200.08-Aug-2020 5176.51 1448.73 80.18 4.00 404.20 3362.10
   06:46:31.400.08-Aug-2020 5176.51 1449.50 80.18 4.00 404.40 3362.10
   06:46:31.600.08-Aug-2020 5176.51 1450.60 80.18 4.00 404.60 3362.10
   06:46:31.800.08-Aug-2020 5176.51 1450.86 80.18 4.00 404.80 3362.10
   06:46:32.000.08-Aug-2020 5176.51 1451.19 80.18 4.00 405.00 3362.10
   06:46:32.200.08-Aug-2020 5176.51 1451.19 80.18 4.00 405.20 3362.10
   06:46:32.400.08-Aug-2020 5176.51 1451.80 80.18 4.00 405.40 3362.10
   06:46:32.600.08-Aug-2020 5176.51 1452.03 80.18 4.00 405.60 3362.10
   06:46:32.800.08-Aug-2020 5176.51 1452.26 80.18 4.00 405.80 3362.10
   06:46:33.000.08-Aug-2020 5176.51 1452.55 80.18 4.00 406.00 3362.10
   06:46:33.200.08-Aug-2020 5176.51 1452.55 80.18 4.00 406.20 3362.10
   06:46:33.400.08-Aug-2020 5176.51 1453.07 80.18 4.00 406.40 3362.10
   06:46:33.600.08-Aug-2020 5176.51 1453.36 80.18 4.00 406.60 3362.10
   06:46:33.800.08-Aug-2020 5176.51 1453.61 80.18 4.00 406.80 3362.10
   06:46:34.000.08-Aug-2020 5176.51 1453.87 80.18 4.00 407.00 3362.10
   06:46:34.200.08-Aug-2020 5176.51 1453.87 80.18 4.00 407.20 3362.10
   06:46:34.400.08-Aug-2020 5176.51 1454.36 80.18 4.00 407.40 3362.10
   06:46:34.600.08-Aug-2020 5176.51 1454.60 80.18 4.00 407.60 3362.10
   06:46:34.800.08-Aug-2020 5176.51 1454.92 80.18 4.00 407.80 3362.10
   06:46:35.000.08-Aug-2020 5176.51 1455.86 80.18 4.00 408.00 3362.10
   06:46:35.200.08-Aug-2020 5176.51 1455.86 80.18 4.00 408.20 3362.10
   06:46:35.400.08-Aug-2020 5176.51 1456.34 80.18 4.00 408.40 3362.10
   06:46:35.600.08-Aug-2020 5176.51 1456.58 80.18 4.00 408.60 3362.10
   06:46:35.800.08-Aug-2020 5176.51 1456.81 80.18 4.00 408.80 3362.10
   06:46:36.000.08-Aug-2020 5176.51 1456.98 80.18 4.00 409.00 3362.10
   06:46:36.200.08-Aug-2020 5176.51 1456.98 80.18 4.00 409.20 3362.10
   06:46:36.400.08-Aug-2020 5176.51 1457.45 80.18 4.00 409.40 3362.10
   06:46:36.600.08-Aug-2020 5176.51 1457.58 80.18 4.00 409.60 3362.10
   06:46:36.800.08-Aug-2020 5176.51 1457.77 80.18 4.00 409.80 3362.10
   06:46:37.000.08-Aug-2020 5176.51 1458.05 80.18 4.00 410.00 3362.10
   06:46:37.200.08-Aug-2020 5176.51 1458.05 80.18 4.00 410.20 3362.10
   06:46:37.400.08-Aug-2020 5176.51 1458.47 80.18 4.00 410.40 3362.10
   06:46:37.600.08-Aug-2020 5176.51 1458.70 80.18 4.00 410.60 3362.10
   06:46:37.800.08-Aug-2020 5176.51 1458.92 80.18 4.00 410.80 3362.10
   06:46:38.000.08-Aug-2020 5176.51 1459.12 80.18 4.00 411.00 3362.10
   06:46:38.200.08-Aug-2020 5176.51 1459.12 80.18 4.00 411.20 3362.10
   06:46:38.400.08-Aug-2020 5176.51 1459.80 80.18 4.00 411.40 3362.10
   06:46:38.600.08-Aug-2020 5176.51 1460.31 80.18 4.00 411.60 3362.10
   06:46:38.800.08-Aug-2020 5176.51 1461.37 80.17 4.00 411.80 3362.10
   06:46:39.000.08-Aug-2020 5176.51 1461.72 80.17 4.00 412.00 3362.10
   06:46:39.200.08-Aug-2020 5176.51 1461.72 80.17 4.00 412.20 3362.10
   06:46:39.400.08-Aug-2020 5176.51 1462.37 80.17 4.00 412.40 3362.10
   06:46:39.600.08-Aug-2020 5176.51 1462.56 80.17 4.00 412.60 3362.10
   06:46:39.800.08-Aug-2020 5176.51 1463.25 80.17 4.00 412.80 3362.10
   06:46:40.000.08-Aug-2020 5176.51 1463.78 80.17 4.00 413.00 3362.10
   06:46:40.200.08-Aug-2020 5176.51 1463.78 80.17 4.00 413.20 3362.10
   06:46:40.400.08-Aug-2020 5176.51 1464.40 80.17 4.00 413.40 3362.10
   06:46:40.600.08-Aug-2020 5176.51 1464.69 80.17 4.00 413.60 3362.10
   06:46:40.800.08-Aug-2020 5176.51 1465.70 80.17 4.00 413.80 3362.10
