~Version Information
 VERS.                  2.0:   CWLS log ASCII Standard -VERSION 2.0
 WRAP.                   NO:   One line per depth step
~Well Information Block
#MNEM.UNIT     VALUE/NAME     DESCRIPTION
#---------     -----------    ---------------------------
 STRT.S             05:51:10 08-Aug-20: START TIME 05:51:10 08-Aug-20
 STOP.S             05:59:38 08-Aug-20: STOP TIME  05:59:38 08-Aug-20
 STEP.S                   0.00: STEP TIME
 NULL.                 -999.25: NULL VALUE
 DFWT.                        :  DIST FWL TEXT
 DFST.                        :  DIST FSL TEXT
 DMF .             Drill Floor:  DRILL MEAS FROM
 STIM.      13.47.44 07-Jun-20:  START TIME
 DATE.      13.47.44 27-Jul-20:  END TIME
 SPUD.               07-Jun-20:  SPUD DATE
 NREF.                    Grid:  NORTH REFERENCE
 HPTY.       Minimum Curvature:  HOLE POS TYPE
 DMOD.             Drill Model:  DRILL MOD DESC
 SVYD.                  Survey:  SURVEY DESC
 ILTD.               Lithology:  INTERP LTH DESC
 FTOP.          Formation Tops:  FORM TOPS DESC
 RIG .             West Chirag:  RIG NAME
 PDAT.          Mean Sea Level:  PERMANENT DATUM
 FLD .                     ACG:  FIELD NAME
 SON .        AZ-XX-0906363612:  JOB NUMBER
 CTRY.              Azerbaijan:  COUNTRY NAME
 WELL.           J25 (Slot 35):  WELL NAME
 SRVC.          Turan Drilling:  CONTRACTOR
 COMP.     BP Exploration (Caspian Sea) Ltd:  COMPANY
 UWI .                     N/A:  UNIQUE WELL IDENTIFIER
 API .                     N/A:  API NUMBER
 BASE.              Azerbaijan:  LOGGING EQUIPMENT BASE LOCATION
 REGN.                   EESSA:  REGION
 PROV.                    Baku:  PROVINCE
 STAT.                    Baku:  STATE NAME
 MWDS.                     N/A:  MWD SHOP
 DOE .                     N/A:  DOE NUMBER
 DCON.         Sperry Drilling:  DIRECTNL CONTR
 UNIT.                     N/A:  LOGGING EQUIPMENT ID
 MDS .        Operator Entered:  MAG DATA SOURCE
 JOBN.        AZ-XX-0906363612:  JOB TICKET NUMB
 WTYP.                Deviated:  WELL TYPE
 CNTY.                        :  COUNTY
 LOC .                        :  LOCATION
 LMF .             Drill Floor:  LOG MEASURED FROM
 TVDS.m                  43.00:  TVDSS CORRECTN
 LATI.deg                40.13:  LATITUDE
 LONG.deg                51.22:  LONGITUDE
 WHNS.m                  -7.90:  WELL HEAD N/S
 WHEW.m                  -3.35:  WELL HEAD E/W
 UTMX.m              519005.06:  UTM X
 UTMY.m             4443793.85:  UTM Y
 DFWL.m                   0.00:  DISTANCE FWL
 DFSL.m                   0.00:  DISTANCE FSL
 SDEP.m                   0.00:  START DEPTH
 TDD .m                   0.00:  TOTAL DEPTH (DRILLER)
 VSDR.deg               308.97:  VERT SEC DIRECT
 GVFD.g                   1.00:  GRAVITY FIELD
 MFLD.nT              50350.00:  MAGNETIC FIELD
 MDIP.deg                59.62:  MAGNETIC DIP
 MDEC.deg                 6.44:  MAGNETIC DECL
 GRDC.deg                 0.13:  GRID CORRECTION
 AZTC.deg                 6.32:  AZM TOTAL CORR
 EPD .m                   0.00:  ELEVATION
 EGL .m                   0.00:  GROUND ELEVATION
 WDMS.m                 169.80:  WD ELEV
 APD .m                  43.00:  DEPTH ABOVE PD
 DEP .m                 356.43:  DEPTH
 AGAP.m                  43.00:  AIR GAP
 VSEW.m                  -3.35:  VERT SEC E/W
 VSNS.m                  -7.90:  VERT SEC N/S
 EKB .m                  43.00:  KB ELEVATION
 EDF .m                  43.00:  DF ELEVATION
 TDL .m                 934.00:  TOTAL DEPTH (LOGGER)
 VSC .                       0:  VS TO CLOSURE
 MAGU.                 1852825:  MAGUTM CHECKSUM
~Parameter Information Block
#MNEM.UNIT       Value        Description
#---------     -----------    ---------------------------
 AV  .mps                 0.80:  Ann Velocity 
 AVMX.mps                 1.70:  Max Ann Veloc 
 AZIF.deg               311.41:  Azm, Final 
 BHAT.        Rotary Steerable:  BHA Type 
 BROT.°/30m               0.09:  Build Rotating 
 BS  .in                 12.25:  Bit Size 
 BSZ .in                 12.25:  Bit Size 
 BTPL.psig              800.00:  Bit Press Loss 
 CABU.                      No:  Customer Abuse 
 COMM.                     ¤'V:  Run Comments 1 
 TCS .hr                 96.00:  Time Ciculation Ended 
 CV  .mps                 2.03:  Crit Velocity 
 CVMX.mps                 2.42:  Max Crit Veloc 
 DD1 .          Taghi Taghiyev:  Direct Drillr 1 
 DD2 .      Tariel Pirmammadov:  Direct Drillr 2 
 DD3 .          Teymur Aghayev:  Direct Drillr 3 
 DDSV.                 iCruise:  DD Service 
 DEFF.%                  98.70:  % Det Eff 
 DLRX.°/30m               1.00:  Dogleg Rot Max 
 DLSO.°/30m               1.80:  Dogleg Oriented 
 DLSX.°/30m               3.16:  Dogleg Str Max 
 DRET.      15.00.00 07-Aug-20:  Drill End Time 
 DRST.      17.00.00 02-Aug-20:  Drill Start Tim 
 DTIM.hr                 45.90:  Time Drilling 
 EDEP.m                5298.01:  End Depth 
 ENG1.       Seymur Iskandarov:  Engineer 1 
 ENG2.         Yevgeniy Ulikov:  Engineer 2 
 ENG3.      Artemiy Matviyanov:  Engineer 3 
 ENG4.         Bahruz Mehdiyev:  Engineer 4 
 ETIM.      05.00.00 10-Aug-20:  End Time 
 FLOI.gpm              1150.00:  Flow In 
 FLON.gpm               900.00:  Flow In Min 
 FLOS.cptm                0.00:  Fluid Loss 
 FLOX.gpm              1200.00:  Flow In Max 
 FTRO.     Connectivity, Formation Presure:  FTWD Run Obj 
 HFLO.                      No:  High Flow 
 HPRE.                     Yes:  High Pressure 
 HTEM.                      No:  High Temp 
 HYDO.m                   1.80:  Hydro Offset 
 IFIN.deg                 9.71:  Inc, Final 
 IMAX.deg                63.81:  Inc Max 
 IMIN.deg                 9.53:  Inc Min 
 IMND.m                5075.52:  Inc Min Depth 
 IMXD.m                4367.08:  Inc Max Depth 
 JARR.                      No:  Jarring 
 LETM.      15.00.00 07-Aug-20:  Log End Time 
 LOST.hr                     2:  Lost Rig Time 
 LSTM.      17.00.00 02-Aug-20:  Log Start Time 
 MDCL.ppm             42500.00:  Mud Chlorides 
 MDES.     Inversion Oil/Synthetic:  Mud Desc 
 DFD .sg                  1.46:  Mud Density 
 MDMN.sg                  1.46:  Dens Mud Min 
 MDMX.sg                  1.46:  Dens Mud Max 
 MOIL.                      56:  Run Mud Oil % 
 MOWR.                   70:30:  Run Mud OWR 
 MSND.                     0.1:  Run Mud Sand % 
 MSOL.                      19:  Run Mud Solids% 
 DFV .spqt               83.00:  Mud Viscosity 
 MWOD.in                  8.00:  MWD Tool OD 
 MWSI.                     Yes:  Serv Intrp, MWD 
 OTIM.hr                196.57:  Time Operating 
 PCON.           Look Like New:  Pad Condition 
 PMAX.psia             7400.00:  Press Op, Max 
 PV  .cP                 36.00:  Mud PV 
 RUN .                    1000:  Run Number 
 ROPA.m/hr               25.00:  ROP Avg 
 ROPN.m/hr               10.00:  ROP Min 
 ROPX.m/hr               32.00:  ROP Max 
 RPMA.rpm               120.00:  RPM Surface Avg 
 RPMN.rpm               100.00:  RPM Surface Min 
 RPMX.rpm               140.00:  RPM Surface Max 
 RRUN.                    L504:  Rig Run Number 
 SAZI.deg               308.25:  Azm, Start 
 SDEP.m                4364.01:  Start Depth 
 SIDD.                      No:  Serv Intrp, DD 
 SINC.deg                63.81:  Inc, Start 
 SPPA.psig             5800.00:  SPP Avg 
 SPPN.psig             4200.00:  SPP Min 
 SPPX.psig             5950.00:  SPP Max 
 STIM.      18.00.00 01-Aug-20:  Start Time 
 SVCS.                 DD, MWD:  Services 
 SVER.                    9.20:  Sperry Version 
 TDAT.m                 934.00:  Tot Depth Attmp 
 TDDF.                      No:  Trip for DD 
 TDLG.m                 934.00:  Tot Depth Loggd 
 TFF .                      No:  Trip for Fail 
 TQAA.f-kp               31.00:  Torque Abs Avg 
 TQAN.f-kp               25.00:  Torque Abs Min 
 TQAX.f-kp               35.00:  Torque Abs Max 
 TRRT.°/30m              -0.75:  Turn Rotating 
 MRT .                  EWR-M5:  Maximum Recorded Temperature 
 TTMX.degC               95.00:  Max Tool Temp 
 VS01.                90516060:  Virtual Str1 SN 
 VS02.                90528488:  Virtual Str2 SN 
 VS03.                90577970:  Virtual Str3 SN 
 VS04.                12385033:  Virtual Str4 SN 
 VS05.                90522069:  Virtual Str5 SN 
 VS06.                13124134:  Virtual Str6 SN 
 WBMN.klb                20.00:  WOB Min 
 WITN.         Alistair Sprott:  Customer Rep 
 WITN.     Ronal van der Kraan:  Customer Rep 2 
 WOBA.klb                25.00:  WOB Avg 
 WOBX.klb                31.00:  WOB Max 
 YP  .lhf2               32.00:  Yield Point 
~Curve Information Block
#MNEM.UNIT                 API CODE     Curve Description
#---------               -----------    ---------------------------
 TIME.HHMMSS            00 000 000 000:  GT Time & Date
 GTDEPTH.m              00 000 000 000:  GT Depth
 GTPQH.psia             00 000 000 000:  GT HR Quartz Pressure
 GTTQ.degC              00 000 000 000:  GT Quartz Temperature
 GTTN.NONE              00 000 000 000:  GT Test Number
 GTET.sec               00 000 000 000:  GT Elapsed Test Time
 GTTVD.m                00 000 000 000:  GT True Vertical Depth
#Other Information
#
#WARRANTY: Halliburton will use its best efforts to furnish customers with 
#accurate information and interpretations that are part of, and incident to, the services 
#provided.  However, Halliburton cannot and does not warrant the accuracy 
#or correctness of such information and interpretations.  Under no circumstances should any 
#such information or interpretation be relied upon as the sole basis for any drilling, 
#completion, production, or financial decision or any procedure involving any risk to the 
#safety of any drilling venture, drilling rig or its crew or any other third party.  The 
#Customer has full responsibility for all drilling, completion and production operation.  
#Halliburton makes no representations or warranties, either expressed or 
#implied, including, but not limited to, the implied warranties of merchantability or fitness 
#for a particular purpose, with respect to the services rendered.  In no event will 
#Halliburton be liable for failure to obtain any particular results or for 
#any damages, including, but not limited to, indirect, special or consequential damages, 
#resulting from the use of any information or interpretation provided by Halliburton.
#
~A           TIME           GTDEPTH  GTPQH  GTTQ  GTTN  GTET   GTTVD  
# ...
   05:56:55.719.08-Aug-2020 5190.42 1583.82 82.51 3.00 344.82 3375.81
   05:56:55.918.08-Aug-2020 5190.42 1583.82 82.51 3.00 345.02 3375.81
   05:56:56.118.08-Aug-2020 5190.42 1486.99 82.50 3.00 345.22 3375.81
   05:56:56.318.08-Aug-2020 5190.42 1438.24 82.50 3.00 345.42 3375.81
   05:56:56.518.08-Aug-2020 5190.42 1390.16 82.49 3.00 345.62 3375.81
   05:56:56.718.08-Aug-2020 5190.42 1350.26 82.49 3.00 345.82 3375.81
   05:56:56.918.08-Aug-2020 5190.42 1350.26 82.49 3.00 346.02 3375.81
   05:56:57.118.08-Aug-2020 5190.42 1411.23 82.49 3.00 346.22 3375.81
   05:56:57.318.08-Aug-2020 5190.42 1434.79 82.48 3.00 346.42 3375.81
   05:56:57.518.08-Aug-2020 5190.42 1446.70 82.48 3.00 346.62 3375.81
   05:56:57.718.08-Aug-2020 5190.42 1456.05 82.48 3.00 346.82 3375.81
   05:56:57.917.08-Aug-2020 5190.42 1456.05 82.47 3.00 347.02 3375.81
   05:56:58.117.08-Aug-2020 5190.42 1463.22 82.47 3.00 347.22 3375.81
   05:56:58.317.08-Aug-2020 5190.42 1458.80 82.47 3.00 347.42 3375.81
   05:56:58.517.08-Aug-2020 5190.42 1452.73 82.47 3.00 347.62 3375.81
   05:56:58.717.08-Aug-2020 5190.42 1446.11 82.46 3.00 347.82 3375.81
   05:56:58.917.08-Aug-2020 5190.42 1446.11 82.46 3.00 348.02 3375.81
   05:56:59.117.08-Aug-2020 5190.42 1437.83 82.46 3.00 348.22 3375.81
   05:56:59.317.08-Aug-2020 5190.42 1427.37 82.46 3.00 348.42 3375.81
   05:56:59.517.08-Aug-2020 5190.42 1416.03 82.45 3.00 348.62 3375.81
   05:56:59.716.08-Aug-2020 5190.42 1430.26 82.45 3.00 348.82 3375.81
   05:56:59.916.08-Aug-2020 5190.42 1430.26 82.45 3.00 349.02 3375.81
   05:57:00.116.08-Aug-2020 5190.42 1568.85 82.45 3.00 349.22 3375.81
   05:57:00.316.08-Aug-2020 5190.42 1634.66 82.44 3.00 349.42 3375.81
   05:57:00.516.08-Aug-2020 5190.42 1697.34 82.44 3.00 349.62 3375.81
   05:57:00.716.08-Aug-2020 5190.42 1757.77 82.44 3.00 349.82 3375.81
   05:57:00.916.08-Aug-2020 5190.42 1757.77 82.44 3.00 350.02 3375.81
   05:57:01.116.08-Aug-2020 5190.42 1873.84 82.44 3.00 350.22 3375.81
   05:57:01.316.08-Aug-2020 5190.42 1929.48 82.43 3.00 350.42 3375.81
   05:57:01.516.08-Aug-2020 5190.42 1983.94 82.43 3.00 350.62 3375.81
   05:57:01.715.08-Aug-2020 5190.42 2036.82 82.43 3.00 350.82 3375.81
   05:57:01.915.08-Aug-2020 5190.42 2036.82 82.43 3.00 351.02 3375.81
   05:57:02.115.08-Aug-2020 5190.42 2139.77 82.43 3.00 351.22 3375.81
   05:57:02.315.08-Aug-2020 5190.42 2189.42 82.43 3.00 351.42 3375.81
   05:57:02.515.08-Aug-2020 5190.42 2237.98 82.42 3.00 351.62 3375.81
   05:57:02.715.08-Aug-2020 5190.42 2285.38 82.42 3.00 351.82 3375.81
   05:57:02.915.08-Aug-2020 5190.42 2285.38 82.42 3.00 352.02 3375.81
   05:57:03.115.08-Aug-2020 5190.42 2377.28 82.42 3.00 352.22 3375.81
   05:57:03.315.08-Aug-2020 5190.42 2422.12 82.42 3.00 352.42 3375.81
   05:57:03.515.08-Aug-2020 5190.42 2465.82 82.42 3.00 352.62 3375.81
   05:57:03.714.08-Aug-2020 5190.42 2508.64 82.42 3.00 352.82 3375.81
   05:57:03.914.08-Aug-2020 5190.42 2508.64 82.42 3.00 353.02 3375.81
   05:57:04.114.08-Aug-2020 5190.42 2592.18 82.42 3.00 353.22 3375.81
   05:57:04.314.08-Aug-2020 5190.42 2632.29 82.42 3.00 353.42 3375.81
   05:57:04.514.08-Aug-2020 5190.42 2672.43 82.42 3.00 353.62 3375.81
   05:57:04.714.08-Aug-2020 5190.42 2711.56 82.42 3.00 353.82 3375.81
   05:57:04.914.08-Aug-2020 5190.42 2711.56 82.42 3.00 354.02 3375.81
   05:57:05.114.08-Aug-2020 5190.42 2788.04 82.41 3.00 354.22 3375.81
   05:57:05.314.08-Aug-2020 5190.42 2825.35 82.41 3.00 354.42 3375.81
   05:57:05.514.08-Aug-2020 5190.42 2861.68 82.41 3.00 354.62 3375.81
   05:57:05.713.08-Aug-2020 5190.42 2897.11 82.41 3.00 354.82 3375.81
   05:57:05.913.08-Aug-2020 5190.42 2897.11 82.41 3.00 355.02 3375.81
   05:57:06.113.08-Aug-2020 5190.42 2966.83 82.41 3.00 355.22 3375.81
   05:57:06.313.08-Aug-2020 5190.42 3000.70 82.41 3.00 355.42 3375.81
   05:57:06.513.08-Aug-2020 5190.42 3033.87 82.41 3.00 355.62 3375.81
   05:57:06.713.08-Aug-2020 5190.42 3067.21 82.41 3.00 355.82 3375.81
   05:57:06.913.08-Aug-2020 5190.42 3067.21 82.41 3.00 356.02 3375.81
   05:57:07.113.08-Aug-2020 5190.42 3131.42 82.42 3.00 356.22 3375.81
   05:57:07.313.08-Aug-2020 5190.42 3162.93 82.42 3.00 356.42 3375.81
   05:57:07.513.08-Aug-2020 5190.42 3193.97 82.42 3.00 356.62 3375.81
   05:57:07.712.08-Aug-2020 5190.42 3224.27 82.42 3.00 356.82 3375.81
   05:57:07.912.08-Aug-2020 5190.42 3224.27 82.42 3.00 357.02 3375.81
   05:57:08.112.08-Aug-2020 5190.42 3283.90 82.42 3.00 357.22 3375.81
   05:57:08.312.08-Aug-2020 5190.42 3312.86 82.42 3.00 357.42 3375.81
   05:57:08.512.08-Aug-2020 5190.42 3341.59 82.42 3.00 357.62 3375.81
   05:57:08.712.08-Aug-2020 5190.42 3369.55 82.42 3.00 357.82 3375.81
   05:57:08.912.08-Aug-2020 5190.42 3369.55 82.42 3.00 358.02 3375.81
   05:57:09.112.08-Aug-2020 5190.42 3424.68 82.42 3.00 358.22 3375.81
   05:57:09.312.08-Aug-2020 5190.42 3451.52 82.42 3.00 358.42 3375.81
   05:57:09.512.08-Aug-2020 5190.42 3478.04 82.42 3.00 358.62 3375.81
   05:57:09.711.08-Aug-2020 5190.42 3503.90 82.42 3.00 358.82 3375.81
   05:57:09.911.08-Aug-2020 5190.42 3503.90 82.42 3.00 359.02 3375.81
   05:57:10.111.08-Aug-2020 5190.42 3554.42 82.42 3.00 359.22 3375.81
   05:57:10.311.08-Aug-2020 5190.42 3579.23 82.42 3.00 359.42 3375.81
   05:57:10.511.08-Aug-2020 5190.42 3604.06 82.43 3.00 359.62 3375.81
   05:57:10.711.08-Aug-2020 5190.42 3628.17 82.43 3.00 359.82 3375.81
   05:57:10.911.08-Aug-2020 5190.42 3628.17 82.43 3.00 360.02 3375.81
   05:57:11.111.08-Aug-2020 5190.42 3675.96 82.43 3.00 360.22 3375.81
   05:57:11.311.08-Aug-2020 5190.42 3699.37 82.43 3.00 360.42 3375.81
   05:57:11.510.08-Aug-2020 5190.42 3722.44 82.43 3.00 360.62 3375.81
   05:57:11.710.08-Aug-2020 5190.42 3745.21 82.43 3.00 360.82 3375.81
   05:57:11.910.08-Aug-2020 5190.42 3745.21 82.43 3.00 361.02 3375.81
   05:57:12.110.08-Aug-2020 5190.42 3789.66 82.43 3.00 361.22 3375.81
   05:57:12.310.08-Aug-2020 5190.42 3811.28 82.43 3.00 361.42 3375.81
   05:57:12.510.08-Aug-2020 5190.42 3832.89 82.43 3.00 361.62 3375.81
   05:57:12.710.08-Aug-2020 5190.42 3854.05 82.43 3.00 361.82 3375.81
   05:57:12.910.08-Aug-2020 5190.42 3854.05 82.43 3.00 362.02 3375.81
   05:57:13.110.08-Aug-2020 5190.42 3894.63 82.44 3.00 362.22 3375.81
   05:57:13.310.08-Aug-2020 5190.42 3915.14 82.44 3.00 362.42 3375.81
   05:57:13.509.08-Aug-2020 5190.42 3934.62 82.44 3.00 362.62 3375.81
   05:57:13.709.08-Aug-2020 5190.42 3954.17 82.44 3.00 362.82 3375.81
   05:57:13.909.08-Aug-2020 5190.42 3954.17 82.44 3.00 363.02 3375.81
   05:57:14.109.08-Aug-2020 5190.42 3992.90 82.44 3.00 363.22 3375.81
   05:57:14.309.08-Aug-2020 5190.42 4012.57 82.44 3.00 363.41 3375.81
   05:57:14.509.08-Aug-2020 5190.42 4031.22 82.44 3.00 363.61 3375.81
   05:57:14.709.08-Aug-2020 5190.42 4050.13 82.44 3.00 363.81 3375.81
   05:57:14.909.08-Aug-2020 5190.42 4050.13 82.44 3.00 364.01 3375.81
   05:57:15.109.08-Aug-2020 5190.42 4085.84 82.45 3.00 364.21 3375.81
   05:57:15.309.08-Aug-2020 5190.42 4104.04 82.45 3.00 364.41 3375.81
   05:57:15.508.08-Aug-2020 5190.42 4121.35 82.45 3.00 364.61 3375.81
   05:57:15.708.08-Aug-2020 5190.42 4139.43 82.45 3.00 364.81 3375.81
   05:57:15.908.08-Aug-2020 5190.42 4139.43 82.45 3.00 365.01 3375.81
   05:57:16.108.08-Aug-2020 5190.42 4173.02 82.45 3.00 365.21 3375.81
   05:57:16.308.08-Aug-2020 5190.42 4190.06 82.45 3.00 365.41 3375.81
   05:57:16.508.08-Aug-2020 5190.42 4206.84 82.45 3.00 365.61 3375.81
   05:57:16.708.08-Aug-2020 5190.42 4222.73 82.45 3.00 365.81 3375.81
   05:57:16.908.08-Aug-2020 5190.42 4222.73 82.45 3.00 366.01 3375.81
   05:57:17.108.08-Aug-2020 5190.42 4255.52 82.45 3.00 366.21 3375.81
   05:57:17.308.08-Aug-2020 5190.42 4271.38 82.45 3.00 366.41 3375.81
   05:57:17.507.08-Aug-2020 5190.42 4287.09 82.45 3.00 366.61 3375.81
   05:57:17.707.08-Aug-2020 5190.42 4302.86 82.46 3.00 366.81 3375.81
   05:57:17.907.08-Aug-2020 5190.42 4302.86 82.46 3.00 367.01 3375.81
   05:57:18.107.08-Aug-2020 5190.42 4333.60 82.46 3.00 367.21 3375.81
   05:57:18.307.08-Aug-2020 5190.42 4348.22 82.46 3.00 367.41 3375.81
   05:57:18.507.08-Aug-2020 5190.42 4363.06 82.46 3.00 367.61 3375.81
