~Version Information
 VERS.                  2.0:   CWLS log ASCII Standard -VERSION 2.0
 WRAP.                   NO:   One line per depth step
~Well Information Block
#MNEM.UNIT     VALUE/NAME     DESCRIPTION
#---------     -----------    ---------------------------
 STRT.S             03:17:15 08-Aug-20: START TIME 03:17:15 08-Aug-20
 STOP.S             03:24:06 08-Aug-20: STOP TIME  03:24:06 08-Aug-20
 STEP.S                   0.00: STEP TIME
 NULL.                 -999.25: NULL VALUE
 DFWT.                        :  DIST FWL TEXT
 DFST.                        :  DIST FSL TEXT
 DMF .             Drill Floor:  DRILL MEAS FROM
 STIM.      13.47.44 07-Jun-20:  START TIME
 DATE.      13.47.44 27-Jul-20:  END TIME
 SPUD.               07-Jun-20:  SPUD DATE
 NREF.                    Grid:  NORTH REFERENCE
 HPTY.       Minimum Curvature:  HOLE POS TYPE
 DMOD.             Drill Model:  DRILL MOD DESC
 SVYD.                  Survey:  SURVEY DESC
 ILTD.               Lithology:  INTERP LTH DESC
 FTOP.          Formation Tops:  FORM TOPS DESC
 RIG .             West Chirag:  RIG NAME
 PDAT.          Mean Sea Level:  PERMANENT DATUM
 FLD .                     ACG:  FIELD NAME
 SON .        AZ-XX-0906363612:  JOB NUMBER
 CTRY.              Azerbaijan:  COUNTRY NAME
 WELL.           J25 (Slot 35):  WELL NAME
 SRVC.          Turan Drilling:  CONTRACTOR
 COMP.     BP Exploration (Caspian Sea) Ltd:  COMPANY
 UWI .                     N/A:  UNIQUE WELL IDENTIFIER
 API .                     N/A:  API NUMBER
 BASE.              Azerbaijan:  LOGGING EQUIPMENT BASE LOCATION
 REGN.                   EESSA:  REGION
 PROV.                    Baku:  PROVINCE
 STAT.                    Baku:  STATE NAME
 MWDS.                     N/A:  MWD SHOP
 DOE .                     N/A:  DOE NUMBER
 DCON.         Sperry Drilling:  DIRECTNL CONTR
 UNIT.                     N/A:  LOGGING EQUIPMENT ID
 MDS .        Operator Entered:  MAG DATA SOURCE
 JOBN.        AZ-XX-0906363612:  JOB TICKET NUMB
 WTYP.                Deviated:  WELL TYPE
 CNTY.                        :  COUNTY
 LOC .                        :  LOCATION
 LMF .             Drill Floor:  LOG MEASURED FROM
 TVDS.m                  43.00:  TVDSS CORRECTN
 LATI.deg                40.13:  LATITUDE
 LONG.deg                51.22:  LONGITUDE
 WHNS.m                  -7.90:  WELL HEAD N/S
 WHEW.m                  -3.35:  WELL HEAD E/W
 UTMX.m              519005.06:  UTM X
 UTMY.m             4443793.85:  UTM Y
 DFWL.m                   0.00:  DISTANCE FWL
 DFSL.m                   0.00:  DISTANCE FSL
 SDEP.m                   0.00:  START DEPTH
 TDD .m                   0.00:  TOTAL DEPTH (DRILLER)
 VSDR.deg               308.97:  VERT SEC DIRECT
 GVFD.g                   1.00:  GRAVITY FIELD
 MFLD.nT              50350.00:  MAGNETIC FIELD
 MDIP.deg                59.62:  MAGNETIC DIP
 MDEC.deg                 6.44:  MAGNETIC DECL
 GRDC.deg                 0.13:  GRID CORRECTION
 AZTC.deg                 6.32:  AZM TOTAL CORR
 EPD .m                   0.00:  ELEVATION
 EGL .m                   0.00:  GROUND ELEVATION
 WDMS.m                 169.80:  WD ELEV
 APD .m                  43.00:  DEPTH ABOVE PD
 DEP .m                 356.43:  DEPTH
 AGAP.m                  43.00:  AIR GAP
 VSEW.m                  -3.35:  VERT SEC E/W
 VSNS.m                  -7.90:  VERT SEC N/S
 EKB .m                  43.00:  KB ELEVATION
 EDF .m                  43.00:  DF ELEVATION
 TDL .m                 934.00:  TOTAL DEPTH (LOGGER)
 VSC .                       0:  VS TO CLOSURE
 MAGU.                 1852825:  MAGUTM CHECKSUM
~Parameter Information Block
#MNEM.UNIT       Value        Description
#---------     -----------    ---------------------------
 AV  .mps                 0.80:  Ann Velocity 
 AVMX.mps                 1.70:  Max Ann Veloc 
 AZIF.deg               311.41:  Azm, Final 
 BHAT.        Rotary Steerable:  BHA Type 
 BROT.°/30m               0.09:  Build Rotating 
 BS  .in                 12.25:  Bit Size 
 BSZ .in                 12.25:  Bit Size 
 BTPL.psig              800.00:  Bit Press Loss 
 CABU.                      No:  Customer Abuse 
 COMM.                     k:  Run Comments 1 
 TCS .hr                 96.00:  Time Ciculation Ended 
 CV  .mps                 2.03:  Crit Velocity 
 CVMX.mps                 2.42:  Max Crit Veloc 
 DD1 .          Taghi Taghiyev:  Direct Drillr 1 
 DD2 .      Tariel Pirmammadov:  Direct Drillr 2 
 DD3 .          Teymur Aghayev:  Direct Drillr 3 
 DDSV.                 iCruise:  DD Service 
 DEFF.%                  98.70:  % Det Eff 
 DLRX.°/30m               1.00:  Dogleg Rot Max 
 DLSO.°/30m               1.80:  Dogleg Oriented 
 DLSX.°/30m               3.16:  Dogleg Str Max 
 DRET.      15.00.00 07-Aug-20:  Drill End Time 
 DRST.      17.00.00 02-Aug-20:  Drill Start Tim 
 DTIM.hr                 45.90:  Time Drilling 
 EDEP.m                5298.01:  End Depth 
 ENG1.       Seymur Iskandarov:  Engineer 1 
 ENG2.         Yevgeniy Ulikov:  Engineer 2 
 ENG3.      Artemiy Matviyanov:  Engineer 3 
 ENG4.         Bahruz Mehdiyev:  Engineer 4 
 ETIM.      05.00.00 10-Aug-20:  End Time 
 FLOI.gpm              1150.00:  Flow In 
 FLON.gpm               900.00:  Flow In Min 
 FLOS.cptm                0.00:  Fluid Loss 
 FLOX.gpm              1200.00:  Flow In Max 
 FTRO.     Connectivity, Formation Presure:  FTWD Run Obj 
 HFLO.                      No:  High Flow 
 HPRE.                     Yes:  High Pressure 
 HTEM.                      No:  High Temp 
 HYDO.m                   1.80:  Hydro Offset 
 IFIN.deg                 9.71:  Inc, Final 
 IMAX.deg                63.81:  Inc Max 
 IMIN.deg                 9.53:  Inc Min 
 IMND.m                5075.52:  Inc Min Depth 
 IMXD.m                4367.08:  Inc Max Depth 
 JARR.                      No:  Jarring 
 LETM.      15.00.00 07-Aug-20:  Log End Time 
 LOST.hr                     2:  Lost Rig Time 
 LSTM.      17.00.00 02-Aug-20:  Log Start Time 
 MDCL.ppm             42500.00:  Mud Chlorides 
 MDES.     Inversion Oil/Synthetic:  Mud Desc 
 DFD .sg                  1.46:  Mud Density 
 MDMN.sg                  1.46:  Dens Mud Min 
 MDMX.sg                  1.46:  Dens Mud Max 
 MOIL.                      56:  Run Mud Oil % 
 MOWR.                   70:30:  Run Mud OWR 
 MSND.                     0.1:  Run Mud Sand % 
 MSOL.                      19:  Run Mud Solids% 
 DFV .spqt               83.00:  Mud Viscosity 
 MWOD.in                  8.00:  MWD Tool OD 
 MWSI.                     Yes:  Serv Intrp, MWD 
 OTIM.hr                196.57:  Time Operating 
 PCON.           Look Like New:  Pad Condition 
 PMAX.psia             7400.00:  Press Op, Max 
 PV  .cP                 36.00:  Mud PV 
 RUN .                    1000:  Run Number 
 ROPA.m/hr               25.00:  ROP Avg 
 ROPN.m/hr               10.00:  ROP Min 
 ROPX.m/hr               32.00:  ROP Max 
 RPMA.rpm               120.00:  RPM Surface Avg 
 RPMN.rpm               100.00:  RPM Surface Min 
 RPMX.rpm               140.00:  RPM Surface Max 
 RRUN.                    L504:  Rig Run Number 
 SAZI.deg               308.25:  Azm, Start 
 SDEP.m                4364.01:  Start Depth 
 SIDD.                      No:  Serv Intrp, DD 
 SINC.deg                63.81:  Inc, Start 
 SPPA.psig             5800.00:  SPP Avg 
 SPPN.psig             4200.00:  SPP Min 
 SPPX.psig             5950.00:  SPP Max 
 STIM.      18.00.00 01-Aug-20:  Start Time 
 SVCS.                 DD, MWD:  Services 
 SVER.                    9.20:  Sperry Version 
 TDAT.m                 934.00:  Tot Depth Attmp 
 TDDF.                      No:  Trip for DD 
 TDLG.m                 934.00:  Tot Depth Loggd 
 TFF .                      No:  Trip for Fail 
 TQAA.f-kp               31.00:  Torque Abs Avg 
 TQAN.f-kp               25.00:  Torque Abs Min 
 TQAX.f-kp               35.00:  Torque Abs Max 
 TRRT.°/30m              -0.75:  Turn Rotating 
 MRT .                  EWR-M5:  Maximum Recorded Temperature 
 TTMX.degC               95.00:  Max Tool Temp 
 VS01.                90516060:  Virtual Str1 SN 
 VS02.                90528488:  Virtual Str2 SN 
 VS03.                90577970:  Virtual Str3 SN 
 VS04.                12385033:  Virtual Str4 SN 
 VS05.                90522069:  Virtual Str5 SN 
 VS06.                13124134:  Virtual Str6 SN 
 WBMN.klb                20.00:  WOB Min 
 WITN.         Alistair Sprott:  Customer Rep 
 WITN.     Ronal van der Kraan:  Customer Rep 2 
 WOBA.klb                25.00:  WOB Avg 
 WOBX.klb                31.00:  WOB Max 
 YP  .lhf2               32.00:  Yield Point 
~Curve Information Block
#MNEM.UNIT                 API CODE     Curve Description
#---------               -----------    ---------------------------
 TIME.HHMMSS            00 000 000 000:  GT Time & Date
 GTDEPTH.m              00 000 000 000:  GT Depth
 GTPQH.psia             00 000 000 000:  GT HR Quartz Pressure
 GTTQ.degC              00 000 000 000:  GT Quartz Temperature
 GTTN.NONE              00 000 000 000:  GT Test Number
 GTET.sec               00 000 000 000:  GT Elapsed Test Time
 GTTVD.m                00 000 000 000:  GT True Vertical Depth
#Other Information
#
#WARRANTY: Halliburton will use its best efforts to furnish customers with 
#accurate information and interpretations that are part of, and incident to, the services 
#provided.  However, Halliburton cannot and does not warrant the accuracy 
#or correctness of such information and interpretations.  Under no circumstances should any 
#such information or interpretation be relied upon as the sole basis for any drilling, 
#completion, production, or financial decision or any procedure involving any risk to the 
#safety of any drilling venture, drilling rig or its crew or any other third party.  The 
#Customer has full responsibility for all drilling, completion and production operation.  
#Halliburton makes no representations or warranties, either expressed or 
#implied, including, but not limited to, the implied warranties of merchantability or fitness 
#for a particular purpose, with respect to the services rendered.  In no event will 
#Halliburton be liable for failure to obtain any particular results or for 
#any damages, including, but not limited to, indirect, special or consequential damages, 
#resulting from the use of any information or interpretation provided by Halliburton.
#
~A           TIME           GTDEPTH  GTPQH  GTTQ  GTTN  GTET   GTTVD  
# ...
   03:19:56.514.08-Aug-2020 5190.56 4875.93 85.89 1.00 160.92 3375.95
   03:19:56.714.08-Aug-2020 5190.56 4875.93 85.89 1.00 161.12 3375.95
   03:19:56.914.08-Aug-2020 5190.56 4883.44 85.89 1.00 161.32 3375.95
   03:19:57.114.08-Aug-2020 5190.56 4887.05 85.89 1.00 161.52 3375.95
   03:19:57.314.08-Aug-2020 5190.56 4890.79 85.89 1.00 161.72 3375.95
   03:19:57.514.08-Aug-2020 5190.56 4894.00 85.89 1.00 161.92 3375.95
   03:19:57.713.08-Aug-2020 5190.56 4894.00 85.89 1.00 162.12 3375.95
   03:19:57.913.08-Aug-2020 5190.56 4901.15 85.89 1.00 162.32 3375.95
   03:19:58.113.08-Aug-2020 5190.56 4904.85 85.89 1.00 162.52 3375.95
   03:19:58.313.08-Aug-2020 5190.56 4908.45 85.89 1.00 162.72 3375.95
   03:19:58.513.08-Aug-2020 5190.56 4911.80 85.89 1.00 162.92 3375.95
   03:19:58.713.08-Aug-2020 5190.56 4911.80 85.89 1.00 163.12 3375.95
   03:19:58.913.08-Aug-2020 5190.56 4918.19 85.89 1.00 163.32 3375.95
   03:19:59.113.08-Aug-2020 5190.56 4921.52 85.90 1.00 163.52 3375.95
   03:19:59.313.08-Aug-2020 5190.56 4924.49 85.90 1.00 163.72 3375.95
   03:19:59.513.08-Aug-2020 5190.56 4927.68 85.90 1.00 163.92 3375.95
   03:19:59.712.08-Aug-2020 5190.56 4930.66 85.90 1.00 164.12 3375.95
   03:19:59.912.08-Aug-2020 5190.56 4933.71 85.90 1.00 164.32 3375.95
   03:20:00.112.08-Aug-2020 5190.56 4937.73 85.90 1.00 164.52 3375.95
   03:20:00.312.08-Aug-2020 5190.56 4940.73 85.90 1.00 164.72 3375.95
   03:20:00.512.08-Aug-2020 5190.56 4944.35 85.90 1.00 164.92 3375.95
   03:20:00.712.08-Aug-2020 5190.56 4944.35 85.90 1.00 165.12 3375.95
   03:20:00.912.08-Aug-2020 5190.56 4951.22 85.90 1.00 165.32 3375.95
   03:20:01.112.08-Aug-2020 5190.56 4954.58 85.90 1.00 165.52 3375.95
   03:20:01.312.08-Aug-2020 5190.56 4957.91 85.90 1.00 165.72 3375.95
   03:20:01.512.08-Aug-2020 5190.56 4960.83 85.90 1.00 165.92 3375.95
   03:20:01.711.08-Aug-2020 5190.56 4960.83 85.90 1.00 166.12 3375.95
   03:20:01.911.08-Aug-2020 5190.56 4968.05 85.90 1.00 166.32 3375.95
   03:20:02.111.08-Aug-2020 5190.56 4971.35 85.90 1.00 166.52 3375.95
   03:20:02.311.08-Aug-2020 5190.56 4974.71 85.90 1.00 166.72 3375.95
   03:20:02.511.08-Aug-2020 5190.56 4977.48 85.90 1.00 166.92 3375.95
   03:20:02.711.08-Aug-2020 5190.56 4977.48 85.90 1.00 167.11 3375.95
   03:20:02.911.08-Aug-2020 5190.56 4984.15 85.90 1.00 167.31 3375.95
   03:20:03.111.08-Aug-2020 5190.56 4987.57 85.90 1.00 167.51 3375.95
   03:20:03.311.08-Aug-2020 5190.56 4991.02 85.90 1.00 167.71 3375.95
   03:20:03.510.08-Aug-2020 5190.56 4994.39 85.90 1.00 167.91 3375.95
   03:20:03.710.08-Aug-2020 5190.56 4997.73 85.90 1.00 168.11 3375.95
   03:20:03.910.08-Aug-2020 5190.56 5001.00 85.90 1.00 168.31 3375.95
   03:20:04.110.08-Aug-2020 5190.56 5004.21 85.90 1.00 168.51 3375.95
   03:20:04.310.08-Aug-2020 5190.56 5007.73 85.90 1.00 168.71 3375.95
   03:20:04.510.08-Aug-2020 5190.56 5011.33 85.90 1.00 168.91 3375.95
   03:20:04.710.08-Aug-2020 5190.56 5011.33 85.90 1.00 169.11 3375.95
   03:20:04.910.08-Aug-2020 5190.56 5018.04 85.90 1.00 169.31 3375.95
   03:20:05.110.08-Aug-2020 5190.56 5020.55 85.90 1.00 169.51 3375.95
   03:20:05.310.08-Aug-2020 5190.56 5023.60 85.90 1.00 169.71 3375.95
   03:20:05.509.08-Aug-2020 5190.56 5026.90 85.90 1.00 169.91 3375.95
   03:20:05.709.08-Aug-2020 5190.56 5026.90 85.90 1.00 170.11 3375.95
   03:20:05.909.08-Aug-2020 5190.56 5033.17 85.90 1.00 170.31 3375.95
   03:20:06.109.08-Aug-2020 5190.56 4477.42 85.90 1.00 170.51 3375.95
   03:20:06.309.08-Aug-2020 5190.56 2984.22 85.90 1.00 170.71 3375.95
   03:20:06.509.08-Aug-2020 5190.56 2748.76 85.90 1.00 170.91 3375.95
   03:20:06.709.08-Aug-2020 5190.56 2748.76 85.90 1.00 171.11 3375.95
   03:20:06.909.08-Aug-2020 5190.56 2427.29 85.90 1.00 171.31 3375.95
   03:20:07.109.08-Aug-2020 5190.56 2271.66 85.90 1.00 171.51 3375.95
   03:20:07.309.08-Aug-2020 5190.56 2119.05 85.90 1.00 171.71 3375.95
   03:20:07.508.08-Aug-2020 5190.56 1970.77 85.90 1.00 171.91 3375.95
   03:20:07.708.08-Aug-2020 5190.56 1820.20 85.89 1.00 172.11 3375.95
   03:20:07.908.08-Aug-2020 5190.56 1661.12 85.89 1.00 172.31 3375.95
   03:20:08.108.08-Aug-2020 5190.56 1505.06 85.89 1.00 172.51 3375.95
   03:20:08.308.08-Aug-2020 5190.56 1450.66 85.89 1.00 172.71 3375.95
   03:20:08.508.08-Aug-2020 5190.56 1459.40 85.89 1.00 172.91 3375.95
   03:20:08.708.08-Aug-2020 5190.56 1459.40 85.89 1.00 173.11 3375.95
   03:20:08.908.08-Aug-2020 5190.56 1457.15 85.89 1.00 173.31 3375.95
   03:20:09.108.08-Aug-2020 5190.56 1451.21 85.89 1.00 173.51 3375.95
   03:20:09.308.08-Aug-2020 5190.56 1444.66 85.89 1.00 173.71 3375.95
   03:20:09.507.08-Aug-2020 5190.56 1440.27 85.88 1.00 173.91 3375.95
   03:20:09.707.08-Aug-2020 5190.56 1440.27 85.88 1.00 174.11 3375.95
   03:20:09.907.08-Aug-2020 5190.56 1447.27 85.88 1.00 174.31 3375.95
   03:20:10.107.08-Aug-2020 5190.56 1451.02 85.88 1.00 174.51 3375.95
   03:20:10.307.08-Aug-2020 5190.56 1452.66 85.88 1.00 174.71 3375.95
   03:20:10.507.08-Aug-2020 5190.56 1449.33 85.87 1.00 174.91 3375.95
   03:20:10.707.08-Aug-2020 5190.56 1449.33 85.87 1.00 175.11 3375.95
   03:20:10.907.08-Aug-2020 5190.56 1447.84 85.87 1.00 175.31 3375.95
   03:20:11.107.08-Aug-2020 5190.56 1446.31 85.87 1.00 175.51 3375.95
   03:20:11.307.08-Aug-2020 5190.56 1438.38 85.86 1.00 175.71 3375.95
   03:20:11.506.08-Aug-2020 5190.56 1437.20 85.86 1.00 175.91 3375.95
   03:20:11.706.08-Aug-2020 5190.56 1437.20 85.86 1.00 176.11 3375.95
   03:20:11.906.08-Aug-2020 5190.56 1431.74 85.86 1.00 176.31 3375.95
   03:20:12.106.08-Aug-2020 5190.56 1430.41 85.85 1.00 176.51 3375.95
   03:20:12.306.08-Aug-2020 5190.56 1430.85 85.85 1.00 176.71 3375.95
   03:20:12.506.08-Aug-2020 5190.56 1427.75 85.85 1.00 176.91 3375.95
   03:20:12.706.08-Aug-2020 5190.56 1427.75 85.85 1.00 177.11 3375.95
   03:20:12.906.08-Aug-2020 5190.56 1424.38 85.84 1.00 177.31 3375.95
   03:20:13.106.08-Aug-2020 5190.56 1420.12 85.84 1.00 177.51 3375.95
   03:20:13.305.08-Aug-2020 5190.56 1414.03 85.84 1.00 177.71 3375.95
   03:20:13.505.08-Aug-2020 5190.56 1407.37 85.84 1.00 177.91 3375.95
   03:20:13.705.08-Aug-2020 5190.56 1407.37 85.84 1.00 178.11 3375.95
   03:20:13.905.08-Aug-2020 5190.56 1416.85 85.83 1.00 178.31 3375.95
   03:20:14.105.08-Aug-2020 5190.56 1434.86 85.83 1.00 178.51 3375.95
   03:20:14.305.08-Aug-2020 5190.56 1447.95 85.83 1.00 178.71 3375.95
   03:20:14.505.08-Aug-2020 5190.56 1461.61 85.83 1.00 178.91 3375.95
   03:20:14.705.08-Aug-2020 5190.56 1461.61 85.83 1.00 179.11 3375.95
   03:20:14.905.08-Aug-2020 5190.56 1470.08 85.82 1.00 179.31 3375.95
   03:20:15.105.08-Aug-2020 5190.56 1472.11 85.82 1.00 179.51 3375.95
   03:20:15.304.08-Aug-2020 5190.56 1468.62 85.82 1.00 179.71 3375.95
   03:20:15.504.08-Aug-2020 5190.56 1459.09 85.82 1.00 179.91 3375.95
   03:20:15.704.08-Aug-2020 5190.56 1459.09 85.82 1.00 180.11 3375.95
   03:20:15.904.08-Aug-2020 5190.56 1451.43 85.82 1.00 180.31 3375.95
   03:20:16.104.08-Aug-2020 5190.56 1446.96 85.81 1.00 180.51 3375.95
   03:20:16.304.08-Aug-2020 5190.56 1438.54 85.81 1.00 180.71 3375.95
   03:20:16.504.08-Aug-2020 5190.56 1428.61 85.81 1.00 180.91 3375.95
   03:20:16.704.08-Aug-2020 5190.56 1428.61 85.81 1.00 181.11 3375.95
   03:20:16.904.08-Aug-2020 5190.56 1454.98 85.81 1.00 181.31 3375.95
   03:20:17.104.08-Aug-2020 5190.56 1471.09 85.81 1.00 181.51 3375.95
   03:20:17.303.08-Aug-2020 5190.56 1486.87 85.81 1.00 181.71 3375.95
   03:20:17.503.08-Aug-2020 5190.56 1502.51 85.81 1.00 181.91 3375.95
   03:20:17.703.08-Aug-2020 5190.56 1502.51 85.81 1.00 182.11 3375.95
   03:20:17.903.08-Aug-2020 5190.56 1532.96 85.80 1.00 182.31 3375.95
   03:20:18.103.08-Aug-2020 5190.56 1547.92 85.80 1.00 182.51 3375.95
   03:20:18.303.08-Aug-2020 5190.56 1562.67 85.80 1.00 182.71 3375.95
   03:20:18.503.08-Aug-2020 5190.56 1577.32 85.80 1.00 182.91 3375.95
   03:20:18.703.08-Aug-2020 5190.56 1577.32 85.80 1.00 183.11 3375.95
   03:20:18.903.08-Aug-2020 5190.56 1607.34 85.80 1.00 183.31 3375.95
   03:20:19.103.08-Aug-2020 5190.56 1621.63 85.80 1.00 183.51 3375.95
   03:20:19.302.08-Aug-2020 5190.56 1636.81 85.80 1.00 183.71 3375.95
