~Version Information
 VERS.                  2.0:   CWLS log ASCII Standard -VERSION 2.0
 WRAP.                   NO:   One line per depth step
~Well Information Block
#MNEM.UNIT     VALUE/NAME     DESCRIPTION
#---------     -----------    ---------------------------
 STRT.S             08:45:48 08-Aug-20: START TIME 08:45:48 08-Aug-20
 STOP.S             08:54:16 08-Aug-20: STOP TIME  08:54:16 08-Aug-20
 STEP.S                   0.00: STEP TIME
 NULL.                 -999.25: NULL VALUE
 DFWT.                        :  DIST FWL TEXT
 DFST.                        :  DIST FSL TEXT
 DMF .             Drill Floor:  DRILL MEAS FROM
 STIM.      13.47.44 07-Jun-20:  START TIME
 DATE.      13.47.44 27-Jul-20:  END TIME
 SPUD.               07-Jun-20:  SPUD DATE
 NREF.                    Grid:  NORTH REFERENCE
 HPTY.       Minimum Curvature:  HOLE POS TYPE
 DMOD.             Drill Model:  DRILL MOD DESC
 SVYD.                  Survey:  SURVEY DESC
 ILTD.               Lithology:  INTERP LTH DESC
 FTOP.          Formation Tops:  FORM TOPS DESC
 RIG .             West Chirag:  RIG NAME
 PDAT.          Mean Sea Level:  PERMANENT DATUM
 FLD .                     ACG:  FIELD NAME
 SON .        AZ-XX-0906363612:  JOB NUMBER
 CTRY.              Azerbaijan:  COUNTRY NAME
 WELL.           J25 (Slot 35):  WELL NAME
 SRVC.          Turan Drilling:  CONTRACTOR
 COMP.     BP Exploration (Caspian Sea) Ltd:  COMPANY
 UWI .                     N/A:  UNIQUE WELL IDENTIFIER
 API .                     N/A:  API NUMBER
 BASE.              Azerbaijan:  LOGGING EQUIPMENT BASE LOCATION
 REGN.                   EESSA:  REGION
 PROV.                    Baku:  PROVINCE
 STAT.                    Baku:  STATE NAME
 MWDS.                     N/A:  MWD SHOP
 DOE .                     N/A:  DOE NUMBER
 DCON.         Sperry Drilling:  DIRECTNL CONTR
 UNIT.                     N/A:  LOGGING EQUIPMENT ID
 MDS .        Operator Entered:  MAG DATA SOURCE
 JOBN.        AZ-XX-0906363612:  JOB TICKET NUMB
 WTYP.                Deviated:  WELL TYPE
 CNTY.                        :  COUNTY
 LOC .                        :  LOCATION
 LMF .             Drill Floor:  LOG MEASURED FROM
 TVDS.m                  43.00:  TVDSS CORRECTN
 LATI.deg                40.13:  LATITUDE
 LONG.deg                51.22:  LONGITUDE
 WHNS.m                  -7.90:  WELL HEAD N/S
 WHEW.m                  -3.35:  WELL HEAD E/W
 UTMX.m              519005.06:  UTM X
 UTMY.m             4443793.85:  UTM Y
 DFWL.m                   0.00:  DISTANCE FWL
 DFSL.m                   0.00:  DISTANCE FSL
 SDEP.m                   0.00:  START DEPTH
 TDD .m                   0.00:  TOTAL DEPTH (DRILLER)
 VSDR.deg               308.97:  VERT SEC DIRECT
 GVFD.g                   1.00:  GRAVITY FIELD
 MFLD.nT              50350.00:  MAGNETIC FIELD
 MDIP.deg                59.62:  MAGNETIC DIP
 MDEC.deg                 6.44:  MAGNETIC DECL
 GRDC.deg                 0.13:  GRID CORRECTION
 AZTC.deg                 6.32:  AZM TOTAL CORR
 EPD .m                   0.00:  ELEVATION
 EGL .m                   0.00:  GROUND ELEVATION
 WDMS.m                 169.80:  WD ELEV
 APD .m                  43.00:  DEPTH ABOVE PD
 DEP .m                 356.43:  DEPTH
 AGAP.m                  43.00:  AIR GAP
 VSEW.m                  -3.35:  VERT SEC E/W
 VSNS.m                  -7.90:  VERT SEC N/S
 EKB .m                  43.00:  KB ELEVATION
 EDF .m                  43.00:  DF ELEVATION
 TDL .m                 934.00:  TOTAL DEPTH (LOGGER)
 VSC .                       0:  VS TO CLOSURE
 MAGU.                 1852825:  MAGUTM CHECKSUM
~Parameter Information Block
#MNEM.UNIT       Value        Description
#---------     -----------    ---------------------------
 AV  .mps                 0.80:  Ann Velocity 
 AVMX.mps                 1.70:  Max Ann Veloc 
 AZIF.deg               311.41:  Azm, Final 
 BHAT.        Rotary Steerable:  BHA Type 
 BROT.°/30m               0.09:  Build Rotating 
 BS  .in                 12.25:  Bit Size 
 BSZ .in                 12.25:  Bit Size 
 BTPL.psig              800.00:  Bit Press Loss 
 CABU.                      No:  Customer Abuse 
 COMM.                     ôS:  Run Comments 1 
 TCS .hr                 96.00:  Time Ciculation Ended 
 CV  .mps                 2.03:  Crit Velocity 
 CVMX.mps                 2.42:  Max Crit Veloc 
 DD1 .          Taghi Taghiyev:  Direct Drillr 1 
 DD2 .      Tariel Pirmammadov:  Direct Drillr 2 
 DD3 .          Teymur Aghayev:  Direct Drillr 3 
 DDSV.                 iCruise:  DD Service 
 DEFF.%                  98.70:  % Det Eff 
 DLRX.°/30m               1.00:  Dogleg Rot Max 
 DLSO.°/30m               1.80:  Dogleg Oriented 
 DLSX.°/30m               3.16:  Dogleg Str Max 
 DRET.      15.00.00 07-Aug-20:  Drill End Time 
 DRST.      17.00.00 02-Aug-20:  Drill Start Tim 
 DTIM.hr                 45.90:  Time Drilling 
 EDEP.m                5298.01:  End Depth 
 ENG1.       Seymur Iskandarov:  Engineer 1 
 ENG2.         Yevgeniy Ulikov:  Engineer 2 
 ENG3.      Artemiy Matviyanov:  Engineer 3 
 ENG4.         Bahruz Mehdiyev:  Engineer 4 
 ETIM.      05.00.00 10-Aug-20:  End Time 
 FLOI.gpm              1150.00:  Flow In 
 FLON.gpm               900.00:  Flow In Min 
 FLOS.cptm                0.00:  Fluid Loss 
 FLOX.gpm              1200.00:  Flow In Max 
 FTRO.     Connectivity, Formation Presure:  FTWD Run Obj 
 HFLO.                      No:  High Flow 
 HPRE.                     Yes:  High Pressure 
 HTEM.                      No:  High Temp 
 HYDO.m                   1.80:  Hydro Offset 
 IFIN.deg                 9.71:  Inc, Final 
 IMAX.deg                63.81:  Inc Max 
 IMIN.deg                 9.53:  Inc Min 
 IMND.m                5075.52:  Inc Min Depth 
 IMXD.m                4367.08:  Inc Max Depth 
 JARR.                      No:  Jarring 
 LETM.      15.00.00 07-Aug-20:  Log End Time 
 LOST.hr                     2:  Lost Rig Time 
 LSTM.      17.00.00 02-Aug-20:  Log Start Time 
 MDCL.ppm             42500.00:  Mud Chlorides 
 MDES.     Inversion Oil/Synthetic:  Mud Desc 
 DFD .sg                  1.46:  Mud Density 
 MDMN.sg                  1.46:  Dens Mud Min 
 MDMX.sg                  1.46:  Dens Mud Max 
 MOIL.                      56:  Run Mud Oil % 
 MOWR.                   70:30:  Run Mud OWR 
 MSND.                     0.1:  Run Mud Sand % 
 MSOL.                      19:  Run Mud Solids% 
 DFV .spqt               83.00:  Mud Viscosity 
 MWOD.in                  8.00:  MWD Tool OD 
 MWSI.                     Yes:  Serv Intrp, MWD 
 OTIM.hr                196.57:  Time Operating 
 PCON.           Look Like New:  Pad Condition 
 PMAX.psia             7400.00:  Press Op, Max 
 PV  .cP                 36.00:  Mud PV 
 RUN .                    1000:  Run Number 
 ROPA.m/hr               25.00:  ROP Avg 
 ROPN.m/hr               10.00:  ROP Min 
 ROPX.m/hr               32.00:  ROP Max 
 RPMA.rpm               120.00:  RPM Surface Avg 
 RPMN.rpm               100.00:  RPM Surface Min 
 RPMX.rpm               140.00:  RPM Surface Max 
 RRUN.                    L504:  Rig Run Number 
 SAZI.deg               308.25:  Azm, Start 
 SDEP.m                4364.01:  Start Depth 
 SIDD.                      No:  Serv Intrp, DD 
 SINC.deg                63.81:  Inc, Start 
 SPPA.psig             5800.00:  SPP Avg 
 SPPN.psig             4200.00:  SPP Min 
 SPPX.psig             5950.00:  SPP Max 
 STIM.      18.00.00 01-Aug-20:  Start Time 
 SVCS.                 DD, MWD:  Services 
 SVER.                    9.20:  Sperry Version 
 TDAT.m                 934.00:  Tot Depth Attmp 
 TDDF.                      No:  Trip for DD 
 TDLG.m                 934.00:  Tot Depth Loggd 
 TFF .                      No:  Trip for Fail 
 TQAA.f-kp               31.00:  Torque Abs Avg 
 TQAN.f-kp               25.00:  Torque Abs Min 
 TQAX.f-kp               35.00:  Torque Abs Max 
 TRRT.°/30m              -0.75:  Turn Rotating 
 MRT .                  EWR-M5:  Maximum Recorded Temperature 
 TTMX.degC               95.00:  Max Tool Temp 
 VS01.                90516060:  Virtual Str1 SN 
 VS02.                90528488:  Virtual Str2 SN 
 VS03.                90577970:  Virtual Str3 SN 
 VS04.                12385033:  Virtual Str4 SN 
 VS05.                90522069:  Virtual Str5 SN 
 VS06.                13124134:  Virtual Str6 SN 
 WBMN.klb                20.00:  WOB Min 
 WITN.         Alistair Sprott:  Customer Rep 
 WITN.     Ronal van der Kraan:  Customer Rep 2 
 WOBA.klb                25.00:  WOB Avg 
 WOBX.klb                31.00:  WOB Max 
 YP  .lhf2               32.00:  Yield Point 
~Curve Information Block
#MNEM.UNIT                 API CODE     Curve Description
#---------               -----------    ---------------------------
 TIME.HHMMSS            00 000 000 000:  GT Time & Date
 GTDEPTH.m              00 000 000 000:  GT Depth
 GTPQH.psia             00 000 000 000:  GT HR Quartz Pressure
 GTTQ.degC              00 000 000 000:  GT Quartz Temperature
 GTTN.NONE              00 000 000 000:  GT Test Number
 GTET.sec               00 000 000 000:  GT Elapsed Test Time
 GTTVD.m                00 000 000 000:  GT True Vertical Depth
#Other Information
#
#WARRANTY: Halliburton will use its best efforts to furnish customers with 
#accurate information and interpretations that are part of, and incident to, the services 
#provided.  However, Halliburton cannot and does not warrant the accuracy 
#or correctness of such information and interpretations.  Under no circumstances should any 
#such information or interpretation be relied upon as the sole basis for any drilling, 
#completion, production, or financial decision or any procedure involving any risk to the 
#safety of any drilling venture, drilling rig or its crew or any other third party.  The 
#Customer has full responsibility for all drilling, completion and production operation.  
#Halliburton makes no representations or warranties, either expressed or 
#implied, including, but not limited to, the implied warranties of merchantability or fitness 
#for a particular purpose, with respect to the services rendered.  In no event will 
#Halliburton be liable for failure to obtain any particular results or for 
#any damages, including, but not limited to, indirect, special or consequential damages, 
#resulting from the use of any information or interpretation provided by Halliburton.
#
~A           TIME           GTDEPTH  GTPQH  GTTQ  GTTN  GTET   GTTVD  
# ...
   08:49:38.929.08-Aug-2020 5134.01 1535.02 76.06 7.00 230.12 3320.21
   08:49:39.129.08-Aug-2020 5134.01 1535.02 76.06 7.00 230.32 3320.21
   08:49:39.329.08-Aug-2020 5134.01 1539.78 76.06 7.00 230.52 3320.21
   08:49:39.529.08-Aug-2020 5134.01 1542.15 76.06 7.00 230.72 3320.21
   08:49:39.729.08-Aug-2020 5134.01 1544.46 76.06 7.00 230.92 3320.21
   08:49:39.929.08-Aug-2020 5134.01 1546.91 76.06 7.00 231.12 3320.21
   08:49:40.130.08-Aug-2020 5134.01 1546.91 76.06 7.00 231.32 3320.21
   08:49:40.330.08-Aug-2020 5134.01 1551.64 76.06 7.00 231.52 3320.21
   08:49:40.530.08-Aug-2020 5134.01 1554.00 76.06 7.00 231.72 3320.21
   08:49:40.730.08-Aug-2020 5134.01 1556.34 76.06 7.00 231.92 3320.21
   08:49:40.930.08-Aug-2020 5134.01 1558.63 76.06 7.00 232.12 3320.21
   08:49:41.130.08-Aug-2020 5134.01 1560.97 76.06 7.00 232.32 3320.21
   08:49:41.330.08-Aug-2020 5134.01 1563.46 76.06 7.00 232.52 3320.21
   08:49:41.530.08-Aug-2020 5134.01 1565.86 76.06 7.00 232.72 3320.21
   08:49:41.730.08-Aug-2020 5134.01 1568.11 76.06 7.00 232.92 3320.21
   08:49:41.931.08-Aug-2020 5134.01 1570.56 76.06 7.00 233.12 3320.21
   08:49:42.131.08-Aug-2020 5134.01 1573.07 76.06 7.00 233.32 3320.21
   08:49:42.331.08-Aug-2020 5134.01 1575.36 76.06 7.00 233.52 3320.21
   08:49:42.531.08-Aug-2020 5134.01 1577.64 76.06 7.00 233.72 3320.21
   08:49:42.731.08-Aug-2020 5134.01 1579.91 76.06 7.00 233.92 3320.21
   08:49:42.931.08-Aug-2020 5134.01 1582.18 76.06 7.00 234.12 3320.21
   08:49:43.131.08-Aug-2020 5134.01 1582.18 76.06 7.00 234.32 3320.21
   08:49:43.331.08-Aug-2020 5134.01 1587.15 76.06 7.00 234.52 3320.21
   08:49:43.531.08-Aug-2020 5134.01 1589.23 76.06 7.00 234.72 3320.21
   08:49:43.731.08-Aug-2020 5134.01 1591.88 76.06 7.00 234.92 3320.21
   08:49:43.932.08-Aug-2020 5134.01 1594.34 76.06 7.00 235.12 3320.21
   08:49:44.132.08-Aug-2020 5134.01 1594.34 76.06 7.00 235.32 3320.21
   08:49:44.332.08-Aug-2020 5134.01 1598.77 76.06 7.00 235.52 3320.21
   08:49:44.532.08-Aug-2020 5134.01 1601.01 76.06 7.00 235.72 3320.21
   08:49:44.732.08-Aug-2020 5134.01 1603.20 76.06 7.00 235.92 3320.21
   08:49:44.932.08-Aug-2020 5134.01 1605.53 76.06 7.00 236.12 3320.21
   08:49:45.132.08-Aug-2020 5134.01 1608.05 76.06 7.00 236.33 3320.21
   08:49:45.332.08-Aug-2020 5134.01 1610.33 76.06 7.00 236.53 3320.21
   08:49:45.532.08-Aug-2020 5134.01 1612.49 76.06 7.00 236.73 3320.21
   08:49:45.733.08-Aug-2020 5134.01 1614.77 76.06 7.00 236.93 3320.21
   08:49:45.933.08-Aug-2020 5134.01 1616.95 76.06 7.00 237.13 3320.21
   08:49:46.133.08-Aug-2020 5134.01 1619.15 76.06 7.00 237.33 3320.21
   08:49:46.333.08-Aug-2020 5134.01 1621.36 76.06 7.00 237.53 3320.21
   08:49:46.533.08-Aug-2020 5134.01 1623.57 76.06 7.00 237.73 3320.21
   08:49:46.733.08-Aug-2020 5134.01 1625.78 76.06 7.00 237.93 3320.21
   08:49:46.933.08-Aug-2020 5134.01 1627.94 76.06 7.00 238.13 3320.21
   08:49:47.133.08-Aug-2020 5134.01 1627.94 76.06 7.00 238.33 3320.21
   08:49:47.333.08-Aug-2020 5134.01 1632.35 76.06 7.00 238.53 3320.21
   08:49:47.533.08-Aug-2020 5134.01 1634.53 76.06 7.00 238.73 3320.21
   08:49:47.734.08-Aug-2020 5134.01 1636.68 76.06 7.00 238.93 3320.21
   08:49:47.934.08-Aug-2020 5134.01 1638.86 76.06 7.00 239.13 3320.21
   08:49:48.134.08-Aug-2020 5134.01 1638.86 76.06 7.00 239.33 3320.21
   08:49:48.334.08-Aug-2020 5134.01 1643.18 76.06 7.00 239.53 3320.21
   08:49:48.534.08-Aug-2020 5134.01 1645.47 76.06 7.00 239.73 3320.21
   08:49:48.734.08-Aug-2020 5134.01 1647.67 76.06 7.00 239.93 3320.21
   08:49:48.934.08-Aug-2020 5134.01 1649.64 76.06 7.00 240.13 3320.21
   08:49:49.134.08-Aug-2020 5134.01 1649.64 76.06 7.00 240.33 3320.21
   08:49:49.334.08-Aug-2020 5134.01 1653.91 76.06 7.00 240.53 3320.21
   08:49:49.535.08-Aug-2020 5134.01 1656.07 76.06 7.00 240.73 3320.21
   08:49:49.735.08-Aug-2020 5134.01 1658.21 76.06 7.00 240.93 3320.21
   08:49:49.935.08-Aug-2020 5134.01 1660.36 76.06 7.00 241.13 3320.21
   08:49:50.135.08-Aug-2020 5134.01 1660.36 76.06 7.00 241.33 3320.21
   08:49:50.335.08-Aug-2020 5134.01 1664.64 76.06 7.00 241.53 3320.21
   08:49:50.535.08-Aug-2020 5134.01 1666.82 76.06 7.00 241.73 3320.21
   08:49:50.735.08-Aug-2020 5134.01 1668.96 76.06 7.00 241.93 3320.21
   08:49:50.935.08-Aug-2020 5134.01 1671.09 76.06 7.00 242.13 3320.21
   08:49:51.135.08-Aug-2020 5134.01 1671.09 76.06 7.00 242.33 3320.21
   08:49:51.335.08-Aug-2020 5134.01 1675.30 76.06 7.00 242.53 3320.21
   08:49:51.536.08-Aug-2020 5134.01 1677.56 76.06 7.00 242.73 3320.21
   08:49:51.736.08-Aug-2020 5134.01 1679.62 76.06 7.00 242.93 3320.21
   08:49:51.936.08-Aug-2020 5134.01 1681.78 76.06 7.00 243.13 3320.21
   08:49:52.136.08-Aug-2020 5134.01 1681.78 76.06 7.00 243.33 3320.21
   08:49:52.336.08-Aug-2020 5134.01 1686.07 76.06 7.00 243.53 3320.21
   08:49:52.536.08-Aug-2020 5134.01 1688.26 76.06 7.00 243.73 3320.21
   08:49:52.736.08-Aug-2020 5134.01 1690.24 76.06 7.00 243.93 3320.21
   08:49:52.936.08-Aug-2020 5134.01 1692.49 76.06 7.00 244.13 3320.21
   08:49:53.136.08-Aug-2020 5134.01 1692.49 76.06 7.00 244.33 3320.21
   08:49:53.337.08-Aug-2020 5134.01 1696.81 76.06 7.00 244.53 3320.21
   08:49:53.537.08-Aug-2020 5134.01 1698.85 76.06 7.00 244.73 3320.21
   08:49:53.737.08-Aug-2020 5134.01 1701.15 76.06 7.00 244.93 3320.21
   08:49:53.937.08-Aug-2020 5134.01 1703.47 76.06 7.00 245.13 3320.21
   08:49:54.137.08-Aug-2020 5134.01 1703.47 76.06 7.00 245.33 3320.21
   08:49:54.337.08-Aug-2020 5134.01 1707.42 76.06 7.00 245.53 3320.21
   08:49:54.537.08-Aug-2020 5134.01 1709.40 76.06 7.00 245.73 3320.21
   08:49:54.737.08-Aug-2020 5134.01 1711.76 76.06 7.00 245.93 3320.21
   08:49:54.937.08-Aug-2020 5134.01 1713.99 76.06 7.00 246.13 3320.21
   08:49:55.138.08-Aug-2020 5134.01 1713.99 76.06 7.00 246.33 3320.21
   08:49:55.338.08-Aug-2020 5134.01 1717.90 76.06 7.00 246.53 3320.21
   08:49:55.538.08-Aug-2020 5134.01 1719.89 76.06 7.00 246.73 3320.21
   08:49:55.738.08-Aug-2020 5134.01 1722.05 76.06 7.00 246.93 3320.21
   08:49:55.938.08-Aug-2020 5134.01 1724.05 76.06 7.00 247.13 3320.21
   08:49:56.138.08-Aug-2020 5134.01 1724.05 76.06 7.00 247.33 3320.21
   08:49:56.338.08-Aug-2020 5134.01 1728.13 76.06 7.00 247.53 3320.21
   08:49:56.538.08-Aug-2020 5134.01 1730.15 76.06 7.00 247.73 3320.21
   08:49:56.738.08-Aug-2020 5134.01 1732.28 76.06 7.00 247.93 3320.21
   08:49:56.938.08-Aug-2020 5134.01 1734.28 76.06 7.00 248.13 3320.21
   08:49:57.139.08-Aug-2020 5134.01 1734.28 76.06 7.00 248.33 3320.21
   08:49:57.339.08-Aug-2020 5134.01 1738.34 76.06 7.00 248.53 3320.21
   08:49:57.539.08-Aug-2020 5134.01 1740.35 76.06 7.00 248.73 3320.21
   08:49:57.739.08-Aug-2020 5134.01 1742.35 76.06 7.00 248.93 3320.21
   08:49:57.939.08-Aug-2020 5134.01 1744.36 76.06 7.00 249.13 3320.21
   08:49:58.139.08-Aug-2020 5134.01 1744.36 76.06 7.00 249.33 3320.21
   08:49:58.339.08-Aug-2020 5134.01 1748.67 76.06 7.00 249.53 3320.21
   08:49:58.539.08-Aug-2020 5134.01 1750.58 76.06 7.00 249.73 3320.21
   08:49:58.739.08-Aug-2020 5134.01 1752.51 76.06 7.00 249.93 3320.21
   08:49:58.940.08-Aug-2020 5134.01 1754.45 76.06 7.00 250.13 3320.21
   08:49:59.140.08-Aug-2020 5134.01 1754.45 76.06 7.00 250.33 3320.21
   08:49:59.340.08-Aug-2020 5134.01 1758.44 76.06 7.00 250.53 3320.21
   08:49:59.540.08-Aug-2020 5134.01 1760.43 76.06 7.00 250.73 3320.21
   08:49:59.740.08-Aug-2020 5134.01 1762.37 76.06 7.00 250.93 3320.21
   08:49:59.940.08-Aug-2020 5134.01 1764.39 76.06 7.00 251.13 3320.21
   08:50:00.140.08-Aug-2020 5134.01 1764.39 76.06 7.00 251.33 3320.21
   08:50:00.340.08-Aug-2020 5134.01 1768.39 76.06 7.00 251.53 3320.21
   08:50:00.540.08-Aug-2020 5134.01 1770.37 76.06 7.00 251.73 3320.21
   08:50:00.740.08-Aug-2020 5134.01 1772.35 76.06 7.00 251.93 3320.21
   08:50:00.941.08-Aug-2020 5134.01 1774.29 76.06 7.00 252.13 3320.21
   08:50:01.141.08-Aug-2020 5134.01 1776.32 76.06 7.00 252.33 3320.21
   08:50:01.341.08-Aug-2020 5134.01 1778.38 76.06 7.00 252.53 3320.21
   08:50:01.541.08-Aug-2020 5134.01 1780.37 76.06 7.00 252.73 3320.21
   08:50:01.741.08-Aug-2020 5134.01 1782.31 76.06 7.00 252.93 3320.21
