~Version Information
 VERS.                  2.0:   CWLS log ASCII Standard -VERSION 2.0
 WRAP.                   NO:   One line per depth step
~Well Information Block
#MNEM.UNIT     VALUE/NAME     DESCRIPTION
#---------     -----------    ---------------------------
 STRT.S             08:45:48 08-Aug-20: START TIME 08:45:48 08-Aug-20
 STOP.S             08:54:16 08-Aug-20: STOP TIME  08:54:16 08-Aug-20
 STEP.S                   0.00: STEP TIME
 NULL.                 -999.25: NULL VALUE
 DFWT.                        :  DIST FWL TEXT
 DFST.                        :  DIST FSL TEXT
 DMF .             Drill Floor:  DRILL MEAS FROM
 STIM.      13.47.44 07-Jun-20:  START TIME
 DATE.      13.47.44 27-Jul-20:  END TIME
 SPUD.               07-Jun-20:  SPUD DATE
 NREF.                    Grid:  NORTH REFERENCE
 HPTY.       Minimum Curvature:  HOLE POS TYPE
 DMOD.             Drill Model:  DRILL MOD DESC
 SVYD.                  Survey:  SURVEY DESC
 ILTD.               Lithology:  INTERP LTH DESC
 FTOP.          Formation Tops:  FORM TOPS DESC
 RIG .             West Chirag:  RIG NAME
 PDAT.          Mean Sea Level:  PERMANENT DATUM
 FLD .                     ACG:  FIELD NAME
 SON .        AZ-XX-0906363612:  JOB NUMBER
 CTRY.              Azerbaijan:  COUNTRY NAME
 WELL.           J25 (Slot 35):  WELL NAME
 SRVC.          Turan Drilling:  CONTRACTOR
 COMP.     BP Exploration (Caspian Sea) Ltd:  COMPANY
 UWI .                     N/A:  UNIQUE WELL IDENTIFIER
 API .                     N/A:  API NUMBER
 BASE.              Azerbaijan:  LOGGING EQUIPMENT BASE LOCATION
 REGN.                   EESSA:  REGION
 PROV.                    Baku:  PROVINCE
 STAT.                    Baku:  STATE NAME
 MWDS.                     N/A:  MWD SHOP
 DOE .                     N/A:  DOE NUMBER
 DCON.         Sperry Drilling:  DIRECTNL CONTR
 UNIT.                     N/A:  LOGGING EQUIPMENT ID
 MDS .        Operator Entered:  MAG DATA SOURCE
 JOBN.        AZ-XX-0906363612:  JOB TICKET NUMB
 WTYP.                Deviated:  WELL TYPE
 CNTY.                        :  COUNTY
 LOC .                        :  LOCATION
 LMF .             Drill Floor:  LOG MEASURED FROM
 TVDS.m                  43.00:  TVDSS CORRECTN
 LATI.deg                40.13:  LATITUDE
 LONG.deg                51.22:  LONGITUDE
 WHNS.m                  -7.90:  WELL HEAD N/S
 WHEW.m                  -3.35:  WELL HEAD E/W
 UTMX.m              519005.06:  UTM X
 UTMY.m             4443793.85:  UTM Y
 DFWL.m                   0.00:  DISTANCE FWL
 DFSL.m                   0.00:  DISTANCE FSL
 SDEP.m                   0.00:  START DEPTH
 TDD .m                   0.00:  TOTAL DEPTH (DRILLER)
 VSDR.deg               308.97:  VERT SEC DIRECT
 GVFD.g                   1.00:  GRAVITY FIELD
 MFLD.nT              50350.00:  MAGNETIC FIELD
 MDIP.deg                59.62:  MAGNETIC DIP
 MDEC.deg                 6.44:  MAGNETIC DECL
 GRDC.deg                 0.13:  GRID CORRECTION
 AZTC.deg                 6.32:  AZM TOTAL CORR
 EPD .m                   0.00:  ELEVATION
 EGL .m                   0.00:  GROUND ELEVATION
 WDMS.m                 169.80:  WD ELEV
 APD .m                  43.00:  DEPTH ABOVE PD
 DEP .m                 356.43:  DEPTH
 AGAP.m                  43.00:  AIR GAP
 VSEW.m                  -3.35:  VERT SEC E/W
 VSNS.m                  -7.90:  VERT SEC N/S
 EKB .m                  43.00:  KB ELEVATION
 EDF .m                  43.00:  DF ELEVATION
 TDL .m                 934.00:  TOTAL DEPTH (LOGGER)
 VSC .                       0:  VS TO CLOSURE
 MAGU.                 1852825:  MAGUTM CHECKSUM
~Parameter Information Block
#MNEM.UNIT       Value        Description
#---------     -----------    ---------------------------
 AV  .mps                 0.80:  Ann Velocity 
 AVMX.mps                 1.70:  Max Ann Veloc 
 AZIF.deg               311.41:  Azm, Final 
 BHAT.        Rotary Steerable:  BHA Type 
 BROT.°/30m               0.09:  Build Rotating 
 BS  .in                 12.25:  Bit Size 
 BSZ .in                 12.25:  Bit Size 
 BTPL.psig              800.00:  Bit Press Loss 
 CABU.                      No:  Customer Abuse 
 COMM.                     ôS:  Run Comments 1 
 TCS .hr                 96.00:  Time Ciculation Ended 
 CV  .mps                 2.03:  Crit Velocity 
 CVMX.mps                 2.42:  Max Crit Veloc 
 DD1 .          Taghi Taghiyev:  Direct Drillr 1 
 DD2 .      Tariel Pirmammadov:  Direct Drillr 2 
 DD3 .          Teymur Aghayev:  Direct Drillr 3 
 DDSV.                 iCruise:  DD Service 
 DEFF.%                  98.70:  % Det Eff 
 DLRX.°/30m               1.00:  Dogleg Rot Max 
 DLSO.°/30m               1.80:  Dogleg Oriented 
 DLSX.°/30m               3.16:  Dogleg Str Max 
 DRET.      15.00.00 07-Aug-20:  Drill End Time 
 DRST.      17.00.00 02-Aug-20:  Drill Start Tim 
 DTIM.hr                 45.90:  Time Drilling 
 EDEP.m                5298.01:  End Depth 
 ENG1.       Seymur Iskandarov:  Engineer 1 
 ENG2.         Yevgeniy Ulikov:  Engineer 2 
 ENG3.      Artemiy Matviyanov:  Engineer 3 
 ENG4.         Bahruz Mehdiyev:  Engineer 4 
 ETIM.      05.00.00 10-Aug-20:  End Time 
 FLOI.gpm              1150.00:  Flow In 
 FLON.gpm               900.00:  Flow In Min 
 FLOS.cptm                0.00:  Fluid Loss 
 FLOX.gpm              1200.00:  Flow In Max 
 FTRO.     Connectivity, Formation Presure:  FTWD Run Obj 
 HFLO.                      No:  High Flow 
 HPRE.                     Yes:  High Pressure 
 HTEM.                      No:  High Temp 
 HYDO.m                   1.80:  Hydro Offset 
 IFIN.deg                 9.71:  Inc, Final 
 IMAX.deg                63.81:  Inc Max 
 IMIN.deg                 9.53:  Inc Min 
 IMND.m                5075.52:  Inc Min Depth 
 IMXD.m                4367.08:  Inc Max Depth 
 JARR.                      No:  Jarring 
 LETM.      15.00.00 07-Aug-20:  Log End Time 
 LOST.hr                     2:  Lost Rig Time 
 LSTM.      17.00.00 02-Aug-20:  Log Start Time 
 MDCL.ppm             42500.00:  Mud Chlorides 
 MDES.     Inversion Oil/Synthetic:  Mud Desc 
 DFD .sg                  1.46:  Mud Density 
 MDMN.sg                  1.46:  Dens Mud Min 
 MDMX.sg                  1.46:  Dens Mud Max 
 MOIL.                      56:  Run Mud Oil % 
 MOWR.                   70:30:  Run Mud OWR 
 MSND.                     0.1:  Run Mud Sand % 
 MSOL.                      19:  Run Mud Solids% 
 DFV .spqt               83.00:  Mud Viscosity 
 MWOD.in                  8.00:  MWD Tool OD 
 MWSI.                     Yes:  Serv Intrp, MWD 
 OTIM.hr                196.57:  Time Operating 
 PCON.           Look Like New:  Pad Condition 
 PMAX.psia             7400.00:  Press Op, Max 
 PV  .cP                 36.00:  Mud PV 
 RUN .                    1000:  Run Number 
 ROPA.m/hr               25.00:  ROP Avg 
 ROPN.m/hr               10.00:  ROP Min 
 ROPX.m/hr               32.00:  ROP Max 
 RPMA.rpm               120.00:  RPM Surface Avg 
 RPMN.rpm               100.00:  RPM Surface Min 
 RPMX.rpm               140.00:  RPM Surface Max 
 RRUN.                    L504:  Rig Run Number 
 SAZI.deg               308.25:  Azm, Start 
 SDEP.m                4364.01:  Start Depth 
 SIDD.                      No:  Serv Intrp, DD 
 SINC.deg                63.81:  Inc, Start 
 SPPA.psig             5800.00:  SPP Avg 
 SPPN.psig             4200.00:  SPP Min 
 SPPX.psig             5950.00:  SPP Max 
 STIM.      18.00.00 01-Aug-20:  Start Time 
 SVCS.                 DD, MWD:  Services 
 SVER.                    9.20:  Sperry Version 
 TDAT.m                 934.00:  Tot Depth Attmp 
 TDDF.                      No:  Trip for DD 
 TDLG.m                 934.00:  Tot Depth Loggd 
 TFF .                      No:  Trip for Fail 
 TQAA.f-kp               31.00:  Torque Abs Avg 
 TQAN.f-kp               25.00:  Torque Abs Min 
 TQAX.f-kp               35.00:  Torque Abs Max 
 TRRT.°/30m              -0.75:  Turn Rotating 
 MRT .                  EWR-M5:  Maximum Recorded Temperature 
 TTMX.degC               95.00:  Max Tool Temp 
 VS01.                90516060:  Virtual Str1 SN 
 VS02.                90528488:  Virtual Str2 SN 
 VS03.                90577970:  Virtual Str3 SN 
 VS04.                12385033:  Virtual Str4 SN 
 VS05.                90522069:  Virtual Str5 SN 
 VS06.                13124134:  Virtual Str6 SN 
 WBMN.klb                20.00:  WOB Min 
 WITN.         Alistair Sprott:  Customer Rep 
 WITN.     Ronal van der Kraan:  Customer Rep 2 
 WOBA.klb                25.00:  WOB Avg 
 WOBX.klb                31.00:  WOB Max 
 YP  .lhf2               32.00:  Yield Point 
~Curve Information Block
#MNEM.UNIT                 API CODE     Curve Description
#---------               -----------    ---------------------------
 TIME.HHMMSS            00 000 000 000:  GT Time & Date
 GTDEPTH.m              00 000 000 000:  GT Depth
 GTPQH.psia             00 000 000 000:  GT HR Quartz Pressure
 GTTQ.degC              00 000 000 000:  GT Quartz Temperature
 GTTN.NONE              00 000 000 000:  GT Test Number
 GTET.sec               00 000 000 000:  GT Elapsed Test Time
 GTTVD.m                00 000 000 000:  GT True Vertical Depth
#Other Information
#
#WARRANTY: Halliburton will use its best efforts to furnish customers with 
#accurate information and interpretations that are part of, and incident to, the services 
#provided.  However, Halliburton cannot and does not warrant the accuracy 
#or correctness of such information and interpretations.  Under no circumstances should any 
#such information or interpretation be relied upon as the sole basis for any drilling, 
#completion, production, or financial decision or any procedure involving any risk to the 
#safety of any drilling venture, drilling rig or its crew or any other third party.  The 
#Customer has full responsibility for all drilling, completion and production operation.  
#Halliburton makes no representations or warranties, either expressed or 
#implied, including, but not limited to, the implied warranties of merchantability or fitness 
#for a particular purpose, with respect to the services rendered.  In no event will 
#Halliburton be liable for failure to obtain any particular results or for 
#any damages, including, but not limited to, indirect, special or consequential damages, 
#resulting from the use of any information or interpretation provided by Halliburton.
#
~A           TIME           GTDEPTH  GTPQH  GTTQ  GTTN  GTET   GTTVD  
# ...
   08:48:29.892.08-Aug-2020 5134.01 2713.17 76.14 7.00 161.09 3320.21
   08:48:30.093.08-Aug-2020 5134.01 2713.17 76.14 7.00 161.29 3320.21
   08:48:30.293.08-Aug-2020 5134.01 2717.07 76.14 7.00 161.49 3320.21
   08:48:30.493.08-Aug-2020 5134.01 2719.04 76.14 7.00 161.69 3320.21
   08:48:30.693.08-Aug-2020 5134.01 2720.81 76.14 7.00 161.89 3320.21
   08:48:30.893.08-Aug-2020 5134.01 2722.80 76.14 7.00 162.09 3320.21
   08:48:31.093.08-Aug-2020 5134.01 2722.80 76.14 7.00 162.29 3320.21
   08:48:31.293.08-Aug-2020 5134.01 2726.66 76.14 7.00 162.49 3320.21
   08:48:31.493.08-Aug-2020 5134.01 2728.50 76.14 7.00 162.69 3320.21
   08:48:31.693.08-Aug-2020 5134.01 2730.32 76.14 7.00 162.89 3320.21
   08:48:31.893.08-Aug-2020 5134.01 2732.37 76.14 7.00 163.09 3320.21
   08:48:32.094.08-Aug-2020 5134.01 2734.35 76.14 7.00 163.29 3320.21
   08:48:32.294.08-Aug-2020 5134.01 2736.07 76.14 7.00 163.49 3320.21
   08:48:32.494.08-Aug-2020 5134.01 2737.96 76.14 7.00 163.69 3320.21
   08:48:32.694.08-Aug-2020 5134.01 2740.06 76.14 7.00 163.89 3320.21
   08:48:32.894.08-Aug-2020 5134.01 2741.99 76.14 7.00 164.09 3320.21
   08:48:33.094.08-Aug-2020 5134.01 2741.99 76.14 7.00 164.29 3320.21
   08:48:33.294.08-Aug-2020 5134.01 2745.61 76.14 7.00 164.49 3320.21
   08:48:33.494.08-Aug-2020 5134.01 2747.42 76.14 7.00 164.69 3320.21
   08:48:33.694.08-Aug-2020 5134.01 2749.20 76.14 7.00 164.89 3320.21
   08:48:33.895.08-Aug-2020 5134.01 2751.27 76.14 7.00 165.09 3320.21
   08:48:34.095.08-Aug-2020 5134.01 2751.27 76.14 7.00 165.29 3320.21
   08:48:34.295.08-Aug-2020 5134.01 2753.83 76.14 7.00 165.49 3320.21
   08:48:34.495.08-Aug-2020 5134.01 2755.37 76.14 7.00 165.69 3320.21
   08:48:34.695.08-Aug-2020 5134.01 2757.25 76.14 7.00 165.89 3320.21
   08:48:34.895.08-Aug-2020 5134.01 2759.07 76.14 7.00 166.09 3320.21
   08:48:35.095.08-Aug-2020 5134.01 2759.07 76.14 7.00 166.29 3320.21
   08:48:35.295.08-Aug-2020 5134.01 2762.73 76.14 7.00 166.49 3320.21
   08:48:35.495.08-Aug-2020 5134.01 2764.51 76.14 7.00 166.69 3320.21
   08:48:35.695.08-Aug-2020 5134.01 2766.42 76.14 7.00 166.89 3320.21
   08:48:35.896.08-Aug-2020 5134.01 2768.20 76.14 7.00 167.09 3320.21
   08:48:36.096.08-Aug-2020 5134.01 2768.20 76.14 7.00 167.29 3320.21
   08:48:36.296.08-Aug-2020 5134.01 2771.89 76.14 7.00 167.49 3320.21
   08:48:36.496.08-Aug-2020 5134.01 2773.72 76.14 7.00 167.69 3320.21
   08:48:36.696.08-Aug-2020 5134.01 2775.50 76.14 7.00 167.89 3320.21
   08:48:36.896.08-Aug-2020 5134.01 2777.30 76.14 7.00 168.09 3320.21
   08:48:37.096.08-Aug-2020 5134.01 2777.30 76.14 7.00 168.29 3320.21
   08:48:37.296.08-Aug-2020 5134.01 2777.30 76.14 7.00 168.49 3320.21
   08:48:37.496.08-Aug-2020 5134.01 2782.90 76.14 7.00 168.69 3320.21
   08:48:37.697.08-Aug-2020 5134.01 2784.71 76.14 7.00 168.89 3320.21
   08:48:37.897.08-Aug-2020 5134.01 2786.33 76.14 7.00 169.09 3320.21
   08:48:38.097.08-Aug-2020 5134.01 2788.07 76.14 7.00 169.29 3320.21
   08:48:38.297.08-Aug-2020 5134.01 2789.80 76.14 7.00 169.49 3320.21
   08:48:38.497.08-Aug-2020 5134.01 2791.63 76.14 7.00 169.69 3320.21
   08:48:38.697.08-Aug-2020 5134.01 2793.40 76.14 7.00 169.89 3320.21
   08:48:38.897.08-Aug-2020 5134.01 2795.18 76.14 7.00 170.09 3320.21
   08:48:39.097.08-Aug-2020 5134.01 2795.18 76.14 7.00 170.29 3320.21
   08:48:39.297.08-Aug-2020 5134.01 2798.78 76.14 7.00 170.49 3320.21
   08:48:39.497.08-Aug-2020 5134.01 2800.57 76.14 7.00 170.69 3320.21
   08:48:39.698.08-Aug-2020 5134.01 2802.37 76.14 7.00 170.89 3320.21
   08:48:39.898.08-Aug-2020 5134.01 2804.15 76.14 7.00 171.09 3320.21
   08:48:40.098.08-Aug-2020 5134.01 2804.15 76.14 7.00 171.29 3320.21
   08:48:40.298.08-Aug-2020 5134.01 2807.64 76.14 7.00 171.49 3320.21
   08:48:40.498.08-Aug-2020 5134.01 2809.54 76.14 7.00 171.69 3320.21
   08:48:40.698.08-Aug-2020 5134.01 2811.33 76.14 7.00 171.89 3320.21
   08:48:40.898.08-Aug-2020 5134.01 2812.71 76.14 7.00 172.09 3320.21
   08:48:41.098.08-Aug-2020 5134.01 2814.25 76.14 7.00 172.29 3320.21
   08:48:41.298.08-Aug-2020 5134.01 2815.64 76.14 7.00 172.49 3320.21
   08:48:41.499.08-Aug-2020 5134.01 2817.25 76.14 7.00 172.69 3320.21
   08:48:41.699.08-Aug-2020 5134.01 2818.97 76.14 7.00 172.89 3320.21
   08:48:41.899.08-Aug-2020 5134.01 2820.68 76.14 7.00 173.09 3320.21
   08:48:42.099.08-Aug-2020 5134.01 2822.54 76.14 7.00 173.29 3320.21
   08:48:42.299.08-Aug-2020 5134.01 2824.37 76.14 7.00 173.49 3320.21
   08:48:42.499.08-Aug-2020 5134.01 2826.22 76.14 7.00 173.69 3320.21
   08:48:42.699.08-Aug-2020 5134.01 2827.85 76.14 7.00 173.89 3320.21
   08:48:42.899.08-Aug-2020 5134.01 2829.71 76.14 7.00 174.09 3320.21
   08:48:43.099.08-Aug-2020 5134.01 2829.71 76.14 7.00 174.29 3320.21
   08:48:43.300.08-Aug-2020 5134.01 2833.38 76.14 7.00 174.49 3320.21
   08:48:43.500.08-Aug-2020 5134.01 2835.03 76.14 7.00 174.69 3320.21
   08:48:43.700.08-Aug-2020 5134.01 2836.69 76.14 7.00 174.89 3320.21
   08:48:43.900.08-Aug-2020 5134.01 2838.56 76.14 7.00 175.09 3320.21
   08:48:44.100.08-Aug-2020 5134.01 2838.56 76.14 7.00 175.29 3320.21
   08:48:44.300.08-Aug-2020 5134.01 2842.18 76.14 7.00 175.49 3320.21
   08:48:44.500.08-Aug-2020 5134.01 2843.79 76.14 7.00 175.69 3320.21
   08:48:44.700.08-Aug-2020 5134.01 2845.59 76.14 7.00 175.89 3320.21
   08:48:44.900.08-Aug-2020 5134.01 2847.25 76.14 7.00 176.09 3320.21
   08:48:45.100.08-Aug-2020 5134.01 2849.04 76.14 7.00 176.29 3320.21
   08:48:45.301.08-Aug-2020 5134.01 2850.76 76.14 7.00 176.49 3320.21
   08:48:45.501.08-Aug-2020 5134.01 2852.48 76.14 7.00 176.69 3320.21
   08:48:45.701.08-Aug-2020 5134.01 2854.29 76.14 7.00 176.89 3320.21
   08:48:45.901.08-Aug-2020 5134.01 2855.94 76.14 7.00 177.09 3320.21
   08:48:46.101.08-Aug-2020 5134.01 2857.79 76.14 7.00 177.29 3320.21
   08:48:46.301.08-Aug-2020 5134.01 2859.52 76.14 7.00 177.49 3320.21
   08:48:46.501.08-Aug-2020 5134.01 2861.10 76.14 7.00 177.69 3320.21
   08:48:46.701.08-Aug-2020 5134.01 2862.00 76.14 7.00 177.89 3320.21
   08:48:46.901.08-Aug-2020 5134.01 2863.66 76.14 7.00 178.09 3320.21
   08:48:47.102.08-Aug-2020 5134.01 2863.66 76.14 7.00 178.29 3320.21
   08:48:47.302.08-Aug-2020 5134.01 2867.08 76.14 7.00 178.49 3320.21
   08:48:47.502.08-Aug-2020 5134.01 2868.95 76.14 7.00 178.69 3320.21
   08:48:47.702.08-Aug-2020 5134.01 2870.56 76.14 7.00 178.89 3320.21
   08:48:47.902.08-Aug-2020 5134.01 2872.32 76.14 7.00 179.09 3320.21
   08:48:48.102.08-Aug-2020 5134.01 2872.32 76.14 7.00 179.29 3320.21
   08:48:48.302.08-Aug-2020 5134.01 2875.53 76.13 7.00 179.49 3320.21
   08:48:48.502.08-Aug-2020 5134.01 2877.21 76.13 7.00 179.70 3320.21
   08:48:48.702.08-Aug-2020 5134.01 2878.84 76.13 7.00 179.90 3320.21
   08:48:48.902.08-Aug-2020 5134.01 2880.56 76.13 7.00 180.10 3320.21
   08:48:49.103.08-Aug-2020 5134.01 2880.56 76.13 7.00 180.30 3320.21
   08:48:49.303.08-Aug-2020 5134.01 2884.00 76.13 7.00 180.50 3320.21
   08:48:49.503.08-Aug-2020 5134.01 2885.65 76.13 7.00 180.70 3320.21
   08:48:49.703.08-Aug-2020 5134.01 2887.38 76.13 7.00 180.90 3320.21
   08:48:49.903.08-Aug-2020 5134.01 2889.09 76.13 7.00 181.10 3320.21
   08:48:50.103.08-Aug-2020 5134.01 2889.09 76.13 7.00 181.30 3320.21
   08:48:50.303.08-Aug-2020 5134.01 2892.45 76.13 7.00 181.50 3320.21
   08:48:50.503.08-Aug-2020 5134.01 2894.28 76.13 7.00 181.70 3320.21
   08:48:50.703.08-Aug-2020 5134.01 2895.83 76.13 7.00 181.90 3320.21
   08:48:50.904.08-Aug-2020 5134.01 2897.54 76.13 7.00 182.10 3320.21
   08:48:51.104.08-Aug-2020 5134.01 2897.54 76.13 7.00 182.30 3320.21
   08:48:51.304.08-Aug-2020 5134.01 2900.88 76.13 7.00 182.50 3320.21
   08:48:51.504.08-Aug-2020 5134.01 2902.64 76.13 7.00 182.70 3320.21
   08:48:51.704.08-Aug-2020 5134.01 2904.19 76.13 7.00 182.90 3320.21
   08:48:51.904.08-Aug-2020 5134.01 2905.83 76.13 7.00 183.10 3320.21
   08:48:52.104.08-Aug-2020 5134.01 2905.83 76.13 7.00 183.30 3320.21
   08:48:52.304.08-Aug-2020 5134.01 2909.18 76.13 7.00 183.50 3320.21
   08:48:52.504.08-Aug-2020 5134.01 2910.91 76.13 7.00 183.70 3320.21
   08:48:52.704.08-Aug-2020 5134.01 2912.76 76.13 7.00 183.90 3320.21
