~Version Information
 VERS.                  2.0:   CWLS log ASCII Standard -VERSION 2.0
 WRAP.                   NO:   One line per depth step
~Well Information Block
#MNEM.UNIT     VALUE/NAME     DESCRIPTION
#---------     -----------    ---------------------------
 STRT.S             08:27:32 08-Aug-20: START TIME 08:27:32 08-Aug-20
 STOP.S             08:36:05 08-Aug-20: STOP TIME  08:36:05 08-Aug-20
 STEP.S                   0.00: STEP TIME
 NULL.                 -999.25: NULL VALUE
 DFWT.                        :  DIST FWL TEXT
 DFST.                        :  DIST FSL TEXT
 DMF .             Drill Floor:  DRILL MEAS FROM
 STIM.      13.47.44 07-Jun-20:  START TIME
 DATE.      13.47.44 27-Jul-20:  END TIME
 SPUD.               07-Jun-20:  SPUD DATE
 NREF.                    Grid:  NORTH REFERENCE
 HPTY.       Minimum Curvature:  HOLE POS TYPE
 DMOD.             Drill Model:  DRILL MOD DESC
 SVYD.                  Survey:  SURVEY DESC
 ILTD.               Lithology:  INTERP LTH DESC
 FTOP.          Formation Tops:  FORM TOPS DESC
 RIG .             West Chirag:  RIG NAME
 PDAT.          Mean Sea Level:  PERMANENT DATUM
 FLD .                     ACG:  FIELD NAME
 SON .        AZ-XX-0906363612:  JOB NUMBER
 CTRY.              Azerbaijan:  COUNTRY NAME
 WELL.           J25 (Slot 35):  WELL NAME
 SRVC.          Turan Drilling:  CONTRACTOR
 COMP.     BP Exploration (Caspian Sea) Ltd:  COMPANY
 UWI .                     N/A:  UNIQUE WELL IDENTIFIER
 API .                     N/A:  API NUMBER
 BASE.              Azerbaijan:  LOGGING EQUIPMENT BASE LOCATION
 REGN.                   EESSA:  REGION
 PROV.                    Baku:  PROVINCE
 STAT.                    Baku:  STATE NAME
 MWDS.                     N/A:  MWD SHOP
 DOE .                     N/A:  DOE NUMBER
 DCON.         Sperry Drilling:  DIRECTNL CONTR
 UNIT.                     N/A:  LOGGING EQUIPMENT ID
 MDS .        Operator Entered:  MAG DATA SOURCE
 JOBN.        AZ-XX-0906363612:  JOB TICKET NUMB
 WTYP.                Deviated:  WELL TYPE
 CNTY.                        :  COUNTY
 LOC .                        :  LOCATION
 LMF .             Drill Floor:  LOG MEASURED FROM
 TVDS.m                  43.00:  TVDSS CORRECTN
 LATI.deg                40.13:  LATITUDE
 LONG.deg                51.22:  LONGITUDE
 WHNS.m                  -7.90:  WELL HEAD N/S
 WHEW.m                  -3.35:  WELL HEAD E/W
 UTMX.m              519005.06:  UTM X
 UTMY.m             4443793.85:  UTM Y
 DFWL.m                   0.00:  DISTANCE FWL
 DFSL.m                   0.00:  DISTANCE FSL
 SDEP.m                   0.00:  START DEPTH
 TDD .m                   0.00:  TOTAL DEPTH (DRILLER)
 VSDR.deg               308.97:  VERT SEC DIRECT
 GVFD.g                   1.00:  GRAVITY FIELD
 MFLD.nT              50350.00:  MAGNETIC FIELD
 MDIP.deg                59.62:  MAGNETIC DIP
 MDEC.deg                 6.44:  MAGNETIC DECL
 GRDC.deg                 0.13:  GRID CORRECTION
 AZTC.deg                 6.32:  AZM TOTAL CORR
 EPD .m                   0.00:  ELEVATION
 EGL .m                   0.00:  GROUND ELEVATION
 WDMS.m                 169.80:  WD ELEV
 APD .m                  43.00:  DEPTH ABOVE PD
 DEP .m                 356.43:  DEPTH
 AGAP.m                  43.00:  AIR GAP
 VSEW.m                  -3.35:  VERT SEC E/W
 VSNS.m                  -7.90:  VERT SEC N/S
 EKB .m                  43.00:  KB ELEVATION
 EDF .m                  43.00:  DF ELEVATION
 TDL .m                 934.00:  TOTAL DEPTH (LOGGER)
 VSC .                       0:  VS TO CLOSURE
 MAGU.                 1852825:  MAGUTM CHECKSUM
~Parameter Information Block
#MNEM.UNIT       Value        Description
#---------     -----------    ---------------------------
 AV  .mps                 0.80:  Ann Velocity 
 AVMX.mps                 1.70:  Max Ann Veloc 
 AZIF.deg               311.41:  Azm, Final 
 BHAT.        Rotary Steerable:  BHA Type 
 BROT.°/30m               0.09:  Build Rotating 
 BS  .in                 12.25:  Bit Size 
 BSZ .in                 12.25:  Bit Size 
 BTPL.psig              800.00:  Bit Press Loss 
 CABU.                      No:  Customer Abuse 
 COMM.                     ¼’n:  Run Comments 1 
 TCS .hr                 96.00:  Time Ciculation Ended 
 CV  .mps                 2.03:  Crit Velocity 
 CVMX.mps                 2.42:  Max Crit Veloc 
 DD1 .          Taghi Taghiyev:  Direct Drillr 1 
 DD2 .      Tariel Pirmammadov:  Direct Drillr 2 
 DD3 .          Teymur Aghayev:  Direct Drillr 3 
 DDSV.                 iCruise:  DD Service 
 DEFF.%                  98.70:  % Det Eff 
 DLRX.°/30m               1.00:  Dogleg Rot Max 
 DLSO.°/30m               1.80:  Dogleg Oriented 
 DLSX.°/30m               3.16:  Dogleg Str Max 
 DRET.      15.00.00 07-Aug-20:  Drill End Time 
 DRST.      17.00.00 02-Aug-20:  Drill Start Tim 
 DTIM.hr                 45.90:  Time Drilling 
 EDEP.m                5298.01:  End Depth 
 ENG1.       Seymur Iskandarov:  Engineer 1 
 ENG2.         Yevgeniy Ulikov:  Engineer 2 
 ENG3.      Artemiy Matviyanov:  Engineer 3 
 ENG4.         Bahruz Mehdiyev:  Engineer 4 
 ETIM.      05.00.00 10-Aug-20:  End Time 
 FLOI.gpm              1150.00:  Flow In 
 FLON.gpm               900.00:  Flow In Min 
 FLOS.cptm                0.00:  Fluid Loss 
 FLOX.gpm              1200.00:  Flow In Max 
 FTRO.     Connectivity, Formation Presure:  FTWD Run Obj 
 HFLO.                      No:  High Flow 
 HPRE.                     Yes:  High Pressure 
 HTEM.                      No:  High Temp 
 HYDO.m                   1.80:  Hydro Offset 
 IFIN.deg                 9.71:  Inc, Final 
 IMAX.deg                63.81:  Inc Max 
 IMIN.deg                 9.53:  Inc Min 
 IMND.m                5075.52:  Inc Min Depth 
 IMXD.m                4367.08:  Inc Max Depth 
 JARR.                      No:  Jarring 
 LETM.      15.00.00 07-Aug-20:  Log End Time 
 LOST.hr                     2:  Lost Rig Time 
 LSTM.      17.00.00 02-Aug-20:  Log Start Time 
 MDCL.ppm             42500.00:  Mud Chlorides 
 MDES.     Inversion Oil/Synthetic:  Mud Desc 
 DFD .sg                  1.46:  Mud Density 
 MDMN.sg                  1.46:  Dens Mud Min 
 MDMX.sg                  1.46:  Dens Mud Max 
 MOIL.                      56:  Run Mud Oil % 
 MOWR.                   70:30:  Run Mud OWR 
 MSND.                     0.1:  Run Mud Sand % 
 MSOL.                      19:  Run Mud Solids% 
 DFV .spqt               83.00:  Mud Viscosity 
 MWOD.in                  8.00:  MWD Tool OD 
 MWSI.                     Yes:  Serv Intrp, MWD 
 OTIM.hr                196.57:  Time Operating 
 PCON.           Look Like New:  Pad Condition 
 PMAX.psia             7400.00:  Press Op, Max 
 PV  .cP                 36.00:  Mud PV 
 RUN .                    1000:  Run Number 
 ROPA.m/hr               25.00:  ROP Avg 
 ROPN.m/hr               10.00:  ROP Min 
 ROPX.m/hr               32.00:  ROP Max 
 RPMA.rpm               120.00:  RPM Surface Avg 
 RPMN.rpm               100.00:  RPM Surface Min 
 RPMX.rpm               140.00:  RPM Surface Max 
 RRUN.                    L504:  Rig Run Number 
 SAZI.deg               308.25:  Azm, Start 
 SDEP.m                4364.01:  Start Depth 
 SIDD.                      No:  Serv Intrp, DD 
 SINC.deg                63.81:  Inc, Start 
 SPPA.psig             5800.00:  SPP Avg 
 SPPN.psig             4200.00:  SPP Min 
 SPPX.psig             5950.00:  SPP Max 
 STIM.      18.00.00 01-Aug-20:  Start Time 
 SVCS.                 DD, MWD:  Services 
 SVER.                    9.20:  Sperry Version 
 TDAT.m                 934.00:  Tot Depth Attmp 
 TDDF.                      No:  Trip for DD 
 TDLG.m                 934.00:  Tot Depth Loggd 
 TFF .                      No:  Trip for Fail 
 TQAA.f-kp               31.00:  Torque Abs Avg 
 TQAN.f-kp               25.00:  Torque Abs Min 
 TQAX.f-kp               35.00:  Torque Abs Max 
 TRRT.°/30m              -0.75:  Turn Rotating 
 MRT .                  EWR-M5:  Maximum Recorded Temperature 
 TTMX.degC               95.00:  Max Tool Temp 
 VS01.                90516060:  Virtual Str1 SN 
 VS02.                90528488:  Virtual Str2 SN 
 VS03.                90577970:  Virtual Str3 SN 
 VS04.                12385033:  Virtual Str4 SN 
 VS05.                90522069:  Virtual Str5 SN 
 VS06.                13124134:  Virtual Str6 SN 
 WBMN.klb                20.00:  WOB Min 
 WITN.         Alistair Sprott:  Customer Rep 
 WITN.     Ronal van der Kraan:  Customer Rep 2 
 WOBA.klb                25.00:  WOB Avg 
 WOBX.klb                31.00:  WOB Max 
 YP  .lhf2               32.00:  Yield Point 
~Curve Information Block
#MNEM.UNIT                 API CODE     Curve Description
#---------               -----------    ---------------------------
 TIME.HHMMSS            00 000 000 000:  GT Time & Date
 GTDEPTH.m              00 000 000 000:  GT Depth
 GTPQH.psia             00 000 000 000:  GT HR Quartz Pressure
 GTTQ.degC              00 000 000 000:  GT Quartz Temperature
 GTTN.NONE              00 000 000 000:  GT Test Number
 GTET.sec               00 000 000 000:  GT Elapsed Test Time
 GTTVD.m                00 000 000 000:  GT True Vertical Depth
#Other Information
#
#WARRANTY: Halliburton will use its best efforts to furnish customers with 
#accurate information and interpretations that are part of, and incident to, the services 
#provided.  However, Halliburton cannot and does not warrant the accuracy 
#or correctness of such information and interpretations.  Under no circumstances should any 
#such information or interpretation be relied upon as the sole basis for any drilling, 
#completion, production, or financial decision or any procedure involving any risk to the 
#safety of any drilling venture, drilling rig or its crew or any other third party.  The 
#Customer has full responsibility for all drilling, completion and production operation.  
#Halliburton makes no representations or warranties, either expressed or 
#implied, including, but not limited to, the implied warranties of merchantability or fitness 
#for a particular purpose, with respect to the services rendered.  In no event will 
#Halliburton be liable for failure to obtain any particular results or for 
#any damages, including, but not limited to, indirect, special or consequential damages, 
#resulting from the use of any information or interpretation provided by Halliburton.
#
~A           TIME           GTDEPTH  GTPQH  GTTQ  GTTN  GTET   GTTVD  
# ...
   08:31:22.349.08-Aug-2020 5149.01 4344.04 76.74 6.00 230.12 3335.00
   08:31:22.549.08-Aug-2020 5149.01 4344.04 76.74 6.00 230.32 3335.00
   08:31:22.749.08-Aug-2020 5149.01 4343.98 76.74 6.00 230.52 3335.00
   08:31:22.949.08-Aug-2020 5149.01 4344.08 76.74 6.00 230.72 3335.00
   08:31:23.149.08-Aug-2020 5149.01 4344.08 76.74 6.00 230.92 3335.00
   08:31:23.349.08-Aug-2020 5149.01 4344.02 76.74 6.00 231.12 3335.00
   08:31:23.549.08-Aug-2020 5149.01 4344.02 76.74 6.00 231.32 3335.00
   08:31:23.750.08-Aug-2020 5149.01 4344.05 76.74 6.00 231.52 3335.00
   08:31:23.950.08-Aug-2020 5149.01 4344.12 76.74 6.00 231.72 3335.00
   08:31:24.150.08-Aug-2020 5149.01 4344.16 76.74 6.00 231.92 3335.00
   08:31:24.350.08-Aug-2020 5149.01 4344.05 76.74 6.00 232.12 3335.00
   08:31:24.550.08-Aug-2020 5149.01 4344.05 76.74 6.00 232.32 3335.00
   08:31:24.750.08-Aug-2020 5149.01 4344.06 76.74 6.00 232.52 3335.00
   08:31:24.950.08-Aug-2020 5149.01 4344.07 76.74 6.00 232.72 3335.00
   08:31:25.150.08-Aug-2020 5149.01 4344.28 76.74 6.00 232.92 3335.00
   08:31:25.350.08-Aug-2020 5149.01 4344.27 76.74 6.00 233.12 3335.00
   08:31:25.551.08-Aug-2020 5149.01 4344.27 76.74 6.00 233.32 3335.00
   08:31:25.751.08-Aug-2020 5149.01 4343.99 76.74 6.00 233.52 3335.00
   08:31:25.951.08-Aug-2020 5149.01 4344.28 76.74 6.00 233.72 3335.00
   08:31:26.151.08-Aug-2020 5149.01 4344.13 76.74 6.00 233.92 3335.00
   08:31:26.351.08-Aug-2020 5149.01 4344.20 76.74 6.00 234.12 3335.00
   08:31:26.551.08-Aug-2020 5149.01 4344.20 76.74 6.00 234.32 3335.00
   08:31:26.751.08-Aug-2020 5149.01 4344.16 76.74 6.00 234.52 3335.00
   08:31:26.951.08-Aug-2020 5149.01 4344.18 76.74 6.00 234.72 3335.00
   08:31:27.151.08-Aug-2020 5149.01 4344.13 76.74 6.00 234.92 3335.00
   08:31:27.351.08-Aug-2020 5149.01 4344.33 76.74 6.00 235.12 3335.00
   08:31:27.552.08-Aug-2020 5149.01 4344.33 76.74 6.00 235.32 3335.00
   08:31:27.752.08-Aug-2020 5149.01 4344.29 76.74 6.00 235.52 3335.00
   08:31:27.952.08-Aug-2020 5149.01 4344.11 76.74 6.00 235.72 3335.00
   08:31:28.152.08-Aug-2020 5149.01 4344.31 76.74 6.00 235.92 3335.00
   08:31:28.352.08-Aug-2020 5149.01 4344.12 76.74 6.00 236.12 3335.00
   08:31:28.552.08-Aug-2020 5149.01 4344.12 76.74 6.00 236.33 3335.00
   08:31:28.752.08-Aug-2020 5149.01 4344.39 76.74 6.00 236.53 3335.00
   08:31:28.952.08-Aug-2020 5149.01 4344.07 76.74 6.00 236.73 3335.00
   08:31:29.152.08-Aug-2020 5149.01 4344.43 76.74 6.00 236.93 3335.00
   08:31:29.353.08-Aug-2020 5149.01 4344.10 76.74 6.00 237.13 3335.00
   08:31:29.553.08-Aug-2020 5149.01 4344.10 76.74 6.00 237.33 3335.00
   08:31:29.753.08-Aug-2020 5149.01 4344.16 76.74 6.00 237.53 3335.00
   08:31:29.953.08-Aug-2020 5149.01 4344.36 76.74 6.00 237.73 3335.00
   08:31:30.153.08-Aug-2020 5149.01 4344.15 76.74 6.00 237.93 3335.00
   08:31:30.353.08-Aug-2020 5149.01 4344.32 76.74 6.00 238.13 3335.00
   08:31:30.553.08-Aug-2020 5149.01 4344.32 76.74 6.00 238.33 3335.00
   08:31:30.753.08-Aug-2020 5149.01 4344.21 76.74 6.00 238.53 3335.00
   08:31:30.953.08-Aug-2020 5149.01 4344.23 76.74 6.00 238.73 3335.00
   08:31:31.153.08-Aug-2020 5149.01 4344.32 76.74 6.00 238.93 3335.00
   08:31:31.354.08-Aug-2020 5149.01 4344.22 76.74 6.00 239.13 3335.00
   08:31:31.554.08-Aug-2020 5149.01 4344.22 76.74 6.00 239.33 3335.00
   08:31:31.754.08-Aug-2020 5149.01 4344.35 76.74 6.00 239.53 3335.00
   08:31:31.954.08-Aug-2020 5149.01 4344.40 76.74 6.00 239.73 3335.00
   08:31:32.154.08-Aug-2020 5149.01 4344.28 76.74 6.00 239.93 3335.00
   08:31:32.354.08-Aug-2020 5149.01 4344.41 76.74 6.00 240.13 3335.00
   08:31:32.554.08-Aug-2020 5149.01 4344.41 76.74 6.00 240.33 3335.00
   08:31:32.754.08-Aug-2020 5149.01 4344.27 76.74 6.00 240.53 3335.00
   08:31:32.954.08-Aug-2020 5149.01 4344.32 76.74 6.00 240.73 3335.00
   08:31:33.155.08-Aug-2020 5149.01 4344.32 76.74 6.00 240.93 3335.00
   08:31:33.355.08-Aug-2020 5149.01 4344.24 76.74 6.00 241.13 3335.00
   08:31:33.555.08-Aug-2020 5149.01 4344.24 76.74 6.00 241.33 3335.00
   08:31:33.755.08-Aug-2020 5149.01 4344.46 76.74 6.00 241.53 3335.00
   08:31:33.955.08-Aug-2020 5149.01 4344.34 76.74 6.00 241.73 3335.00
   08:31:34.155.08-Aug-2020 5149.01 4344.34 76.74 6.00 241.93 3335.00
   08:31:34.355.08-Aug-2020 5149.01 4344.39 76.74 6.00 242.13 3335.00
   08:31:34.555.08-Aug-2020 5149.01 4344.39 76.74 6.00 242.33 3335.00
   08:31:34.755.08-Aug-2020 5149.01 4344.35 76.74 6.00 242.53 3335.00
   08:31:34.955.08-Aug-2020 5149.01 4344.45 76.74 6.00 242.73 3335.00
   08:31:35.156.08-Aug-2020 5149.01 4344.47 76.74 6.00 242.93 3335.00
   08:31:35.356.08-Aug-2020 5149.01 4344.35 76.74 6.00 243.13 3335.00
   08:31:35.556.08-Aug-2020 5149.01 4344.35 76.74 6.00 243.33 3335.00
   08:31:35.756.08-Aug-2020 5149.01 4344.46 76.74 6.00 243.53 3335.00
   08:31:35.956.08-Aug-2020 5149.01 4344.52 76.74 6.00 243.73 3335.00
   08:31:36.156.08-Aug-2020 5149.01 4344.35 76.74 6.00 243.93 3335.00
   08:31:36.356.08-Aug-2020 5149.01 4344.49 76.74 6.00 244.13 3335.00
   08:31:36.556.08-Aug-2020 5149.01 4344.49 76.74 6.00 244.33 3335.00
   08:31:36.756.08-Aug-2020 5149.01 4344.48 76.74 6.00 244.53 3335.00
   08:31:36.957.08-Aug-2020 5149.01 4344.40 76.74 6.00 244.73 3335.00
   08:31:37.157.08-Aug-2020 5149.01 4344.49 76.74 6.00 244.93 3335.00
   08:31:37.357.08-Aug-2020 5149.01 4344.38 76.74 6.00 245.13 3335.00
   08:31:37.557.08-Aug-2020 5149.01 4344.38 76.74 6.00 245.33 3335.00
   08:31:37.757.08-Aug-2020 5149.01 4344.39 76.74 6.00 245.53 3335.00
   08:31:37.957.08-Aug-2020 5149.01 4344.45 76.74 6.00 245.73 3335.00
   08:31:38.157.08-Aug-2020 5149.01 4344.39 76.74 6.00 245.93 3335.00
   08:31:38.357.08-Aug-2020 5149.01 4344.46 76.74 6.00 246.13 3335.00
   08:31:38.557.08-Aug-2020 5149.01 4344.46 76.74 6.00 246.33 3335.00
   08:31:38.758.08-Aug-2020 5149.01 4344.49 76.74 6.00 246.53 3335.00
   08:31:38.958.08-Aug-2020 5149.01 4344.26 76.74 6.00 246.73 3335.00
   08:31:39.158.08-Aug-2020 5149.01 4344.57 76.74 6.00 246.93 3335.00
   08:31:39.358.08-Aug-2020 5149.01 4344.35 76.74 6.00 247.13 3335.00
   08:31:39.558.08-Aug-2020 5149.01 4344.35 76.74 6.00 247.33 3335.00
   08:31:39.758.08-Aug-2020 5149.01 4344.54 76.74 6.00 247.53 3335.00
   08:31:39.958.08-Aug-2020 5149.01 4344.48 76.74 6.00 247.73 3335.00
   08:31:40.158.08-Aug-2020 5149.01 4344.45 76.74 6.00 247.93 3335.00
   08:31:40.358.08-Aug-2020 5149.01 4344.41 76.74 6.00 248.13 3335.00
   08:31:40.558.08-Aug-2020 5149.01 4344.41 76.74 6.00 248.33 3335.00
   08:31:40.759.08-Aug-2020 5149.01 4344.62 76.74 6.00 248.53 3335.00
   08:31:40.959.08-Aug-2020 5149.01 4344.21 76.74 6.00 248.73 3335.00
   08:31:41.159.08-Aug-2020 5149.01 4344.59 76.74 6.00 248.93 3335.00
   08:31:41.359.08-Aug-2020 5149.01 4344.44 76.74 6.00 249.13 3335.00
   08:31:41.559.08-Aug-2020 5149.01 4344.44 76.74 6.00 249.33 3335.00
   08:31:41.759.08-Aug-2020 5149.01 4344.47 76.74 6.00 249.53 3335.00
   08:31:41.959.08-Aug-2020 5149.01 4344.49 76.74 6.00 249.73 3335.00
   08:31:42.159.08-Aug-2020 5149.01 4344.42 76.74 6.00 249.93 3335.00
   08:31:42.359.08-Aug-2020 5149.01 4344.53 76.74 6.00 250.13 3335.00
   08:31:42.560.08-Aug-2020 5149.01 4344.41 76.74 6.00 250.33 3335.00
   08:31:42.760.08-Aug-2020 5149.01 4344.55 76.74 6.00 250.53 3335.00
   08:31:42.960.08-Aug-2020 5149.01 4344.40 76.74 6.00 250.73 3335.00
   08:31:43.160.08-Aug-2020 5149.01 4344.53 76.74 6.00 250.93 3335.00
   08:31:43.360.08-Aug-2020 5149.01 4344.54 76.74 6.00 251.13 3335.00
   08:31:43.560.08-Aug-2020 5149.01 4344.54 76.74 6.00 251.33 3335.00
   08:31:43.760.08-Aug-2020 5149.01 4344.52 76.74 6.00 251.53 3335.00
   08:31:43.960.08-Aug-2020 5149.01 4344.54 76.74 6.00 251.73 3335.00
   08:31:44.160.08-Aug-2020 5149.01 4344.48 76.74 6.00 251.93 3335.00
   08:31:44.360.08-Aug-2020 5149.01 4344.47 76.74 6.00 252.13 3335.00
   08:31:44.561.08-Aug-2020 5149.01 4344.47 76.74 6.00 252.33 3335.00
   08:31:44.761.08-Aug-2020 5149.01 4344.64 76.74 6.00 252.53 3335.00
   08:31:44.961.08-Aug-2020 5149.01 4344.65 76.74 6.00 252.73 3335.00
   08:31:45.161.08-Aug-2020 5149.01 4344.59 76.74 6.00 252.93 3335.00
