~Version Information
 VERS.                  2.0:   CWLS log ASCII Standard -VERSION 2.0
 WRAP.                   NO:   One line per depth step
~Well Information Block
#MNEM.UNIT     VALUE/NAME     DESCRIPTION
#---------     -----------    ---------------------------
 STRT.S             08:45:48 08-Aug-20: START TIME 08:45:48 08-Aug-20
 STOP.S             08:54:16 08-Aug-20: STOP TIME  08:54:16 08-Aug-20
 STEP.S                   0.00: STEP TIME
 NULL.                 -999.25: NULL VALUE
 DFWT.                        :  DIST FWL TEXT
 DFST.                        :  DIST FSL TEXT
 DMF .             Drill Floor:  DRILL MEAS FROM
 STIM.      13.47.44 07-Jun-20:  START TIME
 DATE.      13.47.44 27-Jul-20:  END TIME
 SPUD.               07-Jun-20:  SPUD DATE
 NREF.                    Grid:  NORTH REFERENCE
 HPTY.       Minimum Curvature:  HOLE POS TYPE
 DMOD.             Drill Model:  DRILL MOD DESC
 SVYD.                  Survey:  SURVEY DESC
 ILTD.               Lithology:  INTERP LTH DESC
 FTOP.          Formation Tops:  FORM TOPS DESC
 RIG .             West Chirag:  RIG NAME
 PDAT.          Mean Sea Level:  PERMANENT DATUM
 FLD .                     ACG:  FIELD NAME
 SON .        AZ-XX-0906363612:  JOB NUMBER
 CTRY.              Azerbaijan:  COUNTRY NAME
 WELL.           J25 (Slot 35):  WELL NAME
 SRVC.          Turan Drilling:  CONTRACTOR
 COMP.     BP Exploration (Caspian Sea) Ltd:  COMPANY
 UWI .                     N/A:  UNIQUE WELL IDENTIFIER
 API .                     N/A:  API NUMBER
 BASE.              Azerbaijan:  LOGGING EQUIPMENT BASE LOCATION
 REGN.                   EESSA:  REGION
 PROV.                    Baku:  PROVINCE
 STAT.                    Baku:  STATE NAME
 MWDS.                     N/A:  MWD SHOP
 DOE .                     N/A:  DOE NUMBER
 DCON.         Sperry Drilling:  DIRECTNL CONTR
 UNIT.                     N/A:  LOGGING EQUIPMENT ID
 MDS .        Operator Entered:  MAG DATA SOURCE
 JOBN.        AZ-XX-0906363612:  JOB TICKET NUMB
 WTYP.                Deviated:  WELL TYPE
 CNTY.                        :  COUNTY
 LOC .                        :  LOCATION
 LMF .             Drill Floor:  LOG MEASURED FROM
 TVDS.m                  43.00:  TVDSS CORRECTN
 LATI.deg                40.13:  LATITUDE
 LONG.deg                51.22:  LONGITUDE
 WHNS.m                  -7.90:  WELL HEAD N/S
 WHEW.m                  -3.35:  WELL HEAD E/W
 UTMX.m              519005.06:  UTM X
 UTMY.m             4443793.85:  UTM Y
 DFWL.m                   0.00:  DISTANCE FWL
 DFSL.m                   0.00:  DISTANCE FSL
 SDEP.m                   0.00:  START DEPTH
 TDD .m                   0.00:  TOTAL DEPTH (DRILLER)
 VSDR.deg               308.97:  VERT SEC DIRECT
 GVFD.g                   1.00:  GRAVITY FIELD
 MFLD.nT              50350.00:  MAGNETIC FIELD
 MDIP.deg                59.62:  MAGNETIC DIP
 MDEC.deg                 6.44:  MAGNETIC DECL
 GRDC.deg                 0.13:  GRID CORRECTION
 AZTC.deg                 6.32:  AZM TOTAL CORR
 EPD .m                   0.00:  ELEVATION
 EGL .m                   0.00:  GROUND ELEVATION
 WDMS.m                 169.80:  WD ELEV
 APD .m                  43.00:  DEPTH ABOVE PD
 DEP .m                 356.43:  DEPTH
 AGAP.m                  43.00:  AIR GAP
 VSEW.m                  -3.35:  VERT SEC E/W
 VSNS.m                  -7.90:  VERT SEC N/S
 EKB .m                  43.00:  KB ELEVATION
 EDF .m                  43.00:  DF ELEVATION
 TDL .m                 934.00:  TOTAL DEPTH (LOGGER)
 VSC .                       0:  VS TO CLOSURE
 MAGU.                 1852825:  MAGUTM CHECKSUM
~Parameter Information Block
#MNEM.UNIT       Value        Description
#---------     -----------    ---------------------------
 AV  .mps                 0.80:  Ann Velocity 
 AVMX.mps                 1.70:  Max Ann Veloc 
 AZIF.deg               311.41:  Azm, Final 
 BHAT.        Rotary Steerable:  BHA Type 
 BROT.°/30m               0.09:  Build Rotating 
 BS  .in                 12.25:  Bit Size 
 BSZ .in                 12.25:  Bit Size 
 BTPL.psig              800.00:  Bit Press Loss 
 CABU.                      No:  Customer Abuse 
 COMM.                     ôS:  Run Comments 1 
 TCS .hr                 96.00:  Time Ciculation Ended 
 CV  .mps                 2.03:  Crit Velocity 
 CVMX.mps                 2.42:  Max Crit Veloc 
 DD1 .          Taghi Taghiyev:  Direct Drillr 1 
 DD2 .      Tariel Pirmammadov:  Direct Drillr 2 
 DD3 .          Teymur Aghayev:  Direct Drillr 3 
 DDSV.                 iCruise:  DD Service 
 DEFF.%                  98.70:  % Det Eff 
 DLRX.°/30m               1.00:  Dogleg Rot Max 
 DLSO.°/30m               1.80:  Dogleg Oriented 
 DLSX.°/30m               3.16:  Dogleg Str Max 
 DRET.      15.00.00 07-Aug-20:  Drill End Time 
 DRST.      17.00.00 02-Aug-20:  Drill Start Tim 
 DTIM.hr                 45.90:  Time Drilling 
 EDEP.m                5298.01:  End Depth 
 ENG1.       Seymur Iskandarov:  Engineer 1 
 ENG2.         Yevgeniy Ulikov:  Engineer 2 
 ENG3.      Artemiy Matviyanov:  Engineer 3 
 ENG4.         Bahruz Mehdiyev:  Engineer 4 
 ETIM.      05.00.00 10-Aug-20:  End Time 
 FLOI.gpm              1150.00:  Flow In 
 FLON.gpm               900.00:  Flow In Min 
 FLOS.cptm                0.00:  Fluid Loss 
 FLOX.gpm              1200.00:  Flow In Max 
 FTRO.     Connectivity, Formation Presure:  FTWD Run Obj 
 HFLO.                      No:  High Flow 
 HPRE.                     Yes:  High Pressure 
 HTEM.                      No:  High Temp 
 HYDO.m                   1.80:  Hydro Offset 
 IFIN.deg                 9.71:  Inc, Final 
 IMAX.deg                63.81:  Inc Max 
 IMIN.deg                 9.53:  Inc Min 
 IMND.m                5075.52:  Inc Min Depth 
 IMXD.m                4367.08:  Inc Max Depth 
 JARR.                      No:  Jarring 
 LETM.      15.00.00 07-Aug-20:  Log End Time 
 LOST.hr                     2:  Lost Rig Time 
 LSTM.      17.00.00 02-Aug-20:  Log Start Time 
 MDCL.ppm             42500.00:  Mud Chlorides 
 MDES.     Inversion Oil/Synthetic:  Mud Desc 
 DFD .sg                  1.46:  Mud Density 
 MDMN.sg                  1.46:  Dens Mud Min 
 MDMX.sg                  1.46:  Dens Mud Max 
 MOIL.                      56:  Run Mud Oil % 
 MOWR.                   70:30:  Run Mud OWR 
 MSND.                     0.1:  Run Mud Sand % 
 MSOL.                      19:  Run Mud Solids% 
 DFV .spqt               83.00:  Mud Viscosity 
 MWOD.in                  8.00:  MWD Tool OD 
 MWSI.                     Yes:  Serv Intrp, MWD 
 OTIM.hr                196.57:  Time Operating 
 PCON.           Look Like New:  Pad Condition 
 PMAX.psia             7400.00:  Press Op, Max 
 PV  .cP                 36.00:  Mud PV 
 RUN .                    1000:  Run Number 
 ROPA.m/hr               25.00:  ROP Avg 
 ROPN.m/hr               10.00:  ROP Min 
 ROPX.m/hr               32.00:  ROP Max 
 RPMA.rpm               120.00:  RPM Surface Avg 
 RPMN.rpm               100.00:  RPM Surface Min 
 RPMX.rpm               140.00:  RPM Surface Max 
 RRUN.                    L504:  Rig Run Number 
 SAZI.deg               308.25:  Azm, Start 
 SDEP.m                4364.01:  Start Depth 
 SIDD.                      No:  Serv Intrp, DD 
 SINC.deg                63.81:  Inc, Start 
 SPPA.psig             5800.00:  SPP Avg 
 SPPN.psig             4200.00:  SPP Min 
 SPPX.psig             5950.00:  SPP Max 
 STIM.      18.00.00 01-Aug-20:  Start Time 
 SVCS.                 DD, MWD:  Services 
 SVER.                    9.20:  Sperry Version 
 TDAT.m                 934.00:  Tot Depth Attmp 
 TDDF.                      No:  Trip for DD 
 TDLG.m                 934.00:  Tot Depth Loggd 
 TFF .                      No:  Trip for Fail 
 TQAA.f-kp               31.00:  Torque Abs Avg 
 TQAN.f-kp               25.00:  Torque Abs Min 
 TQAX.f-kp               35.00:  Torque Abs Max 
 TRRT.°/30m              -0.75:  Turn Rotating 
 MRT .                  EWR-M5:  Maximum Recorded Temperature 
 TTMX.degC               95.00:  Max Tool Temp 
 VS01.                90516060:  Virtual Str1 SN 
 VS02.                90528488:  Virtual Str2 SN 
 VS03.                90577970:  Virtual Str3 SN 
 VS04.                12385033:  Virtual Str4 SN 
 VS05.                90522069:  Virtual Str5 SN 
 VS06.                13124134:  Virtual Str6 SN 
 WBMN.klb                20.00:  WOB Min 
 WITN.         Alistair Sprott:  Customer Rep 
 WITN.     Ronal van der Kraan:  Customer Rep 2 
 WOBA.klb                25.00:  WOB Avg 
 WOBX.klb                31.00:  WOB Max 
 YP  .lhf2               32.00:  Yield Point 
~Curve Information Block
#MNEM.UNIT                 API CODE     Curve Description
#---------               -----------    ---------------------------
 TIME.HHMMSS            00 000 000 000:  GT Time & Date
 GTDEPTH.m              00 000 000 000:  GT Depth
 GTPQH.psia             00 000 000 000:  GT HR Quartz Pressure
 GTTQ.degC              00 000 000 000:  GT Quartz Temperature
 GTTN.NONE              00 000 000 000:  GT Test Number
 GTET.sec               00 000 000 000:  GT Elapsed Test Time
 GTTVD.m                00 000 000 000:  GT True Vertical Depth
#Other Information
#
#WARRANTY: Halliburton will use its best efforts to furnish customers with 
#accurate information and interpretations that are part of, and incident to, the services 
#provided.  However, Halliburton cannot and does not warrant the accuracy 
#or correctness of such information and interpretations.  Under no circumstances should any 
#such information or interpretation be relied upon as the sole basis for any drilling, 
#completion, production, or financial decision or any procedure involving any risk to the 
#safety of any drilling venture, drilling rig or its crew or any other third party.  The 
#Customer has full responsibility for all drilling, completion and production operation.  
#Halliburton makes no representations or warranties, either expressed or 
#implied, including, but not limited to, the implied warranties of merchantability or fitness 
#for a particular purpose, with respect to the services rendered.  In no event will 
#Halliburton be liable for failure to obtain any particular results or for 
#any damages, including, but not limited to, indirect, special or consequential damages, 
#resulting from the use of any information or interpretation provided by Halliburton.
#
~A           TIME           GTDEPTH  GTPQH  GTTQ  GTTN  GTET   GTTVD  
# ...
   08:46:11.819.08-Aug-2020 5134.01 7128.58 76.34 7.00  23.01 3320.21
   08:46:12.019.08-Aug-2020 5134.01 7128.39 76.34 7.00  23.21 3320.21
   08:46:12.220.08-Aug-2020 5134.01 7127.55 76.34 7.00  23.41 3320.21
   08:46:12.420.08-Aug-2020 5134.01 7127.63 76.34 7.00  23.61 3320.21
   08:46:12.620.08-Aug-2020 5134.01 7128.25 76.34 7.00  23.81 3320.21
   08:46:12.820.08-Aug-2020 5134.01 7128.14 76.34 7.00  24.01 3320.21
   08:46:13.020.08-Aug-2020 5134.01 7128.17 76.34 7.00  24.21 3320.21
   08:46:13.220.08-Aug-2020 5134.01 7126.90 76.34 7.00  24.41 3320.21
   08:46:13.420.08-Aug-2020 5134.01 7127.76 76.34 7.00  24.61 3320.21
   08:46:13.620.08-Aug-2020 5134.01 7127.54 76.34 7.00  24.81 3320.21
   08:46:13.820.08-Aug-2020 5134.01 7127.41 76.33 7.00  25.01 3320.21
   08:46:14.021.08-Aug-2020 5134.01 7127.41 76.33 7.00  25.21 3320.21
   08:46:14.221.08-Aug-2020 5134.01 7126.64 76.33 7.00  25.41 3320.21
   08:46:14.421.08-Aug-2020 5134.01 7126.24 76.33 7.00  25.61 3320.21
   08:46:14.621.08-Aug-2020 5134.01 7125.99 76.33 7.00  25.81 3320.21
   08:46:14.821.08-Aug-2020 5134.01 7129.84 76.33 7.00  26.01 3320.21
   08:46:15.021.08-Aug-2020 5134.01 7129.84 76.33 7.00  26.21 3320.21
   08:46:15.221.08-Aug-2020 5134.01 7127.12 76.33 7.00  26.41 3320.21
   08:46:15.421.08-Aug-2020 5134.01 7129.36 76.33 7.00  26.61 3320.21
   08:46:15.621.08-Aug-2020 5134.01 7124.90 76.33 7.00  26.81 3320.21
   08:46:15.821.08-Aug-2020 5134.01 7127.07 76.33 7.00  27.01 3320.21
   08:46:16.022.08-Aug-2020 5134.01 7127.07 76.33 7.00  27.21 3320.21
   08:46:16.222.08-Aug-2020 5134.01 7125.34 76.33 7.00  27.41 3320.21
   08:46:16.422.08-Aug-2020 5134.01 7124.24 76.33 7.00  27.61 3320.21
   08:46:16.622.08-Aug-2020 5134.01 7130.29 76.33 7.00  27.81 3320.21
   08:46:16.822.08-Aug-2020 5134.01 7125.11 76.33 7.00  28.01 3320.21
   08:46:17.022.08-Aug-2020 5134.01 7125.11 76.33 7.00  28.21 3320.21
   08:46:17.222.08-Aug-2020 5134.01 7127.43 76.33 7.00  28.42 3320.21
   08:46:17.422.08-Aug-2020 5134.01 7125.83 76.33 7.00  28.62 3320.21
   08:46:17.622.08-Aug-2020 5134.01 7132.62 76.33 7.00  28.82 3320.21
   08:46:17.823.08-Aug-2020 5134.01 7124.13 76.33 7.00  29.02 3320.21
   08:46:18.023.08-Aug-2020 5134.01 7124.13 76.33 7.00  29.22 3320.21
   08:46:18.223.08-Aug-2020 5134.01 7129.33 76.33 7.00  29.42 3320.21
   08:46:18.423.08-Aug-2020 5134.01 7128.14 76.33 7.00  29.62 3320.21
   08:46:18.623.08-Aug-2020 5134.01 7129.98 76.33 7.00  29.82 3320.21
   08:46:18.823.08-Aug-2020 5134.01 7127.56 76.33 7.00  30.02 3320.21
   08:46:19.023.08-Aug-2020 5134.01 7127.56 76.33 7.00  30.22 3320.21
   08:46:19.223.08-Aug-2020 5134.01 7126.99 76.33 7.00  30.42 3320.21
   08:46:19.423.08-Aug-2020 5134.01 7128.79 76.33 7.00  30.62 3320.21
   08:46:19.623.08-Aug-2020 5134.01 7126.97 76.33 7.00  30.82 3320.21
   08:46:19.824.08-Aug-2020 5134.01 7128.82 76.33 7.00  31.02 3320.21
   08:46:20.024.08-Aug-2020 5134.01 7128.82 76.33 7.00  31.22 3320.21
   08:46:20.224.08-Aug-2020 5134.01 7128.12 76.33 7.00  31.42 3320.21
   08:46:20.424.08-Aug-2020 5134.01 7129.46 76.33 7.00  31.62 3320.21
   08:46:20.624.08-Aug-2020 5134.01 7129.13 76.33 7.00  31.82 3320.21
   08:46:20.824.08-Aug-2020 5134.01 7129.24 76.33 7.00  32.02 3320.21
   08:46:21.024.08-Aug-2020 5134.01 7129.24 76.33 7.00  32.22 3320.21
   08:46:21.224.08-Aug-2020 5134.01 7129.50 76.33 7.00  32.42 3320.21
   08:46:21.424.08-Aug-2020 5134.01 7129.42 76.33 7.00  32.62 3320.21
   08:46:21.625.08-Aug-2020 5134.01 7129.60 76.32 7.00  32.82 3320.21
   08:46:21.825.08-Aug-2020 5134.01 7135.36 76.32 7.00  33.02 3320.21
   08:46:22.025.08-Aug-2020 5134.01 7127.25 76.32 7.00  33.22 3320.21
   08:46:22.225.08-Aug-2020 5134.01 7131.43 76.32 7.00  33.42 3320.21
   08:46:22.425.08-Aug-2020 5134.01 7130.13 76.32 7.00  33.62 3320.21
   08:46:22.625.08-Aug-2020 5134.01 7129.27 76.32 7.00  33.82 3320.21
   08:46:22.825.08-Aug-2020 5134.01 7129.61 76.32 7.00  34.02 3320.21
   08:46:23.025.08-Aug-2020 5134.01 7129.61 76.32 7.00  34.22 3320.21
   08:46:23.225.08-Aug-2020 5134.01 7129.19 76.32 7.00  34.42 3320.21
   08:46:23.426.08-Aug-2020 5134.01 7128.73 76.32 7.00  34.62 3320.21
   08:46:23.626.08-Aug-2020 5134.01 7130.04 76.32 7.00  34.82 3320.21
   08:46:23.826.08-Aug-2020 5134.01 7128.67 76.32 7.00  35.02 3320.21
   08:46:24.026.08-Aug-2020 5134.01 7128.67 76.32 7.00  35.22 3320.21
   08:46:24.226.08-Aug-2020 5134.01 7129.98 76.32 7.00  35.42 3320.21
   08:46:24.426.08-Aug-2020 5134.01 7129.88 76.32 7.00  35.62 3320.21
   08:46:24.626.08-Aug-2020 5134.01 7129.94 76.32 7.00  35.82 3320.21
   08:46:24.826.08-Aug-2020 5134.01 7129.67 76.32 7.00  36.02 3320.21
   08:46:25.026.08-Aug-2020 5134.01 7129.67 76.32 7.00  36.22 3320.21
   08:46:25.226.08-Aug-2020 5134.01 7129.89 76.32 7.00  36.42 3320.21
   08:46:25.427.08-Aug-2020 5134.01 7132.16 76.32 7.00  36.62 3320.21
   08:46:25.627.08-Aug-2020 5134.01 7132.58 76.32 7.00  36.82 3320.21
   08:46:25.827.08-Aug-2020 5134.01 7129.60 76.32 7.00  37.02 3320.21
   08:46:26.027.08-Aug-2020 5134.01 7129.60 76.32 7.00  37.22 3320.21
   08:46:26.227.08-Aug-2020 5134.01 7129.18 76.32 7.00  37.42 3320.21
   08:46:26.427.08-Aug-2020 5134.01 7128.91 76.32 7.00  37.62 3320.21
   08:46:26.627.08-Aug-2020 5134.01 7128.95 76.32 7.00  37.82 3320.21
   08:46:26.827.08-Aug-2020 5134.01 7132.57 76.32 7.00  38.02 3320.21
   08:46:27.027.08-Aug-2020 5134.01 7132.57 76.32 7.00  38.22 3320.21
   08:46:27.228.08-Aug-2020 5134.01 7131.15 76.32 7.00  38.42 3320.21
   08:46:27.428.08-Aug-2020 5134.01 7130.40 76.32 7.00  38.62 3320.21
   08:46:27.628.08-Aug-2020 5134.01 7129.21 76.32 7.00  38.82 3320.21
   08:46:27.828.08-Aug-2020 5134.01 7131.03 76.32 7.00  39.02 3320.21
   08:46:28.028.08-Aug-2020 5134.01 7131.03 76.32 7.00  39.22 3320.21
   08:46:28.228.08-Aug-2020 5134.01 7128.06 76.32 7.00  39.42 3320.21
   08:46:28.428.08-Aug-2020 5134.01 7131.23 76.32 7.00  39.62 3320.21
   08:46:28.628.08-Aug-2020 5134.01 7130.70 76.32 7.00  39.82 3320.21
   08:46:28.828.08-Aug-2020 5134.01 7129.74 76.32 7.00  40.02 3320.21
   08:46:29.028.08-Aug-2020 5134.01 7129.74 76.32 7.00  40.22 3320.21
   08:46:29.229.08-Aug-2020 5134.01 7132.35 76.32 7.00  40.42 3320.21
   08:46:29.429.08-Aug-2020 5134.01 7130.79 76.32 7.00  40.62 3320.21
   08:46:29.629.08-Aug-2020 5134.01 7129.40 76.32 7.00  40.82 3320.21
   08:46:29.829.08-Aug-2020 5134.01 7129.70 76.31 7.00  41.02 3320.21
   08:46:30.029.08-Aug-2020 5134.01 7129.70 76.31 7.00  41.22 3320.21
   08:46:30.229.08-Aug-2020 5134.01 7130.62 76.31 7.00  41.42 3320.21
   08:46:30.429.08-Aug-2020 5134.01 7130.02 76.31 7.00  41.62 3320.21
   08:46:30.629.08-Aug-2020 5134.01 7130.18 76.31 7.00  41.82 3320.21
   08:46:30.829.08-Aug-2020 5134.01 7129.24 76.31 7.00  42.02 3320.21
   08:46:31.030.08-Aug-2020 5134.01 7129.24 76.31 7.00  42.22 3320.21
   08:46:31.230.08-Aug-2020 5134.01 7130.25 76.31 7.00  42.42 3320.21
   08:46:31.430.08-Aug-2020 5134.01 7130.25 76.31 7.00  42.62 3320.21
   08:46:31.630.08-Aug-2020 5134.01 7130.24 76.31 7.00  42.82 3320.21
   08:46:31.830.08-Aug-2020 5134.01 7129.69 76.31 7.00  43.02 3320.21
   08:46:32.030.08-Aug-2020 5134.01 7129.69 76.31 7.00  43.22 3320.21
   08:46:32.230.08-Aug-2020 5134.01 7129.48 76.31 7.00  43.42 3320.21
   08:46:32.430.08-Aug-2020 5134.01 7129.25 76.31 7.00  43.62 3320.21
   08:46:32.630.08-Aug-2020 5134.01 7132.20 76.31 7.00  43.82 3320.21
   08:46:32.830.08-Aug-2020 5134.01 7130.20 76.31 7.00  44.02 3320.21
   08:46:33.031.08-Aug-2020 5134.01 7129.31 76.31 7.00  44.22 3320.21
   08:46:33.231.08-Aug-2020 5134.01 7128.27 76.31 7.00  44.42 3320.21
   08:46:33.431.08-Aug-2020 5134.01 7127.94 76.31 7.00  44.62 3320.21
   08:46:33.631.08-Aug-2020 5134.01 7128.41 76.31 7.00  44.82 3320.21
   08:46:33.831.08-Aug-2020 5134.01 7128.43 76.31 7.00  45.02 3320.21
   08:46:34.031.08-Aug-2020 5134.01 7128.43 76.31 7.00  45.22 3320.21
   08:46:34.231.08-Aug-2020 5134.01 7127.79 76.31 7.00  45.42 3320.21
   08:46:34.431.08-Aug-2020 5134.01 7128.85 76.31 7.00  45.62 3320.21
   08:46:34.631.08-Aug-2020 5134.01 7128.89 76.31 7.00  45.82 3320.21
