~Version Information
 VERS.                  2.0:   CWLS log ASCII Standard -VERSION 2.0
 WRAP.                   NO:   One line per depth step
~Well Information Block
#MNEM.UNIT     VALUE/NAME     DESCRIPTION
#---------     -----------    ---------------------------
 STRT.S             05:51:10 08-Aug-20: START TIME 05:51:10 08-Aug-20
 STOP.S             05:59:38 08-Aug-20: STOP TIME  05:59:38 08-Aug-20
 STEP.S                   0.00: STEP TIME
 NULL.                 -999.25: NULL VALUE
 DFWT.                        :  DIST FWL TEXT
 DFST.                        :  DIST FSL TEXT
 DMF .             Drill Floor:  DRILL MEAS FROM
 STIM.      13.47.44 07-Jun-20:  START TIME
 DATE.      13.47.44 27-Jul-20:  END TIME
 SPUD.               07-Jun-20:  SPUD DATE
 NREF.                    Grid:  NORTH REFERENCE
 HPTY.       Minimum Curvature:  HOLE POS TYPE
 DMOD.             Drill Model:  DRILL MOD DESC
 SVYD.                  Survey:  SURVEY DESC
 ILTD.               Lithology:  INTERP LTH DESC
 FTOP.          Formation Tops:  FORM TOPS DESC
 RIG .             West Chirag:  RIG NAME
 PDAT.          Mean Sea Level:  PERMANENT DATUM
 FLD .                     ACG:  FIELD NAME
 SON .        AZ-XX-0906363612:  JOB NUMBER
 CTRY.              Azerbaijan:  COUNTRY NAME
 WELL.           J25 (Slot 35):  WELL NAME
 SRVC.          Turan Drilling:  CONTRACTOR
 COMP.     BP Exploration (Caspian Sea) Ltd:  COMPANY
 UWI .                     N/A:  UNIQUE WELL IDENTIFIER
 API .                     N/A:  API NUMBER
 BASE.              Azerbaijan:  LOGGING EQUIPMENT BASE LOCATION
 REGN.                   EESSA:  REGION
 PROV.                    Baku:  PROVINCE
 STAT.                    Baku:  STATE NAME
 MWDS.                     N/A:  MWD SHOP
 DOE .                     N/A:  DOE NUMBER
 DCON.         Sperry Drilling:  DIRECTNL CONTR
 UNIT.                     N/A:  LOGGING EQUIPMENT ID
 MDS .        Operator Entered:  MAG DATA SOURCE
 JOBN.        AZ-XX-0906363612:  JOB TICKET NUMB
 WTYP.                Deviated:  WELL TYPE
 CNTY.                        :  COUNTY
 LOC .                        :  LOCATION
 LMF .             Drill Floor:  LOG MEASURED FROM
 TVDS.m                  43.00:  TVDSS CORRECTN
 LATI.deg                40.13:  LATITUDE
 LONG.deg                51.22:  LONGITUDE
 WHNS.m                  -7.90:  WELL HEAD N/S
 WHEW.m                  -3.35:  WELL HEAD E/W
 UTMX.m              519005.06:  UTM X
 UTMY.m             4443793.85:  UTM Y
 DFWL.m                   0.00:  DISTANCE FWL
 DFSL.m                   0.00:  DISTANCE FSL
 SDEP.m                   0.00:  START DEPTH
 TDD .m                   0.00:  TOTAL DEPTH (DRILLER)
 VSDR.deg               308.97:  VERT SEC DIRECT
 GVFD.g                   1.00:  GRAVITY FIELD
 MFLD.nT              50350.00:  MAGNETIC FIELD
 MDIP.deg                59.62:  MAGNETIC DIP
 MDEC.deg                 6.44:  MAGNETIC DECL
 GRDC.deg                 0.13:  GRID CORRECTION
 AZTC.deg                 6.32:  AZM TOTAL CORR
 EPD .m                   0.00:  ELEVATION
 EGL .m                   0.00:  GROUND ELEVATION
 WDMS.m                 169.80:  WD ELEV
 APD .m                  43.00:  DEPTH ABOVE PD
 DEP .m                 356.43:  DEPTH
 AGAP.m                  43.00:  AIR GAP
 VSEW.m                  -3.35:  VERT SEC E/W
 VSNS.m                  -7.90:  VERT SEC N/S
 EKB .m                  43.00:  KB ELEVATION
 EDF .m                  43.00:  DF ELEVATION
 TDL .m                 934.00:  TOTAL DEPTH (LOGGER)
 VSC .                       0:  VS TO CLOSURE
 MAGU.                 1852825:  MAGUTM CHECKSUM
~Parameter Information Block
#MNEM.UNIT       Value        Description
#---------     -----------    ---------------------------
 AV  .mps                 0.80:  Ann Velocity 
 AVMX.mps                 1.70:  Max Ann Veloc 
 AZIF.deg               311.41:  Azm, Final 
 BHAT.        Rotary Steerable:  BHA Type 
 BROT.°/30m               0.09:  Build Rotating 
 BS  .in                 12.25:  Bit Size 
 BSZ .in                 12.25:  Bit Size 
 BTPL.psig              800.00:  Bit Press Loss 
 CABU.                      No:  Customer Abuse 
 COMM.                     ¤'V:  Run Comments 1 
 TCS .hr                 96.00:  Time Ciculation Ended 
 CV  .mps                 2.03:  Crit Velocity 
 CVMX.mps                 2.42:  Max Crit Veloc 
 DD1 .          Taghi Taghiyev:  Direct Drillr 1 
 DD2 .      Tariel Pirmammadov:  Direct Drillr 2 
 DD3 .          Teymur Aghayev:  Direct Drillr 3 
 DDSV.                 iCruise:  DD Service 
 DEFF.%                  98.70:  % Det Eff 
 DLRX.°/30m               1.00:  Dogleg Rot Max 
 DLSO.°/30m               1.80:  Dogleg Oriented 
 DLSX.°/30m               3.16:  Dogleg Str Max 
 DRET.      15.00.00 07-Aug-20:  Drill End Time 
 DRST.      17.00.00 02-Aug-20:  Drill Start Tim 
 DTIM.hr                 45.90:  Time Drilling 
 EDEP.m                5298.01:  End Depth 
 ENG1.       Seymur Iskandarov:  Engineer 1 
 ENG2.         Yevgeniy Ulikov:  Engineer 2 
 ENG3.      Artemiy Matviyanov:  Engineer 3 
 ENG4.         Bahruz Mehdiyev:  Engineer 4 
 ETIM.      05.00.00 10-Aug-20:  End Time 
 FLOI.gpm              1150.00:  Flow In 
 FLON.gpm               900.00:  Flow In Min 
 FLOS.cptm                0.00:  Fluid Loss 
 FLOX.gpm              1200.00:  Flow In Max 
 FTRO.     Connectivity, Formation Presure:  FTWD Run Obj 
 HFLO.                      No:  High Flow 
 HPRE.                     Yes:  High Pressure 
 HTEM.                      No:  High Temp 
 HYDO.m                   1.80:  Hydro Offset 
 IFIN.deg                 9.71:  Inc, Final 
 IMAX.deg                63.81:  Inc Max 
 IMIN.deg                 9.53:  Inc Min 
 IMND.m                5075.52:  Inc Min Depth 
 IMXD.m                4367.08:  Inc Max Depth 
 JARR.                      No:  Jarring 
 LETM.      15.00.00 07-Aug-20:  Log End Time 
 LOST.hr                     2:  Lost Rig Time 
 LSTM.      17.00.00 02-Aug-20:  Log Start Time 
 MDCL.ppm             42500.00:  Mud Chlorides 
 MDES.     Inversion Oil/Synthetic:  Mud Desc 
 DFD .sg                  1.46:  Mud Density 
 MDMN.sg                  1.46:  Dens Mud Min 
 MDMX.sg                  1.46:  Dens Mud Max 
 MOIL.                      56:  Run Mud Oil % 
 MOWR.                   70:30:  Run Mud OWR 
 MSND.                     0.1:  Run Mud Sand % 
 MSOL.                      19:  Run Mud Solids% 
 DFV .spqt               83.00:  Mud Viscosity 
 MWOD.in                  8.00:  MWD Tool OD 
 MWSI.                     Yes:  Serv Intrp, MWD 
 OTIM.hr                196.57:  Time Operating 
 PCON.           Look Like New:  Pad Condition 
 PMAX.psia             7400.00:  Press Op, Max 
 PV  .cP                 36.00:  Mud PV 
 RUN .                    1000:  Run Number 
 ROPA.m/hr               25.00:  ROP Avg 
 ROPN.m/hr               10.00:  ROP Min 
 ROPX.m/hr               32.00:  ROP Max 
 RPMA.rpm               120.00:  RPM Surface Avg 
 RPMN.rpm               100.00:  RPM Surface Min 
 RPMX.rpm               140.00:  RPM Surface Max 
 RRUN.                    L504:  Rig Run Number 
 SAZI.deg               308.25:  Azm, Start 
 SDEP.m                4364.01:  Start Depth 
 SIDD.                      No:  Serv Intrp, DD 
 SINC.deg                63.81:  Inc, Start 
 SPPA.psig             5800.00:  SPP Avg 
 SPPN.psig             4200.00:  SPP Min 
 SPPX.psig             5950.00:  SPP Max 
 STIM.      18.00.00 01-Aug-20:  Start Time 
 SVCS.                 DD, MWD:  Services 
 SVER.                    9.20:  Sperry Version 
 TDAT.m                 934.00:  Tot Depth Attmp 
 TDDF.                      No:  Trip for DD 
 TDLG.m                 934.00:  Tot Depth Loggd 
 TFF .                      No:  Trip for Fail 
 TQAA.f-kp               31.00:  Torque Abs Avg 
 TQAN.f-kp               25.00:  Torque Abs Min 
 TQAX.f-kp               35.00:  Torque Abs Max 
 TRRT.°/30m              -0.75:  Turn Rotating 
 MRT .                  EWR-M5:  Maximum Recorded Temperature 
 TTMX.degC               95.00:  Max Tool Temp 
 VS01.                90516060:  Virtual Str1 SN 
 VS02.                90528488:  Virtual Str2 SN 
 VS03.                90577970:  Virtual Str3 SN 
 VS04.                12385033:  Virtual Str4 SN 
 VS05.                90522069:  Virtual Str5 SN 
 VS06.                13124134:  Virtual Str6 SN 
 WBMN.klb                20.00:  WOB Min 
 WITN.         Alistair Sprott:  Customer Rep 
 WITN.     Ronal van der Kraan:  Customer Rep 2 
 WOBA.klb                25.00:  WOB Avg 
 WOBX.klb                31.00:  WOB Max 
 YP  .lhf2               32.00:  Yield Point 
~Curve Information Block
#MNEM.UNIT                 API CODE     Curve Description
#---------               -----------    ---------------------------
 TIME.HHMMSS            00 000 000 000:  GT Time & Date
 GTDEPTH.m              00 000 000 000:  GT Depth
 GTPQH.psia             00 000 000 000:  GT HR Quartz Pressure
 GTTQ.degC              00 000 000 000:  GT Quartz Temperature
 GTTN.NONE              00 000 000 000:  GT Test Number
 GTET.sec               00 000 000 000:  GT Elapsed Test Time
 GTTVD.m                00 000 000 000:  GT True Vertical Depth
#Other Information
#
#WARRANTY: Halliburton will use its best efforts to furnish customers with 
#accurate information and interpretations that are part of, and incident to, the services 
#provided.  However, Halliburton cannot and does not warrant the accuracy 
#or correctness of such information and interpretations.  Under no circumstances should any 
#such information or interpretation be relied upon as the sole basis for any drilling, 
#completion, production, or financial decision or any procedure involving any risk to the 
#safety of any drilling venture, drilling rig or its crew or any other third party.  The 
#Customer has full responsibility for all drilling, completion and production operation.  
#Halliburton makes no representations or warranties, either expressed or 
#implied, including, but not limited to, the implied warranties of merchantability or fitness 
#for a particular purpose, with respect to the services rendered.  In no event will 
#Halliburton be liable for failure to obtain any particular results or for 
#any damages, including, but not limited to, indirect, special or consequential damages, 
#resulting from the use of any information or interpretation provided by Halliburton.
#
~A           TIME           GTDEPTH  GTPQH  GTTQ  GTTN  GTET   GTTVD  
# ...
   05:59:13.648.08-Aug-2020 5190.42 7165.94 82.32 3.00 482.75 3375.81
   05:59:13.848.08-Aug-2020 5190.42 7166.05 82.32 3.00 482.95 3375.81
   05:59:14.048.08-Aug-2020 5190.42 7169.92 82.32 3.00 483.15 3375.81
   05:59:14.248.08-Aug-2020 5190.42 7168.76 82.32 3.00 483.35 3375.81
   05:59:14.448.08-Aug-2020 5190.42 7166.93 82.32 3.00 483.55 3375.81
   05:59:14.648.08-Aug-2020 5190.42 7166.82 82.32 3.00 483.75 3375.81
   05:59:14.848.08-Aug-2020 5190.42 7166.82 82.32 3.00 483.95 3375.81
   05:59:15.048.08-Aug-2020 5190.42 7167.47 82.32 3.00 484.15 3375.81
   05:59:15.247.08-Aug-2020 5190.42 7167.34 82.32 3.00 484.35 3375.81
   05:59:15.447.08-Aug-2020 5190.42 7167.43 82.32 3.00 484.55 3375.81
   05:59:15.647.08-Aug-2020 5190.42 7167.30 82.32 3.00 484.75 3375.81
   05:59:15.847.08-Aug-2020 5190.42 7167.30 82.32 3.00 484.95 3375.81
   05:59:16.047.08-Aug-2020 5190.42 7166.64 82.32 3.00 485.15 3375.81
   05:59:16.247.08-Aug-2020 5190.42 7167.45 82.32 3.00 485.35 3375.81
   05:59:16.447.08-Aug-2020 5190.42 7167.38 82.32 3.00 485.55 3375.81
   05:59:16.647.08-Aug-2020 5190.42 7167.44 82.32 3.00 485.75 3375.81
   05:59:16.847.08-Aug-2020 5190.42 7167.44 82.32 3.00 485.95 3375.81
   05:59:17.047.08-Aug-2020 5190.42 7167.36 82.32 3.00 486.15 3375.81
   05:59:17.246.08-Aug-2020 5190.42 7171.17 82.32 3.00 486.35 3375.81
   05:59:17.446.08-Aug-2020 5190.42 7169.40 82.32 3.00 486.55 3375.81
   05:59:17.646.08-Aug-2020 5190.42 7167.41 82.32 3.00 486.75 3375.81
   05:59:17.846.08-Aug-2020 5190.42 7167.41 82.32 3.00 486.95 3375.81
   05:59:18.046.08-Aug-2020 5190.42 7169.95 82.32 3.00 487.15 3375.81
   05:59:18.246.08-Aug-2020 5190.42 7167.55 82.32 3.00 487.35 3375.81
   05:59:18.446.08-Aug-2020 5190.42 7171.10 82.32 3.00 487.55 3375.81
   05:59:18.646.08-Aug-2020 5190.42 7169.79 82.32 3.00 487.75 3375.81
   05:59:18.846.08-Aug-2020 5190.42 7169.79 82.32 3.00 487.95 3375.81
   05:59:19.046.08-Aug-2020 5190.42 7166.53 82.32 3.00 488.15 3375.81
   05:59:19.245.08-Aug-2020 5190.42 7167.46 82.32 3.00 488.35 3375.81
   05:59:19.445.08-Aug-2020 5190.42 7168.04 82.32 3.00 488.55 3375.81
   05:59:19.645.08-Aug-2020 5190.42 7172.30 82.32 3.00 488.75 3375.81
   05:59:19.845.08-Aug-2020 5190.42 7172.30 82.32 3.00 488.95 3375.81
   05:59:20.045.08-Aug-2020 5190.42 7169.02 82.32 3.00 489.15 3375.81
   05:59:20.245.08-Aug-2020 5190.42 7166.87 82.32 3.00 489.35 3375.81
   05:59:20.445.08-Aug-2020 5190.42 7167.47 82.32 3.00 489.55 3375.81
   05:59:20.645.08-Aug-2020 5190.42 7170.55 82.32 3.00 489.75 3375.81
   05:59:20.845.08-Aug-2020 5190.42 7170.55 82.32 3.00 489.95 3375.81
   05:59:21.045.08-Aug-2020 5190.42 7169.23 82.32 3.00 490.15 3375.81
   05:59:21.244.08-Aug-2020 5190.42 7167.25 82.32 3.00 490.35 3375.81
   05:59:21.444.08-Aug-2020 5190.42 7166.53 82.32 3.00 490.55 3375.81
   05:59:21.644.08-Aug-2020 5190.42 7166.71 82.32 3.00 490.75 3375.81
   05:59:21.844.08-Aug-2020 5190.42 7166.71 82.32 3.00 490.95 3375.81
   05:59:22.044.08-Aug-2020 5190.42 7166.79 82.32 3.00 491.15 3375.81
   05:59:22.244.08-Aug-2020 5190.42 7166.65 82.32 3.00 491.35 3375.81
   05:59:22.444.08-Aug-2020 5190.42 7165.94 82.32 3.00 491.55 3375.81
   05:59:22.644.08-Aug-2020 5190.42 7166.54 82.32 3.00 491.75 3375.81
   05:59:22.844.08-Aug-2020 5190.42 7166.54 82.32 3.00 491.95 3375.81
   05:59:23.044.08-Aug-2020 5190.42 7167.77 82.32 3.00 492.15 3375.81
   05:59:23.243.08-Aug-2020 5190.42 7167.98 82.32 3.00 492.35 3375.81
   05:59:23.443.08-Aug-2020 5190.42 7167.81 82.32 3.00 492.55 3375.81
   05:59:23.643.08-Aug-2020 5190.42 7167.71 82.32 3.00 492.75 3375.81
   05:59:23.843.08-Aug-2020 5190.42 7167.80 82.32 3.00 492.95 3375.81
   05:59:24.043.08-Aug-2020 5190.42 7167.86 82.32 3.00 493.15 3375.81
   05:59:24.243.08-Aug-2020 5190.42 7172.96 82.32 3.00 493.35 3375.81
   05:59:24.443.08-Aug-2020 5190.42 7167.23 82.32 3.00 493.55 3375.81
   05:59:24.643.08-Aug-2020 5190.42 7169.12 82.32 3.00 493.75 3375.81
   05:59:24.843.08-Aug-2020 5190.42 7169.12 82.32 3.00 493.95 3375.81
   05:59:25.042.08-Aug-2020 5190.42 7167.95 82.32 3.00 494.15 3375.81
   05:59:25.242.08-Aug-2020 5190.42 7167.87 82.32 3.00 494.35 3375.81
   05:59:25.442.08-Aug-2020 5190.42 7167.44 82.32 3.00 494.55 3375.81
   05:59:25.642.08-Aug-2020 5190.42 7167.11 82.32 3.00 494.75 3375.81
   05:59:25.842.08-Aug-2020 5190.42 7167.11 82.32 3.00 494.95 3375.81
   05:59:26.042.08-Aug-2020 5190.42 7166.51 82.32 3.00 495.15 3375.81
   05:59:26.242.08-Aug-2020 5190.42 7167.03 82.32 3.00 495.35 3375.81
   05:59:26.442.08-Aug-2020 5190.42 7168.09 82.32 3.00 495.55 3375.81
   05:59:26.642.08-Aug-2020 5190.42 7168.17 82.32 3.00 495.75 3375.81
   05:59:26.842.08-Aug-2020 5190.42 7168.17 82.32 3.00 495.95 3375.81
   05:59:27.041.08-Aug-2020 5190.42 7168.13 82.32 3.00 496.15 3375.81
   05:59:27.241.08-Aug-2020 5190.42 7168.09 82.32 3.00 496.35 3375.81
   05:59:27.441.08-Aug-2020 5190.42 7170.38 82.32 3.00 496.55 3375.81
   05:59:27.641.08-Aug-2020 5190.42 7169.60 82.32 3.00 496.75 3375.81
   05:59:27.841.08-Aug-2020 5190.42 7170.02 82.31 3.00 496.95 3375.81
   05:59:28.041.08-Aug-2020 5190.42 7170.26 82.31 3.00 497.15 3375.81
   05:59:28.241.08-Aug-2020 5190.42 7169.46 82.31 3.00 497.35 3375.81
   05:59:28.441.08-Aug-2020 5190.42 7170.03 82.31 3.00 497.55 3375.81
   05:59:28.641.08-Aug-2020 5190.42 7167.20 82.31 3.00 497.75 3375.81
   05:59:28.841.08-Aug-2020 5190.42 7167.20 82.31 3.00 497.95 3375.81
   05:59:29.040.08-Aug-2020 5190.42 7167.54 82.31 3.00 498.15 3375.81
   05:59:29.240.08-Aug-2020 5190.42 7165.96 82.31 3.00 498.35 3375.81
   05:59:29.440.08-Aug-2020 5190.42 7171.74 82.31 3.00 498.55 3375.81
   05:59:29.640.08-Aug-2020 5190.42 7166.39 82.31 3.00 498.75 3375.81
   05:59:29.840.08-Aug-2020 5190.42 7166.39 82.31 3.00 498.95 3375.81
   05:59:30.040.08-Aug-2020 5190.42 7166.47 82.31 3.00 499.15 3375.81
   05:59:30.240.08-Aug-2020 5190.42 7167.36 82.31 3.00 499.35 3375.81
   05:59:30.440.08-Aug-2020 5190.42 7167.75 82.31 3.00 499.55 3375.81
   05:59:30.640.08-Aug-2020 5190.42 7167.61 82.31 3.00 499.75 3375.81
   05:59:30.840.08-Aug-2020 5190.42 7167.61 82.31 3.00 499.95 3375.81
   05:59:31.039.08-Aug-2020 5190.42 7169.06 82.31 3.00 500.15 3375.81
   05:59:31.239.08-Aug-2020 5190.42 7166.20 82.31 3.00 500.35 3375.81
   05:59:31.439.08-Aug-2020 5190.42 7172.02 82.31 3.00 500.55 3375.81
   05:59:31.639.08-Aug-2020 5190.42 7167.52 82.31 3.00 500.75 3375.81
   05:59:31.839.08-Aug-2020 5190.42 7167.52 82.31 3.00 500.94 3375.81
   05:59:32.039.08-Aug-2020 5190.42 7166.84 82.31 3.00 501.14 3375.81
   05:59:32.239.08-Aug-2020 5190.42 7167.35 82.31 3.00 501.34 3375.81
   05:59:32.439.08-Aug-2020 5190.42 7167.43 82.31 3.00 501.54 3375.81
   05:59:32.639.08-Aug-2020 5190.42 7166.86 82.31 3.00 501.74 3375.81
   05:59:32.839.08-Aug-2020 5190.42 7166.86 82.31 3.00 501.94 3375.81
   05:59:33.038.08-Aug-2020 5190.42 7168.86 82.30 3.00 502.14 3375.81
   05:59:33.238.08-Aug-2020 5190.42 7168.31 82.30 3.00 502.34 3375.81
   05:59:33.438.08-Aug-2020 5190.42 7168.78 82.30 3.00 502.54 3375.81
   05:59:33.638.08-Aug-2020 5190.42 7169.64 82.30 3.00 502.74 3375.81
   05:59:33.838.08-Aug-2020 5190.42 7169.64 82.30 3.00 502.94 3375.81
   05:59:34.038.08-Aug-2020 5190.42 7170.04 82.30 3.00 503.14 3375.81
   05:59:34.238.08-Aug-2020 5190.42 7169.86 82.30 3.00 503.34 3375.81
   05:59:34.438.08-Aug-2020 5190.42 7169.82 82.30 3.00 503.54 3375.81
   05:59:34.638.08-Aug-2020 5190.42 7169.84 82.30 3.00 503.74 3375.81
   05:59:34.838.08-Aug-2020 5190.42 7169.84 82.30 3.00 503.94 3375.81
   05:59:35.037.08-Aug-2020 5190.42 7173.55 82.30 3.00 504.14 3375.81
   05:59:35.237.08-Aug-2020 5190.42 7171.09 82.30 3.00 504.34 3375.81
   05:59:35.437.08-Aug-2020 5190.42 7169.09 82.30 3.00 504.54 3375.81
   05:59:35.637.08-Aug-2020 5190.42 7168.15 82.30 3.00 504.74 3375.81
   05:59:35.837.08-Aug-2020 5190.42 7168.15 82.30 3.00 504.94 3375.81
   05:59:36.037.08-Aug-2020 5190.42 7168.14 82.30 3.00 505.14 3375.81
   05:59:36.237.08-Aug-2020 5190.42 7167.86 82.30 3.00 505.34 3375.81
   05:59:36.437.08-Aug-2020 5190.42 7168.09 82.30 3.00 505.54 3375.81
