~Version Information
 VERS.                  2.0:   CWLS log ASCII Standard -VERSION 2.0
 WRAP.                   NO:   One line per depth step
~Well Information Block
#MNEM.UNIT     VALUE/NAME     DESCRIPTION
#---------     -----------    ---------------------------
 STRT.S             05:51:10 08-Aug-20: START TIME 05:51:10 08-Aug-20
 STOP.S             05:59:38 08-Aug-20: STOP TIME  05:59:38 08-Aug-20
 STEP.S                   0.00: STEP TIME
 NULL.                 -999.25: NULL VALUE
 DFWT.                        :  DIST FWL TEXT
 DFST.                        :  DIST FSL TEXT
 DMF .             Drill Floor:  DRILL MEAS FROM
 STIM.      13.47.44 07-Jun-20:  START TIME
 DATE.      13.47.44 27-Jul-20:  END TIME
 SPUD.               07-Jun-20:  SPUD DATE
 NREF.                    Grid:  NORTH REFERENCE
 HPTY.       Minimum Curvature:  HOLE POS TYPE
 DMOD.             Drill Model:  DRILL MOD DESC
 SVYD.                  Survey:  SURVEY DESC
 ILTD.               Lithology:  INTERP LTH DESC
 FTOP.          Formation Tops:  FORM TOPS DESC
 RIG .             West Chirag:  RIG NAME
 PDAT.          Mean Sea Level:  PERMANENT DATUM
 FLD .                     ACG:  FIELD NAME
 SON .        AZ-XX-0906363612:  JOB NUMBER
 CTRY.              Azerbaijan:  COUNTRY NAME
 WELL.           J25 (Slot 35):  WELL NAME
 SRVC.          Turan Drilling:  CONTRACTOR
 COMP.     BP Exploration (Caspian Sea) Ltd:  COMPANY
 UWI .                     N/A:  UNIQUE WELL IDENTIFIER
 API .                     N/A:  API NUMBER
 BASE.              Azerbaijan:  LOGGING EQUIPMENT BASE LOCATION
 REGN.                   EESSA:  REGION
 PROV.                    Baku:  PROVINCE
 STAT.                    Baku:  STATE NAME
 MWDS.                     N/A:  MWD SHOP
 DOE .                     N/A:  DOE NUMBER
 DCON.         Sperry Drilling:  DIRECTNL CONTR
 UNIT.                     N/A:  LOGGING EQUIPMENT ID
 MDS .        Operator Entered:  MAG DATA SOURCE
 JOBN.        AZ-XX-0906363612:  JOB TICKET NUMB
 WTYP.                Deviated:  WELL TYPE
 CNTY.                        :  COUNTY
 LOC .                        :  LOCATION
 LMF .             Drill Floor:  LOG MEASURED FROM
 TVDS.m                  43.00:  TVDSS CORRECTN
 LATI.deg                40.13:  LATITUDE
 LONG.deg                51.22:  LONGITUDE
 WHNS.m                  -7.90:  WELL HEAD N/S
 WHEW.m                  -3.35:  WELL HEAD E/W
 UTMX.m              519005.06:  UTM X
 UTMY.m             4443793.85:  UTM Y
 DFWL.m                   0.00:  DISTANCE FWL
 DFSL.m                   0.00:  DISTANCE FSL
 SDEP.m                   0.00:  START DEPTH
 TDD .m                   0.00:  TOTAL DEPTH (DRILLER)
 VSDR.deg               308.97:  VERT SEC DIRECT
 GVFD.g                   1.00:  GRAVITY FIELD
 MFLD.nT              50350.00:  MAGNETIC FIELD
 MDIP.deg                59.62:  MAGNETIC DIP
 MDEC.deg                 6.44:  MAGNETIC DECL
 GRDC.deg                 0.13:  GRID CORRECTION
 AZTC.deg                 6.32:  AZM TOTAL CORR
 EPD .m                   0.00:  ELEVATION
 EGL .m                   0.00:  GROUND ELEVATION
 WDMS.m                 169.80:  WD ELEV
 APD .m                  43.00:  DEPTH ABOVE PD
 DEP .m                 356.43:  DEPTH
 AGAP.m                  43.00:  AIR GAP
 VSEW.m                  -3.35:  VERT SEC E/W
 VSNS.m                  -7.90:  VERT SEC N/S
 EKB .m                  43.00:  KB ELEVATION
 EDF .m                  43.00:  DF ELEVATION
 TDL .m                 934.00:  TOTAL DEPTH (LOGGER)
 VSC .                       0:  VS TO CLOSURE
 MAGU.                 1852825:  MAGUTM CHECKSUM
~Parameter Information Block
#MNEM.UNIT       Value        Description
#---------     -----------    ---------------------------
 AV  .mps                 0.80:  Ann Velocity 
 AVMX.mps                 1.70:  Max Ann Veloc 
 AZIF.deg               311.41:  Azm, Final 
 BHAT.        Rotary Steerable:  BHA Type 
 BROT.°/30m               0.09:  Build Rotating 
 BS  .in                 12.25:  Bit Size 
 BSZ .in                 12.25:  Bit Size 
 BTPL.psig              800.00:  Bit Press Loss 
 CABU.                      No:  Customer Abuse 
 COMM.                     ¤'V:  Run Comments 1 
 TCS .hr                 96.00:  Time Ciculation Ended 
 CV  .mps                 2.03:  Crit Velocity 
 CVMX.mps                 2.42:  Max Crit Veloc 
 DD1 .          Taghi Taghiyev:  Direct Drillr 1 
 DD2 .      Tariel Pirmammadov:  Direct Drillr 2 
 DD3 .          Teymur Aghayev:  Direct Drillr 3 
 DDSV.                 iCruise:  DD Service 
 DEFF.%                  98.70:  % Det Eff 
 DLRX.°/30m               1.00:  Dogleg Rot Max 
 DLSO.°/30m               1.80:  Dogleg Oriented 
 DLSX.°/30m               3.16:  Dogleg Str Max 
 DRET.      15.00.00 07-Aug-20:  Drill End Time 
 DRST.      17.00.00 02-Aug-20:  Drill Start Tim 
 DTIM.hr                 45.90:  Time Drilling 
 EDEP.m                5298.01:  End Depth 
 ENG1.       Seymur Iskandarov:  Engineer 1 
 ENG2.         Yevgeniy Ulikov:  Engineer 2 
 ENG3.      Artemiy Matviyanov:  Engineer 3 
 ENG4.         Bahruz Mehdiyev:  Engineer 4 
 ETIM.      05.00.00 10-Aug-20:  End Time 
 FLOI.gpm              1150.00:  Flow In 
 FLON.gpm               900.00:  Flow In Min 
 FLOS.cptm                0.00:  Fluid Loss 
 FLOX.gpm              1200.00:  Flow In Max 
 FTRO.     Connectivity, Formation Presure:  FTWD Run Obj 
 HFLO.                      No:  High Flow 
 HPRE.                     Yes:  High Pressure 
 HTEM.                      No:  High Temp 
 HYDO.m                   1.80:  Hydro Offset 
 IFIN.deg                 9.71:  Inc, Final 
 IMAX.deg                63.81:  Inc Max 
 IMIN.deg                 9.53:  Inc Min 
 IMND.m                5075.52:  Inc Min Depth 
 IMXD.m                4367.08:  Inc Max Depth 
 JARR.                      No:  Jarring 
 LETM.      15.00.00 07-Aug-20:  Log End Time 
 LOST.hr                     2:  Lost Rig Time 
 LSTM.      17.00.00 02-Aug-20:  Log Start Time 
 MDCL.ppm             42500.00:  Mud Chlorides 
 MDES.     Inversion Oil/Synthetic:  Mud Desc 
 DFD .sg                  1.46:  Mud Density 
 MDMN.sg                  1.46:  Dens Mud Min 
 MDMX.sg                  1.46:  Dens Mud Max 
 MOIL.                      56:  Run Mud Oil % 
 MOWR.                   70:30:  Run Mud OWR 
 MSND.                     0.1:  Run Mud Sand % 
 MSOL.                      19:  Run Mud Solids% 
 DFV .spqt               83.00:  Mud Viscosity 
 MWOD.in                  8.00:  MWD Tool OD 
 MWSI.                     Yes:  Serv Intrp, MWD 
 OTIM.hr                196.57:  Time Operating 
 PCON.           Look Like New:  Pad Condition 
 PMAX.psia             7400.00:  Press Op, Max 
 PV  .cP                 36.00:  Mud PV 
 RUN .                    1000:  Run Number 
 ROPA.m/hr               25.00:  ROP Avg 
 ROPN.m/hr               10.00:  ROP Min 
 ROPX.m/hr               32.00:  ROP Max 
 RPMA.rpm               120.00:  RPM Surface Avg 
 RPMN.rpm               100.00:  RPM Surface Min 
 RPMX.rpm               140.00:  RPM Surface Max 
 RRUN.                    L504:  Rig Run Number 
 SAZI.deg               308.25:  Azm, Start 
 SDEP.m                4364.01:  Start Depth 
 SIDD.                      No:  Serv Intrp, DD 
 SINC.deg                63.81:  Inc, Start 
 SPPA.psig             5800.00:  SPP Avg 
 SPPN.psig             4200.00:  SPP Min 
 SPPX.psig             5950.00:  SPP Max 
 STIM.      18.00.00 01-Aug-20:  Start Time 
 SVCS.                 DD, MWD:  Services 
 SVER.                    9.20:  Sperry Version 
 TDAT.m                 934.00:  Tot Depth Attmp 
 TDDF.                      No:  Trip for DD 
 TDLG.m                 934.00:  Tot Depth Loggd 
 TFF .                      No:  Trip for Fail 
 TQAA.f-kp               31.00:  Torque Abs Avg 
 TQAN.f-kp               25.00:  Torque Abs Min 
 TQAX.f-kp               35.00:  Torque Abs Max 
 TRRT.°/30m              -0.75:  Turn Rotating 
 MRT .                  EWR-M5:  Maximum Recorded Temperature 
 TTMX.degC               95.00:  Max Tool Temp 
 VS01.                90516060:  Virtual Str1 SN 
 VS02.                90528488:  Virtual Str2 SN 
 VS03.                90577970:  Virtual Str3 SN 
 VS04.                12385033:  Virtual Str4 SN 
 VS05.                90522069:  Virtual Str5 SN 
 VS06.                13124134:  Virtual Str6 SN 
 WBMN.klb                20.00:  WOB Min 
 WITN.         Alistair Sprott:  Customer Rep 
 WITN.     Ronal van der Kraan:  Customer Rep 2 
 WOBA.klb                25.00:  WOB Avg 
 WOBX.klb                31.00:  WOB Max 
 YP  .lhf2               32.00:  Yield Point 
~Curve Information Block
#MNEM.UNIT                 API CODE     Curve Description
#---------               -----------    ---------------------------
 TIME.HHMMSS            00 000 000 000:  GT Time & Date
 GTDEPTH.m              00 000 000 000:  GT Depth
 GTPQH.psia             00 000 000 000:  GT HR Quartz Pressure
 GTTQ.degC              00 000 000 000:  GT Quartz Temperature
 GTTN.NONE              00 000 000 000:  GT Test Number
 GTET.sec               00 000 000 000:  GT Elapsed Test Time
 GTTVD.m                00 000 000 000:  GT True Vertical Depth
#Other Information
#
#WARRANTY: Halliburton will use its best efforts to furnish customers with 
#accurate information and interpretations that are part of, and incident to, the services 
#provided.  However, Halliburton cannot and does not warrant the accuracy 
#or correctness of such information and interpretations.  Under no circumstances should any 
#such information or interpretation be relied upon as the sole basis for any drilling, 
#completion, production, or financial decision or any procedure involving any risk to the 
#safety of any drilling venture, drilling rig or its crew or any other third party.  The 
#Customer has full responsibility for all drilling, completion and production operation.  
#Halliburton makes no representations or warranties, either expressed or 
#implied, including, but not limited to, the implied warranties of merchantability or fitness 
#for a particular purpose, with respect to the services rendered.  In no event will 
#Halliburton be liable for failure to obtain any particular results or for 
#any damages, including, but not limited to, indirect, special or consequential damages, 
#resulting from the use of any information or interpretation provided by Halliburton.
#
~A           TIME           GTDEPTH  GTPQH  GTTQ  GTTN  GTET   GTTVD  
# ...
   05:55:23.765.08-Aug-2020 5190.42 5611.48 82.72 3.00 252.87 3375.81
   05:55:23.965.08-Aug-2020 5190.42 5611.48 82.72 3.00 253.07 3375.81
   05:55:24.165.08-Aug-2020 5190.42 5620.02 82.72 3.00 253.27 3375.81
   05:55:24.365.08-Aug-2020 5190.42 5624.65 82.72 3.00 253.47 3375.81
   05:55:24.565.08-Aug-2020 5190.42 5629.32 82.72 3.00 253.67 3375.81
   05:55:24.765.08-Aug-2020 5190.42 5634.07 82.72 3.00 253.87 3375.81
   05:55:24.965.08-Aug-2020 5190.42 5634.07 82.72 3.00 254.07 3375.81
   05:55:25.165.08-Aug-2020 5190.42 5642.97 82.72 3.00 254.27 3375.81
   05:55:25.365.08-Aug-2020 5190.42 5647.14 82.72 3.00 254.47 3375.81
   05:55:25.564.08-Aug-2020 5190.42 5651.36 82.72 3.00 254.67 3375.81
   05:55:25.764.08-Aug-2020 5190.42 5655.97 82.72 3.00 254.87 3375.81
   05:55:25.964.08-Aug-2020 5190.42 5655.97 82.72 3.00 255.07 3375.81
   05:55:26.164.08-Aug-2020 5190.42 5665.11 82.72 3.00 255.27 3375.81
   05:55:26.364.08-Aug-2020 5190.42 5669.19 82.72 3.00 255.47 3375.81
   05:55:26.564.08-Aug-2020 5190.42 5672.99 82.72 3.00 255.67 3375.81
   05:55:26.764.08-Aug-2020 5190.42 5677.06 82.72 3.00 255.87 3375.81
   05:55:26.964.08-Aug-2020 5190.42 5677.06 82.72 3.00 256.07 3375.81
   05:55:27.164.08-Aug-2020 5190.42 5685.51 82.72 3.00 256.27 3375.81
   05:55:27.364.08-Aug-2020 5190.42 5689.07 82.72 3.00 256.47 3375.81
   05:55:27.563.08-Aug-2020 5190.42 5692.71 82.72 3.00 256.67 3375.81
   05:55:27.763.08-Aug-2020 5190.42 5696.56 82.72 3.00 256.87 3375.81
   05:55:27.963.08-Aug-2020 5190.42 5696.56 82.72 3.00 257.07 3375.81
   05:55:28.163.08-Aug-2020 5190.42 5704.67 82.72 3.00 257.27 3375.81
   05:55:28.363.08-Aug-2020 5190.42 5708.75 82.72 3.00 257.47 3375.81
   05:55:28.563.08-Aug-2020 5190.42 5712.45 82.72 3.00 257.67 3375.81
   05:55:28.763.08-Aug-2020 5190.42 5716.34 82.72 3.00 257.87 3375.81
   05:55:28.963.08-Aug-2020 5190.42 5716.34 82.72 3.00 258.07 3375.81
   05:55:29.163.08-Aug-2020 5190.42 5723.96 82.72 3.00 258.27 3375.81
   05:55:29.362.08-Aug-2020 5190.42 5728.10 82.72 3.00 258.47 3375.81
   05:55:29.562.08-Aug-2020 5190.42 5732.18 82.72 3.00 258.67 3375.81
   05:55:29.762.08-Aug-2020 5190.42 5736.12 82.72 3.00 258.87 3375.81
   05:55:29.962.08-Aug-2020 5190.42 5736.12 82.72 3.00 259.07 3375.81
   05:55:30.162.08-Aug-2020 5190.42 5742.81 82.72 3.00 259.27 3375.81
   05:55:30.362.08-Aug-2020 5190.42 5746.60 82.72 3.00 259.47 3375.81
   05:55:30.562.08-Aug-2020 5190.42 5750.05 82.72 3.00 259.67 3375.81
   05:55:30.762.08-Aug-2020 5190.42 5753.66 82.72 3.00 259.87 3375.81
   05:55:30.962.08-Aug-2020 5190.42 5753.66 82.72 3.00 260.07 3375.81
   05:55:31.162.08-Aug-2020 5190.42 5760.08 82.72 3.00 260.27 3375.81
   05:55:31.361.08-Aug-2020 5190.42 5763.60 82.72 3.00 260.47 3375.81
   05:55:31.561.08-Aug-2020 5190.42 5766.74 82.72 3.00 260.67 3375.81
   05:55:31.761.08-Aug-2020 5190.42 5769.98 82.71 3.00 260.87 3375.81
   05:55:31.961.08-Aug-2020 5190.42 5769.98 82.71 3.00 261.07 3375.81
   05:55:32.161.08-Aug-2020 5190.42 5777.08 82.71 3.00 261.27 3375.81
   05:55:32.361.08-Aug-2020 5190.42 5780.85 82.71 3.00 261.47 3375.81
   05:55:32.561.08-Aug-2020 5190.42 5783.86 82.71 3.00 261.67 3375.81
   05:55:32.761.08-Aug-2020 5190.42 5787.59 82.71 3.00 261.87 3375.81
   05:55:32.961.08-Aug-2020 5190.42 5787.59 82.71 3.00 262.07 3375.81
   05:55:33.161.08-Aug-2020 5190.42 5793.98 82.71 3.00 262.27 3375.81
   05:55:33.360.08-Aug-2020 5190.42 5797.28 82.71 3.00 262.47 3375.81
   05:55:33.560.08-Aug-2020 5190.42 5800.49 82.71 3.00 262.67 3375.81
   05:55:33.760.08-Aug-2020 5190.42 5803.73 82.71 3.00 262.87 3375.81
   05:55:33.960.08-Aug-2020 5190.42 5803.73 82.71 3.00 263.07 3375.81
   05:55:34.160.08-Aug-2020 5190.42 5810.09 82.71 3.00 263.27 3375.81
   05:55:34.360.08-Aug-2020 5190.42 5813.46 82.71 3.00 263.47 3375.81
   05:55:34.560.08-Aug-2020 5190.42 5816.28 82.71 3.00 263.67 3375.81
   05:55:34.760.08-Aug-2020 5190.42 5819.67 82.71 3.00 263.87 3375.81
   05:55:34.960.08-Aug-2020 5190.42 5819.67 82.71 3.00 264.07 3375.81
   05:55:35.160.08-Aug-2020 5190.42 5825.88 82.71 3.00 264.27 3375.81
   05:55:35.359.08-Aug-2020 5190.42 5829.23 82.71 3.00 264.47 3375.81
   05:55:35.559.08-Aug-2020 5190.42 5832.11 82.71 3.00 264.67 3375.81
   05:55:35.759.08-Aug-2020 5190.42 5834.62 82.71 3.00 264.87 3375.81
   05:55:35.959.08-Aug-2020 5190.42 5834.62 82.71 3.00 265.07 3375.81
   05:55:36.159.08-Aug-2020 5190.42 5841.01 82.71 3.00 265.26 3375.81
   05:55:36.359.08-Aug-2020 5190.42 5844.42 82.71 3.00 265.46 3375.81
   05:55:36.559.08-Aug-2020 5190.42 5847.59 82.71 3.00 265.66 3375.81
   05:55:36.759.08-Aug-2020 5190.42 5850.50 82.71 3.00 265.86 3375.81
   05:55:36.959.08-Aug-2020 5190.42 5853.58 82.71 3.00 266.06 3375.81
   05:55:37.159.08-Aug-2020 5190.42 5856.41 82.71 3.00 266.26 3375.81
   05:55:37.358.08-Aug-2020 5190.42 5859.28 82.71 3.00 266.46 3375.81
   05:55:37.558.08-Aug-2020 5190.42 5862.14 82.71 3.00 266.66 3375.81
   05:55:37.758.08-Aug-2020 5190.42 5864.53 82.71 3.00 266.86 3375.81
   05:55:37.958.08-Aug-2020 5190.42 5864.53 82.71 3.00 267.06 3375.81
   05:55:38.158.08-Aug-2020 5190.42 5870.26 82.70 3.00 267.26 3375.81
   05:55:38.358.08-Aug-2020 5190.42 5872.94 82.70 3.00 267.46 3375.81
   05:55:38.558.08-Aug-2020 5190.42 5875.57 82.70 3.00 267.66 3375.81
   05:55:38.758.08-Aug-2020 5190.42 5878.54 82.70 3.00 267.86 3375.81
   05:55:38.958.08-Aug-2020 5190.42 5878.54 82.70 3.00 268.06 3375.81
   05:55:39.158.08-Aug-2020 5190.42 5883.71 82.70 3.00 268.26 3375.81
   05:55:39.357.08-Aug-2020 5190.42 5886.81 82.70 3.00 268.46 3375.81
   05:55:39.557.08-Aug-2020 5190.42 5889.59 82.70 3.00 268.66 3375.81
   05:55:39.757.08-Aug-2020 5190.42 5892.19 82.70 3.00 268.86 3375.81
   05:55:39.957.08-Aug-2020 5190.42 5892.19 82.70 3.00 269.06 3375.81
   05:55:40.157.08-Aug-2020 5190.42 5897.61 82.70 3.00 269.26 3375.81
   05:55:40.357.08-Aug-2020 5190.42 5900.40 82.70 3.00 269.46 3375.81
   05:55:40.557.08-Aug-2020 5190.42 5903.15 82.70 3.00 269.66 3375.81
   05:55:40.757.08-Aug-2020 5190.42 5905.87 82.70 3.00 269.86 3375.81
   05:55:40.957.08-Aug-2020 5190.42 5905.87 82.70 3.00 270.06 3375.81
   05:55:41.156.08-Aug-2020 5190.42 5910.92 82.70 3.00 270.26 3375.81
   05:55:41.356.08-Aug-2020 5190.42 5913.23 82.70 3.00 270.46 3375.81
   05:55:41.556.08-Aug-2020 5190.42 5915.03 82.70 3.00 270.66 3375.81
   05:55:41.756.08-Aug-2020 5190.42 5917.69 82.70 3.00 270.86 3375.81
   05:55:41.956.08-Aug-2020 5190.42 5917.69 82.70 3.00 271.06 3375.81
   05:55:42.156.08-Aug-2020 5190.42 5922.65 82.70 3.00 271.26 3375.81
   05:55:42.356.08-Aug-2020 5190.42 5924.80 82.70 3.00 271.46 3375.81
   05:55:42.556.08-Aug-2020 5190.42 5927.69 82.70 3.00 271.66 3375.81
   05:55:42.756.08-Aug-2020 5190.42 5929.66 82.70 3.00 271.86 3375.81
   05:55:42.956.08-Aug-2020 5190.42 5929.66 82.70 3.00 272.06 3375.81
   05:55:43.155.08-Aug-2020 5190.42 5934.57 82.70 3.00 272.26 3375.81
   05:55:43.355.08-Aug-2020 5190.42 5936.69 82.70 3.00 272.46 3375.81
   05:55:43.555.08-Aug-2020 5190.42 5939.74 82.70 3.00 272.66 3375.81
   05:55:43.755.08-Aug-2020 5190.42 5942.22 82.70 3.00 272.86 3375.81
   05:55:43.955.08-Aug-2020 5190.42 5942.22 82.70 3.00 273.06 3375.81
   05:55:44.155.08-Aug-2020 5190.42 5947.27 82.70 3.00 273.26 3375.81
   05:55:44.355.08-Aug-2020 5190.42 5949.31 82.69 3.00 273.46 3375.81
   05:55:44.555.08-Aug-2020 5190.42 5951.62 82.69 3.00 273.66 3375.81
   05:55:44.755.08-Aug-2020 5190.42 5953.62 82.69 3.00 273.86 3375.81
   05:55:44.955.08-Aug-2020 5190.42 5953.62 82.69 3.00 274.06 3375.81
   05:55:45.154.08-Aug-2020 5190.42 5958.17 82.69 3.00 274.26 3375.81
   05:55:45.354.08-Aug-2020 5190.42 5960.82 82.69 3.00 274.46 3375.81
   05:55:45.554.08-Aug-2020 5190.42 5963.33 82.69 3.00 274.66 3375.81
   05:55:45.754.08-Aug-2020 5190.42 5965.61 82.69 3.00 274.86 3375.81
   05:55:45.954.08-Aug-2020 5190.42 5965.61 82.69 3.00 275.06 3375.81
   05:55:46.154.08-Aug-2020 5190.42 5970.25 82.69 3.00 275.26 3375.81
   05:55:46.354.08-Aug-2020 5190.42 5972.36 82.69 3.00 275.46 3375.81
   05:55:46.554.08-Aug-2020 5190.42 5974.70 82.69 3.00 275.66 3375.81
