~Version Information
 VERS.                  2.0:   CWLS log ASCII Standard -VERSION 2.0
 WRAP.                   NO:   One line per depth step
~Well Information Block
#MNEM.UNIT     VALUE/NAME     DESCRIPTION
#---------     -----------    ---------------------------
 STRT.S             09:23:14 08-Aug-20: START TIME 09:23:14 08-Aug-20
 STOP.S             09:28:51 08-Aug-20: STOP TIME  09:28:51 08-Aug-20
 STEP.S                   0.00: STEP TIME
 NULL.                 -999.25: NULL VALUE
 DFWT.                        :  DIST FWL TEXT
 DFST.                        :  DIST FSL TEXT
 DMF .             Drill Floor:  DRILL MEAS FROM
 STIM.      13.47.44 07-Jun-20:  START TIME
 DATE.      13.47.44 27-Jul-20:  END TIME
 SPUD.               07-Jun-20:  SPUD DATE
 NREF.                    Grid:  NORTH REFERENCE
 HPTY.       Minimum Curvature:  HOLE POS TYPE
 DMOD.             Drill Model:  DRILL MOD DESC
 SVYD.                  Survey:  SURVEY DESC
 ILTD.               Lithology:  INTERP LTH DESC
 FTOP.          Formation Tops:  FORM TOPS DESC
 RIG .             West Chirag:  RIG NAME
 PDAT.          Mean Sea Level:  PERMANENT DATUM
 FLD .                     ACG:  FIELD NAME
 SON .        AZ-XX-0906363612:  JOB NUMBER
 CTRY.              Azerbaijan:  COUNTRY NAME
 WELL.           J25 (Slot 35):  WELL NAME
 SRVC.          Turan Drilling:  CONTRACTOR
 COMP.     BP Exploration (Caspian Sea) Ltd:  COMPANY
 UWI .                     N/A:  UNIQUE WELL IDENTIFIER
 API .                     N/A:  API NUMBER
 BASE.              Azerbaijan:  LOGGING EQUIPMENT BASE LOCATION
 REGN.                   EESSA:  REGION
 PROV.                    Baku:  PROVINCE
 STAT.                    Baku:  STATE NAME
 MWDS.                     N/A:  MWD SHOP
 DOE .                     N/A:  DOE NUMBER
 DCON.         Sperry Drilling:  DIRECTNL CONTR
 UNIT.                     N/A:  LOGGING EQUIPMENT ID
 MDS .        Operator Entered:  MAG DATA SOURCE
 JOBN.        AZ-XX-0906363612:  JOB TICKET NUMB
 WTYP.                Deviated:  WELL TYPE
 CNTY.                        :  COUNTY
 LOC .                        :  LOCATION
 LMF .             Drill Floor:  LOG MEASURED FROM
 TVDS.m                  43.00:  TVDSS CORRECTN
 LATI.deg                40.13:  LATITUDE
 LONG.deg                51.22:  LONGITUDE
 WHNS.m                  -7.90:  WELL HEAD N/S
 WHEW.m                  -3.35:  WELL HEAD E/W
 UTMX.m              519005.06:  UTM X
 UTMY.m             4443793.85:  UTM Y
 DFWL.m                   0.00:  DISTANCE FWL
 DFSL.m                   0.00:  DISTANCE FSL
 SDEP.m                   0.00:  START DEPTH
 TDD .m                   0.00:  TOTAL DEPTH (DRILLER)
 VSDR.deg               308.97:  VERT SEC DIRECT
 GVFD.g                   1.00:  GRAVITY FIELD
 MFLD.nT              50350.00:  MAGNETIC FIELD
 MDIP.deg                59.62:  MAGNETIC DIP
 MDEC.deg                 6.44:  MAGNETIC DECL
 GRDC.deg                 0.13:  GRID CORRECTION
 AZTC.deg                 6.32:  AZM TOTAL CORR
 EPD .m                   0.00:  ELEVATION
 EGL .m                   0.00:  GROUND ELEVATION
 WDMS.m                 169.80:  WD ELEV
 APD .m                  43.00:  DEPTH ABOVE PD
 DEP .m                 356.43:  DEPTH
 AGAP.m                  43.00:  AIR GAP
 VSEW.m                  -3.35:  VERT SEC E/W
 VSNS.m                  -7.90:  VERT SEC N/S
 EKB .m                  43.00:  KB ELEVATION
 EDF .m                  43.00:  DF ELEVATION
 TDL .m                 934.00:  TOTAL DEPTH (LOGGER)
 VSC .                       0:  VS TO CLOSURE
 MAGU.                 1852825:  MAGUTM CHECKSUM
~Parameter Information Block
#MNEM.UNIT       Value        Description
#---------     -----------    ---------------------------
 AV  .mps                 0.80:  Ann Velocity 
 AVMX.mps                 1.70:  Max Ann Veloc 
 AZIF.deg               311.41:  Azm, Final 
 BHAT.        Rotary Steerable:  BHA Type 
 BROT.°/30m               0.09:  Build Rotating 
 BS  .in                 12.25:  Bit Size 
 BSZ .in                 12.25:  Bit Size 
 BTPL.psig              800.00:  Bit Press Loss 
 CABU.                      No:  Customer Abuse 
 TCS .hr                 96.00:  Time Ciculation Ended 
 CV  .mps                 2.03:  Crit Velocity 
 CVMX.mps                 2.42:  Max Crit Veloc 
 DD1 .          Taghi Taghiyev:  Direct Drillr 1 
 DD2 .      Tariel Pirmammadov:  Direct Drillr 2 
 DD3 .          Teymur Aghayev:  Direct Drillr 3 
 DDSV.                 iCruise:  DD Service 
 DEFF.%                  98.70:  % Det Eff 
 DLRX.°/30m               1.00:  Dogleg Rot Max 
 DLSO.°/30m               1.80:  Dogleg Oriented 
 DLSX.°/30m               3.16:  Dogleg Str Max 
 DRET.      15.00.00 07-Aug-20:  Drill End Time 
 DRST.      17.00.00 02-Aug-20:  Drill Start Tim 
 DTIM.hr                 45.90:  Time Drilling 
 EDEP.m                5298.01:  End Depth 
 ENG1.       Seymur Iskandarov:  Engineer 1 
 ENG2.         Yevgeniy Ulikov:  Engineer 2 
 ENG3.      Artemiy Matviyanov:  Engineer 3 
 ENG4.         Bahruz Mehdiyev:  Engineer 4 
 ETIM.      05.00.00 10-Aug-20:  End Time 
 FLOI.gpm              1150.00:  Flow In 
 FLON.gpm               900.00:  Flow In Min 
 FLOS.cptm                0.00:  Fluid Loss 
 FLOX.gpm              1200.00:  Flow In Max 
 FTRO.     Connectivity, Formation Presure:  FTWD Run Obj 
 HFLO.                      No:  High Flow 
 HPRE.                     Yes:  High Pressure 
 HTEM.                      No:  High Temp 
 HYDO.m                   1.80:  Hydro Offset 
 IFIN.deg                 9.71:  Inc, Final 
 IMAX.deg                63.81:  Inc Max 
 IMIN.deg                 9.53:  Inc Min 
 IMND.m                5075.52:  Inc Min Depth 
 IMXD.m                4367.08:  Inc Max Depth 
 JARR.                      No:  Jarring 
 LETM.      15.00.00 07-Aug-20:  Log End Time 
 LOST.hr                     2:  Lost Rig Time 
 LSTM.      17.00.00 02-Aug-20:  Log Start Time 
 MDCL.ppm             42500.00:  Mud Chlorides 
 MDES.     Inversion Oil/Synthetic:  Mud Desc 
 DFD .sg                  1.46:  Mud Density 
 MDMN.sg                  1.46:  Dens Mud Min 
 MDMX.sg                  1.46:  Dens Mud Max 
 MOIL.                      56:  Run Mud Oil % 
 MOWR.                   70:30:  Run Mud OWR 
 MSND.                     0.1:  Run Mud Sand % 
 MSOL.                      19:  Run Mud Solids% 
 DFV .spqt               83.00:  Mud Viscosity 
 MWOD.in                  8.00:  MWD Tool OD 
 MWSI.                     Yes:  Serv Intrp, MWD 
 OTIM.hr                196.57:  Time Operating 
 PCON.           Look Like New:  Pad Condition 
 PMAX.psia             7400.00:  Press Op, Max 
 PV  .cP                 36.00:  Mud PV 
 RUN .                    1000:  Run Number 
 ROPA.m/hr               25.00:  ROP Avg 
 ROPN.m/hr               10.00:  ROP Min 
 ROPX.m/hr               32.00:  ROP Max 
 RPMA.rpm               120.00:  RPM Surface Avg 
 RPMN.rpm               100.00:  RPM Surface Min 
 RPMX.rpm               140.00:  RPM Surface Max 
 RRUN.                    L504:  Rig Run Number 
 SAZI.deg               308.25:  Azm, Start 
 SDEP.m                4364.01:  Start Depth 
 SIDD.                      No:  Serv Intrp, DD 
 SINC.deg                63.81:  Inc, Start 
 SPPA.psig             5800.00:  SPP Avg 
 SPPN.psig             4200.00:  SPP Min 
 SPPX.psig             5950.00:  SPP Max 
 STIM.      18.00.00 01-Aug-20:  Start Time 
 SVCS.                 DD, MWD:  Services 
 SVER.                    9.20:  Sperry Version 
 TDAT.m                 934.00:  Tot Depth Attmp 
 TDDF.                      No:  Trip for DD 
 TDLG.m                 934.00:  Tot Depth Loggd 
 TFF .                      No:  Trip for Fail 
 TQAA.f-kp               31.00:  Torque Abs Avg 
 TQAN.f-kp               25.00:  Torque Abs Min 
 TQAX.f-kp               35.00:  Torque Abs Max 
 TRRT.°/30m              -0.75:  Turn Rotating 
 MRT .                  EWR-M5:  Maximum Recorded Temperature 
 TTMX.degC               95.00:  Max Tool Temp 
 VS01.                90516060:  Virtual Str1 SN 
 VS02.                90528488:  Virtual Str2 SN 
 VS03.                90577970:  Virtual Str3 SN 
 VS04.                12385033:  Virtual Str4 SN 
 VS05.                90522069:  Virtual Str5 SN 
 VS06.                13124134:  Virtual Str6 SN 
 WBMN.klb                20.00:  WOB Min 
 WITN.         Alistair Sprott:  Customer Rep 
 WITN.     Ronal van der Kraan:  Customer Rep 2 
 WOBA.klb                25.00:  WOB Avg 
 WOBX.klb                31.00:  WOB Max 
 YP  .lhf2               32.00:  Yield Point 
~Curve Information Block
#MNEM.UNIT                 API CODE     Curve Description
#---------               -----------    ---------------------------
 TIME.HHMMSS            00 000 000 000:  GT Time & Date
 GTDEPTH.m              00 000 000 000:  GT Depth
 GTPQH.psia             00 000 000 000:  GT HR Quartz Pressure
 GTTQ.degC              00 000 000 000:  GT Quartz Temperature
 GTTN.NONE              00 000 000 000:  GT Test Number
 GTET.sec               00 000 000 000:  GT Elapsed Test Time
 GTTVD.m                00 000 000 000:  GT True Vertical Depth
#Other Information
#
#WARRANTY: Halliburton will use its best efforts to furnish customers with 
#accurate information and interpretations that are part of, and incident to, the services 
#provided.  However, Halliburton cannot and does not warrant the accuracy 
#or correctness of such information and interpretations.  Under no circumstances should any 
#such information or interpretation be relied upon as the sole basis for any drilling, 
#completion, production, or financial decision or any procedure involving any risk to the 
#safety of any drilling venture, drilling rig or its crew or any other third party.  The 
#Customer has full responsibility for all drilling, completion and production operation.  
#Halliburton makes no representations or warranties, either expressed or 
#implied, including, but not limited to, the implied warranties of merchantability or fitness 
#for a particular purpose, with respect to the services rendered.  In no event will 
#Halliburton be liable for failure to obtain any particular results or for 
#any damages, including, but not limited to, indirect, special or consequential damages, 
#resulting from the use of any information or interpretation provided by Halliburton.
#
~A           TIME           GTDEPTH  GTPQH  GTTQ  GTTN  GTET   GTTVD  
# ...
   09:26:42.105.08-Aug-2020 5133.51 4104.47 75.05 8.00 207.11 3319.72
   09:26:42.305.08-Aug-2020 5133.51 4104.83 75.05 8.00 207.31 3319.72
   09:26:42.505.08-Aug-2020 5133.51 4104.60 75.05 8.00 207.51 3319.72
   09:26:42.705.08-Aug-2020 5133.51 4104.37 75.05 8.00 207.71 3319.72
   09:26:42.905.08-Aug-2020 5133.51 4103.89 75.05 8.00 207.91 3319.72
   09:26:43.106.08-Aug-2020 5133.51 4104.99 75.05 8.00 208.11 3319.72
   09:26:43.306.08-Aug-2020 5133.51 4104.99 75.05 8.00 208.31 3319.72
   09:26:43.506.08-Aug-2020 5133.51 4104.55 75.05 8.00 208.51 3319.72
   09:26:43.706.08-Aug-2020 5133.51 4104.95 75.05 8.00 208.71 3319.72
   09:26:43.906.08-Aug-2020 5133.51 4106.96 75.05 8.00 208.91 3319.72
   09:26:44.106.08-Aug-2020 5133.51 4123.63 75.05 8.00 209.11 3319.72
   09:26:44.306.08-Aug-2020 5133.51 4123.63 75.05 8.00 209.31 3319.72
   09:26:44.506.08-Aug-2020 5133.51 4124.20 75.05 8.00 209.51 3319.72
   09:26:44.706.08-Aug-2020 5133.51 4124.37 75.05 8.00 209.71 3319.72
   09:26:44.906.08-Aug-2020 5133.51 4124.41 75.05 8.00 209.91 3319.72
   09:26:45.107.08-Aug-2020 5133.51 4124.36 75.05 8.00 210.11 3319.72
   09:26:45.307.08-Aug-2020 5133.51 4124.36 75.05 8.00 210.31 3319.72
   09:26:45.507.08-Aug-2020 5133.51 4124.49 75.05 8.00 210.51 3319.72
   09:26:45.707.08-Aug-2020 5133.51 4124.40 75.05 8.00 210.71 3319.72
   09:26:45.907.08-Aug-2020 5133.51 4124.40 75.05 8.00 210.91 3319.72
   09:26:46.107.08-Aug-2020 5133.51 4124.33 75.05 8.00 211.11 3319.72
   09:26:46.307.08-Aug-2020 5133.51 4124.33 75.05 8.00 211.31 3319.72
   09:26:46.507.08-Aug-2020 5133.51 4124.52 75.05 8.00 211.51 3319.72
   09:26:46.707.08-Aug-2020 5133.51 4124.44 75.05 8.00 211.71 3319.72
   09:26:46.908.08-Aug-2020 5133.51 4124.56 75.05 8.00 211.91 3319.72
   09:26:47.108.08-Aug-2020 5133.51 4124.45 75.05 8.00 212.11 3319.72
   09:26:47.308.08-Aug-2020 5133.51 4124.45 75.05 8.00 212.31 3319.72
   09:26:47.508.08-Aug-2020 5133.51 4124.50 75.05 8.00 212.51 3319.72
   09:26:47.708.08-Aug-2020 5133.51 4124.54 75.05 8.00 212.71 3319.72
   09:26:47.908.08-Aug-2020 5133.51 4124.53 75.05 8.00 212.91 3319.72
   09:26:48.108.08-Aug-2020 5133.51 4124.53 75.05 8.00 213.11 3319.72
   09:26:48.308.08-Aug-2020 5133.51 4124.53 75.05 8.00 213.31 3319.72
   09:26:48.508.08-Aug-2020 5133.51 4124.55 75.05 8.00 213.51 3319.72
   09:26:48.708.08-Aug-2020 5133.51 4124.56 75.05 8.00 213.71 3319.72
   09:26:48.909.08-Aug-2020 5133.51 4124.53 75.05 8.00 213.91 3319.72
   09:26:49.109.08-Aug-2020 5133.51 4124.62 75.05 8.00 214.11 3319.72
   09:26:49.309.08-Aug-2020 5133.51 4124.62 75.05 8.00 214.31 3319.72
   09:26:49.509.08-Aug-2020 5133.51 4124.53 75.05 8.00 214.51 3319.72
   09:26:49.709.08-Aug-2020 5133.51 4124.55 75.05 8.00 214.71 3319.72
   09:26:49.909.08-Aug-2020 5133.51 4124.54 75.05 8.00 214.91 3319.72
   09:26:50.109.08-Aug-2020 5133.51 4124.57 75.05 8.00 215.11 3319.72
   09:26:50.309.08-Aug-2020 5133.51 4124.57 75.05 8.00 215.31 3319.72
   09:26:50.509.08-Aug-2020 5133.51 4124.52 75.05 8.00 215.51 3319.72
   09:26:50.710.08-Aug-2020 5133.51 4124.57 75.05 8.00 215.71 3319.72
   09:26:50.910.08-Aug-2020 5133.51 4124.57 75.05 8.00 215.91 3319.72
   09:26:51.110.08-Aug-2020 5133.51 4124.57 75.05 8.00 216.11 3319.72
   09:26:51.310.08-Aug-2020 5133.51 4124.57 75.05 8.00 216.31 3319.72
   09:26:51.510.08-Aug-2020 5133.51 4124.59 75.05 8.00 216.51 3319.72
   09:26:51.710.08-Aug-2020 5133.51 4124.57 75.05 8.00 216.71 3319.72
   09:26:51.910.08-Aug-2020 5133.51 4124.57 75.05 8.00 216.91 3319.72
   09:26:52.110.08-Aug-2020 5133.51 4124.60 75.05 8.00 217.11 3319.72
   09:26:52.310.08-Aug-2020 5133.51 4124.60 75.05 8.00 217.31 3319.72
   09:26:52.511.08-Aug-2020 5133.51 4124.42 75.05 8.00 217.52 3319.72
   09:26:52.711.08-Aug-2020 5133.51 4124.53 75.05 8.00 217.72 3319.72
   09:26:52.911.08-Aug-2020 5133.51 4124.67 75.05 8.00 217.92 3319.72
   09:26:53.111.08-Aug-2020 5133.51 4124.50 75.05 8.00 218.12 3319.72
   09:26:53.311.08-Aug-2020 5133.51 4124.50 75.05 8.00 218.32 3319.72
   09:26:53.511.08-Aug-2020 5133.51 4124.65 75.05 8.00 218.52 3319.72
   09:26:53.711.08-Aug-2020 5133.51 4124.57 75.05 8.00 218.72 3319.72
   09:26:53.911.08-Aug-2020 5133.51 4124.34 75.05 8.00 218.92 3319.72
   09:26:54.111.08-Aug-2020 5133.51 4124.77 75.05 8.00 219.12 3319.72
   09:26:54.311.08-Aug-2020 5133.51 4124.45 75.05 8.00 219.32 3319.72
   09:26:54.512.08-Aug-2020 5133.51 4124.49 75.05 8.00 219.52 3319.72
   09:26:54.712.08-Aug-2020 5133.51 4124.68 75.05 8.00 219.72 3319.72
   09:26:54.912.08-Aug-2020 5133.51 4124.49 75.05 8.00 219.92 3319.72
   09:26:55.112.08-Aug-2020 5133.51 4124.69 75.05 8.00 220.12 3319.72
   09:26:55.312.08-Aug-2020 5133.51 4124.69 75.05 8.00 220.32 3319.72
   09:26:55.512.08-Aug-2020 5133.51 4124.74 75.05 8.00 220.52 3319.72
   09:26:55.712.08-Aug-2020 5133.51 4124.51 75.05 8.00 220.72 3319.72
   09:26:55.912.08-Aug-2020 5133.51 4124.55 75.05 8.00 220.92 3319.72
   09:26:56.112.08-Aug-2020 5133.51 4124.59 75.05 8.00 221.12 3319.72
   09:26:56.313.08-Aug-2020 5133.51 4124.59 75.05 8.00 221.32 3319.72
   09:26:56.513.08-Aug-2020 5133.51 4124.56 75.05 8.00 221.52 3319.72
   09:26:56.713.08-Aug-2020 5133.51 4124.63 75.05 8.00 221.72 3319.72
   09:26:56.913.08-Aug-2020 5133.51 4124.56 75.05 8.00 221.92 3319.72
   09:26:57.113.08-Aug-2020 5133.51 4124.63 75.05 8.00 222.12 3319.72
   09:26:57.313.08-Aug-2020 5133.51 4124.63 75.05 8.00 222.32 3319.72
   09:26:57.513.08-Aug-2020 5133.51 4124.62 75.05 8.00 222.52 3319.72
   09:26:57.713.08-Aug-2020 5133.51 4124.64 75.05 8.00 222.72 3319.72
   09:26:57.913.08-Aug-2020 5133.51 4124.58 75.05 8.00 222.92 3319.72
   09:26:58.113.08-Aug-2020 5133.51 4124.61 75.05 8.00 223.12 3319.72
   09:26:58.314.08-Aug-2020 5133.51 4124.62 75.05 8.00 223.32 3319.72
   09:26:58.514.08-Aug-2020 5133.51 4124.64 75.05 8.00 223.52 3319.72
   09:26:58.714.08-Aug-2020 5133.51 4124.58 75.05 8.00 223.72 3319.72
   09:26:58.914.08-Aug-2020 5133.51 4124.68 75.05 8.00 223.92 3319.72
   09:26:59.114.08-Aug-2020 5133.51 4124.50 75.05 8.00 224.12 3319.72
   09:26:59.314.08-Aug-2020 5133.51 4124.50 75.05 8.00 224.32 3319.72
   09:26:59.514.08-Aug-2020 5133.51 4124.63 75.05 8.00 224.52 3319.72
   09:26:59.714.08-Aug-2020 5133.51 4124.62 75.05 8.00 224.72 3319.72
   09:26:59.914.08-Aug-2020 5133.51 4124.57 75.05 8.00 224.92 3319.72
   09:27:00.115.08-Aug-2020 5133.51 4124.67 75.05 8.00 225.12 3319.72
   09:27:00.315.08-Aug-2020 5133.51 4124.67 75.05 8.00 225.32 3319.72
   09:27:00.515.08-Aug-2020 5133.51 4124.66 75.05 8.00 225.52 3319.72
   09:27:00.715.08-Aug-2020 5133.51 4124.59 75.05 8.00 225.72 3319.72
   09:27:00.915.08-Aug-2020 5133.51 4124.62 75.05 8.00 225.92 3319.72
   09:27:01.115.08-Aug-2020 5133.51 4124.65 75.05 8.00 226.12 3319.72
   09:27:01.315.08-Aug-2020 5133.51 4124.65 75.05 8.00 226.32 3319.72
   09:27:01.515.08-Aug-2020 5133.51 4124.60 75.05 8.00 226.52 3319.72
   09:27:01.715.08-Aug-2020 5133.51 4124.61 75.05 8.00 226.72 3319.72
   09:27:01.915.08-Aug-2020 5133.51 4124.65 75.05 8.00 226.92 3319.72
   09:27:02.116.08-Aug-2020 5133.51 4124.68 75.05 8.00 227.12 3319.72
   09:27:02.316.08-Aug-2020 5133.51 4124.57 75.05 8.00 227.32 3319.72
   09:27:02.516.08-Aug-2020 5133.51 4124.52 75.05 8.00 227.52 3319.72
   09:27:02.716.08-Aug-2020 5133.51 4124.69 75.05 8.00 227.72 3319.72
   09:27:02.916.08-Aug-2020 5133.51 4124.56 75.05 8.00 227.92 3319.72
   09:27:03.116.08-Aug-2020 5133.51 4124.55 75.05 8.00 228.12 3319.72
   09:27:03.316.08-Aug-2020 5133.51 4124.55 75.05 8.00 228.32 3319.72
   09:27:03.516.08-Aug-2020 5133.51 4124.54 75.05 8.00 228.52 3319.72
   09:27:03.716.08-Aug-2020 5133.51 4124.50 75.05 8.00 228.72 3319.72
   09:27:03.917.08-Aug-2020 5133.51 4124.87 75.04 8.00 228.92 3319.72
   09:27:04.117.08-Aug-2020 5133.51 4124.39 75.05 8.00 229.12 3319.72
   09:27:04.317.08-Aug-2020 5133.51 4124.39 75.05 8.00 229.32 3319.72
   09:27:04.517.08-Aug-2020 5133.51 4124.60 75.05 8.00 229.52 3319.72
   09:27:04.717.08-Aug-2020 5133.51 4124.49 75.04 8.00 229.72 3319.72
   09:27:04.917.08-Aug-2020 5133.51 4124.66 75.04 8.00 229.92 3319.72
