~Version Information
 VERS.                  2.0:   CWLS log ASCII Standard -VERSION 2.0
 WRAP.                   NO:   One line per depth step
~Well Information Block
#MNEM.UNIT     VALUE/NAME     DESCRIPTION
#---------     -----------    ---------------------------
 STRT.S             09:23:14 08-Aug-20: START TIME 09:23:14 08-Aug-20
 STOP.S             09:28:51 08-Aug-20: STOP TIME  09:28:51 08-Aug-20
 STEP.S                   0.00: STEP TIME
 NULL.                 -999.25: NULL VALUE
 DFWT.                        :  DIST FWL TEXT
 DFST.                        :  DIST FSL TEXT
 DMF .             Drill Floor:  DRILL MEAS FROM
 STIM.      13.47.44 07-Jun-20:  START TIME
 DATE.      13.47.44 27-Jul-20:  END TIME
 SPUD.               07-Jun-20:  SPUD DATE
 NREF.                    Grid:  NORTH REFERENCE
 HPTY.       Minimum Curvature:  HOLE POS TYPE
 DMOD.             Drill Model:  DRILL MOD DESC
 SVYD.                  Survey:  SURVEY DESC
 ILTD.               Lithology:  INTERP LTH DESC
 FTOP.          Formation Tops:  FORM TOPS DESC
 RIG .             West Chirag:  RIG NAME
 PDAT.          Mean Sea Level:  PERMANENT DATUM
 FLD .                     ACG:  FIELD NAME
 SON .        AZ-XX-0906363612:  JOB NUMBER
 CTRY.              Azerbaijan:  COUNTRY NAME
 WELL.           J25 (Slot 35):  WELL NAME
 SRVC.          Turan Drilling:  CONTRACTOR
 COMP.     BP Exploration (Caspian Sea) Ltd:  COMPANY
 UWI .                     N/A:  UNIQUE WELL IDENTIFIER
 API .                     N/A:  API NUMBER
 BASE.              Azerbaijan:  LOGGING EQUIPMENT BASE LOCATION
 REGN.                   EESSA:  REGION
 PROV.                    Baku:  PROVINCE
 STAT.                    Baku:  STATE NAME
 MWDS.                     N/A:  MWD SHOP
 DOE .                     N/A:  DOE NUMBER
 DCON.         Sperry Drilling:  DIRECTNL CONTR
 UNIT.                     N/A:  LOGGING EQUIPMENT ID
 MDS .        Operator Entered:  MAG DATA SOURCE
 JOBN.        AZ-XX-0906363612:  JOB TICKET NUMB
 WTYP.                Deviated:  WELL TYPE
 CNTY.                        :  COUNTY
 LOC .                        :  LOCATION
 LMF .             Drill Floor:  LOG MEASURED FROM
 TVDS.m                  43.00:  TVDSS CORRECTN
 LATI.deg                40.13:  LATITUDE
 LONG.deg                51.22:  LONGITUDE
 WHNS.m                  -7.90:  WELL HEAD N/S
 WHEW.m                  -3.35:  WELL HEAD E/W
 UTMX.m              519005.06:  UTM X
 UTMY.m             4443793.85:  UTM Y
 DFWL.m                   0.00:  DISTANCE FWL
 DFSL.m                   0.00:  DISTANCE FSL
 SDEP.m                   0.00:  START DEPTH
 TDD .m                   0.00:  TOTAL DEPTH (DRILLER)
 VSDR.deg               308.97:  VERT SEC DIRECT
 GVFD.g                   1.00:  GRAVITY FIELD
 MFLD.nT              50350.00:  MAGNETIC FIELD
 MDIP.deg                59.62:  MAGNETIC DIP
 MDEC.deg                 6.44:  MAGNETIC DECL
 GRDC.deg                 0.13:  GRID CORRECTION
 AZTC.deg                 6.32:  AZM TOTAL CORR
 EPD .m                   0.00:  ELEVATION
 EGL .m                   0.00:  GROUND ELEVATION
 WDMS.m                 169.80:  WD ELEV
 APD .m                  43.00:  DEPTH ABOVE PD
 DEP .m                 356.43:  DEPTH
 AGAP.m                  43.00:  AIR GAP
 VSEW.m                  -3.35:  VERT SEC E/W
 VSNS.m                  -7.90:  VERT SEC N/S
 EKB .m                  43.00:  KB ELEVATION
 EDF .m                  43.00:  DF ELEVATION
 TDL .m                 934.00:  TOTAL DEPTH (LOGGER)
 VSC .                       0:  VS TO CLOSURE
 MAGU.                 1852825:  MAGUTM CHECKSUM
~Parameter Information Block
#MNEM.UNIT       Value        Description
#---------     -----------    ---------------------------
 AV  .mps                 0.80:  Ann Velocity 
 AVMX.mps                 1.70:  Max Ann Veloc 
 AZIF.deg               311.41:  Azm, Final 
 BHAT.        Rotary Steerable:  BHA Type 
 BROT.°/30m               0.09:  Build Rotating 
 BS  .in                 12.25:  Bit Size 
 BSZ .in                 12.25:  Bit Size 
 BTPL.psig              800.00:  Bit Press Loss 
 CABU.                      No:  Customer Abuse 
 TCS .hr                 96.00:  Time Ciculation Ended 
 CV  .mps                 2.03:  Crit Velocity 
 CVMX.mps                 2.42:  Max Crit Veloc 
 DD1 .          Taghi Taghiyev:  Direct Drillr 1 
 DD2 .      Tariel Pirmammadov:  Direct Drillr 2 
 DD3 .          Teymur Aghayev:  Direct Drillr 3 
 DDSV.                 iCruise:  DD Service 
 DEFF.%                  98.70:  % Det Eff 
 DLRX.°/30m               1.00:  Dogleg Rot Max 
 DLSO.°/30m               1.80:  Dogleg Oriented 
 DLSX.°/30m               3.16:  Dogleg Str Max 
 DRET.      15.00.00 07-Aug-20:  Drill End Time 
 DRST.      17.00.00 02-Aug-20:  Drill Start Tim 
 DTIM.hr                 45.90:  Time Drilling 
 EDEP.m                5298.01:  End Depth 
 ENG1.       Seymur Iskandarov:  Engineer 1 
 ENG2.         Yevgeniy Ulikov:  Engineer 2 
 ENG3.      Artemiy Matviyanov:  Engineer 3 
 ENG4.         Bahruz Mehdiyev:  Engineer 4 
 ETIM.      05.00.00 10-Aug-20:  End Time 
 FLOI.gpm              1150.00:  Flow In 
 FLON.gpm               900.00:  Flow In Min 
 FLOS.cptm                0.00:  Fluid Loss 
 FLOX.gpm              1200.00:  Flow In Max 
 FTRO.     Connectivity, Formation Presure:  FTWD Run Obj 
 HFLO.                      No:  High Flow 
 HPRE.                     Yes:  High Pressure 
 HTEM.                      No:  High Temp 
 HYDO.m                   1.80:  Hydro Offset 
 IFIN.deg                 9.71:  Inc, Final 
 IMAX.deg                63.81:  Inc Max 
 IMIN.deg                 9.53:  Inc Min 
 IMND.m                5075.52:  Inc Min Depth 
 IMXD.m                4367.08:  Inc Max Depth 
 JARR.                      No:  Jarring 
 LETM.      15.00.00 07-Aug-20:  Log End Time 
 LOST.hr                     2:  Lost Rig Time 
 LSTM.      17.00.00 02-Aug-20:  Log Start Time 
 MDCL.ppm             42500.00:  Mud Chlorides 
 MDES.     Inversion Oil/Synthetic:  Mud Desc 
 DFD .sg                  1.46:  Mud Density 
 MDMN.sg                  1.46:  Dens Mud Min 
 MDMX.sg                  1.46:  Dens Mud Max 
 MOIL.                      56:  Run Mud Oil % 
 MOWR.                   70:30:  Run Mud OWR 
 MSND.                     0.1:  Run Mud Sand % 
 MSOL.                      19:  Run Mud Solids% 
 DFV .spqt               83.00:  Mud Viscosity 
 MWOD.in                  8.00:  MWD Tool OD 
 MWSI.                     Yes:  Serv Intrp, MWD 
 OTIM.hr                196.57:  Time Operating 
 PCON.           Look Like New:  Pad Condition 
 PMAX.psia             7400.00:  Press Op, Max 
 PV  .cP                 36.00:  Mud PV 
 RUN .                    1000:  Run Number 
 ROPA.m/hr               25.00:  ROP Avg 
 ROPN.m/hr               10.00:  ROP Min 
 ROPX.m/hr               32.00:  ROP Max 
 RPMA.rpm               120.00:  RPM Surface Avg 
 RPMN.rpm               100.00:  RPM Surface Min 
 RPMX.rpm               140.00:  RPM Surface Max 
 RRUN.                    L504:  Rig Run Number 
 SAZI.deg               308.25:  Azm, Start 
 SDEP.m                4364.01:  Start Depth 
 SIDD.                      No:  Serv Intrp, DD 
 SINC.deg                63.81:  Inc, Start 
 SPPA.psig             5800.00:  SPP Avg 
 SPPN.psig             4200.00:  SPP Min 
 SPPX.psig             5950.00:  SPP Max 
 STIM.      18.00.00 01-Aug-20:  Start Time 
 SVCS.                 DD, MWD:  Services 
 SVER.                    9.20:  Sperry Version 
 TDAT.m                 934.00:  Tot Depth Attmp 
 TDDF.                      No:  Trip for DD 
 TDLG.m                 934.00:  Tot Depth Loggd 
 TFF .                      No:  Trip for Fail 
 TQAA.f-kp               31.00:  Torque Abs Avg 
 TQAN.f-kp               25.00:  Torque Abs Min 
 TQAX.f-kp               35.00:  Torque Abs Max 
 TRRT.°/30m              -0.75:  Turn Rotating 
 MRT .                  EWR-M5:  Maximum Recorded Temperature 
 TTMX.degC               95.00:  Max Tool Temp 
 VS01.                90516060:  Virtual Str1 SN 
 VS02.                90528488:  Virtual Str2 SN 
 VS03.                90577970:  Virtual Str3 SN 
 VS04.                12385033:  Virtual Str4 SN 
 VS05.                90522069:  Virtual Str5 SN 
 VS06.                13124134:  Virtual Str6 SN 
 WBMN.klb                20.00:  WOB Min 
 WITN.         Alistair Sprott:  Customer Rep 
 WITN.     Ronal van der Kraan:  Customer Rep 2 
 WOBA.klb                25.00:  WOB Avg 
 WOBX.klb                31.00:  WOB Max 
 YP  .lhf2               32.00:  Yield Point 
~Curve Information Block
#MNEM.UNIT                 API CODE     Curve Description
#---------               -----------    ---------------------------
 TIME.HHMMSS            00 000 000 000:  GT Time & Date
 GTDEPTH.m              00 000 000 000:  GT Depth
 GTPQH.psia             00 000 000 000:  GT HR Quartz Pressure
 GTTQ.degC              00 000 000 000:  GT Quartz Temperature
 GTTN.NONE              00 000 000 000:  GT Test Number
 GTET.sec               00 000 000 000:  GT Elapsed Test Time
 GTTVD.m                00 000 000 000:  GT True Vertical Depth
#Other Information
#
#WARRANTY: Halliburton will use its best efforts to furnish customers with 
#accurate information and interpretations that are part of, and incident to, the services 
#provided.  However, Halliburton cannot and does not warrant the accuracy 
#or correctness of such information and interpretations.  Under no circumstances should any 
#such information or interpretation be relied upon as the sole basis for any drilling, 
#completion, production, or financial decision or any procedure involving any risk to the 
#safety of any drilling venture, drilling rig or its crew or any other third party.  The 
#Customer has full responsibility for all drilling, completion and production operation.  
#Halliburton makes no representations or warranties, either expressed or 
#implied, including, but not limited to, the implied warranties of merchantability or fitness 
#for a particular purpose, with respect to the services rendered.  In no event will 
#Halliburton be liable for failure to obtain any particular results or for 
#any damages, including, but not limited to, indirect, special or consequential damages, 
#resulting from the use of any information or interpretation provided by Halliburton.
#
~A           TIME           GTDEPTH  GTPQH  GTTQ  GTTN  GTET   GTTVD  
# ...
   09:23:38.008.08-Aug-2020 5133.51 7134.44 75.19 8.00  23.01 3319.72
   09:23:38.208.08-Aug-2020 5133.51 7136.03 75.19 8.00  23.21 3319.72
   09:23:38.408.08-Aug-2020 5133.51 7134.37 75.19 8.00  23.41 3319.72
   09:23:38.608.08-Aug-2020 5133.51 7132.59 75.19 8.00  23.61 3319.72
   09:23:38.808.08-Aug-2020 5133.51 7134.95 75.19 8.00  23.81 3319.72
   09:23:39.008.08-Aug-2020 5133.51 7135.35 75.19 8.00  24.01 3319.72
   09:23:39.208.08-Aug-2020 5133.51 7135.13 75.19 8.00  24.21 3319.72
   09:23:39.408.08-Aug-2020 5133.51 7132.82 75.19 8.00  24.41 3319.72
   09:23:39.608.08-Aug-2020 5133.51 7132.39 75.19 8.00  24.61 3319.72
   09:23:39.809.08-Aug-2020 5133.51 7136.48 75.19 8.00  24.81 3319.72
   09:23:40.009.08-Aug-2020 5133.51 7131.27 75.19 8.00  25.01 3319.72
   09:23:40.209.08-Aug-2020 5133.51 7131.27 75.19 8.00  25.21 3319.72
   09:23:40.409.08-Aug-2020 5133.51 7132.01 75.19 8.00  25.41 3319.72
   09:23:40.609.08-Aug-2020 5133.51 7131.01 75.19 8.00  25.61 3319.72
   09:23:40.809.08-Aug-2020 5133.51 7131.30 75.19 8.00  25.81 3319.72
   09:23:41.009.08-Aug-2020 5133.51 7131.69 75.19 8.00  26.01 3319.72
   09:23:41.209.08-Aug-2020 5133.51 7131.69 75.19 8.00  26.21 3319.72
   09:23:41.409.08-Aug-2020 5133.51 7131.22 75.19 8.00  26.41 3319.72
   09:23:41.610.08-Aug-2020 5133.51 7131.88 75.19 8.00  26.61 3319.72
   09:23:41.810.08-Aug-2020 5133.51 7131.00 75.19 8.00  26.81 3319.72
   09:23:42.010.08-Aug-2020 5133.51 7132.80 75.19 8.00  27.01 3319.72
   09:23:42.210.08-Aug-2020 5133.51 7132.48 75.19 8.00  27.21 3319.72
   09:23:42.410.08-Aug-2020 5133.51 7132.75 75.19 8.00  27.41 3319.72
   09:23:42.610.08-Aug-2020 5133.51 7132.85 75.19 8.00  27.61 3319.72
   09:23:42.810.08-Aug-2020 5133.51 7132.99 75.19 8.00  27.81 3319.72
   09:23:43.010.08-Aug-2020 5133.51 7133.08 75.19 8.00  28.01 3319.72
   09:23:43.210.08-Aug-2020 5133.51 7133.08 75.19 8.00  28.21 3319.72
   09:23:43.410.08-Aug-2020 5133.51 7138.40 75.19 8.00  28.42 3319.72
   09:23:43.611.08-Aug-2020 5133.51 7131.91 75.19 8.00  28.62 3319.72
   09:23:43.811.08-Aug-2020 5133.51 7135.32 75.19 8.00  28.82 3319.72
   09:23:44.011.08-Aug-2020 5133.51 7133.69 75.19 8.00  29.02 3319.72
   09:23:44.211.08-Aug-2020 5133.51 7133.69 75.19 8.00  29.22 3319.72
   09:23:44.411.08-Aug-2020 5133.51 7133.92 75.19 8.00  29.42 3319.72
   09:23:44.611.08-Aug-2020 5133.51 7133.51 75.19 8.00  29.62 3319.72
   09:23:44.811.08-Aug-2020 5133.51 7134.14 75.19 8.00  29.82 3319.72
   09:23:45.011.08-Aug-2020 5133.51 7133.42 75.19 8.00  30.02 3319.72
   09:23:45.211.08-Aug-2020 5133.51 7133.42 75.19 8.00  30.22 3319.72
   09:23:45.412.08-Aug-2020 5133.51 7133.96 75.19 8.00  30.42 3319.72
   09:23:45.612.08-Aug-2020 5133.51 7135.37 75.19 8.00  30.62 3319.72
   09:23:45.812.08-Aug-2020 5133.51 7135.29 75.19 8.00  30.82 3319.72
   09:23:46.012.08-Aug-2020 5133.51 7135.24 75.19 8.00  31.02 3319.72
   09:23:46.212.08-Aug-2020 5133.51 7135.24 75.18 8.00  31.22 3319.72
   09:23:46.412.08-Aug-2020 5133.51 7135.13 75.18 8.00  31.42 3319.72
   09:23:46.612.08-Aug-2020 5133.51 7139.90 75.18 8.00  31.62 3319.72
   09:23:46.812.08-Aug-2020 5133.51 7133.38 75.18 8.00  31.82 3319.72
   09:23:47.012.08-Aug-2020 5133.51 7137.06 75.18 8.00  32.02 3319.72
   09:23:47.212.08-Aug-2020 5133.51 7137.06 75.18 8.00  32.22 3319.72
   09:23:47.413.08-Aug-2020 5133.51 7132.68 75.18 8.00  32.42 3319.72
   09:23:47.613.08-Aug-2020 5133.51 7136.69 75.18 8.00  32.62 3319.72
   09:23:47.813.08-Aug-2020 5133.51 7134.75 75.18 8.00  32.82 3319.72
   09:23:48.013.08-Aug-2020 5133.51 7134.53 75.18 8.00  33.02 3319.72
   09:23:48.213.08-Aug-2020 5133.51 7134.53 75.18 8.00  33.22 3319.72
   09:23:48.413.08-Aug-2020 5133.51 7140.23 75.18 8.00  33.42 3319.72
   09:23:48.613.08-Aug-2020 5133.51 7132.40 75.18 8.00  33.62 3319.72
   09:23:48.813.08-Aug-2020 5133.51 7137.57 75.18 8.00  33.82 3319.72
   09:23:49.013.08-Aug-2020 5133.51 7136.49 75.18 8.00  34.02 3319.72
   09:23:49.214.08-Aug-2020 5133.51 7136.49 75.18 8.00  34.22 3319.72
   09:23:49.414.08-Aug-2020 5133.51 7136.17 75.18 8.00  34.42 3319.72
   09:23:49.614.08-Aug-2020 5133.51 7136.30 75.18 8.00  34.62 3319.72
   09:23:49.814.08-Aug-2020 5133.51 7137.30 75.18 8.00  34.82 3319.72
   09:23:50.014.08-Aug-2020 5133.51 7135.89 75.18 8.00  35.02 3319.72
   09:23:50.214.08-Aug-2020 5133.51 7135.89 75.18 8.00  35.22 3319.72
   09:23:50.414.08-Aug-2020 5133.51 7139.06 75.18 8.00  35.42 3319.72
   09:23:50.614.08-Aug-2020 5133.51 7133.49 75.18 8.00  35.62 3319.72
   09:23:50.814.08-Aug-2020 5133.51 7137.27 75.18 8.00  35.82 3319.72
   09:23:51.014.08-Aug-2020 5133.51 7135.27 75.18 8.00  36.02 3319.72
   09:23:51.215.08-Aug-2020 5133.51 7135.27 75.18 8.00  36.22 3319.72
   09:23:51.415.08-Aug-2020 5133.51 7135.20 75.18 8.00  36.42 3319.72
   09:23:51.615.08-Aug-2020 5133.51 7134.90 75.18 8.00  36.62 3319.72
   09:23:51.815.08-Aug-2020 5133.51 7136.68 75.18 8.00  36.82 3319.72
   09:23:52.015.08-Aug-2020 5133.51 7135.51 75.18 8.00  37.02 3319.72
   09:23:52.215.08-Aug-2020 5133.51 7135.51 75.18 8.00  37.22 3319.72
   09:23:52.415.08-Aug-2020 5133.51 7136.19 75.18 8.00  37.42 3319.72
   09:23:52.615.08-Aug-2020 5133.51 7137.52 75.18 8.00  37.62 3319.72
   09:23:52.815.08-Aug-2020 5133.51 7137.04 75.18 8.00  37.82 3319.72
   09:23:53.016.08-Aug-2020 5133.51 7137.12 75.18 8.00  38.02 3319.72
   09:23:53.216.08-Aug-2020 5133.51 7137.12 75.18 8.00  38.22 3319.72
   09:23:53.416.08-Aug-2020 5133.51 7136.84 75.18 8.00  38.42 3319.72
   09:23:53.616.08-Aug-2020 5133.51 7137.06 75.18 8.00  38.62 3319.72
   09:23:53.816.08-Aug-2020 5133.51 7141.61 75.18 8.00  38.82 3319.72
   09:23:54.016.08-Aug-2020 5133.51 7135.13 75.18 8.00  39.02 3319.72
   09:23:54.216.08-Aug-2020 5133.51 7138.33 75.18 8.00  39.22 3319.72
   09:23:54.416.08-Aug-2020 5133.51 7136.67 75.18 8.00  39.42 3319.72
   09:23:54.616.08-Aug-2020 5133.51 7136.17 75.18 8.00  39.62 3319.72
   09:23:54.817.08-Aug-2020 5133.51 7136.43 75.18 8.00  39.82 3319.72
   09:23:55.017.08-Aug-2020 5133.51 7135.93 75.18 8.00  40.02 3319.72
   09:23:55.217.08-Aug-2020 5133.51 7135.93 75.18 8.00  40.22 3319.72
   09:23:55.417.08-Aug-2020 5133.51 7135.25 75.18 8.00  40.42 3319.72
   09:23:55.617.08-Aug-2020 5133.51 7137.31 75.18 8.00  40.62 3319.72
   09:23:55.817.08-Aug-2020 5133.51 7136.00 75.18 8.00  40.82 3319.72
   09:23:56.017.08-Aug-2020 5133.51 7136.95 75.18 8.00  41.02 3319.72
   09:23:56.217.08-Aug-2020 5133.51 7136.95 75.18 8.00  41.22 3319.72
   09:23:56.417.08-Aug-2020 5133.51 7136.71 75.18 8.00  41.42 3319.72
   09:23:56.617.08-Aug-2020 5133.51 7136.43 75.18 8.00  41.62 3319.72
   09:23:56.818.08-Aug-2020 5133.51 7136.21 75.18 8.00  41.82 3319.72
   09:23:57.018.08-Aug-2020 5133.51 7137.41 75.18 8.00  42.02 3319.72
   09:23:57.218.08-Aug-2020 5133.51 7137.41 75.18 8.00  42.22 3319.72
   09:23:57.418.08-Aug-2020 5133.51 7137.96 75.18 8.00  42.42 3319.72
   09:23:57.618.08-Aug-2020 5133.51 7135.35 75.17 8.00  42.62 3319.72
   09:23:57.818.08-Aug-2020 5133.51 7134.98 75.17 8.00  42.82 3319.72
   09:23:58.018.08-Aug-2020 5133.51 7134.38 75.17 8.00  43.02 3319.72
   09:23:58.218.08-Aug-2020 5133.51 7139.53 75.17 8.00  43.22 3319.72
   09:23:58.418.08-Aug-2020 5133.51 7132.67 75.17 8.00  43.42 3319.72
   09:23:58.619.08-Aug-2020 5133.51 7136.55 75.17 8.00  43.62 3319.72
   09:23:58.819.08-Aug-2020 5133.51 7134.78 75.17 8.00  43.82 3319.72
   09:23:59.019.08-Aug-2020 5133.51 7134.05 75.17 8.00  44.02 3319.72
   09:23:59.219.08-Aug-2020 5133.51 7134.05 75.17 8.00  44.22 3319.72
   09:23:59.419.08-Aug-2020 5133.51 7132.94 75.17 8.00  44.42 3319.72
   09:23:59.619.08-Aug-2020 5133.51 7137.18 75.17 8.00  44.62 3319.72
   09:23:59.819.08-Aug-2020 5133.51 7134.12 75.17 8.00  44.82 3319.72
   09:24:00.019.08-Aug-2020 5133.51 7135.42 75.17 8.00  45.02 3319.72
   09:24:00.219.08-Aug-2020 5133.51 7135.42 75.17 8.00  45.22 3319.72
   09:24:00.419.08-Aug-2020 5133.51 7133.38 75.17 8.00  45.42 3319.72
   09:24:00.620.08-Aug-2020 5133.51 7137.06 75.17 8.00  45.62 3319.72
   09:24:00.820.08-Aug-2020 5133.51 7135.84 75.17 8.00  45.82 3319.72
