~Version Information
 VERS.                  2.0:   CWLS log ASCII Standard -VERSION 2.0
 WRAP.                   NO:   One line per depth step
~Well Information Block
#MNEM.UNIT     VALUE/NAME     DESCRIPTION
#---------     -----------    ---------------------------
 STRT.S             06:39:47 08-Aug-20: START TIME 06:39:47 08-Aug-20
 STOP.S             06:48:06 08-Aug-20: STOP TIME  06:48:06 08-Aug-20
 STEP.S                   0.00: STEP TIME
 NULL.                 -999.25: NULL VALUE
 DFWT.                        :  DIST FWL TEXT
 DFST.                        :  DIST FSL TEXT
 DMF .             Drill Floor:  DRILL MEAS FROM
 STIM.      13.47.44 07-Jun-20:  START TIME
 DATE.      13.47.44 27-Jul-20:  END TIME
 SPUD.               07-Jun-20:  SPUD DATE
 NREF.                    Grid:  NORTH REFERENCE
 HPTY.       Minimum Curvature:  HOLE POS TYPE
 DMOD.             Drill Model:  DRILL MOD DESC
 SVYD.                  Survey:  SURVEY DESC
 ILTD.               Lithology:  INTERP LTH DESC
 FTOP.          Formation Tops:  FORM TOPS DESC
 RIG .             West Chirag:  RIG NAME
 PDAT.          Mean Sea Level:  PERMANENT DATUM
 FLD .                     ACG:  FIELD NAME
 SON .        AZ-XX-0906363612:  JOB NUMBER
 CTRY.              Azerbaijan:  COUNTRY NAME
 WELL.           J25 (Slot 35):  WELL NAME
 SRVC.          Turan Drilling:  CONTRACTOR
 COMP.     BP Exploration (Caspian Sea) Ltd:  COMPANY
 UWI .                     N/A:  UNIQUE WELL IDENTIFIER
 API .                     N/A:  API NUMBER
 BASE.              Azerbaijan:  LOGGING EQUIPMENT BASE LOCATION
 REGN.                   EESSA:  REGION
 PROV.                    Baku:  PROVINCE
 STAT.                    Baku:  STATE NAME
 MWDS.                     N/A:  MWD SHOP
 DOE .                     N/A:  DOE NUMBER
 DCON.         Sperry Drilling:  DIRECTNL CONTR
 UNIT.                     N/A:  LOGGING EQUIPMENT ID
 MDS .        Operator Entered:  MAG DATA SOURCE
 JOBN.        AZ-XX-0906363612:  JOB TICKET NUMB
 WTYP.                Deviated:  WELL TYPE
 CNTY.                        :  COUNTY
 LOC .                        :  LOCATION
 LMF .             Drill Floor:  LOG MEASURED FROM
 TVDS.m                  43.00:  TVDSS CORRECTN
 LATI.deg                40.13:  LATITUDE
 LONG.deg                51.22:  LONGITUDE
 WHNS.m                  -7.90:  WELL HEAD N/S
 WHEW.m                  -3.35:  WELL HEAD E/W
 UTMX.m              519005.06:  UTM X
 UTMY.m             4443793.85:  UTM Y
 DFWL.m                   0.00:  DISTANCE FWL
 DFSL.m                   0.00:  DISTANCE FSL
 SDEP.m                   0.00:  START DEPTH
 TDD .m                   0.00:  TOTAL DEPTH (DRILLER)
 VSDR.deg               308.97:  VERT SEC DIRECT
 GVFD.g                   1.00:  GRAVITY FIELD
 MFLD.nT              50350.00:  MAGNETIC FIELD
 MDIP.deg                59.62:  MAGNETIC DIP
 MDEC.deg                 6.44:  MAGNETIC DECL
 GRDC.deg                 0.13:  GRID CORRECTION
 AZTC.deg                 6.32:  AZM TOTAL CORR
 EPD .m                   0.00:  ELEVATION
 EGL .m                   0.00:  GROUND ELEVATION
 WDMS.m                 169.80:  WD ELEV
 APD .m                  43.00:  DEPTH ABOVE PD
 DEP .m                 356.43:  DEPTH
 AGAP.m                  43.00:  AIR GAP
 VSEW.m                  -3.35:  VERT SEC E/W
 VSNS.m                  -7.90:  VERT SEC N/S
 EKB .m                  43.00:  KB ELEVATION
 EDF .m                  43.00:  DF ELEVATION
 TDL .m                 934.00:  TOTAL DEPTH (LOGGER)
 VSC .                       0:  VS TO CLOSURE
 MAGU.                 1852825:  MAGUTM CHECKSUM
~Parameter Information Block
#MNEM.UNIT       Value        Description
#---------     -----------    ---------------------------
 AV  .mps                 0.80:  Ann Velocity 
 AVMX.mps                 1.70:  Max Ann Veloc 
 AZIF.deg               311.41:  Azm, Final 
 BHAT.        Rotary Steerable:  BHA Type 
 BROT.°/30m               0.09:  Build Rotating 
 BS  .in                 12.25:  Bit Size 
 BSZ .in                 12.25:  Bit Size 
 BTPL.psig              800.00:  Bit Press Loss 
 CABU.                      No:  Customer Abuse 
 COMM.                     ´
n:  Run Comments 1 
 TCS .hr                 96.00:  Time Ciculation Ended 
 CV  .mps                 2.03:  Crit Velocity 
 CVMX.mps                 2.42:  Max Crit Veloc 
 DD1 .          Taghi Taghiyev:  Direct Drillr 1 
 DD2 .      Tariel Pirmammadov:  Direct Drillr 2 
 DD3 .          Teymur Aghayev:  Direct Drillr 3 
 DDSV.                 iCruise:  DD Service 
 DEFF.%                  98.70:  % Det Eff 
 DLRX.°/30m               1.00:  Dogleg Rot Max 
 DLSO.°/30m               1.80:  Dogleg Oriented 
 DLSX.°/30m               3.16:  Dogleg Str Max 
 DRET.      15.00.00 07-Aug-20:  Drill End Time 
 DRST.      17.00.00 02-Aug-20:  Drill Start Tim 
 DTIM.hr                 45.90:  Time Drilling 
 EDEP.m                5298.01:  End Depth 
 ENG1.       Seymur Iskandarov:  Engineer 1 
 ENG2.         Yevgeniy Ulikov:  Engineer 2 
 ENG3.      Artemiy Matviyanov:  Engineer 3 
 ENG4.         Bahruz Mehdiyev:  Engineer 4 
 ETIM.      05.00.00 10-Aug-20:  End Time 
 FLOI.gpm              1150.00:  Flow In 
 FLON.gpm               900.00:  Flow In Min 
 FLOS.cptm                0.00:  Fluid Loss 
 FLOX.gpm              1200.00:  Flow In Max 
 FTRO.     Connectivity, Formation Presure:  FTWD Run Obj 
 HFLO.                      No:  High Flow 
 HPRE.                     Yes:  High Pressure 
 HTEM.                      No:  High Temp 
 HYDO.m                   1.80:  Hydro Offset 
 IFIN.deg                 9.71:  Inc, Final 
 IMAX.deg                63.81:  Inc Max 
 IMIN.deg                 9.53:  Inc Min 
 IMND.m                5075.52:  Inc Min Depth 
 IMXD.m                4367.08:  Inc Max Depth 
 JARR.                      No:  Jarring 
 LETM.      15.00.00 07-Aug-20:  Log End Time 
 LOST.hr                     2:  Lost Rig Time 
 LSTM.      17.00.00 02-Aug-20:  Log Start Time 
 MDCL.ppm             42500.00:  Mud Chlorides 
 MDES.     Inversion Oil/Synthetic:  Mud Desc 
 DFD .sg                  1.46:  Mud Density 
 MDMN.sg                  1.46:  Dens Mud Min 
 MDMX.sg                  1.46:  Dens Mud Max 
 MOIL.                      56:  Run Mud Oil % 
 MOWR.                   70:30:  Run Mud OWR 
 MSND.                     0.1:  Run Mud Sand % 
 MSOL.                      19:  Run Mud Solids% 
 DFV .spqt               83.00:  Mud Viscosity 
 MWOD.in                  8.00:  MWD Tool OD 
 MWSI.                     Yes:  Serv Intrp, MWD 
 OTIM.hr                196.57:  Time Operating 
 PCON.           Look Like New:  Pad Condition 
 PMAX.psia             7400.00:  Press Op, Max 
 PV  .cP                 36.00:  Mud PV 
 RUN .                    1000:  Run Number 
 ROPA.m/hr               25.00:  ROP Avg 
 ROPN.m/hr               10.00:  ROP Min 
 ROPX.m/hr               32.00:  ROP Max 
 RPMA.rpm               120.00:  RPM Surface Avg 
 RPMN.rpm               100.00:  RPM Surface Min 
 RPMX.rpm               140.00:  RPM Surface Max 
 RRUN.                    L504:  Rig Run Number 
 SAZI.deg               308.25:  Azm, Start 
 SDEP.m                4364.01:  Start Depth 
 SIDD.                      No:  Serv Intrp, DD 
 SINC.deg                63.81:  Inc, Start 
 SPPA.psig             5800.00:  SPP Avg 
 SPPN.psig             4200.00:  SPP Min 
 SPPX.psig             5950.00:  SPP Max 
 STIM.      18.00.00 01-Aug-20:  Start Time 
 SVCS.                 DD, MWD:  Services 
 SVER.                    9.20:  Sperry Version 
 TDAT.m                 934.00:  Tot Depth Attmp 
 TDDF.                      No:  Trip for DD 
 TDLG.m                 934.00:  Tot Depth Loggd 
 TFF .                      No:  Trip for Fail 
 TQAA.f-kp               31.00:  Torque Abs Avg 
 TQAN.f-kp               25.00:  Torque Abs Min 
 TQAX.f-kp               35.00:  Torque Abs Max 
 TRRT.°/30m              -0.75:  Turn Rotating 
 MRT .                  EWR-M5:  Maximum Recorded Temperature 
 TTMX.degC               95.00:  Max Tool Temp 
 VS01.                90516060:  Virtual Str1 SN 
 VS02.                90528488:  Virtual Str2 SN 
 VS03.                90577970:  Virtual Str3 SN 
 VS04.                12385033:  Virtual Str4 SN 
 VS05.                90522069:  Virtual Str5 SN 
 VS06.                13124134:  Virtual Str6 SN 
 WBMN.klb                20.00:  WOB Min 
 WITN.         Alistair Sprott:  Customer Rep 
 WITN.     Ronal van der Kraan:  Customer Rep 2 
 WOBA.klb                25.00:  WOB Avg 
 WOBX.klb                31.00:  WOB Max 
 YP  .lhf2               32.00:  Yield Point 
~Curve Information Block
#MNEM.UNIT                 API CODE     Curve Description
#---------               -----------    ---------------------------
 TIME.HHMMSS            00 000 000 000:  GT Time & Date
 GTDEPTH.m              00 000 000 000:  GT Depth
 GTPQH.psia             00 000 000 000:  GT HR Quartz Pressure
 GTTQ.degC              00 000 000 000:  GT Quartz Temperature
 GTTN.NONE              00 000 000 000:  GT Test Number
 GTET.sec               00 000 000 000:  GT Elapsed Test Time
 GTTVD.m                00 000 000 000:  GT True Vertical Depth
#Other Information
#
#WARRANTY: Halliburton will use its best efforts to furnish customers with 
#accurate information and interpretations that are part of, and incident to, the services 
#provided.  However, Halliburton cannot and does not warrant the accuracy 
#or correctness of such information and interpretations.  Under no circumstances should any 
#such information or interpretation be relied upon as the sole basis for any drilling, 
#completion, production, or financial decision or any procedure involving any risk to the 
#safety of any drilling venture, drilling rig or its crew or any other third party.  The 
#Customer has full responsibility for all drilling, completion and production operation.  
#Halliburton makes no representations or warranties, either expressed or 
#implied, including, but not limited to, the implied warranties of merchantability or fitness 
#for a particular purpose, with respect to the services rendered.  In no event will 
#Halliburton be liable for failure to obtain any particular results or for 
#any damages, including, but not limited to, indirect, special or consequential damages, 
#resulting from the use of any information or interpretation provided by Halliburton.
#
~A           TIME           GTDEPTH  GTPQH  GTTQ  GTTN  GTET   GTTVD  
# ...
   06:44:00.000.08-Aug-2020 5176.51 1497.88 80.34 4.00 253.00 3362.10
   06:44:00.200.08-Aug-2020 5176.51 1497.88 80.34 4.00 253.20 3362.10
   06:44:00.400.08-Aug-2020 5176.51 1498.62 80.34 4.00 253.40 3362.10
   06:44:00.600.08-Aug-2020 5176.51 1499.09 80.34 4.00 253.60 3362.10
   06:44:00.800.08-Aug-2020 5176.51 1499.44 80.34 4.00 253.80 3362.10
   06:44:01.000.08-Aug-2020 5176.51 1499.82 80.34 4.00 254.00 3362.10
   06:44:01.200.08-Aug-2020 5176.51 1499.82 80.34 4.00 254.20 3362.10
   06:44:01.400.08-Aug-2020 5176.51 1500.65 80.34 4.00 254.40 3362.10
   06:44:01.600.08-Aug-2020 5176.51 1501.06 80.34 4.00 254.60 3362.10
   06:44:01.800.08-Aug-2020 5176.51 1501.51 80.34 4.00 254.80 3362.10
   06:44:02.000.08-Aug-2020 5176.51 1501.90 80.34 4.00 255.00 3362.10
   06:44:02.200.08-Aug-2020 5176.51 1501.90 80.34 4.00 255.20 3362.10
   06:44:02.400.08-Aug-2020 5176.51 1502.68 80.34 4.00 255.40 3362.10
   06:44:02.600.08-Aug-2020 5176.51 1503.09 80.34 4.00 255.60 3362.10
   06:44:02.800.08-Aug-2020 5176.51 1503.60 80.34 4.00 255.80 3362.10
   06:44:03.000.08-Aug-2020 5176.51 1504.38 80.34 4.00 256.00 3362.10
   06:44:03.200.08-Aug-2020 5176.51 1504.38 80.34 4.00 256.20 3362.10
   06:44:03.400.08-Aug-2020 5176.51 1505.71 80.34 4.00 256.40 3362.10
   06:44:03.600.08-Aug-2020 5176.51 1506.90 80.34 4.00 256.60 3362.10
   06:44:03.800.08-Aug-2020 5176.51 1507.42 80.34 4.00 256.80 3362.10
   06:44:04.000.08-Aug-2020 5176.51 1507.98 80.34 4.00 257.00 3362.10
   06:44:04.200.08-Aug-2020 5176.51 1507.98 80.34 4.00 257.20 3362.10
   06:44:04.400.08-Aug-2020 5176.51 1508.81 80.34 4.00 257.40 3362.10
   06:44:04.600.08-Aug-2020 5176.51 1509.71 80.34 4.00 257.60 3362.10
   06:44:04.800.08-Aug-2020 5176.51 1510.14 80.34 4.00 257.80 3362.10
   06:44:05.000.08-Aug-2020 5176.51 1510.52 80.34 4.00 258.00 3362.10
   06:44:05.200.08-Aug-2020 5176.51 1510.52 80.34 4.00 258.20 3362.10
   06:44:05.400.08-Aug-2020 5176.51 1511.40 80.34 4.00 258.40 3362.10
   06:44:05.600.08-Aug-2020 5176.51 1512.43 80.34 4.00 258.60 3362.10
   06:44:05.800.08-Aug-2020 5176.51 1512.86 80.34 4.00 258.80 3362.10
   06:44:06.000.08-Aug-2020 5176.51 1513.27 80.34 4.00 259.00 3362.10
   06:44:06.200.08-Aug-2020 5176.51 1513.27 80.34 4.00 259.20 3362.10
   06:44:06.400.08-Aug-2020 5176.51 1514.88 80.34 4.00 259.40 3362.10
   06:44:06.600.08-Aug-2020 5176.51 1515.80 80.34 4.00 259.60 3362.10
   06:44:06.800.08-Aug-2020 5176.51 1516.24 80.34 4.00 259.80 3362.10
   06:44:07.000.08-Aug-2020 5176.51 1516.96 80.34 4.00 260.00 3362.10
   06:44:07.200.08-Aug-2020 5176.51 1516.96 80.34 4.00 260.20 3362.10
   06:44:07.400.08-Aug-2020 5176.51 1517.85 80.34 4.00 260.40 3362.10
   06:44:07.600.08-Aug-2020 5176.51 1518.38 80.34 4.00 260.60 3362.10
   06:44:07.800.08-Aug-2020 5176.51 1518.81 80.34 4.00 260.80 3362.10
   06:44:08.000.08-Aug-2020 5176.51 1519.27 80.34 4.00 261.00 3362.10
   06:44:08.200.08-Aug-2020 5176.51 1519.27 80.34 4.00 261.20 3362.10
   06:44:08.400.08-Aug-2020 5176.51 1520.17 80.34 4.00 261.40 3362.10
   06:44:08.600.08-Aug-2020 5176.51 1520.60 80.34 4.00 261.60 3362.10
   06:44:08.800.08-Aug-2020 5176.51 1521.05 80.34 4.00 261.80 3362.10
   06:44:09.000.08-Aug-2020 5176.51 1521.45 80.34 4.00 262.00 3362.10
   06:44:09.200.08-Aug-2020 5176.51 1521.45 80.34 4.00 262.20 3362.10
   06:44:09.400.08-Aug-2020 5176.51 1522.30 80.33 4.00 262.40 3362.10
   06:44:09.600.08-Aug-2020 5176.51 1523.43 80.33 4.00 262.60 3362.10
   06:44:09.800.08-Aug-2020 5176.51 1523.87 80.33 4.00 262.80 3362.10
   06:44:10.000.08-Aug-2020 5176.51 1524.29 80.33 4.00 263.00 3362.10
   06:44:10.200.08-Aug-2020 5176.51 1524.29 80.33 4.00 263.20 3362.10
   06:44:10.400.08-Aug-2020 5176.51 1525.13 80.33 4.00 263.40 3362.10
   06:44:10.600.08-Aug-2020 5176.51 1525.53 80.33 4.00 263.60 3362.10
   06:44:10.800.08-Aug-2020 5176.51 1525.94 80.33 4.00 263.80 3362.10
   06:44:11.000.08-Aug-2020 5176.51 1526.34 80.33 4.00 264.00 3362.10
   06:44:11.200.08-Aug-2020 5176.51 1526.34 80.33 4.00 264.20 3362.10
   06:44:11.400.08-Aug-2020 5176.51 1527.11 80.33 4.00 264.40 3362.10
   06:44:11.600.08-Aug-2020 5176.51 1527.54 80.33 4.00 264.60 3362.10
   06:44:11.800.08-Aug-2020 5176.51 1527.91 80.33 4.00 264.80 3362.10
   06:44:12.000.08-Aug-2020 5176.51 1528.26 80.33 4.00 265.00 3362.10
   06:44:12.200.08-Aug-2020 5176.51 1528.26 80.33 4.00 265.20 3362.10
   06:44:12.400.08-Aug-2020 5176.51 1529.13 80.33 4.00 265.40 3362.10
   06:44:12.600.08-Aug-2020 5176.51 1529.67 80.33 4.00 265.60 3362.10
   06:44:12.800.08-Aug-2020 5176.51 1530.60 80.33 4.00 265.80 3362.10
   06:44:13.000.08-Aug-2020 5176.51 1531.00 80.33 4.00 266.00 3362.10
   06:44:13.200.08-Aug-2020 5176.51 1531.00 80.33 4.00 266.20 3362.10
   06:44:13.400.08-Aug-2020 5176.51 1533.00 80.33 4.00 266.40 3362.10
   06:44:13.600.08-Aug-2020 5176.51 1533.41 80.33 4.00 266.60 3362.10
   06:44:13.800.08-Aug-2020 5176.51 1533.93 80.33 4.00 266.80 3362.10
   06:44:14.000.08-Aug-2020 5176.51 1534.45 80.33 4.00 267.00 3362.10
   06:44:14.200.08-Aug-2020 5176.51 1534.45 80.33 4.00 267.20 3362.10
   06:44:14.400.08-Aug-2020 5176.51 1535.64 80.33 4.00 267.40 3362.10
   06:44:14.600.08-Aug-2020 5176.51 1536.32 80.33 4.00 267.60 3362.10
   06:44:14.800.08-Aug-2020 5176.51 1536.68 80.33 4.00 267.80 3362.10
   06:44:15.000.08-Aug-2020 5176.51 1537.24 80.33 4.00 268.00 3362.10
   06:44:15.200.08-Aug-2020 5176.51 1537.64 80.33 4.00 268.20 3362.10
   06:44:15.400.08-Aug-2020 5176.51 1538.01 80.33 4.00 268.40 3362.10
   06:44:15.600.08-Aug-2020 5176.51 1538.59 80.33 4.00 268.60 3362.10
   06:44:15.800.08-Aug-2020 5176.51 1539.49 80.33 4.00 268.80 3362.10
   06:44:16.000.08-Aug-2020 5176.51 1539.82 80.33 4.00 269.00 3362.10
   06:44:16.200.08-Aug-2020 5176.51 1539.82 80.33 4.00 269.20 3362.10
   06:44:16.400.08-Aug-2020 5176.51 1540.73 80.33 4.00 269.40 3362.10
   06:44:16.600.08-Aug-2020 5176.51 1541.57 80.33 4.00 269.60 3362.10
   06:44:16.800.08-Aug-2020 5176.51 1542.00 80.33 4.00 269.80 3362.10
   06:44:17.000.08-Aug-2020 5176.51 1544.48 80.33 4.00 270.00 3362.10
   06:44:17.200.08-Aug-2020 5176.51 1544.48 80.33 4.00 270.20 3362.10
   06:44:17.400.08-Aug-2020 5176.51 1545.25 80.33 4.00 270.40 3362.10
   06:44:17.600.08-Aug-2020 5176.51 1545.66 80.33 4.00 270.60 3362.10
   06:44:17.800.08-Aug-2020 5176.51 1545.98 80.33 4.00 270.80 3362.10
   06:44:18.000.08-Aug-2020 5176.51 1546.29 80.33 4.00 271.00 3362.10
   06:44:18.200.08-Aug-2020 5176.51 1546.29 80.33 4.00 271.20 3362.10
   06:44:18.400.08-Aug-2020 5176.51 1546.85 80.33 4.00 271.40 3362.10
   06:44:18.600.08-Aug-2020 5176.51 1547.11 80.33 4.00 271.60 3362.10
   06:44:18.800.08-Aug-2020 5176.51 1547.29 80.33 4.00 271.80 3362.10
   06:44:19.000.08-Aug-2020 5176.51 1547.74 80.33 4.00 272.00 3362.10
   06:44:19.200.08-Aug-2020 5176.51 1548.06 80.33 4.00 272.20 3362.10
   06:44:19.400.08-Aug-2020 5176.51 1548.39 80.33 4.00 272.40 3362.10
   06:44:19.600.08-Aug-2020 5176.51 1548.69 80.33 4.00 272.60 3362.10
   06:44:19.800.08-Aug-2020 5176.51 1549.03 80.33 4.00 272.80 3362.10
   06:44:20.000.08-Aug-2020 5176.51 1549.37 80.33 4.00 273.00 3362.10
   06:44:20.200.08-Aug-2020 5176.51 1549.77 80.33 4.00 273.20 3362.10
   06:44:20.400.08-Aug-2020 5176.51 1550.07 80.33 4.00 273.40 3362.10
   06:44:20.600.08-Aug-2020 5176.51 1550.48 80.32 4.00 273.60 3362.10
   06:44:20.800.08-Aug-2020 5176.51 1550.85 80.32 4.00 273.80 3362.10
   06:44:21.000.08-Aug-2020 5176.51 1551.25 80.32 4.00 274.00 3362.10
   06:44:21.200.08-Aug-2020 5176.51 1551.72 80.32 4.00 274.20 3362.10
   06:44:21.400.08-Aug-2020 5176.51 1552.12 80.32 4.00 274.40 3362.10
   06:44:21.600.08-Aug-2020 5176.51 1552.53 80.32 4.00 274.60 3362.10
   06:44:21.800.08-Aug-2020 5176.51 1552.89 80.32 4.00 274.80 3362.10
   06:44:22.000.08-Aug-2020 5176.51 1553.61 80.32 4.00 275.00 3362.10
   06:44:22.200.08-Aug-2020 5176.51 1553.61 80.32 4.00 275.20 3362.10
   06:44:22.400.08-Aug-2020 5176.51 1554.40 80.32 4.00 275.40 3362.10
   06:44:22.600.08-Aug-2020 5176.51 1555.53 80.32 4.00 275.60 3362.10
   06:44:22.800.08-Aug-2020 5176.51 1556.10 80.32 4.00 275.80 3362.10
