~Version Information
 VERS.                  2.0:   CWLS log ASCII Standard -VERSION 2.0
 WRAP.                   NO:   One line per depth step
~Well Information Block
#MNEM.UNIT     VALUE/NAME     DESCRIPTION
#---------     -----------    ---------------------------
 STRT.S             09:23:14 08-Aug-20: START TIME 09:23:14 08-Aug-20
 STOP.S             09:28:51 08-Aug-20: STOP TIME  09:28:51 08-Aug-20
 STEP.S                   0.00: STEP TIME
 NULL.                 -999.25: NULL VALUE
 DFWT.                        :  DIST FWL TEXT
 DFST.                        :  DIST FSL TEXT
 DMF .             Drill Floor:  DRILL MEAS FROM
 STIM.      13.47.44 07-Jun-20:  START TIME
 DATE.      13.47.44 27-Jul-20:  END TIME
 SPUD.               07-Jun-20:  SPUD DATE
 NREF.                    Grid:  NORTH REFERENCE
 HPTY.       Minimum Curvature:  HOLE POS TYPE
 DMOD.             Drill Model:  DRILL MOD DESC
 SVYD.                  Survey:  SURVEY DESC
 ILTD.               Lithology:  INTERP LTH DESC
 FTOP.          Formation Tops:  FORM TOPS DESC
 RIG .             West Chirag:  RIG NAME
 PDAT.          Mean Sea Level:  PERMANENT DATUM
 FLD .                     ACG:  FIELD NAME
 SON .        AZ-XX-0906363612:  JOB NUMBER
 CTRY.              Azerbaijan:  COUNTRY NAME
 WELL.           J25 (Slot 35):  WELL NAME
 SRVC.          Turan Drilling:  CONTRACTOR
 COMP.     BP Exploration (Caspian Sea) Ltd:  COMPANY
 UWI .                     N/A:  UNIQUE WELL IDENTIFIER
 API .                     N/A:  API NUMBER
 BASE.              Azerbaijan:  LOGGING EQUIPMENT BASE LOCATION
 REGN.                   EESSA:  REGION
 PROV.                    Baku:  PROVINCE
 STAT.                    Baku:  STATE NAME
 MWDS.                     N/A:  MWD SHOP
 DOE .                     N/A:  DOE NUMBER
 DCON.         Sperry Drilling:  DIRECTNL CONTR
 UNIT.                     N/A:  LOGGING EQUIPMENT ID
 MDS .        Operator Entered:  MAG DATA SOURCE
 JOBN.        AZ-XX-0906363612:  JOB TICKET NUMB
 WTYP.                Deviated:  WELL TYPE
 CNTY.                        :  COUNTY
 LOC .                        :  LOCATION
 LMF .             Drill Floor:  LOG MEASURED FROM
 TVDS.m                  43.00:  TVDSS CORRECTN
 LATI.deg                40.13:  LATITUDE
 LONG.deg                51.22:  LONGITUDE
 WHNS.m                  -7.90:  WELL HEAD N/S
 WHEW.m                  -3.35:  WELL HEAD E/W
 UTMX.m              519005.06:  UTM X
 UTMY.m             4443793.85:  UTM Y
 DFWL.m                   0.00:  DISTANCE FWL
 DFSL.m                   0.00:  DISTANCE FSL
 SDEP.m                   0.00:  START DEPTH
 TDD .m                   0.00:  TOTAL DEPTH (DRILLER)
 VSDR.deg               308.97:  VERT SEC DIRECT
 GVFD.g                   1.00:  GRAVITY FIELD
 MFLD.nT              50350.00:  MAGNETIC FIELD
 MDIP.deg                59.62:  MAGNETIC DIP
 MDEC.deg                 6.44:  MAGNETIC DECL
 GRDC.deg                 0.13:  GRID CORRECTION
 AZTC.deg                 6.32:  AZM TOTAL CORR
 EPD .m                   0.00:  ELEVATION
 EGL .m                   0.00:  GROUND ELEVATION
 WDMS.m                 169.80:  WD ELEV
 APD .m                  43.00:  DEPTH ABOVE PD
 DEP .m                 356.43:  DEPTH
 AGAP.m                  43.00:  AIR GAP
 VSEW.m                  -3.35:  VERT SEC E/W
 VSNS.m                  -7.90:  VERT SEC N/S
 EKB .m                  43.00:  KB ELEVATION
 EDF .m                  43.00:  DF ELEVATION
 TDL .m                 934.00:  TOTAL DEPTH (LOGGER)
 VSC .                       0:  VS TO CLOSURE
 MAGU.                 1852825:  MAGUTM CHECKSUM
~Parameter Information Block
#MNEM.UNIT       Value        Description
#---------     -----------    ---------------------------
 AV  .mps                 0.80:  Ann Velocity 
 AVMX.mps                 1.70:  Max Ann Veloc 
 AZIF.deg               311.41:  Azm, Final 
 BHAT.        Rotary Steerable:  BHA Type 
 BROT.°/30m               0.09:  Build Rotating 
 BS  .in                 12.25:  Bit Size 
 BSZ .in                 12.25:  Bit Size 
 BTPL.psig              800.00:  Bit Press Loss 
 CABU.                      No:  Customer Abuse 
 TCS .hr                 96.00:  Time Ciculation Ended 
 CV  .mps                 2.03:  Crit Velocity 
 CVMX.mps                 2.42:  Max Crit Veloc 
 DD1 .          Taghi Taghiyev:  Direct Drillr 1 
 DD2 .      Tariel Pirmammadov:  Direct Drillr 2 
 DD3 .          Teymur Aghayev:  Direct Drillr 3 
 DDSV.                 iCruise:  DD Service 
 DEFF.%                  98.70:  % Det Eff 
 DLRX.°/30m               1.00:  Dogleg Rot Max 
 DLSO.°/30m               1.80:  Dogleg Oriented 
 DLSX.°/30m               3.16:  Dogleg Str Max 
 DRET.      15.00.00 07-Aug-20:  Drill End Time 
 DRST.      17.00.00 02-Aug-20:  Drill Start Tim 
 DTIM.hr                 45.90:  Time Drilling 
 EDEP.m                5298.01:  End Depth 
 ENG1.       Seymur Iskandarov:  Engineer 1 
 ENG2.         Yevgeniy Ulikov:  Engineer 2 
 ENG3.      Artemiy Matviyanov:  Engineer 3 
 ENG4.         Bahruz Mehdiyev:  Engineer 4 
 ETIM.      05.00.00 10-Aug-20:  End Time 
 FLOI.gpm              1150.00:  Flow In 
 FLON.gpm               900.00:  Flow In Min 
 FLOS.cptm                0.00:  Fluid Loss 
 FLOX.gpm              1200.00:  Flow In Max 
 FTRO.     Connectivity, Formation Presure:  FTWD Run Obj 
 HFLO.                      No:  High Flow 
 HPRE.                     Yes:  High Pressure 
 HTEM.                      No:  High Temp 
 HYDO.m                   1.80:  Hydro Offset 
 IFIN.deg                 9.71:  Inc, Final 
 IMAX.deg                63.81:  Inc Max 
 IMIN.deg                 9.53:  Inc Min 
 IMND.m                5075.52:  Inc Min Depth 
 IMXD.m                4367.08:  Inc Max Depth 
 JARR.                      No:  Jarring 
 LETM.      15.00.00 07-Aug-20:  Log End Time 
 LOST.hr                     2:  Lost Rig Time 
 LSTM.      17.00.00 02-Aug-20:  Log Start Time 
 MDCL.ppm             42500.00:  Mud Chlorides 
 MDES.     Inversion Oil/Synthetic:  Mud Desc 
 DFD .sg                  1.46:  Mud Density 
 MDMN.sg                  1.46:  Dens Mud Min 
 MDMX.sg                  1.46:  Dens Mud Max 
 MOIL.                      56:  Run Mud Oil % 
 MOWR.                   70:30:  Run Mud OWR 
 MSND.                     0.1:  Run Mud Sand % 
 MSOL.                      19:  Run Mud Solids% 
 DFV .spqt               83.00:  Mud Viscosity 
 MWOD.in                  8.00:  MWD Tool OD 
 MWSI.                     Yes:  Serv Intrp, MWD 
 OTIM.hr                196.57:  Time Operating 
 PCON.           Look Like New:  Pad Condition 
 PMAX.psia             7400.00:  Press Op, Max 
 PV  .cP                 36.00:  Mud PV 
 RUN .                    1000:  Run Number 
 ROPA.m/hr               25.00:  ROP Avg 
 ROPN.m/hr               10.00:  ROP Min 
 ROPX.m/hr               32.00:  ROP Max 
 RPMA.rpm               120.00:  RPM Surface Avg 
 RPMN.rpm               100.00:  RPM Surface Min 
 RPMX.rpm               140.00:  RPM Surface Max 
 RRUN.                    L504:  Rig Run Number 
 SAZI.deg               308.25:  Azm, Start 
 SDEP.m                4364.01:  Start Depth 
 SIDD.                      No:  Serv Intrp, DD 
 SINC.deg                63.81:  Inc, Start 
 SPPA.psig             5800.00:  SPP Avg 
 SPPN.psig             4200.00:  SPP Min 
 SPPX.psig             5950.00:  SPP Max 
 STIM.      18.00.00 01-Aug-20:  Start Time 
 SVCS.                 DD, MWD:  Services 
 SVER.                    9.20:  Sperry Version 
 TDAT.m                 934.00:  Tot Depth Attmp 
 TDDF.                      No:  Trip for DD 
 TDLG.m                 934.00:  Tot Depth Loggd 
 TFF .                      No:  Trip for Fail 
 TQAA.f-kp               31.00:  Torque Abs Avg 
 TQAN.f-kp               25.00:  Torque Abs Min 
 TQAX.f-kp               35.00:  Torque Abs Max 
 TRRT.°/30m              -0.75:  Turn Rotating 
 MRT .                  EWR-M5:  Maximum Recorded Temperature 
 TTMX.degC               95.00:  Max Tool Temp 
 VS01.                90516060:  Virtual Str1 SN 
 VS02.                90528488:  Virtual Str2 SN 
 VS03.                90577970:  Virtual Str3 SN 
 VS04.                12385033:  Virtual Str4 SN 
 VS05.                90522069:  Virtual Str5 SN 
 VS06.                13124134:  Virtual Str6 SN 
 WBMN.klb                20.00:  WOB Min 
 WITN.         Alistair Sprott:  Customer Rep 
 WITN.     Ronal van der Kraan:  Customer Rep 2 
 WOBA.klb                25.00:  WOB Avg 
 WOBX.klb                31.00:  WOB Max 
 YP  .lhf2               32.00:  Yield Point 
~Curve Information Block
#MNEM.UNIT                 API CODE     Curve Description
#---------               -----------    ---------------------------
 TIME.HHMMSS            00 000 000 000:  GT Time & Date
 GTDEPTH.m              00 000 000 000:  GT Depth
 GTPQH.psia             00 000 000 000:  GT HR Quartz Pressure
 GTTQ.degC              00 000 000 000:  GT Quartz Temperature
 GTTN.NONE              00 000 000 000:  GT Test Number
 GTET.sec               00 000 000 000:  GT Elapsed Test Time
 GTTVD.m                00 000 000 000:  GT True Vertical Depth
#Other Information
#
#WARRANTY: Halliburton will use its best efforts to furnish customers with 
#accurate information and interpretations that are part of, and incident to, the services 
#provided.  However, Halliburton cannot and does not warrant the accuracy 
#or correctness of such information and interpretations.  Under no circumstances should any 
#such information or interpretation be relied upon as the sole basis for any drilling, 
#completion, production, or financial decision or any procedure involving any risk to the 
#safety of any drilling venture, drilling rig or its crew or any other third party.  The 
#Customer has full responsibility for all drilling, completion and production operation.  
#Halliburton makes no representations or warranties, either expressed or 
#implied, including, but not limited to, the implied warranties of merchantability or fitness 
#for a particular purpose, with respect to the services rendered.  In no event will 
#Halliburton be liable for failure to obtain any particular results or for 
#any damages, including, but not limited to, indirect, special or consequential damages, 
#resulting from the use of any information or interpretation provided by Halliburton.
#
~A           TIME           GTDEPTH  GTPQH  GTTQ  GTTN  GTET   GTTVD  
# ...
   09:25:10.056.08-Aug-2020 5133.51 4125.04 75.07 8.00 115.06 3319.72
   09:25:10.256.08-Aug-2020 5133.51 4125.04 75.07 8.00 115.26 3319.72
   09:25:10.457.08-Aug-2020 5133.51 4124.89 75.07 8.00 115.46 3319.72
   09:25:10.657.08-Aug-2020 5133.51 4124.99 75.07 8.00 115.66 3319.72
   09:25:10.857.08-Aug-2020 5133.51 4124.66 75.07 8.00 115.86 3319.72
   09:25:11.057.08-Aug-2020 5133.51 4125.13 75.07 8.00 116.06 3319.72
   09:25:11.257.08-Aug-2020 5133.51 4125.13 75.07 8.00 116.26 3319.72
   09:25:11.457.08-Aug-2020 5133.51 4124.95 75.07 8.00 116.46 3319.72
   09:25:11.657.08-Aug-2020 5133.51 4124.92 75.07 8.00 116.66 3319.72
   09:25:11.857.08-Aug-2020 5133.51 4124.94 75.07 8.00 116.86 3319.72
   09:25:12.057.08-Aug-2020 5133.51 4124.97 75.07 8.00 117.06 3319.72
   09:25:12.257.08-Aug-2020 5133.51 4124.97 75.07 8.00 117.26 3319.72
   09:25:12.458.08-Aug-2020 5133.51 4125.04 75.07 8.00 117.46 3319.72
   09:25:12.658.08-Aug-2020 5133.51 4124.97 75.07 8.00 117.66 3319.72
   09:25:12.858.08-Aug-2020 5133.51 4125.01 75.07 8.00 117.86 3319.72
   09:25:13.058.08-Aug-2020 5133.51 4124.99 75.07 8.00 118.06 3319.72
   09:25:13.258.08-Aug-2020 5133.51 4124.99 75.07 8.00 118.26 3319.72
   09:25:13.458.08-Aug-2020 5133.51 4125.05 75.07 8.00 118.46 3319.72
   09:25:13.658.08-Aug-2020 5133.51 4125.03 75.07 8.00 118.66 3319.72
   09:25:13.858.08-Aug-2020 5133.51 4125.03 75.07 8.00 118.86 3319.72
   09:25:14.058.08-Aug-2020 5133.51 4125.05 75.07 8.00 119.06 3319.72
   09:25:14.259.08-Aug-2020 5133.51 4124.78 75.07 8.00 119.26 3319.72
   09:25:14.459.08-Aug-2020 5133.51 4125.09 75.07 8.00 119.46 3319.72
   09:25:14.659.08-Aug-2020 5133.51 4124.80 75.07 8.00 119.66 3319.72
   09:25:14.859.08-Aug-2020 5133.51 4124.98 75.07 8.00 119.86 3319.72
   09:25:15.059.08-Aug-2020 5133.51 4124.98 75.07 8.00 120.06 3319.72
   09:25:15.259.08-Aug-2020 5133.51 4124.98 75.07 8.00 120.26 3319.72
   09:25:15.459.08-Aug-2020 5133.51 4125.00 75.07 8.00 120.46 3319.72
   09:25:15.659.08-Aug-2020 5133.51 4124.97 75.07 8.00 120.66 3319.72
   09:25:15.859.08-Aug-2020 5133.51 4125.03 75.07 8.00 120.86 3319.72
   09:25:16.059.08-Aug-2020 5133.51 4125.00 75.07 8.00 121.06 3319.72
   09:25:16.260.08-Aug-2020 5133.51 4125.00 75.07 8.00 121.26 3319.72
   09:25:16.460.08-Aug-2020 5133.51 4125.02 75.07 8.00 121.46 3319.72
   09:25:16.660.08-Aug-2020 5133.51 4125.03 75.07 8.00 121.66 3319.72
   09:25:16.860.08-Aug-2020 5133.51 4125.08 75.07 8.00 121.86 3319.72
   09:25:17.060.08-Aug-2020 5133.51 4125.07 75.07 8.00 122.06 3319.72
   09:25:17.260.08-Aug-2020 5133.51 4125.07 75.07 8.00 122.26 3319.72
   09:25:17.460.08-Aug-2020 5133.51 4124.75 75.07 8.00 122.46 3319.72
   09:25:17.660.08-Aug-2020 5133.51 4125.12 75.07 8.00 122.66 3319.72
   09:25:17.860.08-Aug-2020 5133.51 4124.78 75.07 8.00 122.86 3319.72
   09:25:18.061.08-Aug-2020 5133.51 4124.65 75.07 8.00 123.07 3319.72
   09:25:18.261.08-Aug-2020 5133.51 4125.13 75.07 8.00 123.27 3319.72
   09:25:18.461.08-Aug-2020 5133.51 4124.69 75.07 8.00 123.47 3319.72
   09:25:18.661.08-Aug-2020 5133.51 4125.09 75.07 8.00 123.67 3319.72
   09:25:18.861.08-Aug-2020 5133.51 4124.56 75.07 8.00 123.87 3319.72
   09:25:19.061.08-Aug-2020 5133.51 4124.81 75.07 8.00 124.07 3319.72
   09:25:19.261.08-Aug-2020 5133.51 4124.81 75.07 8.00 124.27 3319.72
   09:25:19.461.08-Aug-2020 5133.51 4124.84 75.07 8.00 124.47 3319.72
   09:25:19.661.08-Aug-2020 5133.51 4124.80 75.07 8.00 124.67 3319.72
   09:25:19.861.08-Aug-2020 5133.51 4125.09 75.07 8.00 124.87 3319.72
   09:25:20.062.08-Aug-2020 5133.51 4124.78 75.07 8.00 125.07 3319.72
   09:25:20.262.08-Aug-2020 5133.51 4124.78 75.07 8.00 125.27 3319.72
   09:25:20.462.08-Aug-2020 5133.51 4124.64 75.07 8.00 125.47 3319.72
   09:25:20.662.08-Aug-2020 5133.51 4124.84 75.07 8.00 125.67 3319.72
   09:25:20.862.08-Aug-2020 5133.51 4125.03 75.07 8.00 125.87 3319.72
   09:25:21.062.08-Aug-2020 5133.51 4124.79 75.07 8.00 126.07 3319.72
   09:25:21.262.08-Aug-2020 5133.51 4124.79 75.07 8.00 126.27 3319.72
   09:25:21.462.08-Aug-2020 5133.51 4124.87 75.07 8.00 126.47 3319.72
   09:25:21.662.08-Aug-2020 5133.51 4124.99 75.07 8.00 126.67 3319.72
   09:25:21.863.08-Aug-2020 5133.51 4124.90 75.07 8.00 126.87 3319.72
   09:25:22.063.08-Aug-2020 5133.51 4124.97 75.07 8.00 127.07 3319.72
   09:25:22.263.08-Aug-2020 5133.51 4124.99 75.07 8.00 127.27 3319.72
   09:25:22.463.08-Aug-2020 5133.51 4125.00 75.07 8.00 127.47 3319.72
   09:25:22.663.08-Aug-2020 5133.51 4125.00 75.07 8.00 127.67 3319.72
   09:25:22.863.08-Aug-2020 5133.51 4124.98 75.07 8.00 127.87 3319.72
   09:25:23.063.08-Aug-2020 5133.51 4125.03 75.07 8.00 128.07 3319.72
   09:25:23.263.08-Aug-2020 5133.51 4125.03 75.07 8.00 128.27 3319.72
   09:25:23.463.08-Aug-2020 5133.51 4125.01 75.07 8.00 128.47 3319.72
   09:25:23.664.08-Aug-2020 5133.51 4125.05 75.07 8.00 128.67 3319.72
   09:25:23.864.08-Aug-2020 5133.51 4124.63 75.07 8.00 128.87 3319.72
   09:25:24.064.08-Aug-2020 5133.51 4124.84 75.07 8.00 129.07 3319.72
   09:25:24.264.08-Aug-2020 5133.51 4124.84 75.07 8.00 129.27 3319.72
   09:25:24.464.08-Aug-2020 5133.51 4124.86 75.07 8.00 129.47 3319.72
   09:25:24.664.08-Aug-2020 5133.51 4124.98 75.07 8.00 129.67 3319.72
   09:25:24.864.08-Aug-2020 5133.51 4124.96 75.07 8.00 129.87 3319.72
   09:25:25.064.08-Aug-2020 5133.51 4124.97 75.07 8.00 130.07 3319.72
   09:25:25.264.08-Aug-2020 5133.51 4124.97 75.07 8.00 130.27 3319.72
   09:25:25.464.08-Aug-2020 5133.51 4124.99 75.07 8.00 130.47 3319.72
   09:25:25.665.08-Aug-2020 5133.51 4124.99 75.07 8.00 130.67 3319.72
   09:25:25.865.08-Aug-2020 5133.51 4125.01 75.07 8.00 130.87 3319.72
   09:25:26.065.08-Aug-2020 5133.51 4125.00 75.07 8.00 131.07 3319.72
   09:25:26.265.08-Aug-2020 5133.51 4125.00 75.07 8.00 131.27 3319.72
   09:25:26.465.08-Aug-2020 5133.51 4125.02 75.07 8.00 131.47 3319.72
   09:25:26.665.08-Aug-2020 5133.51 4125.05 75.07 8.00 131.67 3319.72
   09:25:26.865.08-Aug-2020 5133.51 4125.03 75.07 8.00 131.87 3319.72
   09:25:27.065.08-Aug-2020 5133.51 4124.59 75.07 8.00 132.07 3319.72
   09:25:27.265.08-Aug-2020 5133.51 4124.59 75.07 8.00 132.27 3319.72
   09:25:27.466.08-Aug-2020 5133.51 4125.12 75.07 8.00 132.47 3319.72
   09:25:27.666.08-Aug-2020 5133.51 4124.48 75.07 8.00 132.67 3319.72
   09:25:27.866.08-Aug-2020 5133.51 4124.94 75.07 8.00 132.87 3319.72
   09:25:28.066.08-Aug-2020 5133.51 4124.94 75.07 8.00 133.07 3319.72
   09:25:28.266.08-Aug-2020 5133.51 4124.94 75.07 8.00 133.27 3319.72
   09:25:28.466.08-Aug-2020 5133.51 4125.02 75.07 8.00 133.47 3319.72
   09:25:28.666.08-Aug-2020 5133.51 4124.74 75.07 8.00 133.67 3319.72
   09:25:28.866.08-Aug-2020 5133.51 4124.92 75.07 8.00 133.87 3319.72
   09:25:29.066.08-Aug-2020 5133.51 4124.99 75.07 8.00 134.07 3319.72
   09:25:29.266.08-Aug-2020 5133.51 4124.99 75.07 8.00 134.27 3319.72
   09:25:29.467.08-Aug-2020 5133.51 4124.94 75.07 8.00 134.47 3319.72
   09:25:29.667.08-Aug-2020 5133.51 4124.95 75.07 8.00 134.67 3319.72
   09:25:29.867.08-Aug-2020 5133.51 4124.65 75.07 8.00 134.87 3319.72
   09:25:30.067.08-Aug-2020 5133.51 4125.09 75.07 8.00 135.07 3319.72
   09:25:30.267.08-Aug-2020 5133.51 4125.09 75.07 8.00 135.27 3319.72
   09:25:30.467.08-Aug-2020 5133.51 4124.93 75.07 8.00 135.47 3319.72
   09:25:30.667.08-Aug-2020 5133.51 4124.89 75.07 8.00 135.67 3319.72
   09:25:30.867.08-Aug-2020 5133.51 4124.92 75.07 8.00 135.87 3319.72
   09:25:31.067.08-Aug-2020 5133.51 4124.96 75.07 8.00 136.07 3319.72
   09:25:31.268.08-Aug-2020 5133.51 4124.96 75.07 8.00 136.27 3319.72
   09:25:31.468.08-Aug-2020 5133.51 4124.97 75.07 8.00 136.47 3319.72
   09:25:31.668.08-Aug-2020 5133.51 4124.94 75.07 8.00 136.67 3319.72
   09:25:31.868.08-Aug-2020 5133.51 4125.00 75.07 8.00 136.87 3319.72
   09:25:32.068.08-Aug-2020 5133.51 4124.98 75.07 8.00 137.07 3319.72
   09:25:32.268.08-Aug-2020 5133.51 4124.98 75.07 8.00 137.27 3319.72
   09:25:32.468.08-Aug-2020 5133.51 4124.98 75.07 8.00 137.47 3319.72
   09:25:32.668.08-Aug-2020 5133.51 4124.97 75.07 8.00 137.67 3319.72
   09:25:32.868.08-Aug-2020 5133.51 4125.01 75.07 8.00 137.87 3319.72
