~Version Information
 VERS.                  2.0:   CWLS log ASCII Standard -VERSION 2.0
 WRAP.                   NO:   One line per depth step
~Well Information Block
#MNEM.UNIT     VALUE/NAME     DESCRIPTION
#---------     -----------    ---------------------------
 STRT.S             06:39:47 08-Aug-20: START TIME 06:39:47 08-Aug-20
 STOP.S             06:48:06 08-Aug-20: STOP TIME  06:48:06 08-Aug-20
 STEP.S                   0.00: STEP TIME
 NULL.                 -999.25: NULL VALUE
 DFWT.                        :  DIST FWL TEXT
 DFST.                        :  DIST FSL TEXT
 DMF .             Drill Floor:  DRILL MEAS FROM
 STIM.      13.47.44 07-Jun-20:  START TIME
 DATE.      13.47.44 27-Jul-20:  END TIME
 SPUD.               07-Jun-20:  SPUD DATE
 NREF.                    Grid:  NORTH REFERENCE
 HPTY.       Minimum Curvature:  HOLE POS TYPE
 DMOD.             Drill Model:  DRILL MOD DESC
 SVYD.                  Survey:  SURVEY DESC
 ILTD.               Lithology:  INTERP LTH DESC
 FTOP.          Formation Tops:  FORM TOPS DESC
 RIG .             West Chirag:  RIG NAME
 PDAT.          Mean Sea Level:  PERMANENT DATUM
 FLD .                     ACG:  FIELD NAME
 SON .        AZ-XX-0906363612:  JOB NUMBER
 CTRY.              Azerbaijan:  COUNTRY NAME
 WELL.           J25 (Slot 35):  WELL NAME
 SRVC.          Turan Drilling:  CONTRACTOR
 COMP.     BP Exploration (Caspian Sea) Ltd:  COMPANY
 UWI .                     N/A:  UNIQUE WELL IDENTIFIER
 API .                     N/A:  API NUMBER
 BASE.              Azerbaijan:  LOGGING EQUIPMENT BASE LOCATION
 REGN.                   EESSA:  REGION
 PROV.                    Baku:  PROVINCE
 STAT.                    Baku:  STATE NAME
 MWDS.                     N/A:  MWD SHOP
 DOE .                     N/A:  DOE NUMBER
 DCON.         Sperry Drilling:  DIRECTNL CONTR
 UNIT.                     N/A:  LOGGING EQUIPMENT ID
 MDS .        Operator Entered:  MAG DATA SOURCE
 JOBN.        AZ-XX-0906363612:  JOB TICKET NUMB
 WTYP.                Deviated:  WELL TYPE
 CNTY.                        :  COUNTY
 LOC .                        :  LOCATION
 LMF .             Drill Floor:  LOG MEASURED FROM
 TVDS.m                  43.00:  TVDSS CORRECTN
 LATI.deg                40.13:  LATITUDE
 LONG.deg                51.22:  LONGITUDE
 WHNS.m                  -7.90:  WELL HEAD N/S
 WHEW.m                  -3.35:  WELL HEAD E/W
 UTMX.m              519005.06:  UTM X
 UTMY.m             4443793.85:  UTM Y
 DFWL.m                   0.00:  DISTANCE FWL
 DFSL.m                   0.00:  DISTANCE FSL
 SDEP.m                   0.00:  START DEPTH
 TDD .m                   0.00:  TOTAL DEPTH (DRILLER)
 VSDR.deg               308.97:  VERT SEC DIRECT
 GVFD.g                   1.00:  GRAVITY FIELD
 MFLD.nT              50350.00:  MAGNETIC FIELD
 MDIP.deg                59.62:  MAGNETIC DIP
 MDEC.deg                 6.44:  MAGNETIC DECL
 GRDC.deg                 0.13:  GRID CORRECTION
 AZTC.deg                 6.32:  AZM TOTAL CORR
 EPD .m                   0.00:  ELEVATION
 EGL .m                   0.00:  GROUND ELEVATION
 WDMS.m                 169.80:  WD ELEV
 APD .m                  43.00:  DEPTH ABOVE PD
 DEP .m                 356.43:  DEPTH
 AGAP.m                  43.00:  AIR GAP
 VSEW.m                  -3.35:  VERT SEC E/W
 VSNS.m                  -7.90:  VERT SEC N/S
 EKB .m                  43.00:  KB ELEVATION
 EDF .m                  43.00:  DF ELEVATION
 TDL .m                 934.00:  TOTAL DEPTH (LOGGER)
 VSC .                       0:  VS TO CLOSURE
 MAGU.                 1852825:  MAGUTM CHECKSUM
~Parameter Information Block
#MNEM.UNIT       Value        Description
#---------     -----------    ---------------------------
 AV  .mps                 0.80:  Ann Velocity 
 AVMX.mps                 1.70:  Max Ann Veloc 
 AZIF.deg               311.41:  Azm, Final 
 BHAT.        Rotary Steerable:  BHA Type 
 BROT.°/30m               0.09:  Build Rotating 
 BS  .in                 12.25:  Bit Size 
 BSZ .in                 12.25:  Bit Size 
 BTPL.psig              800.00:  Bit Press Loss 
 CABU.                      No:  Customer Abuse 
 COMM.                     ´
n:  Run Comments 1 
 TCS .hr                 96.00:  Time Ciculation Ended 
 CV  .mps                 2.03:  Crit Velocity 
 CVMX.mps                 2.42:  Max Crit Veloc 
 DD1 .          Taghi Taghiyev:  Direct Drillr 1 
 DD2 .      Tariel Pirmammadov:  Direct Drillr 2 
 DD3 .          Teymur Aghayev:  Direct Drillr 3 
 DDSV.                 iCruise:  DD Service 
 DEFF.%                  98.70:  % Det Eff 
 DLRX.°/30m               1.00:  Dogleg Rot Max 
 DLSO.°/30m               1.80:  Dogleg Oriented 
 DLSX.°/30m               3.16:  Dogleg Str Max 
 DRET.      15.00.00 07-Aug-20:  Drill End Time 
 DRST.      17.00.00 02-Aug-20:  Drill Start Tim 
 DTIM.hr                 45.90:  Time Drilling 
 EDEP.m                5298.01:  End Depth 
 ENG1.       Seymur Iskandarov:  Engineer 1 
 ENG2.         Yevgeniy Ulikov:  Engineer 2 
 ENG3.      Artemiy Matviyanov:  Engineer 3 
 ENG4.         Bahruz Mehdiyev:  Engineer 4 
 ETIM.      05.00.00 10-Aug-20:  End Time 
 FLOI.gpm              1150.00:  Flow In 
 FLON.gpm               900.00:  Flow In Min 
 FLOS.cptm                0.00:  Fluid Loss 
 FLOX.gpm              1200.00:  Flow In Max 
 FTRO.     Connectivity, Formation Presure:  FTWD Run Obj 
 HFLO.                      No:  High Flow 
 HPRE.                     Yes:  High Pressure 
 HTEM.                      No:  High Temp 
 HYDO.m                   1.80:  Hydro Offset 
 IFIN.deg                 9.71:  Inc, Final 
 IMAX.deg                63.81:  Inc Max 
 IMIN.deg                 9.53:  Inc Min 
 IMND.m                5075.52:  Inc Min Depth 
 IMXD.m                4367.08:  Inc Max Depth 
 JARR.                      No:  Jarring 
 LETM.      15.00.00 07-Aug-20:  Log End Time 
 LOST.hr                     2:  Lost Rig Time 
 LSTM.      17.00.00 02-Aug-20:  Log Start Time 
 MDCL.ppm             42500.00:  Mud Chlorides 
 MDES.     Inversion Oil/Synthetic:  Mud Desc 
 DFD .sg                  1.46:  Mud Density 
 MDMN.sg                  1.46:  Dens Mud Min 
 MDMX.sg                  1.46:  Dens Mud Max 
 MOIL.                      56:  Run Mud Oil % 
 MOWR.                   70:30:  Run Mud OWR 
 MSND.                     0.1:  Run Mud Sand % 
 MSOL.                      19:  Run Mud Solids% 
 DFV .spqt               83.00:  Mud Viscosity 
 MWOD.in                  8.00:  MWD Tool OD 
 MWSI.                     Yes:  Serv Intrp, MWD 
 OTIM.hr                196.57:  Time Operating 
 PCON.           Look Like New:  Pad Condition 
 PMAX.psia             7400.00:  Press Op, Max 
 PV  .cP                 36.00:  Mud PV 
 RUN .                    1000:  Run Number 
 ROPA.m/hr               25.00:  ROP Avg 
 ROPN.m/hr               10.00:  ROP Min 
 ROPX.m/hr               32.00:  ROP Max 
 RPMA.rpm               120.00:  RPM Surface Avg 
 RPMN.rpm               100.00:  RPM Surface Min 
 RPMX.rpm               140.00:  RPM Surface Max 
 RRUN.                    L504:  Rig Run Number 
 SAZI.deg               308.25:  Azm, Start 
 SDEP.m                4364.01:  Start Depth 
 SIDD.                      No:  Serv Intrp, DD 
 SINC.deg                63.81:  Inc, Start 
 SPPA.psig             5800.00:  SPP Avg 
 SPPN.psig             4200.00:  SPP Min 
 SPPX.psig             5950.00:  SPP Max 
 STIM.      18.00.00 01-Aug-20:  Start Time 
 SVCS.                 DD, MWD:  Services 
 SVER.                    9.20:  Sperry Version 
 TDAT.m                 934.00:  Tot Depth Attmp 
 TDDF.                      No:  Trip for DD 
 TDLG.m                 934.00:  Tot Depth Loggd 
 TFF .                      No:  Trip for Fail 
 TQAA.f-kp               31.00:  Torque Abs Avg 
 TQAN.f-kp               25.00:  Torque Abs Min 
 TQAX.f-kp               35.00:  Torque Abs Max 
 TRRT.°/30m              -0.75:  Turn Rotating 
 MRT .                  EWR-M5:  Maximum Recorded Temperature 
 TTMX.degC               95.00:  Max Tool Temp 
 VS01.                90516060:  Virtual Str1 SN 
 VS02.                90528488:  Virtual Str2 SN 
 VS03.                90577970:  Virtual Str3 SN 
 VS04.                12385033:  Virtual Str4 SN 
 VS05.                90522069:  Virtual Str5 SN 
 VS06.                13124134:  Virtual Str6 SN 
 WBMN.klb                20.00:  WOB Min 
 WITN.         Alistair Sprott:  Customer Rep 
 WITN.     Ronal van der Kraan:  Customer Rep 2 
 WOBA.klb                25.00:  WOB Avg 
 WOBX.klb                31.00:  WOB Max 
 YP  .lhf2               32.00:  Yield Point 
~Curve Information Block
#MNEM.UNIT                 API CODE     Curve Description
#---------               -----------    ---------------------------
 TIME.HHMMSS            00 000 000 000:  GT Time & Date
 GTDEPTH.m              00 000 000 000:  GT Depth
 GTPQH.psia             00 000 000 000:  GT HR Quartz Pressure
 GTTQ.degC              00 000 000 000:  GT Quartz Temperature
 GTTN.NONE              00 000 000 000:  GT Test Number
 GTET.sec               00 000 000 000:  GT Elapsed Test Time
 GTTVD.m                00 000 000 000:  GT True Vertical Depth
#Other Information
#
#WARRANTY: Halliburton will use its best efforts to furnish customers with 
#accurate information and interpretations that are part of, and incident to, the services 
#provided.  However, Halliburton cannot and does not warrant the accuracy 
#or correctness of such information and interpretations.  Under no circumstances should any 
#such information or interpretation be relied upon as the sole basis for any drilling, 
#completion, production, or financial decision or any procedure involving any risk to the 
#safety of any drilling venture, drilling rig or its crew or any other third party.  The 
#Customer has full responsibility for all drilling, completion and production operation.  
#Halliburton makes no representations or warranties, either expressed or 
#implied, including, but not limited to, the implied warranties of merchantability or fitness 
#for a particular purpose, with respect to the services rendered.  In no event will 
#Halliburton be liable for failure to obtain any particular results or for 
#any damages, including, but not limited to, indirect, special or consequential damages, 
#resulting from the use of any information or interpretation provided by Halliburton.
#
~A           TIME           GTDEPTH  GTPQH  GTTQ  GTTN  GTET   GTTVD  
# ...
   06:41:19.000.08-Aug-2020 5176.51 1622.16 80.41 4.00  92.00 3362.10
   06:41:19.200.08-Aug-2020 5176.51 1622.16 80.41 4.00  92.20 3362.10
   06:41:19.400.08-Aug-2020 5176.51 1625.43 80.41 4.00  92.40 3362.10
   06:41:19.600.08-Aug-2020 5176.51 1627.04 80.41 4.00  92.60 3362.10
   06:41:19.800.08-Aug-2020 5176.51 1628.67 80.41 4.00  92.80 3362.10
   06:41:20.000.08-Aug-2020 5176.51 1630.20 80.41 4.00  93.00 3362.10
   06:41:20.200.08-Aug-2020 5176.51 1632.38 80.41 4.00  93.20 3362.10
   06:41:20.400.08-Aug-2020 5176.51 1634.15 80.41 4.00  93.40 3362.10
   06:41:20.600.08-Aug-2020 5176.51 1635.58 80.41 4.00  93.60 3362.10
   06:41:20.800.08-Aug-2020 5176.51 1638.16 80.41 4.00  93.80 3362.10
   06:41:21.000.08-Aug-2020 5176.51 1640.10 80.41 4.00  94.00 3362.10
   06:41:21.200.08-Aug-2020 5176.51 1640.10 80.41 4.00  94.20 3362.10
   06:41:21.400.08-Aug-2020 5176.51 1643.16 80.41 4.00  94.40 3362.10
   06:41:21.600.08-Aug-2020 5176.51 1644.77 80.41 4.00  94.60 3362.10
   06:41:21.800.08-Aug-2020 5176.51 1646.28 80.41 4.00  94.80 3362.10
   06:41:22.000.08-Aug-2020 5176.51 1647.95 80.41 4.00  95.00 3362.10
   06:41:22.200.08-Aug-2020 5176.51 1647.95 80.41 4.00  95.20 3362.10
   06:41:22.400.08-Aug-2020 5176.51 1651.76 80.41 4.00  95.40 3362.10
   06:41:22.600.08-Aug-2020 5176.51 1653.41 80.42 4.00  95.60 3362.10
   06:41:22.800.08-Aug-2020 5176.51 1655.01 80.42 4.00  95.80 3362.10
   06:41:23.000.08-Aug-2020 5176.51 1656.81 80.42 4.00  96.00 3362.10
   06:41:23.200.08-Aug-2020 5176.51 1659.15 80.42 4.00  96.20 3362.10
   06:41:23.400.08-Aug-2020 5176.51 1660.63 80.42 4.00  96.40 3362.10
   06:41:23.600.08-Aug-2020 5176.51 1662.20 80.42 4.00  96.60 3362.10
   06:41:23.800.08-Aug-2020 5176.51 1663.76 80.42 4.00  96.80 3362.10
   06:41:24.000.08-Aug-2020 5176.51 1665.28 80.42 4.00  97.00 3362.10
   06:41:24.200.08-Aug-2020 5176.51 1665.28 80.42 4.00  97.20 3362.10
   06:41:24.400.08-Aug-2020 5176.51 1669.34 80.42 4.00  97.40 3362.10
   06:41:24.600.08-Aug-2020 5176.51 1670.66 80.42 4.00  97.60 3362.10
   06:41:24.800.08-Aug-2020 5176.51 1672.40 80.42 4.00  97.80 3362.10
   06:41:25.000.08-Aug-2020 5176.51 1673.96 80.42 4.00  98.00 3362.10
   06:41:25.200.08-Aug-2020 5176.51 1675.47 80.42 4.00  98.20 3362.10
   06:41:25.400.08-Aug-2020 5176.51 1676.82 80.42 4.00  98.40 3362.10
   06:41:25.600.08-Aug-2020 5176.51 1679.05 80.42 4.00  98.60 3362.10
   06:41:25.800.08-Aug-2020 5176.51 1680.25 80.42 4.00  98.80 3362.10
   06:41:26.000.08-Aug-2020 5176.51 1682.21 80.42 4.00  99.00 3362.10
   06:41:26.200.08-Aug-2020 5176.51 1683.46 80.42 4.00  99.20 3362.10
   06:41:26.400.08-Aug-2020 5176.51 1684.95 80.42 4.00  99.40 3362.10
   06:41:26.600.08-Aug-2020 5176.51 1686.45 80.42 4.00  99.60 3362.10
   06:41:26.800.08-Aug-2020 5176.51 1687.84 80.42 4.00  99.80 3362.10
   06:41:27.000.08-Aug-2020 5176.51 1689.24 80.42 4.00 100.00 3362.10
   06:41:27.200.08-Aug-2020 5176.51 1689.24 80.42 4.00 100.20 3362.10
   06:41:27.400.08-Aug-2020 5176.51 1692.12 80.42 4.00 100.40 3362.10
   06:41:27.600.08-Aug-2020 5176.51 1693.81 80.42 4.00 100.60 3362.10
   06:41:27.800.08-Aug-2020 5176.51 1696.04 80.42 4.00 100.80 3362.10
   06:41:28.000.08-Aug-2020 5176.51 1697.40 80.42 4.00 101.00 3362.10
   06:41:28.200.08-Aug-2020 5176.51 1697.40 80.42 4.00 101.20 3362.10
   06:41:28.400.08-Aug-2020 5176.51 1700.14 80.42 4.00 101.40 3362.10
   06:41:28.600.08-Aug-2020 5176.51 1701.57 80.42 4.00 101.60 3362.10
   06:41:28.800.08-Aug-2020 5176.51 1702.88 80.42 4.00 101.80 3362.10
   06:41:29.000.08-Aug-2020 5176.51 1704.22 80.42 4.00 102.00 3362.10
   06:41:29.200.08-Aug-2020 5176.51 1704.22 80.42 4.00 102.20 3362.10
   06:41:29.400.08-Aug-2020 5176.51 1706.93 80.42 4.00 102.40 3362.10
   06:41:29.600.08-Aug-2020 5176.51 1708.28 80.42 4.00 102.60 3362.10
   06:41:29.800.08-Aug-2020 5176.51 1709.67 80.42 4.00 102.80 3362.10
   06:41:30.000.08-Aug-2020 5176.51 1710.98 80.42 4.00 103.00 3362.10
   06:41:30.200.08-Aug-2020 5176.51 1712.35 80.42 4.00 103.20 3362.10
   06:41:30.400.08-Aug-2020 5176.51 1713.75 80.42 4.00 103.40 3362.10
   06:41:30.600.08-Aug-2020 5176.51 1714.95 80.42 4.00 103.60 3362.10
   06:41:30.800.08-Aug-2020 5176.51 1717.15 80.42 4.00 103.80 3362.10
   06:41:31.000.08-Aug-2020 5176.51 1718.81 80.42 4.00 104.00 3362.10
   06:41:31.200.08-Aug-2020 5176.51 1718.81 80.42 4.00 104.20 3362.10
   06:41:31.400.08-Aug-2020 5176.51 1722.28 80.42 4.00 104.40 3362.10
   06:41:31.600.08-Aug-2020 5176.51 1723.78 80.42 4.00 104.60 3362.10
   06:41:31.800.08-Aug-2020 5176.51 1724.80 80.42 4.00 104.80 3362.10
   06:41:32.000.08-Aug-2020 5176.51 1727.11 80.42 4.00 105.00 3362.10
   06:41:32.200.08-Aug-2020 5176.51 1727.11 80.42 4.00 105.20 3362.10
   06:41:32.400.08-Aug-2020 5176.51 1729.68 80.43 4.00 105.40 3362.10
   06:41:32.600.08-Aug-2020 5176.51 1731.26 80.43 4.00 105.60 3362.10
   06:41:32.800.08-Aug-2020 5176.51 1732.66 80.43 4.00 105.80 3362.10
   06:41:33.000.08-Aug-2020 5176.51 1733.97 80.43 4.00 106.00 3362.10
   06:41:33.200.08-Aug-2020 5176.51 1733.97 80.43 4.00 106.20 3362.10
   06:41:33.400.08-Aug-2020 5176.51 1737.08 80.43 4.00 106.40 3362.10
   06:41:33.600.08-Aug-2020 5176.51 1738.20 80.43 4.00 106.60 3362.10
   06:41:33.800.08-Aug-2020 5176.51 1739.41 80.43 4.00 106.80 3362.10
   06:41:34.000.08-Aug-2020 5176.51 1740.58 80.43 4.00 107.00 3362.10
   06:41:34.200.08-Aug-2020 5176.51 1740.58 80.43 4.00 107.20 3362.10
   06:41:34.400.08-Aug-2020 5176.51 1742.87 80.43 4.00 107.40 3362.10
   06:41:34.600.08-Aug-2020 5176.51 1744.42 80.43 4.00 107.60 3362.10
   06:41:34.800.08-Aug-2020 5176.51 1745.96 80.43 4.00 107.80 3362.10
   06:41:35.000.08-Aug-2020 5176.51 1747.05 80.43 4.00 108.00 3362.10
   06:41:35.200.08-Aug-2020 5176.51 1747.05 80.43 4.00 108.20 3362.10
   06:41:35.400.08-Aug-2020 5176.51 1749.52 80.43 4.00 108.40 3362.10
   06:41:35.600.08-Aug-2020 5176.51 1750.66 80.43 4.00 108.60 3362.10
   06:41:35.800.08-Aug-2020 5176.51 1751.84 80.43 4.00 108.80 3362.10
   06:41:36.000.08-Aug-2020 5176.51 1753.02 80.43 4.00 109.00 3362.10
   06:41:36.200.08-Aug-2020 5176.51 1753.02 80.43 4.00 109.20 3362.10
   06:41:36.400.08-Aug-2020 5176.51 1755.28 80.43 4.00 109.40 3362.10
   06:41:36.600.08-Aug-2020 5176.51 1756.46 80.43 4.00 109.60 3362.10
   06:41:36.800.08-Aug-2020 5176.51 1757.69 80.43 4.00 109.80 3362.10
   06:41:37.000.08-Aug-2020 5176.51 1758.80 80.43 4.00 110.00 3362.10
   06:41:37.200.08-Aug-2020 5176.51 1758.80 80.43 4.00 110.20 3362.10
   06:41:37.400.08-Aug-2020 5176.51 1761.01 80.43 4.00 110.40 3362.10
   06:41:37.600.08-Aug-2020 5176.51 1762.09 80.43 4.00 110.60 3362.10
   06:41:37.800.08-Aug-2020 5176.51 1763.22 80.43 4.00 110.80 3362.10
   06:41:38.000.08-Aug-2020 5176.51 1764.33 80.43 4.00 111.00 3362.10
   06:41:38.200.08-Aug-2020 5176.51 1765.78 80.43 4.00 111.20 3362.10
   06:41:38.400.08-Aug-2020 5176.51 1766.80 80.43 4.00 111.40 3362.10
   06:41:38.600.08-Aug-2020 5176.51 1767.76 80.43 4.00 111.60 3362.10
   06:41:38.800.08-Aug-2020 5176.51 1768.80 80.43 4.00 111.80 3362.10
   06:41:39.000.08-Aug-2020 5176.51 1769.94 80.43 4.00 112.00 3362.10
   06:41:39.200.08-Aug-2020 5176.51 1769.94 80.43 4.00 112.20 3362.10
   06:41:39.400.08-Aug-2020 5176.51 1772.08 80.43 4.00 112.40 3362.10
   06:41:39.600.08-Aug-2020 5176.51 1773.19 80.43 4.00 112.60 3362.10
   06:41:39.800.08-Aug-2020 5176.51 1774.28 80.43 4.00 112.80 3362.10
   06:41:40.000.08-Aug-2020 5176.51 1775.37 80.43 4.00 113.00 3362.10
   06:41:40.200.08-Aug-2020 5176.51 1776.52 80.43 4.00 113.20 3362.10
   06:41:40.400.08-Aug-2020 5176.51 1777.54 80.43 4.00 113.40 3362.10
   06:41:40.600.08-Aug-2020 5176.51 1778.56 80.43 4.00 113.60 3362.10
   06:41:40.800.08-Aug-2020 5176.51 1779.62 80.43 4.00 113.80 3362.10
   06:41:41.000.08-Aug-2020 5176.51 1780.59 80.43 4.00 114.00 3362.10
   06:41:41.200.08-Aug-2020 5176.51 1780.59 80.43 4.00 114.20 3362.10
   06:41:41.400.08-Aug-2020 5176.51 1783.35 80.43 4.00 114.40 3362.10
   06:41:41.600.08-Aug-2020 5176.51 1784.08 80.43 4.00 114.60 3362.10
   06:41:41.800.08-Aug-2020 5176.51 1785.82 80.43 4.00 114.80 3362.10
