~Version Information
 VERS.                  2.0:   CWLS log ASCII Standard -VERSION 2.0
 WRAP.                   NO:   One line per depth step
~Well Information Block
#MNEM.UNIT     VALUE/NAME     DESCRIPTION
#---------     -----------    ---------------------------
 STRT.S             08:45:48 08-Aug-20: START TIME 08:45:48 08-Aug-20
 STOP.S             08:54:16 08-Aug-20: STOP TIME  08:54:16 08-Aug-20
 STEP.S                   0.00: STEP TIME
 NULL.                 -999.25: NULL VALUE
 DFWT.                        :  DIST FWL TEXT
 DFST.                        :  DIST FSL TEXT
 DMF .             Drill Floor:  DRILL MEAS FROM
 STIM.      13.47.44 07-Jun-20:  START TIME
 DATE.      13.47.44 27-Jul-20:  END TIME
 SPUD.               07-Jun-20:  SPUD DATE
 NREF.                    Grid:  NORTH REFERENCE
 HPTY.       Minimum Curvature:  HOLE POS TYPE
 DMOD.             Drill Model:  DRILL MOD DESC
 SVYD.                  Survey:  SURVEY DESC
 ILTD.               Lithology:  INTERP LTH DESC
 FTOP.          Formation Tops:  FORM TOPS DESC
 RIG .             West Chirag:  RIG NAME
 PDAT.          Mean Sea Level:  PERMANENT DATUM
 FLD .                     ACG:  FIELD NAME
 SON .        AZ-XX-0906363612:  JOB NUMBER
 CTRY.              Azerbaijan:  COUNTRY NAME
 WELL.           J25 (Slot 35):  WELL NAME
 SRVC.          Turan Drilling:  CONTRACTOR
 COMP.     BP Exploration (Caspian Sea) Ltd:  COMPANY
 UWI .                     N/A:  UNIQUE WELL IDENTIFIER
 API .                     N/A:  API NUMBER
 BASE.              Azerbaijan:  LOGGING EQUIPMENT BASE LOCATION
 REGN.                   EESSA:  REGION
 PROV.                    Baku:  PROVINCE
 STAT.                    Baku:  STATE NAME
 MWDS.                     N/A:  MWD SHOP
 DOE .                     N/A:  DOE NUMBER
 DCON.         Sperry Drilling:  DIRECTNL CONTR
 UNIT.                     N/A:  LOGGING EQUIPMENT ID
 MDS .        Operator Entered:  MAG DATA SOURCE
 JOBN.        AZ-XX-0906363612:  JOB TICKET NUMB
 WTYP.                Deviated:  WELL TYPE
 CNTY.                        :  COUNTY
 LOC .                        :  LOCATION
 LMF .             Drill Floor:  LOG MEASURED FROM
 TVDS.m                  43.00:  TVDSS CORRECTN
 LATI.deg                40.13:  LATITUDE
 LONG.deg                51.22:  LONGITUDE
 WHNS.m                  -7.90:  WELL HEAD N/S
 WHEW.m                  -3.35:  WELL HEAD E/W
 UTMX.m              519005.06:  UTM X
 UTMY.m             4443793.85:  UTM Y
 DFWL.m                   0.00:  DISTANCE FWL
 DFSL.m                   0.00:  DISTANCE FSL
 SDEP.m                   0.00:  START DEPTH
 TDD .m                   0.00:  TOTAL DEPTH (DRILLER)
 VSDR.deg               308.97:  VERT SEC DIRECT
 GVFD.g                   1.00:  GRAVITY FIELD
 MFLD.nT              50350.00:  MAGNETIC FIELD
 MDIP.deg                59.62:  MAGNETIC DIP
 MDEC.deg                 6.44:  MAGNETIC DECL
 GRDC.deg                 0.13:  GRID CORRECTION
 AZTC.deg                 6.32:  AZM TOTAL CORR
 EPD .m                   0.00:  ELEVATION
 EGL .m                   0.00:  GROUND ELEVATION
 WDMS.m                 169.80:  WD ELEV
 APD .m                  43.00:  DEPTH ABOVE PD
 DEP .m                 356.43:  DEPTH
 AGAP.m                  43.00:  AIR GAP
 VSEW.m                  -3.35:  VERT SEC E/W
 VSNS.m                  -7.90:  VERT SEC N/S
 EKB .m                  43.00:  KB ELEVATION
 EDF .m                  43.00:  DF ELEVATION
 TDL .m                 934.00:  TOTAL DEPTH (LOGGER)
 VSC .                       0:  VS TO CLOSURE
 MAGU.                 1852825:  MAGUTM CHECKSUM
~Parameter Information Block
#MNEM.UNIT       Value        Description
#---------     -----------    ---------------------------
 AV  .mps                 0.80:  Ann Velocity 
 AVMX.mps                 1.70:  Max Ann Veloc 
 AZIF.deg               311.41:  Azm, Final 
 BHAT.        Rotary Steerable:  BHA Type 
 BROT.°/30m               0.09:  Build Rotating 
 BS  .in                 12.25:  Bit Size 
 BSZ .in                 12.25:  Bit Size 
 BTPL.psig              800.00:  Bit Press Loss 
 CABU.                      No:  Customer Abuse 
 COMM.                     ôS:  Run Comments 1 
 TCS .hr                 96.00:  Time Ciculation Ended 
 CV  .mps                 2.03:  Crit Velocity 
 CVMX.mps                 2.42:  Max Crit Veloc 
 DD1 .          Taghi Taghiyev:  Direct Drillr 1 
 DD2 .      Tariel Pirmammadov:  Direct Drillr 2 
 DD3 .          Teymur Aghayev:  Direct Drillr 3 
 DDSV.                 iCruise:  DD Service 
 DEFF.%                  98.70:  % Det Eff 
 DLRX.°/30m               1.00:  Dogleg Rot Max 
 DLSO.°/30m               1.80:  Dogleg Oriented 
 DLSX.°/30m               3.16:  Dogleg Str Max 
 DRET.      15.00.00 07-Aug-20:  Drill End Time 
 DRST.      17.00.00 02-Aug-20:  Drill Start Tim 
 DTIM.hr                 45.90:  Time Drilling 
 EDEP.m                5298.01:  End Depth 
 ENG1.       Seymur Iskandarov:  Engineer 1 
 ENG2.         Yevgeniy Ulikov:  Engineer 2 
 ENG3.      Artemiy Matviyanov:  Engineer 3 
 ENG4.         Bahruz Mehdiyev:  Engineer 4 
 ETIM.      05.00.00 10-Aug-20:  End Time 
 FLOI.gpm              1150.00:  Flow In 
 FLON.gpm               900.00:  Flow In Min 
 FLOS.cptm                0.00:  Fluid Loss 
 FLOX.gpm              1200.00:  Flow In Max 
 FTRO.     Connectivity, Formation Presure:  FTWD Run Obj 
 HFLO.                      No:  High Flow 
 HPRE.                     Yes:  High Pressure 
 HTEM.                      No:  High Temp 
 HYDO.m                   1.80:  Hydro Offset 
 IFIN.deg                 9.71:  Inc, Final 
 IMAX.deg                63.81:  Inc Max 
 IMIN.deg                 9.53:  Inc Min 
 IMND.m                5075.52:  Inc Min Depth 
 IMXD.m                4367.08:  Inc Max Depth 
 JARR.                      No:  Jarring 
 LETM.      15.00.00 07-Aug-20:  Log End Time 
 LOST.hr                     2:  Lost Rig Time 
 LSTM.      17.00.00 02-Aug-20:  Log Start Time 
 MDCL.ppm             42500.00:  Mud Chlorides 
 MDES.     Inversion Oil/Synthetic:  Mud Desc 
 DFD .sg                  1.46:  Mud Density 
 MDMN.sg                  1.46:  Dens Mud Min 
 MDMX.sg                  1.46:  Dens Mud Max 
 MOIL.                      56:  Run Mud Oil % 
 MOWR.                   70:30:  Run Mud OWR 
 MSND.                     0.1:  Run Mud Sand % 
 MSOL.                      19:  Run Mud Solids% 
 DFV .spqt               83.00:  Mud Viscosity 
 MWOD.in                  8.00:  MWD Tool OD 
 MWSI.                     Yes:  Serv Intrp, MWD 
 OTIM.hr                196.57:  Time Operating 
 PCON.           Look Like New:  Pad Condition 
 PMAX.psia             7400.00:  Press Op, Max 
 PV  .cP                 36.00:  Mud PV 
 RUN .                    1000:  Run Number 
 ROPA.m/hr               25.00:  ROP Avg 
 ROPN.m/hr               10.00:  ROP Min 
 ROPX.m/hr               32.00:  ROP Max 
 RPMA.rpm               120.00:  RPM Surface Avg 
 RPMN.rpm               100.00:  RPM Surface Min 
 RPMX.rpm               140.00:  RPM Surface Max 
 RRUN.                    L504:  Rig Run Number 
 SAZI.deg               308.25:  Azm, Start 
 SDEP.m                4364.01:  Start Depth 
 SIDD.                      No:  Serv Intrp, DD 
 SINC.deg                63.81:  Inc, Start 
 SPPA.psig             5800.00:  SPP Avg 
 SPPN.psig             4200.00:  SPP Min 
 SPPX.psig             5950.00:  SPP Max 
 STIM.      18.00.00 01-Aug-20:  Start Time 
 SVCS.                 DD, MWD:  Services 
 SVER.                    9.20:  Sperry Version 
 TDAT.m                 934.00:  Tot Depth Attmp 
 TDDF.                      No:  Trip for DD 
 TDLG.m                 934.00:  Tot Depth Loggd 
 TFF .                      No:  Trip for Fail 
 TQAA.f-kp               31.00:  Torque Abs Avg 
 TQAN.f-kp               25.00:  Torque Abs Min 
 TQAX.f-kp               35.00:  Torque Abs Max 
 TRRT.°/30m              -0.75:  Turn Rotating 
 MRT .                  EWR-M5:  Maximum Recorded Temperature 
 TTMX.degC               95.00:  Max Tool Temp 
 VS01.                90516060:  Virtual Str1 SN 
 VS02.                90528488:  Virtual Str2 SN 
 VS03.                90577970:  Virtual Str3 SN 
 VS04.                12385033:  Virtual Str4 SN 
 VS05.                90522069:  Virtual Str5 SN 
 VS06.                13124134:  Virtual Str6 SN 
 WBMN.klb                20.00:  WOB Min 
 WITN.         Alistair Sprott:  Customer Rep 
 WITN.     Ronal van der Kraan:  Customer Rep 2 
 WOBA.klb                25.00:  WOB Avg 
 WOBX.klb                31.00:  WOB Max 
 YP  .lhf2               32.00:  Yield Point 
~Curve Information Block
#MNEM.UNIT                 API CODE     Curve Description
#---------               -----------    ---------------------------
 TIME.HHMMSS            00 000 000 000:  GT Time & Date
 GTDEPTH.m              00 000 000 000:  GT Depth
 GTPQH.psia             00 000 000 000:  GT HR Quartz Pressure
 GTTQ.degC              00 000 000 000:  GT Quartz Temperature
 GTTN.NONE              00 000 000 000:  GT Test Number
 GTET.sec               00 000 000 000:  GT Elapsed Test Time
 GTTVD.m                00 000 000 000:  GT True Vertical Depth
#Other Information
#
#WARRANTY: Halliburton will use its best efforts to furnish customers with 
#accurate information and interpretations that are part of, and incident to, the services 
#provided.  However, Halliburton cannot and does not warrant the accuracy 
#or correctness of such information and interpretations.  Under no circumstances should any 
#such information or interpretation be relied upon as the sole basis for any drilling, 
#completion, production, or financial decision or any procedure involving any risk to the 
#safety of any drilling venture, drilling rig or its crew or any other third party.  The 
#Customer has full responsibility for all drilling, completion and production operation.  
#Halliburton makes no representations or warranties, either expressed or 
#implied, including, but not limited to, the implied warranties of merchantability or fitness 
#for a particular purpose, with respect to the services rendered.  In no event will 
#Halliburton be liable for failure to obtain any particular results or for 
#any damages, including, but not limited to, indirect, special or consequential damages, 
#resulting from the use of any information or interpretation provided by Halliburton.
#
~A           TIME           GTDEPTH  GTPQH  GTTQ  GTTN  GTET   GTTVD  
# ...
   08:52:20.014.08-Aug-2020 5134.01 1692.43 75.97 7.00 391.21 3320.21
   08:52:20.214.08-Aug-2020 5134.01 1692.43 75.97 7.00 391.41 3320.21
   08:52:20.414.08-Aug-2020 5134.01 1695.89 75.97 7.00 391.61 3320.21
   08:52:20.614.08-Aug-2020 5134.01 1697.63 75.97 7.00 391.81 3320.21
   08:52:20.815.08-Aug-2020 5134.01 1699.18 75.97 7.00 392.01 3320.21
   08:52:21.015.08-Aug-2020 5134.01 1700.82 75.97 7.00 392.21 3320.21
   08:52:21.215.08-Aug-2020 5134.01 1702.45 75.97 7.00 392.41 3320.21
   08:52:21.415.08-Aug-2020 5134.01 1704.19 75.97 7.00 392.61 3320.21
   08:52:21.615.08-Aug-2020 5134.01 1705.86 75.97 7.00 392.81 3320.21
   08:52:21.815.08-Aug-2020 5134.01 1707.55 75.97 7.00 393.01 3320.21
   08:52:22.015.08-Aug-2020 5134.01 1709.19 75.97 7.00 393.21 3320.21
   08:52:22.215.08-Aug-2020 5134.01 1710.92 75.97 7.00 393.41 3320.21
   08:52:22.415.08-Aug-2020 5134.01 1712.61 75.97 7.00 393.61 3320.21
   08:52:22.616.08-Aug-2020 5134.01 1714.28 75.97 7.00 393.81 3320.21
   08:52:22.816.08-Aug-2020 5134.01 1715.94 75.97 7.00 394.01 3320.21
   08:52:23.016.08-Aug-2020 5134.01 1717.46 75.97 7.00 394.21 3320.21
   08:52:23.216.08-Aug-2020 5134.01 1717.46 75.97 7.00 394.41 3320.21
   08:52:23.416.08-Aug-2020 5134.01 1720.78 75.97 7.00 394.61 3320.21
   08:52:23.616.08-Aug-2020 5134.01 1722.43 75.97 7.00 394.81 3320.21
   08:52:23.816.08-Aug-2020 5134.01 1724.08 75.97 7.00 395.01 3320.21
   08:52:24.016.08-Aug-2020 5134.01 1725.70 75.97 7.00 395.21 3320.21
   08:52:24.216.08-Aug-2020 5134.01 1725.70 75.97 7.00 395.41 3320.21
   08:52:24.416.08-Aug-2020 5134.01 1729.15 75.97 7.00 395.61 3320.21
   08:52:24.617.08-Aug-2020 5134.01 1730.69 75.97 7.00 395.81 3320.21
   08:52:24.817.08-Aug-2020 5134.01 1732.59 75.97 7.00 396.01 3320.21
   08:52:25.017.08-Aug-2020 5134.01 1734.35 75.97 7.00 396.21 3320.21
   08:52:25.217.08-Aug-2020 5134.01 1735.83 75.97 7.00 396.41 3320.21
   08:52:25.417.08-Aug-2020 5134.01 1737.45 75.97 7.00 396.61 3320.21
   08:52:25.617.08-Aug-2020 5134.01 1739.16 75.97 7.00 396.81 3320.21
   08:52:25.817.08-Aug-2020 5134.01 1740.83 75.97 7.00 397.01 3320.21
   08:52:26.017.08-Aug-2020 5134.01 1742.52 75.97 7.00 397.21 3320.21
   08:52:26.217.08-Aug-2020 5134.01 1744.46 75.97 7.00 397.41 3320.21
   08:52:26.418.08-Aug-2020 5134.01 1746.10 75.97 7.00 397.61 3320.21
   08:52:26.618.08-Aug-2020 5134.01 1747.63 75.97 7.00 397.81 3320.21
   08:52:26.818.08-Aug-2020 5134.01 1749.23 75.97 7.00 398.01 3320.21
   08:52:27.018.08-Aug-2020 5134.01 1750.34 75.97 7.00 398.21 3320.21
   08:52:27.218.08-Aug-2020 5134.01 1750.34 75.97 7.00 398.41 3320.21
   08:52:27.418.08-Aug-2020 5134.01 1752.84 75.97 7.00 398.61 3320.21
   08:52:27.618.08-Aug-2020 5134.01 1754.32 75.97 7.00 398.81 3320.21
   08:52:27.818.08-Aug-2020 5134.01 1755.98 75.97 7.00 399.01 3320.21
   08:52:28.018.08-Aug-2020 5134.01 1757.56 75.97 7.00 399.21 3320.21
   08:52:28.218.08-Aug-2020 5134.01 1757.56 75.97 7.00 399.41 3320.21
   08:52:28.419.08-Aug-2020 5134.01 1760.92 75.97 7.00 399.61 3320.21
   08:52:28.619.08-Aug-2020 5134.01 1762.56 75.97 7.00 399.81 3320.21
   08:52:28.819.08-Aug-2020 5134.01 1764.19 75.97 7.00 400.01 3320.21
   08:52:29.019.08-Aug-2020 5134.01 1765.82 75.97 7.00 400.21 3320.21
   08:52:29.219.08-Aug-2020 5134.01 1765.82 75.97 7.00 400.41 3320.21
   08:52:29.419.08-Aug-2020 5134.01 1769.11 75.96 7.00 400.61 3320.21
   08:52:29.619.08-Aug-2020 5134.01 1770.76 75.96 7.00 400.81 3320.21
   08:52:29.819.08-Aug-2020 5134.01 1772.38 75.96 7.00 401.01 3320.21
   08:52:30.019.08-Aug-2020 5134.01 1774.00 75.96 7.00 401.21 3320.21
   08:52:30.220.08-Aug-2020 5134.01 1774.00 75.96 7.00 401.41 3320.21
   08:52:30.420.08-Aug-2020 5134.01 1777.23 75.96 7.00 401.61 3320.21
   08:52:30.620.08-Aug-2020 5134.01 1778.96 75.96 7.00 401.81 3320.21
   08:52:30.820.08-Aug-2020 5134.01 1780.70 75.96 7.00 402.01 3320.21
   08:52:31.020.08-Aug-2020 5134.01 1782.22 75.96 7.00 402.21 3320.21
   08:52:31.220.08-Aug-2020 5134.01 1782.22 75.96 7.00 402.41 3320.21
   08:52:31.420.08-Aug-2020 5134.01 1785.34 75.96 7.00 402.61 3320.21
   08:52:31.620.08-Aug-2020 5134.01 1786.98 75.96 7.00 402.81 3320.21
   08:52:31.820.08-Aug-2020 5134.01 1788.59 75.96 7.00 403.01 3320.21
   08:52:32.020.08-Aug-2020 5134.01 1790.21 75.96 7.00 403.21 3320.21
   08:52:32.221.08-Aug-2020 5134.01 1790.21 75.96 7.00 403.41 3320.21
   08:52:32.421.08-Aug-2020 5134.01 1793.46 75.96 7.00 403.61 3320.21
   08:52:32.621.08-Aug-2020 5134.01 1795.08 75.96 7.00 403.81 3320.21
   08:52:32.821.08-Aug-2020 5134.01 1796.71 75.96 7.00 404.01 3320.21
   08:52:33.021.08-Aug-2020 5134.01 1798.32 75.96 7.00 404.21 3320.21
   08:52:33.221.08-Aug-2020 5134.01 1799.90 75.96 7.00 404.41 3320.21
   08:52:33.421.08-Aug-2020 5134.01 1801.49 75.96 7.00 404.61 3320.21
   08:52:33.621.08-Aug-2020 5134.01 1803.11 75.96 7.00 404.81 3320.21
   08:52:33.821.08-Aug-2020 5134.01 1804.28 75.96 7.00 405.01 3320.21
   08:52:34.022.08-Aug-2020 5134.01 1805.36 75.96 7.00 405.21 3320.21
   08:52:34.222.08-Aug-2020 5134.01 1805.36 75.96 7.00 405.41 3320.21
   08:52:34.422.08-Aug-2020 5134.01 1808.39 75.96 7.00 405.61 3320.21
   08:52:34.622.08-Aug-2020 5134.01 1810.00 75.96 7.00 405.81 3320.21
   08:52:34.822.08-Aug-2020 5134.01 1811.47 75.96 7.00 406.01 3320.21
   08:52:35.022.08-Aug-2020 5134.01 1813.07 75.96 7.00 406.21 3320.21
   08:52:35.222.08-Aug-2020 5134.01 1813.07 75.96 7.00 406.41 3320.21
   08:52:35.422.08-Aug-2020 5134.01 1816.24 75.96 7.00 406.62 3320.21
   08:52:35.622.08-Aug-2020 5134.01 1817.90 75.96 7.00 406.82 3320.21
   08:52:35.823.08-Aug-2020 5134.01 1819.62 75.96 7.00 407.02 3320.21
   08:52:36.023.08-Aug-2020 5134.01 1821.27 75.96 7.00 407.22 3320.21
   08:52:36.223.08-Aug-2020 5134.01 1821.27 75.96 7.00 407.42 3320.21
   08:52:36.423.08-Aug-2020 5134.01 1824.53 75.96 7.00 407.62 3320.21
   08:52:36.623.08-Aug-2020 5134.01 1826.22 75.96 7.00 407.82 3320.21
   08:52:36.823.08-Aug-2020 5134.01 1827.61 75.96 7.00 408.02 3320.21
   08:52:37.023.08-Aug-2020 5134.01 1829.20 75.96 7.00 408.22 3320.21
   08:52:37.223.08-Aug-2020 5134.01 1830.70 75.96 7.00 408.42 3320.21
   08:52:37.423.08-Aug-2020 5134.01 1832.45 75.96 7.00 408.62 3320.21
   08:52:37.623.08-Aug-2020 5134.01 1834.11 75.96 7.00 408.82 3320.21
   08:52:37.824.08-Aug-2020 5134.01 1835.66 75.96 7.00 409.02 3320.21
   08:52:38.024.08-Aug-2020 5134.01 1837.13 75.96 7.00 409.22 3320.21
   08:52:38.224.08-Aug-2020 5134.01 1837.13 75.96 7.00 409.42 3320.21
   08:52:38.424.08-Aug-2020 5134.01 1840.30 75.96 7.00 409.62 3320.21
   08:52:38.624.08-Aug-2020 5134.01 1841.85 75.96 7.00 409.82 3320.21
   08:52:38.824.08-Aug-2020 5134.01 1843.44 75.96 7.00 410.02 3320.21
   08:52:39.024.08-Aug-2020 5134.01 1844.97 75.96 7.00 410.22 3320.21
   08:52:39.224.08-Aug-2020 5134.01 1844.97 75.96 7.00 410.42 3320.21
   08:52:39.424.08-Aug-2020 5134.01 1848.18 75.96 7.00 410.62 3320.21
   08:52:39.625.08-Aug-2020 5134.01 1849.75 75.96 7.00 410.82 3320.21
   08:52:39.825.08-Aug-2020 5134.01 1851.32 75.96 7.00 411.02 3320.21
   08:52:40.025.08-Aug-2020 5134.01 1852.88 75.96 7.00 411.22 3320.21
   08:52:40.225.08-Aug-2020 5134.01 1852.88 75.96 7.00 411.42 3320.21
   08:52:40.425.08-Aug-2020 5134.01 1856.00 75.96 7.00 411.62 3320.21
   08:52:40.625.08-Aug-2020 5134.01 1857.55 75.96 7.00 411.82 3320.21
   08:52:40.825.08-Aug-2020 5134.01 1859.23 75.96 7.00 412.02 3320.21
   08:52:41.025.08-Aug-2020 5134.01 1860.76 75.96 7.00 412.22 3320.21
   08:52:41.225.08-Aug-2020 5134.01 1862.10 75.96 7.00 412.42 3320.21
   08:52:41.425.08-Aug-2020 5134.01 1863.46 75.96 7.00 412.62 3320.21
   08:52:41.626.08-Aug-2020 5134.01 1864.64 75.96 7.00 412.82 3320.21
   08:52:41.826.08-Aug-2020 5134.01 1865.79 75.96 7.00 413.02 3320.21
   08:52:42.026.08-Aug-2020 5134.01 1867.28 75.96 7.00 413.22 3320.21
   08:52:42.226.08-Aug-2020 5134.01 1868.84 75.96 7.00 413.42 3320.21
   08:52:42.426.08-Aug-2020 5134.01 1870.39 75.96 7.00 413.62 3320.21
   08:52:42.626.08-Aug-2020 5134.01 1872.02 75.96 7.00 413.82 3320.21
   08:52:42.826.08-Aug-2020 5134.01 1873.55 75.96 7.00 414.02 3320.21
