~Version Information
 VERS.                  2.0:   CWLS log ASCII Standard -VERSION 2.0
 WRAP.                   NO:   One line per depth step
~Well Information Block
#MNEM.UNIT     VALUE/NAME     DESCRIPTION
#---------     -----------    ---------------------------
 STRT.S             07:09:07 08-Aug-20: START TIME 07:09:07 08-Aug-20
 STOP.S             07:17:38 08-Aug-20: STOP TIME  07:17:38 08-Aug-20
 STEP.S                   0.00: STEP TIME
 NULL.                 -999.25: NULL VALUE
 DFWT.                        :  DIST FWL TEXT
 DFST.                        :  DIST FSL TEXT
 DMF .             Drill Floor:  DRILL MEAS FROM
 STIM.      13.47.44 07-Jun-20:  START TIME
 DATE.      13.47.44 27-Jul-20:  END TIME
 SPUD.               07-Jun-20:  SPUD DATE
 NREF.                    Grid:  NORTH REFERENCE
 HPTY.       Minimum Curvature:  HOLE POS TYPE
 DMOD.             Drill Model:  DRILL MOD DESC
 SVYD.                  Survey:  SURVEY DESC
 ILTD.               Lithology:  INTERP LTH DESC
 FTOP.          Formation Tops:  FORM TOPS DESC
 RIG .             West Chirag:  RIG NAME
 PDAT.          Mean Sea Level:  PERMANENT DATUM
 FLD .                     ACG:  FIELD NAME
 SON .        AZ-XX-0906363612:  JOB NUMBER
 CTRY.              Azerbaijan:  COUNTRY NAME
 WELL.           J25 (Slot 35):  WELL NAME
 SRVC.          Turan Drilling:  CONTRACTOR
 COMP.     BP Exploration (Caspian Sea) Ltd:  COMPANY
 UWI .                     N/A:  UNIQUE WELL IDENTIFIER
 API .                     N/A:  API NUMBER
 BASE.              Azerbaijan:  LOGGING EQUIPMENT BASE LOCATION
 REGN.                   EESSA:  REGION
 PROV.                    Baku:  PROVINCE
 STAT.                    Baku:  STATE NAME
 MWDS.                     N/A:  MWD SHOP
 DOE .                     N/A:  DOE NUMBER
 DCON.         Sperry Drilling:  DIRECTNL CONTR
 UNIT.                     N/A:  LOGGING EQUIPMENT ID
 MDS .        Operator Entered:  MAG DATA SOURCE
 JOBN.        AZ-XX-0906363612:  JOB TICKET NUMB
 WTYP.                Deviated:  WELL TYPE
 CNTY.                        :  COUNTY
 LOC .                        :  LOCATION
 LMF .             Drill Floor:  LOG MEASURED FROM
 TVDS.m                  43.00:  TVDSS CORRECTN
 LATI.deg                40.13:  LATITUDE
 LONG.deg                51.22:  LONGITUDE
 WHNS.m                  -7.90:  WELL HEAD N/S
 WHEW.m                  -3.35:  WELL HEAD E/W
 UTMX.m              519005.06:  UTM X
 UTMY.m             4443793.85:  UTM Y
 DFWL.m                   0.00:  DISTANCE FWL
 DFSL.m                   0.00:  DISTANCE FSL
 SDEP.m                   0.00:  START DEPTH
 TDD .m                   0.00:  TOTAL DEPTH (DRILLER)
 VSDR.deg               308.97:  VERT SEC DIRECT
 GVFD.g                   1.00:  GRAVITY FIELD
 MFLD.nT              50350.00:  MAGNETIC FIELD
 MDIP.deg                59.62:  MAGNETIC DIP
 MDEC.deg                 6.44:  MAGNETIC DECL
 GRDC.deg                 0.13:  GRID CORRECTION
 AZTC.deg                 6.32:  AZM TOTAL CORR
 EPD .m                   0.00:  ELEVATION
 EGL .m                   0.00:  GROUND ELEVATION
 WDMS.m                 169.80:  WD ELEV
 APD .m                  43.00:  DEPTH ABOVE PD
 DEP .m                 356.43:  DEPTH
 AGAP.m                  43.00:  AIR GAP
 VSEW.m                  -3.35:  VERT SEC E/W
 VSNS.m                  -7.90:  VERT SEC N/S
 EKB .m                  43.00:  KB ELEVATION
 EDF .m                  43.00:  DF ELEVATION
 TDL .m                 934.00:  TOTAL DEPTH (LOGGER)
 VSC .                       0:  VS TO CLOSURE
 MAGU.                 1852825:  MAGUTM CHECKSUM
~Parameter Information Block
#MNEM.UNIT       Value        Description
#---------     -----------    ---------------------------
 AV  .mps                 0.80:  Ann Velocity 
 AVMX.mps                 1.70:  Max Ann Veloc 
 AZIF.deg               311.41:  Azm, Final 
 BHAT.        Rotary Steerable:  BHA Type 
 BROT.°/30m               0.09:  Build Rotating 
 BS  .in                 12.25:  Bit Size 
 BSZ .in                 12.25:  Bit Size 
 BTPL.psig              800.00:  Bit Press Loss 
 CABU.                      No:  Customer Abuse 
 COMM.                     „Òs:  Run Comments 1 
 TCS .hr                 96.00:  Time Ciculation Ended 
 CV  .mps                 2.03:  Crit Velocity 
 CVMX.mps                 2.42:  Max Crit Veloc 
 DD1 .          Taghi Taghiyev:  Direct Drillr 1 
 DD2 .      Tariel Pirmammadov:  Direct Drillr 2 
 DD3 .          Teymur Aghayev:  Direct Drillr 3 
 DDSV.                 iCruise:  DD Service 
 DEFF.%                  98.70:  % Det Eff 
 DLRX.°/30m               1.00:  Dogleg Rot Max 
 DLSO.°/30m               1.80:  Dogleg Oriented 
 DLSX.°/30m               3.16:  Dogleg Str Max 
 DRET.      15.00.00 07-Aug-20:  Drill End Time 
 DRST.      17.00.00 02-Aug-20:  Drill Start Tim 
 DTIM.hr                 45.90:  Time Drilling 
 EDEP.m                5298.01:  End Depth 
 ENG1.       Seymur Iskandarov:  Engineer 1 
 ENG2.         Yevgeniy Ulikov:  Engineer 2 
 ENG3.      Artemiy Matviyanov:  Engineer 3 
 ENG4.         Bahruz Mehdiyev:  Engineer 4 
 ETIM.      05.00.00 10-Aug-20:  End Time 
 FLOI.gpm              1150.00:  Flow In 
 FLON.gpm               900.00:  Flow In Min 
 FLOS.cptm                0.00:  Fluid Loss 
 FLOX.gpm              1200.00:  Flow In Max 
 FTRO.     Connectivity, Formation Presure:  FTWD Run Obj 
 HFLO.                      No:  High Flow 
 HPRE.                     Yes:  High Pressure 
 HTEM.                      No:  High Temp 
 HYDO.m                   1.80:  Hydro Offset 
 IFIN.deg                 9.71:  Inc, Final 
 IMAX.deg                63.81:  Inc Max 
 IMIN.deg                 9.53:  Inc Min 
 IMND.m                5075.52:  Inc Min Depth 
 IMXD.m                4367.08:  Inc Max Depth 
 JARR.                      No:  Jarring 
 LETM.      15.00.00 07-Aug-20:  Log End Time 
 LOST.hr                     2:  Lost Rig Time 
 LSTM.      17.00.00 02-Aug-20:  Log Start Time 
 MDCL.ppm             42500.00:  Mud Chlorides 
 MDES.     Inversion Oil/Synthetic:  Mud Desc 
 DFD .sg                  1.46:  Mud Density 
 MDMN.sg                  1.46:  Dens Mud Min 
 MDMX.sg                  1.46:  Dens Mud Max 
 MOIL.                      56:  Run Mud Oil % 
 MOWR.                   70:30:  Run Mud OWR 
 MSND.                     0.1:  Run Mud Sand % 
 MSOL.                      19:  Run Mud Solids% 
 DFV .spqt               83.00:  Mud Viscosity 
 MWOD.in                  8.00:  MWD Tool OD 
 MWSI.                     Yes:  Serv Intrp, MWD 
 OTIM.hr                196.57:  Time Operating 
 PCON.           Look Like New:  Pad Condition 
 PMAX.psia             7400.00:  Press Op, Max 
 PV  .cP                 36.00:  Mud PV 
 RUN .                    1000:  Run Number 
 ROPA.m/hr               25.00:  ROP Avg 
 ROPN.m/hr               10.00:  ROP Min 
 ROPX.m/hr               32.00:  ROP Max 
 RPMA.rpm               120.00:  RPM Surface Avg 
 RPMN.rpm               100.00:  RPM Surface Min 
 RPMX.rpm               140.00:  RPM Surface Max 
 RRUN.                    L504:  Rig Run Number 
 SAZI.deg               308.25:  Azm, Start 
 SDEP.m                4364.01:  Start Depth 
 SIDD.                      No:  Serv Intrp, DD 
 SINC.deg                63.81:  Inc, Start 
 SPPA.psig             5800.00:  SPP Avg 
 SPPN.psig             4200.00:  SPP Min 
 SPPX.psig             5950.00:  SPP Max 
 STIM.      18.00.00 01-Aug-20:  Start Time 
 SVCS.                 DD, MWD:  Services 
 SVER.                    9.20:  Sperry Version 
 TDAT.m                 934.00:  Tot Depth Attmp 
 TDDF.                      No:  Trip for DD 
 TDLG.m                 934.00:  Tot Depth Loggd 
 TFF .                      No:  Trip for Fail 
 TQAA.f-kp               31.00:  Torque Abs Avg 
 TQAN.f-kp               25.00:  Torque Abs Min 
 TQAX.f-kp               35.00:  Torque Abs Max 
 TRRT.°/30m              -0.75:  Turn Rotating 
 MRT .                  EWR-M5:  Maximum Recorded Temperature 
 TTMX.degC               95.00:  Max Tool Temp 
 VS01.                90516060:  Virtual Str1 SN 
 VS02.                90528488:  Virtual Str2 SN 
 VS03.                90577970:  Virtual Str3 SN 
 VS04.                12385033:  Virtual Str4 SN 
 VS05.                90522069:  Virtual Str5 SN 
 VS06.                13124134:  Virtual Str6 SN 
 WBMN.klb                20.00:  WOB Min 
 WITN.         Alistair Sprott:  Customer Rep 
 WITN.     Ronal van der Kraan:  Customer Rep 2 
 WOBA.klb                25.00:  WOB Avg 
 WOBX.klb                31.00:  WOB Max 
 YP  .lhf2               32.00:  Yield Point 
~Curve Information Block
#MNEM.UNIT                 API CODE     Curve Description
#---------               -----------    ---------------------------
 TIME.HHMMSS            00 000 000 000:  GT Time & Date
 GTDEPTH.m              00 000 000 000:  GT Depth
 GTPQH.psia             00 000 000 000:  GT HR Quartz Pressure
 GTTQ.degC              00 000 000 000:  GT Quartz Temperature
 GTTN.NONE              00 000 000 000:  GT Test Number
 GTET.sec               00 000 000 000:  GT Elapsed Test Time
 GTTVD.m                00 000 000 000:  GT True Vertical Depth
#Other Information
#
#WARRANTY: Halliburton will use its best efforts to furnish customers with 
#accurate information and interpretations that are part of, and incident to, the services 
#provided.  However, Halliburton cannot and does not warrant the accuracy 
#or correctness of such information and interpretations.  Under no circumstances should any 
#such information or interpretation be relied upon as the sole basis for any drilling, 
#completion, production, or financial decision or any procedure involving any risk to the 
#safety of any drilling venture, drilling rig or its crew or any other third party.  The 
#Customer has full responsibility for all drilling, completion and production operation.  
#Halliburton makes no representations or warranties, either expressed or 
#implied, including, but not limited to, the implied warranties of merchantability or fitness 
#for a particular purpose, with respect to the services rendered.  In no event will 
#Halliburton be liable for failure to obtain any particular results or for 
#any damages, including, but not limited to, indirect, special or consequential damages, 
#resulting from the use of any information or interpretation provided by Halliburton.
#
~A           TIME           GTDEPTH  GTPQH  GTTQ  GTTN  GTET   GTTVD  
# ...
   07:14:29.000.08-Aug-2020 5163.51 4260.96 78.13 5.00 322.00 3349.29
   07:14:29.200.08-Aug-2020 5163.51 4260.96 78.13 5.00 322.20 3349.29
   07:14:29.400.08-Aug-2020 5163.51 4260.71 78.13 5.00 322.40 3349.29
   07:14:29.600.08-Aug-2020 5163.51 4260.76 78.12 5.00 322.60 3349.29
   07:14:29.800.08-Aug-2020 5163.51 4260.72 78.12 5.00 322.80 3349.29
   07:14:30.000.08-Aug-2020 5163.51 4260.91 78.12 5.00 323.00 3349.29
   07:14:30.200.08-Aug-2020 5163.51 4260.91 78.12 5.00 323.20 3349.29
   07:14:30.400.08-Aug-2020 5163.51 4260.88 78.12 5.00 323.40 3349.29
   07:14:30.600.08-Aug-2020 5163.51 4261.09 78.12 5.00 323.60 3349.29
   07:14:30.800.08-Aug-2020 5163.51 4261.17 78.12 5.00 323.80 3349.29
   07:14:31.000.08-Aug-2020 5163.51 4261.01 78.12 5.00 324.00 3349.29
   07:14:31.200.08-Aug-2020 5163.51 4261.01 78.12 5.00 324.20 3349.29
   07:14:31.400.08-Aug-2020 5163.51 4260.91 78.12 5.00 324.40 3349.29
   07:14:31.600.08-Aug-2020 5163.51 4260.74 78.12 5.00 324.60 3349.29
   07:14:31.800.08-Aug-2020 5163.51 4260.79 78.12 5.00 324.80 3349.29
   07:14:32.000.08-Aug-2020 5163.51 4261.00 78.12 5.00 325.00 3349.29
   07:14:32.200.08-Aug-2020 5163.51 4261.00 78.12 5.00 325.20 3349.29
   07:14:32.400.08-Aug-2020 5163.51 4260.67 78.12 5.00 325.40 3349.29
   07:14:32.600.08-Aug-2020 5163.51 4261.30 78.12 5.00 325.60 3349.29
   07:14:32.800.08-Aug-2020 5163.51 4260.82 78.12 5.00 325.80 3349.29
   07:14:33.000.08-Aug-2020 5163.51 4260.97 78.12 5.00 326.00 3349.29
   07:14:33.200.08-Aug-2020 5163.51 4260.97 78.12 5.00 326.20 3349.29
   07:14:33.400.08-Aug-2020 5163.51 4261.14 78.12 5.00 326.40 3349.29
   07:14:33.600.08-Aug-2020 5163.51 4260.90 78.12 5.00 326.60 3349.29
   07:14:33.800.08-Aug-2020 5163.51 4260.95 78.12 5.00 326.80 3349.29
   07:14:34.000.08-Aug-2020 5163.51 4260.77 78.12 5.00 327.00 3349.29
   07:14:34.200.08-Aug-2020 5163.51 4260.77 78.12 5.00 327.20 3349.29
   07:14:34.400.08-Aug-2020 5163.51 4260.93 78.12 5.00 327.40 3349.29
   07:14:34.600.08-Aug-2020 5163.51 4260.87 78.12 5.00 327.60 3349.29
   07:14:34.800.08-Aug-2020 5163.51 4260.96 78.12 5.00 327.80 3349.29
   07:14:35.000.08-Aug-2020 5163.51 4260.88 78.12 5.00 328.00 3349.29
   07:14:35.200.08-Aug-2020 5163.51 4260.88 78.12 5.00 328.20 3349.29
   07:14:35.400.08-Aug-2020 5163.51 4260.88 78.12 5.00 328.40 3349.29
   07:14:35.600.08-Aug-2020 5163.51 4260.89 78.12 5.00 328.60 3349.29
   07:14:35.800.08-Aug-2020 5163.51 4260.93 78.12 5.00 328.80 3349.29
   07:14:36.000.08-Aug-2020 5163.51 4261.04 78.12 5.00 329.00 3349.29
   07:14:36.200.08-Aug-2020 5163.51 4261.04 78.12 5.00 329.20 3349.29
   07:14:36.400.08-Aug-2020 5163.51 4260.98 78.12 5.00 329.40 3349.29
   07:14:36.600.08-Aug-2020 5163.51 4261.02 78.12 5.00 329.60 3349.29
   07:14:36.800.08-Aug-2020 5163.51 4261.16 78.12 5.00 329.80 3349.29
   07:14:37.000.08-Aug-2020 5163.51 4261.03 78.12 5.00 330.00 3349.29
   07:14:37.200.08-Aug-2020 5163.51 4261.03 78.12 5.00 330.20 3349.29
   07:14:37.400.08-Aug-2020 5163.51 4261.00 78.12 5.00 330.40 3349.29
   07:14:37.600.08-Aug-2020 5163.51 4261.00 78.12 5.00 330.60 3349.29
   07:14:37.800.08-Aug-2020 5163.51 4260.91 78.12 5.00 330.80 3349.29
   07:14:38.000.08-Aug-2020 5163.51 4260.81 78.12 5.00 331.00 3349.29
   07:14:38.200.08-Aug-2020 5163.51 4260.81 78.12 5.00 331.20 3349.29
   07:14:38.400.08-Aug-2020 5163.51 4260.87 78.12 5.00 331.40 3349.29
   07:14:38.600.08-Aug-2020 5163.51 4260.92 78.12 5.00 331.60 3349.29
   07:14:38.800.08-Aug-2020 5163.51 4260.99 78.12 5.00 331.80 3349.29
   07:14:39.000.08-Aug-2020 5163.51 4260.99 78.12 5.00 332.00 3349.29
   07:14:39.200.08-Aug-2020 5163.51 4260.99 78.12 5.00 332.20 3349.29
   07:14:39.400.08-Aug-2020 5163.51 4260.94 78.12 5.00 332.40 3349.29
   07:14:39.600.08-Aug-2020 5163.51 4260.96 78.12 5.00 332.60 3349.29
   07:14:39.800.08-Aug-2020 5163.51 4260.96 78.12 5.00 332.80 3349.29
   07:14:40.000.08-Aug-2020 5163.51 4261.25 78.12 5.00 333.00 3349.29
   07:14:40.200.08-Aug-2020 5163.51 4261.25 78.12 5.00 333.20 3349.29
   07:14:40.400.08-Aug-2020 5163.51 4261.17 78.12 5.00 333.40 3349.29
   07:14:40.600.08-Aug-2020 5163.51 4261.24 78.12 5.00 333.60 3349.29
   07:14:40.800.08-Aug-2020 5163.51 4261.10 78.12 5.00 333.80 3349.29
   07:14:41.000.08-Aug-2020 5163.51 4261.04 78.12 5.00 334.00 3349.29
   07:14:41.200.08-Aug-2020 5163.51 4261.04 78.12 5.00 334.20 3349.29
   07:14:41.400.08-Aug-2020 5163.51 4261.06 78.12 5.00 334.40 3349.29
   07:14:41.600.08-Aug-2020 5163.51 4261.05 78.12 5.00 334.60 3349.29
   07:14:41.800.08-Aug-2020 5163.51 4261.23 78.12 5.00 334.80 3349.29
   07:14:42.000.08-Aug-2020 5163.51 4260.71 78.12 5.00 335.00 3349.29
   07:14:42.200.08-Aug-2020 5163.51 4260.71 78.12 5.00 335.20 3349.29
   07:14:42.400.08-Aug-2020 5163.51 4261.20 78.12 5.00 335.40 3349.29
   07:14:42.600.08-Aug-2020 5163.51 4260.93 78.12 5.00 335.60 3349.29
   07:14:42.800.08-Aug-2020 5163.51 4261.30 78.11 5.00 335.80 3349.29
   07:14:43.000.08-Aug-2020 5163.51 4261.45 78.11 5.00 336.00 3349.29
   07:14:43.200.08-Aug-2020 5163.51 4261.45 78.11 5.00 336.20 3349.29
   07:14:43.400.08-Aug-2020 5163.51 4261.17 78.11 5.00 336.40 3349.29
   07:14:43.600.08-Aug-2020 5163.51 4261.16 78.11 5.00 336.60 3349.29
   07:14:43.800.08-Aug-2020 5163.51 4261.02 78.11 5.00 336.80 3349.29
   07:14:44.000.08-Aug-2020 5163.51 4261.01 78.11 5.00 337.00 3349.29
   07:14:44.200.08-Aug-2020 5163.51 4261.01 78.11 5.00 337.20 3349.29
   07:14:44.400.08-Aug-2020 5163.51 4260.98 78.11 5.00 337.40 3349.29
   07:14:44.600.08-Aug-2020 5163.51 4261.04 78.11 5.00 337.60 3349.29
   07:14:44.800.08-Aug-2020 5163.51 4261.20 78.11 5.00 337.80 3349.29
   07:14:45.000.08-Aug-2020 5163.51 4261.13 78.11 5.00 338.00 3349.29
   07:14:45.200.08-Aug-2020 5163.51 4260.96 78.11 5.00 338.20 3349.29
   07:14:45.400.08-Aug-2020 5163.51 4261.11 78.11 5.00 338.40 3349.29
   07:14:45.600.08-Aug-2020 5163.51 4261.18 78.11 5.00 338.60 3349.29
   07:14:45.800.08-Aug-2020 5163.51 4261.08 78.11 5.00 338.80 3349.29
   07:14:46.000.08-Aug-2020 5163.51 4261.05 78.11 5.00 339.00 3349.29
   07:14:46.200.08-Aug-2020 5163.51 4261.05 78.11 5.00 339.20 3349.29
   07:14:46.400.08-Aug-2020 5163.51 4261.49 78.11 5.00 339.40 3349.29
   07:14:46.600.08-Aug-2020 5163.51 4253.82 78.11 5.00 339.60 3349.29
   07:14:46.800.08-Aug-2020 5163.51 4151.86 78.11 5.00 339.80 3349.29
   07:14:47.000.08-Aug-2020 5163.51 4024.10 78.11 5.00 340.00 3349.29
   07:14:47.200.08-Aug-2020 5163.51 4024.10 78.11 5.00 340.20 3349.29
   07:14:47.400.08-Aug-2020 5163.51 3905.24 78.11 5.00 340.40 3349.29
   07:14:47.600.08-Aug-2020 5163.51 3869.53 78.11 5.00 340.60 3349.29
   07:14:47.800.08-Aug-2020 5163.51 3847.05 78.11 5.00 340.80 3349.29
   07:14:48.000.08-Aug-2020 5163.51 3834.64 78.11 5.00 341.00 3349.29
   07:14:48.200.08-Aug-2020 5163.51 3834.64 78.11 5.00 341.20 3349.29
   07:14:48.400.08-Aug-2020 5163.51 3820.28 78.11 5.00 341.40 3349.29
   07:14:48.600.08-Aug-2020 5163.51 3814.72 78.11 5.00 341.60 3349.29
   07:14:48.800.08-Aug-2020 5163.51 3808.51 78.11 5.00 341.80 3349.29
   07:14:49.000.08-Aug-2020 5163.51 3805.18 78.11 5.00 342.00 3349.29
   07:14:49.200.08-Aug-2020 5163.51 3805.18 78.11 5.00 342.20 3349.29
   07:14:49.400.08-Aug-2020 5163.51 3801.05 78.11 5.00 342.40 3349.29
   07:14:49.600.08-Aug-2020 5163.51 3801.43 78.11 5.00 342.60 3349.29
   07:14:49.800.08-Aug-2020 5163.51 3800.84 78.11 5.00 342.80 3349.29
   07:14:50.000.08-Aug-2020 5163.51 3796.09 78.11 5.00 343.00 3349.29
   07:14:50.200.08-Aug-2020 5163.51 3796.09 78.11 5.00 343.20 3349.29
   07:14:50.400.08-Aug-2020 5163.51 3796.10 78.11 5.00 343.40 3349.29
   07:14:50.600.08-Aug-2020 5163.51 3797.22 78.11 5.00 343.60 3349.29
   07:14:50.800.08-Aug-2020 5163.51 3798.21 78.11 5.00 343.80 3349.29
   07:14:51.000.08-Aug-2020 5163.51 3792.26 78.11 5.00 344.00 3349.29
   07:14:51.200.08-Aug-2020 5163.51 3792.26 78.11 5.00 344.20 3349.29
   07:14:51.400.08-Aug-2020 5163.51 3790.06 78.10 5.00 344.40 3349.29
   07:14:51.600.08-Aug-2020 5163.51 3788.18 78.10 5.00 344.60 3349.29
   07:14:51.800.08-Aug-2020 5163.51 3790.00 78.10 5.00 344.80 3349.29
