~Version Information
 VERS.                  2.0:   CWLS log ASCII Standard -VERSION 2.0
 WRAP.                   NO:   One line per depth step
~Well Information Block
#MNEM.UNIT     VALUE/NAME     DESCRIPTION
#---------     -----------    ---------------------------
 STRT.S             03:17:15 08-Aug-20: START TIME 03:17:15 08-Aug-20
 STOP.S             03:24:06 08-Aug-20: STOP TIME  03:24:06 08-Aug-20
 STEP.S                   0.00: STEP TIME
 NULL.                 -999.25: NULL VALUE
 DFWT.                        :  DIST FWL TEXT
 DFST.                        :  DIST FSL TEXT
 DMF .             Drill Floor:  DRILL MEAS FROM
 STIM.      13.47.44 07-Jun-20:  START TIME
 DATE.      13.47.44 27-Jul-20:  END TIME
 SPUD.               07-Jun-20:  SPUD DATE
 NREF.                    Grid:  NORTH REFERENCE
 HPTY.       Minimum Curvature:  HOLE POS TYPE
 DMOD.             Drill Model:  DRILL MOD DESC
 SVYD.                  Survey:  SURVEY DESC
 ILTD.               Lithology:  INTERP LTH DESC
 FTOP.          Formation Tops:  FORM TOPS DESC
 RIG .             West Chirag:  RIG NAME
 PDAT.          Mean Sea Level:  PERMANENT DATUM
 FLD .                     ACG:  FIELD NAME
 SON .        AZ-XX-0906363612:  JOB NUMBER
 CTRY.              Azerbaijan:  COUNTRY NAME
 WELL.           J25 (Slot 35):  WELL NAME
 SRVC.          Turan Drilling:  CONTRACTOR
 COMP.     BP Exploration (Caspian Sea) Ltd:  COMPANY
 UWI .                     N/A:  UNIQUE WELL IDENTIFIER
 API .                     N/A:  API NUMBER
 BASE.              Azerbaijan:  LOGGING EQUIPMENT BASE LOCATION
 REGN.                   EESSA:  REGION
 PROV.                    Baku:  PROVINCE
 STAT.                    Baku:  STATE NAME
 MWDS.                     N/A:  MWD SHOP
 DOE .                     N/A:  DOE NUMBER
 DCON.         Sperry Drilling:  DIRECTNL CONTR
 UNIT.                     N/A:  LOGGING EQUIPMENT ID
 MDS .        Operator Entered:  MAG DATA SOURCE
 JOBN.        AZ-XX-0906363612:  JOB TICKET NUMB
 WTYP.                Deviated:  WELL TYPE
 CNTY.                        :  COUNTY
 LOC .                        :  LOCATION
 LMF .             Drill Floor:  LOG MEASURED FROM
 TVDS.m                  43.00:  TVDSS CORRECTN
 LATI.deg                40.13:  LATITUDE
 LONG.deg                51.22:  LONGITUDE
 WHNS.m                  -7.90:  WELL HEAD N/S
 WHEW.m                  -3.35:  WELL HEAD E/W
 UTMX.m              519005.06:  UTM X
 UTMY.m             4443793.85:  UTM Y
 DFWL.m                   0.00:  DISTANCE FWL
 DFSL.m                   0.00:  DISTANCE FSL
 SDEP.m                   0.00:  START DEPTH
 TDD .m                   0.00:  TOTAL DEPTH (DRILLER)
 VSDR.deg               308.97:  VERT SEC DIRECT
 GVFD.g                   1.00:  GRAVITY FIELD
 MFLD.nT              50350.00:  MAGNETIC FIELD
 MDIP.deg                59.62:  MAGNETIC DIP
 MDEC.deg                 6.44:  MAGNETIC DECL
 GRDC.deg                 0.13:  GRID CORRECTION
 AZTC.deg                 6.32:  AZM TOTAL CORR
 EPD .m                   0.00:  ELEVATION
 EGL .m                   0.00:  GROUND ELEVATION
 WDMS.m                 169.80:  WD ELEV
 APD .m                  43.00:  DEPTH ABOVE PD
 DEP .m                 356.43:  DEPTH
 AGAP.m                  43.00:  AIR GAP
 VSEW.m                  -3.35:  VERT SEC E/W
 VSNS.m                  -7.90:  VERT SEC N/S
 EKB .m                  43.00:  KB ELEVATION
 EDF .m                  43.00:  DF ELEVATION
 TDL .m                 934.00:  TOTAL DEPTH (LOGGER)
 VSC .                       0:  VS TO CLOSURE
 MAGU.                 1852825:  MAGUTM CHECKSUM
~Parameter Information Block
#MNEM.UNIT       Value        Description
#---------     -----------    ---------------------------
 AV  .mps                 0.80:  Ann Velocity 
 AVMX.mps                 1.70:  Max Ann Veloc 
 AZIF.deg               311.41:  Azm, Final 
 BHAT.        Rotary Steerable:  BHA Type 
 BROT.°/30m               0.09:  Build Rotating 
 BS  .in                 12.25:  Bit Size 
 BSZ .in                 12.25:  Bit Size 
 BTPL.psig              800.00:  Bit Press Loss 
 CABU.                      No:  Customer Abuse 
 COMM.                     k:  Run Comments 1 
 TCS .hr                 96.00:  Time Ciculation Ended 
 CV  .mps                 2.03:  Crit Velocity 
 CVMX.mps                 2.42:  Max Crit Veloc 
 DD1 .          Taghi Taghiyev:  Direct Drillr 1 
 DD2 .      Tariel Pirmammadov:  Direct Drillr 2 
 DD3 .          Teymur Aghayev:  Direct Drillr 3 
 DDSV.                 iCruise:  DD Service 
 DEFF.%                  98.70:  % Det Eff 
 DLRX.°/30m               1.00:  Dogleg Rot Max 
 DLSO.°/30m               1.80:  Dogleg Oriented 
 DLSX.°/30m               3.16:  Dogleg Str Max 
 DRET.      15.00.00 07-Aug-20:  Drill End Time 
 DRST.      17.00.00 02-Aug-20:  Drill Start Tim 
 DTIM.hr                 45.90:  Time Drilling 
 EDEP.m                5298.01:  End Depth 
 ENG1.       Seymur Iskandarov:  Engineer 1 
 ENG2.         Yevgeniy Ulikov:  Engineer 2 
 ENG3.      Artemiy Matviyanov:  Engineer 3 
 ENG4.         Bahruz Mehdiyev:  Engineer 4 
 ETIM.      05.00.00 10-Aug-20:  End Time 
 FLOI.gpm              1150.00:  Flow In 
 FLON.gpm               900.00:  Flow In Min 
 FLOS.cptm                0.00:  Fluid Loss 
 FLOX.gpm              1200.00:  Flow In Max 
 FTRO.     Connectivity, Formation Presure:  FTWD Run Obj 
 HFLO.                      No:  High Flow 
 HPRE.                     Yes:  High Pressure 
 HTEM.                      No:  High Temp 
 HYDO.m                   1.80:  Hydro Offset 
 IFIN.deg                 9.71:  Inc, Final 
 IMAX.deg                63.81:  Inc Max 
 IMIN.deg                 9.53:  Inc Min 
 IMND.m                5075.52:  Inc Min Depth 
 IMXD.m                4367.08:  Inc Max Depth 
 JARR.                      No:  Jarring 
 LETM.      15.00.00 07-Aug-20:  Log End Time 
 LOST.hr                     2:  Lost Rig Time 
 LSTM.      17.00.00 02-Aug-20:  Log Start Time 
 MDCL.ppm             42500.00:  Mud Chlorides 
 MDES.     Inversion Oil/Synthetic:  Mud Desc 
 DFD .sg                  1.46:  Mud Density 
 MDMN.sg                  1.46:  Dens Mud Min 
 MDMX.sg                  1.46:  Dens Mud Max 
 MOIL.                      56:  Run Mud Oil % 
 MOWR.                   70:30:  Run Mud OWR 
 MSND.                     0.1:  Run Mud Sand % 
 MSOL.                      19:  Run Mud Solids% 
 DFV .spqt               83.00:  Mud Viscosity 
 MWOD.in                  8.00:  MWD Tool OD 
 MWSI.                     Yes:  Serv Intrp, MWD 
 OTIM.hr                196.57:  Time Operating 
 PCON.           Look Like New:  Pad Condition 
 PMAX.psia             7400.00:  Press Op, Max 
 PV  .cP                 36.00:  Mud PV 
 RUN .                    1000:  Run Number 
 ROPA.m/hr               25.00:  ROP Avg 
 ROPN.m/hr               10.00:  ROP Min 
 ROPX.m/hr               32.00:  ROP Max 
 RPMA.rpm               120.00:  RPM Surface Avg 
 RPMN.rpm               100.00:  RPM Surface Min 
 RPMX.rpm               140.00:  RPM Surface Max 
 RRUN.                    L504:  Rig Run Number 
 SAZI.deg               308.25:  Azm, Start 
 SDEP.m                4364.01:  Start Depth 
 SIDD.                      No:  Serv Intrp, DD 
 SINC.deg                63.81:  Inc, Start 
 SPPA.psig             5800.00:  SPP Avg 
 SPPN.psig             4200.00:  SPP Min 
 SPPX.psig             5950.00:  SPP Max 
 STIM.      18.00.00 01-Aug-20:  Start Time 
 SVCS.                 DD, MWD:  Services 
 SVER.                    9.20:  Sperry Version 
 TDAT.m                 934.00:  Tot Depth Attmp 
 TDDF.                      No:  Trip for DD 
 TDLG.m                 934.00:  Tot Depth Loggd 
 TFF .                      No:  Trip for Fail 
 TQAA.f-kp               31.00:  Torque Abs Avg 
 TQAN.f-kp               25.00:  Torque Abs Min 
 TQAX.f-kp               35.00:  Torque Abs Max 
 TRRT.°/30m              -0.75:  Turn Rotating 
 MRT .                  EWR-M5:  Maximum Recorded Temperature 
 TTMX.degC               95.00:  Max Tool Temp 
 VS01.                90516060:  Virtual Str1 SN 
 VS02.                90528488:  Virtual Str2 SN 
 VS03.                90577970:  Virtual Str3 SN 
 VS04.                12385033:  Virtual Str4 SN 
 VS05.                90522069:  Virtual Str5 SN 
 VS06.                13124134:  Virtual Str6 SN 
 WBMN.klb                20.00:  WOB Min 
 WITN.         Alistair Sprott:  Customer Rep 
 WITN.     Ronal van der Kraan:  Customer Rep 2 
 WOBA.klb                25.00:  WOB Avg 
 WOBX.klb                31.00:  WOB Max 
 YP  .lhf2               32.00:  Yield Point 
~Curve Information Block
#MNEM.UNIT                 API CODE     Curve Description
#---------               -----------    ---------------------------
 TIME.HHMMSS            00 000 000 000:  GT Time & Date
 GTDEPTH.m              00 000 000 000:  GT Depth
 GTPQH.psia             00 000 000 000:  GT HR Quartz Pressure
 GTTQ.degC              00 000 000 000:  GT Quartz Temperature
 GTTN.NONE              00 000 000 000:  GT Test Number
 GTET.sec               00 000 000 000:  GT Elapsed Test Time
 GTTVD.m                00 000 000 000:  GT True Vertical Depth
#Other Information
#
#WARRANTY: Halliburton will use its best efforts to furnish customers with 
#accurate information and interpretations that are part of, and incident to, the services 
#provided.  However, Halliburton cannot and does not warrant the accuracy 
#or correctness of such information and interpretations.  Under no circumstances should any 
#such information or interpretation be relied upon as the sole basis for any drilling, 
#completion, production, or financial decision or any procedure involving any risk to the 
#safety of any drilling venture, drilling rig or its crew or any other third party.  The 
#Customer has full responsibility for all drilling, completion and production operation.  
#Halliburton makes no representations or warranties, either expressed or 
#implied, including, but not limited to, the implied warranties of merchantability or fitness 
#for a particular purpose, with respect to the services rendered.  In no event will 
#Halliburton be liable for failure to obtain any particular results or for 
#any damages, including, but not limited to, indirect, special or consequential damages, 
#resulting from the use of any information or interpretation provided by Halliburton.
#
~A           TIME           GTDEPTH  GTPQH  GTTQ  GTTN  GTET   GTTVD  
# ...
   03:21:28.467.08-Aug-2020 5190.56 4237.40 85.89 1.00 252.87 3375.95
   03:21:28.667.08-Aug-2020 5190.56 4237.40 85.89 1.00 253.07 3375.95
   03:21:28.867.08-Aug-2020 5190.56 4246.78 85.89 1.00 253.27 3375.95
   03:21:29.067.08-Aug-2020 5190.56 4250.99 85.89 1.00 253.47 3375.95
   03:21:29.267.08-Aug-2020 5190.56 4255.26 85.89 1.00 253.67 3375.95
   03:21:29.467.08-Aug-2020 5190.56 4259.92 85.89 1.00 253.87 3375.95
   03:21:29.667.08-Aug-2020 5190.56 4259.92 85.89 1.00 254.07 3375.95
   03:21:29.867.08-Aug-2020 5190.56 4268.94 85.89 1.00 254.27 3375.95
   03:21:30.066.08-Aug-2020 5190.56 4272.95 85.89 1.00 254.47 3375.95
   03:21:30.266.08-Aug-2020 5190.56 4277.46 85.89 1.00 254.67 3375.95
   03:21:30.466.08-Aug-2020 5190.56 4281.66 85.89 1.00 254.87 3375.95
   03:21:30.666.08-Aug-2020 5190.56 4281.66 85.89 1.00 255.07 3375.95
   03:21:30.866.08-Aug-2020 5190.56 4289.47 85.89 1.00 255.27 3375.95
   03:21:31.066.08-Aug-2020 5190.56 4293.29 85.89 1.00 255.47 3375.95
   03:21:31.266.08-Aug-2020 5190.56 4297.70 85.89 1.00 255.67 3375.95
   03:21:31.466.08-Aug-2020 5190.56 4302.19 85.89 1.00 255.87 3375.95
   03:21:31.666.08-Aug-2020 5190.56 4302.19 85.89 1.00 256.07 3375.95
   03:21:31.866.08-Aug-2020 5190.56 4311.14 85.89 1.00 256.27 3375.95
   03:21:32.065.08-Aug-2020 5190.56 4314.95 85.89 1.00 256.47 3375.95
   03:21:32.265.08-Aug-2020 5190.56 4319.78 85.89 1.00 256.67 3375.95
   03:21:32.465.08-Aug-2020 5190.56 4323.77 85.89 1.00 256.87 3375.95
   03:21:32.665.08-Aug-2020 5190.56 4323.77 85.89 1.00 257.07 3375.95
   03:21:32.865.08-Aug-2020 5190.56 4332.29 85.89 1.00 257.27 3375.95
   03:21:33.065.08-Aug-2020 5190.56 4336.13 85.89 1.00 257.47 3375.95
   03:21:33.265.08-Aug-2020 5190.56 4340.63 85.89 1.00 257.67 3375.95
   03:21:33.465.08-Aug-2020 5190.56 4345.02 85.89 1.00 257.87 3375.95
   03:21:33.665.08-Aug-2020 5190.56 4345.02 85.89 1.00 258.07 3375.95
   03:21:33.864.08-Aug-2020 5190.56 4353.20 85.89 1.00 258.27 3375.95
   03:21:34.064.08-Aug-2020 5190.56 4357.36 85.89 1.00 258.47 3375.95
   03:21:34.264.08-Aug-2020 5190.56 4361.81 85.89 1.00 258.67 3375.95
   03:21:34.464.08-Aug-2020 5190.56 4366.19 85.89 1.00 258.87 3375.95
   03:21:34.664.08-Aug-2020 5190.56 4366.19 85.89 1.00 259.07 3375.95
   03:21:34.864.08-Aug-2020 5190.56 4374.89 85.89 1.00 259.27 3375.95
   03:21:35.064.08-Aug-2020 5190.56 4379.12 85.89 1.00 259.47 3375.95
   03:21:35.264.08-Aug-2020 5190.56 4382.81 85.89 1.00 259.67 3375.95
   03:21:35.464.08-Aug-2020 5190.56 4386.82 85.89 1.00 259.87 3375.95
   03:21:35.664.08-Aug-2020 5190.56 4391.02 85.89 1.00 260.07 3375.95
   03:21:35.863.08-Aug-2020 5190.56 4395.08 85.89 1.00 260.27 3375.95
   03:21:36.063.08-Aug-2020 5190.56 4399.39 85.89 1.00 260.47 3375.95
   03:21:36.263.08-Aug-2020 5190.56 4403.75 85.89 1.00 260.67 3375.95
   03:21:36.463.08-Aug-2020 5190.56 4407.99 85.89 1.00 260.87 3375.95
   03:21:36.663.08-Aug-2020 5190.56 4407.99 85.89 1.00 261.07 3375.95
   03:21:36.863.08-Aug-2020 5190.56 4416.68 85.89 1.00 261.27 3375.95
   03:21:37.063.08-Aug-2020 5190.56 4420.76 85.89 1.00 261.47 3375.95
   03:21:37.263.08-Aug-2020 5190.56 4424.29 85.89 1.00 261.67 3375.95
   03:21:37.463.08-Aug-2020 5190.56 4427.78 85.89 1.00 261.87 3375.95
   03:21:37.663.08-Aug-2020 5190.56 4427.78 85.89 1.00 262.07 3375.95
   03:21:37.862.08-Aug-2020 5190.56 4435.48 85.89 1.00 262.27 3375.95
   03:21:38.062.08-Aug-2020 5190.56 4439.52 85.89 1.00 262.47 3375.95
   03:21:38.262.08-Aug-2020 5190.56 4443.44 85.89 1.00 262.67 3375.95
   03:21:38.462.08-Aug-2020 5190.56 4447.79 85.89 1.00 262.87 3375.95
   03:21:38.662.08-Aug-2020 5190.56 4447.79 85.89 1.00 263.07 3375.95
   03:21:38.862.08-Aug-2020 5190.56 4455.89 85.89 1.00 263.27 3375.95
   03:21:39.062.08-Aug-2020 5190.56 4460.46 85.89 1.00 263.47 3375.95
   03:21:39.262.08-Aug-2020 5190.56 4464.62 85.89 1.00 263.67 3375.95
   03:21:39.462.08-Aug-2020 5190.56 4469.01 85.89 1.00 263.87 3375.95
   03:21:39.662.08-Aug-2020 5190.56 4472.89 85.89 1.00 264.07 3375.95
   03:21:39.861.08-Aug-2020 5190.56 4476.51 85.89 1.00 264.27 3375.95
   03:21:40.061.08-Aug-2020 5190.56 4480.72 85.89 1.00 264.47 3375.95
   03:21:40.261.08-Aug-2020 5190.56 4484.62 85.89 1.00 264.67 3375.95
   03:21:40.461.08-Aug-2020 5190.56 4488.38 85.89 1.00 264.87 3375.95
   03:21:40.661.08-Aug-2020 5190.56 4488.38 85.89 1.00 265.07 3375.95
   03:21:40.861.08-Aug-2020 5190.56 4496.28 85.89 1.00 265.26 3375.95
   03:21:41.061.08-Aug-2020 5190.56 4499.75 85.89 1.00 265.46 3375.95
   03:21:41.261.08-Aug-2020 5190.56 4503.35 85.89 1.00 265.66 3375.95
   03:21:41.461.08-Aug-2020 5190.56 4506.96 85.89 1.00 265.86 3375.95
   03:21:41.661.08-Aug-2020 5190.56 4506.96 85.89 1.00 266.06 3375.95
   03:21:41.860.08-Aug-2020 5190.56 4514.97 85.89 1.00 266.26 3375.95
   03:21:42.060.08-Aug-2020 5190.56 4518.39 85.89 1.00 266.46 3375.95
   03:21:42.260.08-Aug-2020 5190.56 4522.44 85.89 1.00 266.66 3375.95
   03:21:42.460.08-Aug-2020 5190.56 4525.68 85.89 1.00 266.86 3375.95
   03:21:42.660.08-Aug-2020 5190.56 4525.68 85.89 1.00 267.06 3375.95
   03:21:42.860.08-Aug-2020 5190.56 4533.62 85.89 1.00 267.26 3375.95
   03:21:43.060.08-Aug-2020 5190.56 4537.55 85.89 1.00 267.46 3375.95
   03:21:43.260.08-Aug-2020 5190.56 4541.12 85.89 1.00 267.66 3375.95
   03:21:43.460.08-Aug-2020 5190.56 4544.47 85.89 1.00 267.86 3375.95
   03:21:43.659.08-Aug-2020 5190.56 4548.50 85.89 1.00 268.06 3375.95
   03:21:43.859.08-Aug-2020 5190.56 4551.73 85.89 1.00 268.26 3375.95
   03:21:44.059.08-Aug-2020 5190.56 4555.50 85.89 1.00 268.46 3375.95
   03:21:44.259.08-Aug-2020 5190.56 4559.75 85.89 1.00 268.66 3375.95
   03:21:44.459.08-Aug-2020 5190.56 4563.49 85.89 1.00 268.86 3375.95
   03:21:44.659.08-Aug-2020 5190.56 4563.49 85.89 1.00 269.06 3375.95
   03:21:44.859.08-Aug-2020 5190.56 4571.21 85.89 1.00 269.26 3375.95
   03:21:45.059.08-Aug-2020 5190.56 4574.51 85.89 1.00 269.46 3375.95
   03:21:45.259.08-Aug-2020 5190.56 4578.33 85.89 1.00 269.66 3375.95
   03:21:45.459.08-Aug-2020 5190.56 4582.18 85.89 1.00 269.86 3375.95
   03:21:45.658.08-Aug-2020 5190.56 4582.18 85.89 1.00 270.06 3375.95
   03:21:45.858.08-Aug-2020 5190.56 4589.85 85.89 1.00 270.26 3375.95
   03:21:46.058.08-Aug-2020 5190.56 4593.57 85.89 1.00 270.46 3375.95
   03:21:46.258.08-Aug-2020 5190.56 4597.26 85.89 1.00 270.66 3375.95
   03:21:46.458.08-Aug-2020 5190.56 4600.97 85.89 1.00 270.86 3375.95
   03:21:46.658.08-Aug-2020 5190.56 4600.97 85.89 1.00 271.06 3375.95
   03:21:46.858.08-Aug-2020 5190.56 4608.14 85.89 1.00 271.26 3375.95
   03:21:47.058.08-Aug-2020 5190.56 4611.86 85.89 1.00 271.46 3375.95
   03:21:47.258.08-Aug-2020 5190.56 4615.00 85.89 1.00 271.66 3375.95
   03:21:47.458.08-Aug-2020 5190.56 4618.51 85.89 1.00 271.86 3375.95
   03:21:47.657.08-Aug-2020 5190.56 4622.48 85.89 1.00 272.06 3375.95
   03:21:47.857.08-Aug-2020 5190.56 4625.93 85.89 1.00 272.26 3375.95
   03:21:48.057.08-Aug-2020 5190.56 4629.63 85.89 1.00 272.46 3375.95
   03:21:48.257.08-Aug-2020 5190.56 4633.45 85.89 1.00 272.66 3375.95
   03:21:48.457.08-Aug-2020 5190.56 4636.90 85.89 1.00 272.86 3375.95
   03:21:48.657.08-Aug-2020 5190.56 4636.90 85.89 1.00 273.06 3375.95
   03:21:48.857.08-Aug-2020 5190.56 4644.36 85.89 1.00 273.26 3375.95
   03:21:49.057.08-Aug-2020 5190.56 4648.06 85.89 1.00 273.46 3375.95
   03:21:49.257.08-Aug-2020 5190.56 4651.73 85.89 1.00 273.66 3375.95
   03:21:49.457.08-Aug-2020 5190.56 4654.82 85.89 1.00 273.86 3375.95
   03:21:49.656.08-Aug-2020 5190.56 4654.82 85.89 1.00 274.06 3375.95
   03:21:49.856.08-Aug-2020 5190.56 4662.02 85.89 1.00 274.26 3375.95
   03:21:50.056.08-Aug-2020 5190.56 4665.55 85.89 1.00 274.46 3375.95
   03:21:50.256.08-Aug-2020 5190.56 4668.98 85.89 1.00 274.66 3375.95
   03:21:50.456.08-Aug-2020 5190.56 4672.65 85.89 1.00 274.86 3375.95
   03:21:50.656.08-Aug-2020 5190.56 4672.65 85.89 1.00 275.06 3375.95
   03:21:50.856.08-Aug-2020 5190.56 4678.92 85.89 1.00 275.26 3375.95
   03:21:51.056.08-Aug-2020 5190.56 4681.94 85.89 1.00 275.46 3375.95
   03:21:51.256.08-Aug-2020 5190.56 4685.27 85.89 1.00 275.66 3375.95
