~Version Information
 VERS.                  2.0:   CWLS log ASCII Standard -VERSION 2.0
 WRAP.                   NO:   One line per depth step
~Well Information Block
#MNEM.UNIT     VALUE/NAME     DESCRIPTION
#---------     -----------    ---------------------------
 STRT.S             03:17:15 08-Aug-20: START TIME 03:17:15 08-Aug-20
 STOP.S             03:24:06 08-Aug-20: STOP TIME  03:24:06 08-Aug-20
 STEP.S                   0.00: STEP TIME
 NULL.                 -999.25: NULL VALUE
 DFWT.                        :  DIST FWL TEXT
 DFST.                        :  DIST FSL TEXT
 DMF .             Drill Floor:  DRILL MEAS FROM
 STIM.      13.47.44 07-Jun-20:  START TIME
 DATE.      13.47.44 27-Jul-20:  END TIME
 SPUD.               07-Jun-20:  SPUD DATE
 NREF.                    Grid:  NORTH REFERENCE
 HPTY.       Minimum Curvature:  HOLE POS TYPE
 DMOD.             Drill Model:  DRILL MOD DESC
 SVYD.                  Survey:  SURVEY DESC
 ILTD.               Lithology:  INTERP LTH DESC
 FTOP.          Formation Tops:  FORM TOPS DESC
 RIG .             West Chirag:  RIG NAME
 PDAT.          Mean Sea Level:  PERMANENT DATUM
 FLD .                     ACG:  FIELD NAME
 SON .        AZ-XX-0906363612:  JOB NUMBER
 CTRY.              Azerbaijan:  COUNTRY NAME
 WELL.           J25 (Slot 35):  WELL NAME
 SRVC.          Turan Drilling:  CONTRACTOR
 COMP.     BP Exploration (Caspian Sea) Ltd:  COMPANY
 UWI .                     N/A:  UNIQUE WELL IDENTIFIER
 API .                     N/A:  API NUMBER
 BASE.              Azerbaijan:  LOGGING EQUIPMENT BASE LOCATION
 REGN.                   EESSA:  REGION
 PROV.                    Baku:  PROVINCE
 STAT.                    Baku:  STATE NAME
 MWDS.                     N/A:  MWD SHOP
 DOE .                     N/A:  DOE NUMBER
 DCON.         Sperry Drilling:  DIRECTNL CONTR
 UNIT.                     N/A:  LOGGING EQUIPMENT ID
 MDS .        Operator Entered:  MAG DATA SOURCE
 JOBN.        AZ-XX-0906363612:  JOB TICKET NUMB
 WTYP.                Deviated:  WELL TYPE
 CNTY.                        :  COUNTY
 LOC .                        :  LOCATION
 LMF .             Drill Floor:  LOG MEASURED FROM
 TVDS.m                  43.00:  TVDSS CORRECTN
 LATI.deg                40.13:  LATITUDE
 LONG.deg                51.22:  LONGITUDE
 WHNS.m                  -7.90:  WELL HEAD N/S
 WHEW.m                  -3.35:  WELL HEAD E/W
 UTMX.m              519005.06:  UTM X
 UTMY.m             4443793.85:  UTM Y
 DFWL.m                   0.00:  DISTANCE FWL
 DFSL.m                   0.00:  DISTANCE FSL
 SDEP.m                   0.00:  START DEPTH
 TDD .m                   0.00:  TOTAL DEPTH (DRILLER)
 VSDR.deg               308.97:  VERT SEC DIRECT
 GVFD.g                   1.00:  GRAVITY FIELD
 MFLD.nT              50350.00:  MAGNETIC FIELD
 MDIP.deg                59.62:  MAGNETIC DIP
 MDEC.deg                 6.44:  MAGNETIC DECL
 GRDC.deg                 0.13:  GRID CORRECTION
 AZTC.deg                 6.32:  AZM TOTAL CORR
 EPD .m                   0.00:  ELEVATION
 EGL .m                   0.00:  GROUND ELEVATION
 WDMS.m                 169.80:  WD ELEV
 APD .m                  43.00:  DEPTH ABOVE PD
 DEP .m                 356.43:  DEPTH
 AGAP.m                  43.00:  AIR GAP
 VSEW.m                  -3.35:  VERT SEC E/W
 VSNS.m                  -7.90:  VERT SEC N/S
 EKB .m                  43.00:  KB ELEVATION
 EDF .m                  43.00:  DF ELEVATION
 TDL .m                 934.00:  TOTAL DEPTH (LOGGER)
 VSC .                       0:  VS TO CLOSURE
 MAGU.                 1852825:  MAGUTM CHECKSUM
~Parameter Information Block
#MNEM.UNIT       Value        Description
#---------     -----------    ---------------------------
 AV  .mps                 0.80:  Ann Velocity 
 AVMX.mps                 1.70:  Max Ann Veloc 
 AZIF.deg               311.41:  Azm, Final 
 BHAT.        Rotary Steerable:  BHA Type 
 BROT.°/30m               0.09:  Build Rotating 
 BS  .in                 12.25:  Bit Size 
 BSZ .in                 12.25:  Bit Size 
 BTPL.psig              800.00:  Bit Press Loss 
 CABU.                      No:  Customer Abuse 
 COMM.                     k:  Run Comments 1 
 TCS .hr                 96.00:  Time Ciculation Ended 
 CV  .mps                 2.03:  Crit Velocity 
 CVMX.mps                 2.42:  Max Crit Veloc 
 DD1 .          Taghi Taghiyev:  Direct Drillr 1 
 DD2 .      Tariel Pirmammadov:  Direct Drillr 2 
 DD3 .          Teymur Aghayev:  Direct Drillr 3 
 DDSV.                 iCruise:  DD Service 
 DEFF.%                  98.70:  % Det Eff 
 DLRX.°/30m               1.00:  Dogleg Rot Max 
 DLSO.°/30m               1.80:  Dogleg Oriented 
 DLSX.°/30m               3.16:  Dogleg Str Max 
 DRET.      15.00.00 07-Aug-20:  Drill End Time 
 DRST.      17.00.00 02-Aug-20:  Drill Start Tim 
 DTIM.hr                 45.90:  Time Drilling 
 EDEP.m                5298.01:  End Depth 
 ENG1.       Seymur Iskandarov:  Engineer 1 
 ENG2.         Yevgeniy Ulikov:  Engineer 2 
 ENG3.      Artemiy Matviyanov:  Engineer 3 
 ENG4.         Bahruz Mehdiyev:  Engineer 4 
 ETIM.      05.00.00 10-Aug-20:  End Time 
 FLOI.gpm              1150.00:  Flow In 
 FLON.gpm               900.00:  Flow In Min 
 FLOS.cptm                0.00:  Fluid Loss 
 FLOX.gpm              1200.00:  Flow In Max 
 FTRO.     Connectivity, Formation Presure:  FTWD Run Obj 
 HFLO.                      No:  High Flow 
 HPRE.                     Yes:  High Pressure 
 HTEM.                      No:  High Temp 
 HYDO.m                   1.80:  Hydro Offset 
 IFIN.deg                 9.71:  Inc, Final 
 IMAX.deg                63.81:  Inc Max 
 IMIN.deg                 9.53:  Inc Min 
 IMND.m                5075.52:  Inc Min Depth 
 IMXD.m                4367.08:  Inc Max Depth 
 JARR.                      No:  Jarring 
 LETM.      15.00.00 07-Aug-20:  Log End Time 
 LOST.hr                     2:  Lost Rig Time 
 LSTM.      17.00.00 02-Aug-20:  Log Start Time 
 MDCL.ppm             42500.00:  Mud Chlorides 
 MDES.     Inversion Oil/Synthetic:  Mud Desc 
 DFD .sg                  1.46:  Mud Density 
 MDMN.sg                  1.46:  Dens Mud Min 
 MDMX.sg                  1.46:  Dens Mud Max 
 MOIL.                      56:  Run Mud Oil % 
 MOWR.                   70:30:  Run Mud OWR 
 MSND.                     0.1:  Run Mud Sand % 
 MSOL.                      19:  Run Mud Solids% 
 DFV .spqt               83.00:  Mud Viscosity 
 MWOD.in                  8.00:  MWD Tool OD 
 MWSI.                     Yes:  Serv Intrp, MWD 
 OTIM.hr                196.57:  Time Operating 
 PCON.           Look Like New:  Pad Condition 
 PMAX.psia             7400.00:  Press Op, Max 
 PV  .cP                 36.00:  Mud PV 
 RUN .                    1000:  Run Number 
 ROPA.m/hr               25.00:  ROP Avg 
 ROPN.m/hr               10.00:  ROP Min 
 ROPX.m/hr               32.00:  ROP Max 
 RPMA.rpm               120.00:  RPM Surface Avg 
 RPMN.rpm               100.00:  RPM Surface Min 
 RPMX.rpm               140.00:  RPM Surface Max 
 RRUN.                    L504:  Rig Run Number 
 SAZI.deg               308.25:  Azm, Start 
 SDEP.m                4364.01:  Start Depth 
 SIDD.                      No:  Serv Intrp, DD 
 SINC.deg                63.81:  Inc, Start 
 SPPA.psig             5800.00:  SPP Avg 
 SPPN.psig             4200.00:  SPP Min 
 SPPX.psig             5950.00:  SPP Max 
 STIM.      18.00.00 01-Aug-20:  Start Time 
 SVCS.                 DD, MWD:  Services 
 SVER.                    9.20:  Sperry Version 
 TDAT.m                 934.00:  Tot Depth Attmp 
 TDDF.                      No:  Trip for DD 
 TDLG.m                 934.00:  Tot Depth Loggd 
 TFF .                      No:  Trip for Fail 
 TQAA.f-kp               31.00:  Torque Abs Avg 
 TQAN.f-kp               25.00:  Torque Abs Min 
 TQAX.f-kp               35.00:  Torque Abs Max 
 TRRT.°/30m              -0.75:  Turn Rotating 
 MRT .                  EWR-M5:  Maximum Recorded Temperature 
 TTMX.degC               95.00:  Max Tool Temp 
 VS01.                90516060:  Virtual Str1 SN 
 VS02.                90528488:  Virtual Str2 SN 
 VS03.                90577970:  Virtual Str3 SN 
 VS04.                12385033:  Virtual Str4 SN 
 VS05.                90522069:  Virtual Str5 SN 
 VS06.                13124134:  Virtual Str6 SN 
 WBMN.klb                20.00:  WOB Min 
 WITN.         Alistair Sprott:  Customer Rep 
 WITN.     Ronal van der Kraan:  Customer Rep 2 
 WOBA.klb                25.00:  WOB Avg 
 WOBX.klb                31.00:  WOB Max 
 YP  .lhf2               32.00:  Yield Point 
~Curve Information Block
#MNEM.UNIT                 API CODE     Curve Description
#---------               -----------    ---------------------------
 TIME.HHMMSS            00 000 000 000:  GT Time & Date
 GTDEPTH.m              00 000 000 000:  GT Depth
 GTPQH.psia             00 000 000 000:  GT HR Quartz Pressure
 GTTQ.degC              00 000 000 000:  GT Quartz Temperature
 GTTN.NONE              00 000 000 000:  GT Test Number
 GTET.sec               00 000 000 000:  GT Elapsed Test Time
 GTTVD.m                00 000 000 000:  GT True Vertical Depth
#Other Information
#
#WARRANTY: Halliburton will use its best efforts to furnish customers with 
#accurate information and interpretations that are part of, and incident to, the services 
#provided.  However, Halliburton cannot and does not warrant the accuracy 
#or correctness of such information and interpretations.  Under no circumstances should any 
#such information or interpretation be relied upon as the sole basis for any drilling, 
#completion, production, or financial decision or any procedure involving any risk to the 
#safety of any drilling venture, drilling rig or its crew or any other third party.  The 
#Customer has full responsibility for all drilling, completion and production operation.  
#Halliburton makes no representations or warranties, either expressed or 
#implied, including, but not limited to, the implied warranties of merchantability or fitness 
#for a particular purpose, with respect to the services rendered.  In no event will 
#Halliburton be liable for failure to obtain any particular results or for 
#any damages, including, but not limited to, indirect, special or consequential damages, 
#resulting from the use of any information or interpretation provided by Halliburton.
#
~A           TIME           GTDEPTH  GTPQH  GTTQ  GTTN  GTET   GTTVD  
# ...
   03:20:42.491.08-Aug-2020 5190.56 2846.30 85.84 1.00 206.89 3375.95
   03:20:42.691.08-Aug-2020 5190.56 2846.30 85.84 1.00 207.09 3375.95
   03:20:42.890.08-Aug-2020 5190.56 2862.30 85.84 1.00 207.29 3375.95
   03:20:43.090.08-Aug-2020 5190.56 2870.36 85.84 1.00 207.49 3375.95
   03:20:43.290.08-Aug-2020 5190.56 2878.58 85.84 1.00 207.69 3375.95
   03:20:43.490.08-Aug-2020 5190.56 2886.57 85.84 1.00 207.89 3375.95
   03:20:43.690.08-Aug-2020 5190.56 2886.57 85.84 1.00 208.09 3375.95
   03:20:43.890.08-Aug-2020 5190.56 2902.66 85.84 1.00 208.29 3375.95
   03:20:44.090.08-Aug-2020 5190.56 2910.58 85.84 1.00 208.49 3375.95
   03:20:44.290.08-Aug-2020 5190.56 2919.05 85.84 1.00 208.69 3375.95
   03:20:44.490.08-Aug-2020 5190.56 2927.18 85.84 1.00 208.89 3375.95
   03:20:44.690.08-Aug-2020 5190.56 2927.18 85.84 1.00 209.09 3375.95
   03:20:44.889.08-Aug-2020 5190.56 2942.80 85.84 1.00 209.29 3375.95
   03:20:45.089.08-Aug-2020 5190.56 2950.88 85.84 1.00 209.49 3375.95
   03:20:45.289.08-Aug-2020 5190.56 2959.08 85.84 1.00 209.69 3375.95
   03:20:45.489.08-Aug-2020 5190.56 2966.96 85.84 1.00 209.89 3375.95
   03:20:45.689.08-Aug-2020 5190.56 2966.96 85.84 1.00 210.09 3375.95
   03:20:45.889.08-Aug-2020 5190.56 2982.38 85.84 1.00 210.29 3375.95
   03:20:46.089.08-Aug-2020 5190.56 2990.43 85.85 1.00 210.49 3375.95
   03:20:46.289.08-Aug-2020 5190.56 2998.39 85.85 1.00 210.69 3375.95
   03:20:46.489.08-Aug-2020 5190.56 3005.54 85.85 1.00 210.89 3375.95
   03:20:46.689.08-Aug-2020 5190.56 3005.54 85.85 1.00 211.09 3375.95
   03:20:46.888.08-Aug-2020 5190.56 3020.80 85.85 1.00 211.29 3375.95
   03:20:47.088.08-Aug-2020 5190.56 3028.31 85.85 1.00 211.49 3375.95
   03:20:47.288.08-Aug-2020 5190.56 3035.78 85.85 1.00 211.69 3375.95
   03:20:47.488.08-Aug-2020 5190.56 3043.54 85.85 1.00 211.89 3375.95
   03:20:47.688.08-Aug-2020 5190.56 3051.40 85.85 1.00 212.09 3375.95
   03:20:47.888.08-Aug-2020 5190.56 3059.04 85.85 1.00 212.29 3375.95
   03:20:48.088.08-Aug-2020 5190.56 3066.31 85.85 1.00 212.49 3375.95
   03:20:48.288.08-Aug-2020 5190.56 3074.06 85.85 1.00 212.69 3375.95
   03:20:48.488.08-Aug-2020 5190.56 3081.75 85.85 1.00 212.89 3375.95
   03:20:48.687.08-Aug-2020 5190.56 3081.75 85.85 1.00 213.09 3375.95
   03:20:48.887.08-Aug-2020 5190.56 3096.51 85.85 1.00 213.29 3375.95
   03:20:49.087.08-Aug-2020 5190.56 3104.03 85.85 1.00 213.49 3375.95
   03:20:49.287.08-Aug-2020 5190.56 3111.85 85.85 1.00 213.69 3375.95
   03:20:49.487.08-Aug-2020 5190.56 3119.01 85.85 1.00 213.89 3375.95
   03:20:49.687.08-Aug-2020 5190.56 3119.01 85.85 1.00 214.09 3375.95
   03:20:49.887.08-Aug-2020 5190.56 3133.08 85.85 1.00 214.29 3375.95
   03:20:50.087.08-Aug-2020 5190.56 3140.11 85.85 1.00 214.49 3375.95
   03:20:50.287.08-Aug-2020 5190.56 3147.82 85.85 1.00 214.69 3375.95
   03:20:50.487.08-Aug-2020 5190.56 3154.74 85.85 1.00 214.89 3375.95
   03:20:50.686.08-Aug-2020 5190.56 3154.74 85.85 1.00 215.09 3375.95
   03:20:50.886.08-Aug-2020 5190.56 3169.69 85.85 1.00 215.29 3375.95
   03:20:51.086.08-Aug-2020 5190.56 3176.13 85.85 1.00 215.49 3375.95
   03:20:51.286.08-Aug-2020 5190.56 3182.69 85.85 1.00 215.69 3375.95
   03:20:51.486.08-Aug-2020 5190.56 3190.05 85.85 1.00 215.89 3375.95
   03:20:51.686.08-Aug-2020 5190.56 3197.48 85.85 1.00 216.09 3375.95
   03:20:51.886.08-Aug-2020 5190.56 3204.72 85.86 1.00 216.29 3375.95
   03:20:52.086.08-Aug-2020 5190.56 3211.69 85.86 1.00 216.49 3375.95
   03:20:52.286.08-Aug-2020 5190.56 3218.72 85.86 1.00 216.69 3375.95
   03:20:52.486.08-Aug-2020 5190.56 3225.94 85.86 1.00 216.89 3375.95
   03:20:52.685.08-Aug-2020 5190.56 3225.94 85.86 1.00 217.09 3375.95
   03:20:52.885.08-Aug-2020 5190.56 3238.97 85.86 1.00 217.29 3375.95
   03:20:53.085.08-Aug-2020 5190.56 3246.14 85.86 1.00 217.49 3375.95
   03:20:53.285.08-Aug-2020 5190.56 3253.32 85.86 1.00 217.69 3375.95
   03:20:53.485.08-Aug-2020 5190.56 3260.34 85.86 1.00 217.89 3375.95
   03:20:53.685.08-Aug-2020 5190.56 3260.34 85.86 1.00 218.09 3375.95
   03:20:53.885.08-Aug-2020 5190.56 3274.71 85.86 1.00 218.29 3375.95
   03:20:54.085.08-Aug-2020 5190.56 3281.29 85.86 1.00 218.49 3375.95
   03:20:54.285.08-Aug-2020 5190.56 3288.22 85.86 1.00 218.69 3375.95
   03:20:54.485.08-Aug-2020 5190.56 3295.33 85.86 1.00 218.89 3375.95
   03:20:54.684.08-Aug-2020 5190.56 3295.33 85.86 1.00 219.09 3375.95
   03:20:54.884.08-Aug-2020 5190.56 3309.44 85.86 1.00 219.29 3375.95
   03:20:55.084.08-Aug-2020 5190.56 3316.04 85.86 1.00 219.49 3375.95
   03:20:55.284.08-Aug-2020 5190.56 3323.08 85.86 1.00 219.69 3375.95
   03:20:55.484.08-Aug-2020 5190.56 3330.12 85.86 1.00 219.89 3375.95
   03:20:55.684.08-Aug-2020 5190.56 3337.08 85.86 1.00 220.09 3375.95
   03:20:55.884.08-Aug-2020 5190.56 3343.48 85.86 1.00 220.29 3375.95
   03:20:56.084.08-Aug-2020 5190.56 3350.00 85.86 1.00 220.49 3375.95
   03:20:56.284.08-Aug-2020 5190.56 3357.02 85.86 1.00 220.69 3375.95
   03:20:56.484.08-Aug-2020 5190.56 3363.34 85.86 1.00 220.89 3375.95
   03:20:56.683.08-Aug-2020 5190.56 3363.34 85.86 1.00 221.09 3375.95
   03:20:56.883.08-Aug-2020 5190.56 3376.81 85.86 1.00 221.29 3375.95
   03:20:57.083.08-Aug-2020 5190.56 3383.47 85.86 1.00 221.49 3375.95
   03:20:57.283.08-Aug-2020 5190.56 3390.34 85.86 1.00 221.69 3375.95
   03:20:57.483.08-Aug-2020 5190.56 3396.61 85.86 1.00 221.89 3375.95
   03:20:57.683.08-Aug-2020 5190.56 3396.61 85.86 1.00 222.09 3375.95
   03:20:57.883.08-Aug-2020 5190.56 3409.94 85.86 1.00 222.29 3375.95
   03:20:58.083.08-Aug-2020 5190.56 3416.58 85.86 1.00 222.49 3375.95
   03:20:58.283.08-Aug-2020 5190.56 3423.46 85.86 1.00 222.69 3375.95
   03:20:58.482.08-Aug-2020 5190.56 3430.14 85.86 1.00 222.89 3375.95
   03:20:58.682.08-Aug-2020 5190.56 3430.14 85.86 1.00 223.09 3375.95
   03:20:58.882.08-Aug-2020 5190.56 3442.88 85.86 1.00 223.29 3375.95
   03:20:59.082.08-Aug-2020 5190.56 3449.43 85.86 1.00 223.49 3375.95
   03:20:59.282.08-Aug-2020 5190.56 3455.31 85.87 1.00 223.69 3375.95
   03:20:59.482.08-Aug-2020 5190.56 3461.38 85.87 1.00 223.89 3375.95
   03:20:59.682.08-Aug-2020 5190.56 3467.91 85.87 1.00 224.09 3375.95
   03:20:59.882.08-Aug-2020 5190.56 3473.68 85.87 1.00 224.29 3375.95
   03:21:00.082.08-Aug-2020 5190.56 3479.64 85.87 1.00 224.49 3375.95
   03:21:00.282.08-Aug-2020 5190.56 3486.05 85.87 1.00 224.69 3375.95
   03:21:00.481.08-Aug-2020 5190.56 3492.33 85.87 1.00 224.89 3375.95
   03:21:00.681.08-Aug-2020 5190.56 3492.33 85.87 1.00 225.09 3375.95
   03:21:00.881.08-Aug-2020 5190.56 3505.29 85.87 1.00 225.29 3375.95
   03:21:01.081.08-Aug-2020 5190.56 3511.55 85.87 1.00 225.49 3375.95
   03:21:01.281.08-Aug-2020 5190.56 3517.15 85.87 1.00 225.69 3375.95
   03:21:01.481.08-Aug-2020 5190.56 3523.11 85.87 1.00 225.88 3375.95
   03:21:01.681.08-Aug-2020 5190.56 3523.11 85.87 1.00 226.08 3375.95
   03:21:01.881.08-Aug-2020 5190.56 3535.99 85.87 1.00 226.28 3375.95
   03:21:02.081.08-Aug-2020 5190.56 3542.37 85.87 1.00 226.48 3375.95
   03:21:02.281.08-Aug-2020 5190.56 3548.16 85.87 1.00 226.68 3375.95
   03:21:02.480.08-Aug-2020 5190.56 3554.56 85.87 1.00 226.88 3375.95
   03:21:02.680.08-Aug-2020 5190.56 3554.56 85.87 1.00 227.08 3375.95
   03:21:02.880.08-Aug-2020 5190.56 3566.87 85.87 1.00 227.28 3375.95
   03:21:03.080.08-Aug-2020 5190.56 3572.99 85.87 1.00 227.48 3375.95
   03:21:03.280.08-Aug-2020 5190.56 3578.62 85.87 1.00 227.68 3375.95
   03:21:03.480.08-Aug-2020 5190.56 3584.35 85.87 1.00 227.88 3375.95
   03:21:03.680.08-Aug-2020 5190.56 3590.74 85.87 1.00 228.08 3375.95
   03:21:03.880.08-Aug-2020 5190.56 3597.10 85.87 1.00 228.28 3375.95
   03:21:04.080.08-Aug-2020 5190.56 3602.91 85.87 1.00 228.48 3375.95
   03:21:04.280.08-Aug-2020 5190.56 3609.10 85.87 1.00 228.68 3375.95
   03:21:04.479.08-Aug-2020 5190.56 3615.31 85.87 1.00 228.88 3375.95
   03:21:04.679.08-Aug-2020 5190.56 3615.31 85.87 1.00 229.08 3375.95
   03:21:04.879.08-Aug-2020 5190.56 3627.60 85.87 1.00 229.28 3375.95
   03:21:05.079.08-Aug-2020 5190.56 3633.06 85.87 1.00 229.48 3375.95
   03:21:05.279.08-Aug-2020 5190.56 3639.24 85.87 1.00 229.68 3375.95
