~Version Information
 VERS.                  2.0:   CWLS log ASCII Standard -VERSION 2.0
 WRAP.                   NO:   One line per depth step
~Well Information Block
#MNEM.UNIT     VALUE/NAME     DESCRIPTION
#---------     -----------    ---------------------------
 STRT.S             08:45:48 08-Aug-20: START TIME 08:45:48 08-Aug-20
 STOP.S             08:54:16 08-Aug-20: STOP TIME  08:54:16 08-Aug-20
 STEP.S                   0.00: STEP TIME
 NULL.                 -999.25: NULL VALUE
 DFWT.                        :  DIST FWL TEXT
 DFST.                        :  DIST FSL TEXT
 DMF .             Drill Floor:  DRILL MEAS FROM
 STIM.      13.47.44 07-Jun-20:  START TIME
 DATE.      13.47.44 27-Jul-20:  END TIME
 SPUD.               07-Jun-20:  SPUD DATE
 NREF.                    Grid:  NORTH REFERENCE
 HPTY.       Minimum Curvature:  HOLE POS TYPE
 DMOD.             Drill Model:  DRILL MOD DESC
 SVYD.                  Survey:  SURVEY DESC
 ILTD.               Lithology:  INTERP LTH DESC
 FTOP.          Formation Tops:  FORM TOPS DESC
 RIG .             West Chirag:  RIG NAME
 PDAT.          Mean Sea Level:  PERMANENT DATUM
 FLD .                     ACG:  FIELD NAME
 SON .        AZ-XX-0906363612:  JOB NUMBER
 CTRY.              Azerbaijan:  COUNTRY NAME
 WELL.           J25 (Slot 35):  WELL NAME
 SRVC.          Turan Drilling:  CONTRACTOR
 COMP.     BP Exploration (Caspian Sea) Ltd:  COMPANY
 UWI .                     N/A:  UNIQUE WELL IDENTIFIER
 API .                     N/A:  API NUMBER
 BASE.              Azerbaijan:  LOGGING EQUIPMENT BASE LOCATION
 REGN.                   EESSA:  REGION
 PROV.                    Baku:  PROVINCE
 STAT.                    Baku:  STATE NAME
 MWDS.                     N/A:  MWD SHOP
 DOE .                     N/A:  DOE NUMBER
 DCON.         Sperry Drilling:  DIRECTNL CONTR
 UNIT.                     N/A:  LOGGING EQUIPMENT ID
 MDS .        Operator Entered:  MAG DATA SOURCE
 JOBN.        AZ-XX-0906363612:  JOB TICKET NUMB
 WTYP.                Deviated:  WELL TYPE
 CNTY.                        :  COUNTY
 LOC .                        :  LOCATION
 LMF .             Drill Floor:  LOG MEASURED FROM
 TVDS.m                  43.00:  TVDSS CORRECTN
 LATI.deg                40.13:  LATITUDE
 LONG.deg                51.22:  LONGITUDE
 WHNS.m                  -7.90:  WELL HEAD N/S
 WHEW.m                  -3.35:  WELL HEAD E/W
 UTMX.m              519005.06:  UTM X
 UTMY.m             4443793.85:  UTM Y
 DFWL.m                   0.00:  DISTANCE FWL
 DFSL.m                   0.00:  DISTANCE FSL
 SDEP.m                   0.00:  START DEPTH
 TDD .m                   0.00:  TOTAL DEPTH (DRILLER)
 VSDR.deg               308.97:  VERT SEC DIRECT
 GVFD.g                   1.00:  GRAVITY FIELD
 MFLD.nT              50350.00:  MAGNETIC FIELD
 MDIP.deg                59.62:  MAGNETIC DIP
 MDEC.deg                 6.44:  MAGNETIC DECL
 GRDC.deg                 0.13:  GRID CORRECTION
 AZTC.deg                 6.32:  AZM TOTAL CORR
 EPD .m                   0.00:  ELEVATION
 EGL .m                   0.00:  GROUND ELEVATION
 WDMS.m                 169.80:  WD ELEV
 APD .m                  43.00:  DEPTH ABOVE PD
 DEP .m                 356.43:  DEPTH
 AGAP.m                  43.00:  AIR GAP
 VSEW.m                  -3.35:  VERT SEC E/W
 VSNS.m                  -7.90:  VERT SEC N/S
 EKB .m                  43.00:  KB ELEVATION
 EDF .m                  43.00:  DF ELEVATION
 TDL .m                 934.00:  TOTAL DEPTH (LOGGER)
 VSC .                       0:  VS TO CLOSURE
 MAGU.                 1852825:  MAGUTM CHECKSUM
~Parameter Information Block
#MNEM.UNIT       Value        Description
#---------     -----------    ---------------------------
 AV  .mps                 0.80:  Ann Velocity 
 AVMX.mps                 1.70:  Max Ann Veloc 
 AZIF.deg               311.41:  Azm, Final 
 BHAT.        Rotary Steerable:  BHA Type 
 BROT.°/30m               0.09:  Build Rotating 
 BS  .in                 12.25:  Bit Size 
 BSZ .in                 12.25:  Bit Size 
 BTPL.psig              800.00:  Bit Press Loss 
 CABU.                      No:  Customer Abuse 
 COMM.                     ôS:  Run Comments 1 
 TCS .hr                 96.00:  Time Ciculation Ended 
 CV  .mps                 2.03:  Crit Velocity 
 CVMX.mps                 2.42:  Max Crit Veloc 
 DD1 .          Taghi Taghiyev:  Direct Drillr 1 
 DD2 .      Tariel Pirmammadov:  Direct Drillr 2 
 DD3 .          Teymur Aghayev:  Direct Drillr 3 
 DDSV.                 iCruise:  DD Service 
 DEFF.%                  98.70:  % Det Eff 
 DLRX.°/30m               1.00:  Dogleg Rot Max 
 DLSO.°/30m               1.80:  Dogleg Oriented 
 DLSX.°/30m               3.16:  Dogleg Str Max 
 DRET.      15.00.00 07-Aug-20:  Drill End Time 
 DRST.      17.00.00 02-Aug-20:  Drill Start Tim 
 DTIM.hr                 45.90:  Time Drilling 
 EDEP.m                5298.01:  End Depth 
 ENG1.       Seymur Iskandarov:  Engineer 1 
 ENG2.         Yevgeniy Ulikov:  Engineer 2 
 ENG3.      Artemiy Matviyanov:  Engineer 3 
 ENG4.         Bahruz Mehdiyev:  Engineer 4 
 ETIM.      05.00.00 10-Aug-20:  End Time 
 FLOI.gpm              1150.00:  Flow In 
 FLON.gpm               900.00:  Flow In Min 
 FLOS.cptm                0.00:  Fluid Loss 
 FLOX.gpm              1200.00:  Flow In Max 
 FTRO.     Connectivity, Formation Presure:  FTWD Run Obj 
 HFLO.                      No:  High Flow 
 HPRE.                     Yes:  High Pressure 
 HTEM.                      No:  High Temp 
 HYDO.m                   1.80:  Hydro Offset 
 IFIN.deg                 9.71:  Inc, Final 
 IMAX.deg                63.81:  Inc Max 
 IMIN.deg                 9.53:  Inc Min 
 IMND.m                5075.52:  Inc Min Depth 
 IMXD.m                4367.08:  Inc Max Depth 
 JARR.                      No:  Jarring 
 LETM.      15.00.00 07-Aug-20:  Log End Time 
 LOST.hr                     2:  Lost Rig Time 
 LSTM.      17.00.00 02-Aug-20:  Log Start Time 
 MDCL.ppm             42500.00:  Mud Chlorides 
 MDES.     Inversion Oil/Synthetic:  Mud Desc 
 DFD .sg                  1.46:  Mud Density 
 MDMN.sg                  1.46:  Dens Mud Min 
 MDMX.sg                  1.46:  Dens Mud Max 
 MOIL.                      56:  Run Mud Oil % 
 MOWR.                   70:30:  Run Mud OWR 
 MSND.                     0.1:  Run Mud Sand % 
 MSOL.                      19:  Run Mud Solids% 
 DFV .spqt               83.00:  Mud Viscosity 
 MWOD.in                  8.00:  MWD Tool OD 
 MWSI.                     Yes:  Serv Intrp, MWD 
 OTIM.hr                196.57:  Time Operating 
 PCON.           Look Like New:  Pad Condition 
 PMAX.psia             7400.00:  Press Op, Max 
 PV  .cP                 36.00:  Mud PV 
 RUN .                    1000:  Run Number 
 ROPA.m/hr               25.00:  ROP Avg 
 ROPN.m/hr               10.00:  ROP Min 
 ROPX.m/hr               32.00:  ROP Max 
 RPMA.rpm               120.00:  RPM Surface Avg 
 RPMN.rpm               100.00:  RPM Surface Min 
 RPMX.rpm               140.00:  RPM Surface Max 
 RRUN.                    L504:  Rig Run Number 
 SAZI.deg               308.25:  Azm, Start 
 SDEP.m                4364.01:  Start Depth 
 SIDD.                      No:  Serv Intrp, DD 
 SINC.deg                63.81:  Inc, Start 
 SPPA.psig             5800.00:  SPP Avg 
 SPPN.psig             4200.00:  SPP Min 
 SPPX.psig             5950.00:  SPP Max 
 STIM.      18.00.00 01-Aug-20:  Start Time 
 SVCS.                 DD, MWD:  Services 
 SVER.                    9.20:  Sperry Version 
 TDAT.m                 934.00:  Tot Depth Attmp 
 TDDF.                      No:  Trip for DD 
 TDLG.m                 934.00:  Tot Depth Loggd 
 TFF .                      No:  Trip for Fail 
 TQAA.f-kp               31.00:  Torque Abs Avg 
 TQAN.f-kp               25.00:  Torque Abs Min 
 TQAX.f-kp               35.00:  Torque Abs Max 
 TRRT.°/30m              -0.75:  Turn Rotating 
 MRT .                  EWR-M5:  Maximum Recorded Temperature 
 TTMX.degC               95.00:  Max Tool Temp 
 VS01.                90516060:  Virtual Str1 SN 
 VS02.                90528488:  Virtual Str2 SN 
 VS03.                90577970:  Virtual Str3 SN 
 VS04.                12385033:  Virtual Str4 SN 
 VS05.                90522069:  Virtual Str5 SN 
 VS06.                13124134:  Virtual Str6 SN 
 WBMN.klb                20.00:  WOB Min 
 WITN.         Alistair Sprott:  Customer Rep 
 WITN.     Ronal van der Kraan:  Customer Rep 2 
 WOBA.klb                25.00:  WOB Avg 
 WOBX.klb                31.00:  WOB Max 
 YP  .lhf2               32.00:  Yield Point 
~Curve Information Block
#MNEM.UNIT                 API CODE     Curve Description
#---------               -----------    ---------------------------
 TIME.HHMMSS            00 000 000 000:  GT Time & Date
 GTDEPTH.m              00 000 000 000:  GT Depth
 GTPQH.psia             00 000 000 000:  GT HR Quartz Pressure
 GTTQ.degC              00 000 000 000:  GT Quartz Temperature
 GTTN.NONE              00 000 000 000:  GT Test Number
 GTET.sec               00 000 000 000:  GT Elapsed Test Time
 GTTVD.m                00 000 000 000:  GT True Vertical Depth
#Other Information
#
#WARRANTY: Halliburton will use its best efforts to furnish customers with 
#accurate information and interpretations that are part of, and incident to, the services 
#provided.  However, Halliburton cannot and does not warrant the accuracy 
#or correctness of such information and interpretations.  Under no circumstances should any 
#such information or interpretation be relied upon as the sole basis for any drilling, 
#completion, production, or financial decision or any procedure involving any risk to the 
#safety of any drilling venture, drilling rig or its crew or any other third party.  The 
#Customer has full responsibility for all drilling, completion and production operation.  
#Halliburton makes no representations or warranties, either expressed or 
#implied, including, but not limited to, the implied warranties of merchantability or fitness 
#for a particular purpose, with respect to the services rendered.  In no event will 
#Halliburton be liable for failure to obtain any particular results or for 
#any damages, including, but not limited to, indirect, special or consequential damages, 
#resulting from the use of any information or interpretation provided by Halliburton.
#
~A           TIME           GTDEPTH  GTPQH  GTTQ  GTTN  GTET   GTTVD  
# ...
   08:53:52.063.08-Aug-2020 5134.01 7121.42 75.96 7.00 483.26 3320.21
   08:53:52.263.08-Aug-2020 5134.01 7121.58 75.96 7.00 483.46 3320.21
   08:53:52.463.08-Aug-2020 5134.01 7127.37 75.96 7.00 483.66 3320.21
   08:53:52.663.08-Aug-2020 5134.01 7120.05 75.97 7.00 483.86 3320.21
   08:53:52.863.08-Aug-2020 5134.01 7123.92 75.97 7.00 484.06 3320.21
   08:53:53.063.08-Aug-2020 5134.01 7128.15 75.97 7.00 484.26 3320.21
   08:53:53.263.08-Aug-2020 5134.01 7128.15 75.97 7.00 484.46 3320.21
   08:53:53.464.08-Aug-2020 5134.01 7123.78 75.98 7.00 484.66 3320.21
   08:53:53.664.08-Aug-2020 5134.01 7121.35 75.98 7.00 484.86 3320.21
   08:53:53.864.08-Aug-2020 5134.01 7120.81 75.98 7.00 485.06 3320.21
   08:53:54.064.08-Aug-2020 5134.01 7120.86 75.99 7.00 485.26 3320.21
   08:53:54.264.08-Aug-2020 5134.01 7120.86 75.99 7.00 485.46 3320.21
   08:53:54.464.08-Aug-2020 5134.01 7124.00 75.99 7.00 485.66 3320.21
   08:53:54.664.08-Aug-2020 5134.01 7123.67 75.99 7.00 485.86 3320.21
   08:53:54.864.08-Aug-2020 5134.01 7124.34 76.00 7.00 486.06 3320.21
   08:53:55.064.08-Aug-2020 5134.01 7121.85 76.00 7.00 486.26 3320.21
   08:53:55.265.08-Aug-2020 5134.01 7121.85 76.00 7.00 486.46 3320.21
   08:53:55.465.08-Aug-2020 5134.01 7125.53 76.00 7.00 486.66 3320.21
   08:53:55.665.08-Aug-2020 5134.01 7122.99 76.01 7.00 486.86 3320.21
   08:53:55.865.08-Aug-2020 5134.01 7124.59 76.01 7.00 487.06 3320.21
   08:53:56.065.08-Aug-2020 5134.01 7121.49 76.01 7.00 487.26 3320.21
   08:53:56.265.08-Aug-2020 5134.01 7121.49 76.01 7.00 487.46 3320.21
   08:53:56.465.08-Aug-2020 5134.01 7122.53 76.01 7.00 487.66 3320.21
   08:53:56.665.08-Aug-2020 5134.01 7127.26 76.02 7.00 487.86 3320.21
   08:53:56.865.08-Aug-2020 5134.01 7122.13 76.02 7.00 488.06 3320.21
   08:53:57.065.08-Aug-2020 5134.01 7124.71 76.02 7.00 488.26 3320.21
   08:53:57.266.08-Aug-2020 5134.01 7124.71 76.02 7.00 488.46 3320.21
   08:53:57.466.08-Aug-2020 5134.01 7122.52 76.02 7.00 488.66 3320.21
   08:53:57.666.08-Aug-2020 5134.01 7123.96 76.02 7.00 488.86 3320.21
   08:53:57.866.08-Aug-2020 5134.01 7123.32 76.03 7.00 489.06 3320.21
   08:53:58.066.08-Aug-2020 5134.01 7123.63 76.03 7.00 489.26 3320.21
   08:53:58.266.08-Aug-2020 5134.01 7123.63 76.03 7.00 489.46 3320.21
   08:53:58.466.08-Aug-2020 5134.01 7124.14 76.03 7.00 489.66 3320.21
   08:53:58.666.08-Aug-2020 5134.01 7123.19 76.03 7.00 489.86 3320.21
   08:53:58.866.08-Aug-2020 5134.01 7124.17 76.03 7.00 490.06 3320.21
   08:53:59.067.08-Aug-2020 5134.01 7123.93 76.03 7.00 490.26 3320.21
   08:53:59.267.08-Aug-2020 5134.01 7123.93 76.03 7.00 490.46 3320.21
   08:53:59.467.08-Aug-2020 5134.01 7123.71 76.03 7.00 490.66 3320.21
   08:53:59.667.08-Aug-2020 5134.01 7123.32 76.04 7.00 490.86 3320.21
   08:53:59.867.08-Aug-2020 5134.01 7123.25 76.04 7.00 491.06 3320.21
   08:54:00.067.08-Aug-2020 5134.01 7123.09 76.04 7.00 491.26 3320.21
   08:54:00.267.08-Aug-2020 5134.01 7123.09 76.04 7.00 491.46 3320.21
   08:54:00.467.08-Aug-2020 5134.01 7124.43 76.04 7.00 491.66 3320.21
   08:54:00.667.08-Aug-2020 5134.01 7123.58 76.04 7.00 491.86 3320.21
   08:54:00.867.08-Aug-2020 5134.01 7122.59 76.04 7.00 492.06 3320.21
   08:54:01.068.08-Aug-2020 5134.01 7122.40 76.04 7.00 492.26 3320.21
   08:54:01.268.08-Aug-2020 5134.01 7122.40 76.04 7.00 492.46 3320.21
   08:54:01.468.08-Aug-2020 5134.01 7122.91 76.04 7.00 492.66 3320.21
   08:54:01.668.08-Aug-2020 5134.01 7123.27 76.04 7.00 492.86 3320.21
   08:54:01.868.08-Aug-2020 5134.01 7122.39 76.04 7.00 493.06 3320.21
   08:54:02.068.08-Aug-2020 5134.01 7123.94 76.04 7.00 493.26 3320.21
   08:54:02.268.08-Aug-2020 5134.01 7123.88 76.04 7.00 493.46 3320.21
   08:54:02.468.08-Aug-2020 5134.01 7124.29 76.04 7.00 493.66 3320.21
   08:54:02.668.08-Aug-2020 5134.01 7123.99 76.04 7.00 493.86 3320.21
   08:54:02.869.08-Aug-2020 5134.01 7123.92 76.04 7.00 494.06 3320.21
   08:54:03.069.08-Aug-2020 5134.01 7123.76 76.04 7.00 494.26 3320.21
   08:54:03.269.08-Aug-2020 5134.01 7123.76 76.04 7.00 494.46 3320.21
   08:54:03.469.08-Aug-2020 5134.01 7127.28 76.04 7.00 494.66 3320.21
   08:54:03.669.08-Aug-2020 5134.01 7122.17 76.04 7.00 494.86 3320.21
   08:54:03.869.08-Aug-2020 5134.01 7124.36 76.04 7.00 495.06 3320.21
   08:54:04.069.08-Aug-2020 5134.01 7126.74 76.04 7.00 495.26 3320.21
   08:54:04.269.08-Aug-2020 5134.01 7126.74 76.04 7.00 495.46 3320.21
   08:54:04.469.08-Aug-2020 5134.01 7124.11 76.04 7.00 495.66 3320.21
   08:54:04.670.08-Aug-2020 5134.01 7122.71 76.04 7.00 495.86 3320.21
   08:54:04.870.08-Aug-2020 5134.01 7122.84 76.04 7.00 496.06 3320.21
   08:54:05.070.08-Aug-2020 5134.01 7126.01 76.04 7.00 496.26 3320.21
   08:54:05.270.08-Aug-2020 5134.01 7126.01 76.04 7.00 496.46 3320.21
   08:54:05.470.08-Aug-2020 5134.01 7124.60 76.04 7.00 496.66 3320.21
   08:54:05.670.08-Aug-2020 5134.01 7122.90 76.04 7.00 496.86 3320.21
   08:54:05.870.08-Aug-2020 5134.01 7124.42 76.04 7.00 497.06 3320.21
   08:54:06.070.08-Aug-2020 5134.01 7123.27 76.04 7.00 497.26 3320.21
   08:54:06.270.08-Aug-2020 5134.01 7129.16 76.04 7.00 497.46 3320.21
   08:54:06.470.08-Aug-2020 5134.01 7121.02 76.04 7.00 497.66 3320.21
   08:54:06.671.08-Aug-2020 5134.01 7123.57 76.04 7.00 497.86 3320.21
   08:54:06.871.08-Aug-2020 5134.01 7124.11 76.04 7.00 498.06 3320.21
   08:54:07.071.08-Aug-2020 5134.01 7122.15 76.04 7.00 498.26 3320.21
   08:54:07.271.08-Aug-2020 5134.01 7122.15 76.04 7.00 498.46 3320.21
   08:54:07.471.08-Aug-2020 5134.01 7120.10 76.04 7.00 498.66 3320.21
   08:54:07.671.08-Aug-2020 5134.01 7124.73 76.04 7.00 498.86 3320.21
   08:54:07.871.08-Aug-2020 5134.01 7122.54 76.04 7.00 499.06 3320.21
   08:54:08.071.08-Aug-2020 5134.01 7122.98 76.04 7.00 499.26 3320.21
   08:54:08.271.08-Aug-2020 5134.01 7122.98 76.04 7.00 499.46 3320.21
   08:54:08.472.08-Aug-2020 5134.01 7123.28 76.04 7.00 499.66 3320.21
   08:54:08.672.08-Aug-2020 5134.01 7123.48 76.04 7.00 499.86 3320.21
   08:54:08.872.08-Aug-2020 5134.01 7122.78 76.04 7.00 500.06 3320.21
   08:54:09.072.08-Aug-2020 5134.01 7124.16 76.04 7.00 500.26 3320.21
   08:54:09.272.08-Aug-2020 5134.01 7124.16 76.04 7.00 500.46 3320.21
   08:54:09.472.08-Aug-2020 5134.01 7124.16 76.03 7.00 500.66 3320.21
   08:54:09.672.08-Aug-2020 5134.01 7123.59 76.03 7.00 500.86 3320.21
   08:54:09.872.08-Aug-2020 5134.01 7123.68 76.03 7.00 501.07 3320.21
   08:54:10.072.08-Aug-2020 5134.01 7123.45 76.03 7.00 501.27 3320.21
   08:54:10.272.08-Aug-2020 5134.01 7123.45 76.03 7.00 501.47 3320.21
   08:54:10.473.08-Aug-2020 5134.01 7123.24 76.03 7.00 501.67 3320.21
   08:54:10.673.08-Aug-2020 5134.01 7123.15 76.03 7.00 501.87 3320.21
   08:54:10.873.08-Aug-2020 5134.01 7127.34 76.03 7.00 502.07 3320.21
   08:54:11.073.08-Aug-2020 5134.01 7122.20 76.03 7.00 502.27 3320.21
   08:54:11.273.08-Aug-2020 5134.01 7122.20 76.03 7.00 502.47 3320.21
   08:54:11.473.08-Aug-2020 5134.01 7122.84 76.03 7.00 502.67 3320.21
   08:54:11.673.08-Aug-2020 5134.01 7122.67 76.03 7.00 502.87 3320.21
   08:54:11.873.08-Aug-2020 5134.01 7122.84 76.03 7.00 503.07 3320.21
   08:54:12.073.08-Aug-2020 5134.01 7124.10 76.03 7.00 503.27 3320.21
   08:54:12.274.08-Aug-2020 5134.01 7124.10 76.03 7.00 503.47 3320.21
   08:54:12.474.08-Aug-2020 5134.01 7123.13 76.03 7.00 503.67 3320.21
   08:54:12.674.08-Aug-2020 5134.01 7125.19 76.03 7.00 503.87 3320.21
   08:54:12.874.08-Aug-2020 5134.01 7124.06 76.03 7.00 504.07 3320.21
   08:54:13.074.08-Aug-2020 5134.01 7125.10 76.03 7.00 504.27 3320.21
   08:54:13.274.08-Aug-2020 5134.01 7125.10 76.03 7.00 504.47 3320.21
   08:54:13.474.08-Aug-2020 5134.01 7124.26 76.03 7.00 504.67 3320.21
   08:54:13.674.08-Aug-2020 5134.01 7123.71 76.02 7.00 504.87 3320.21
   08:54:13.874.08-Aug-2020 5134.01 7123.34 76.02 7.00 505.07 3320.21
   08:54:14.074.08-Aug-2020 5134.01 7128.83 76.02 7.00 505.27 3320.21
   08:54:14.275.08-Aug-2020 5134.01 7128.83 76.02 7.00 505.47 3320.21
   08:54:14.475.08-Aug-2020 5134.01 7124.55 76.02 7.00 505.67 3320.21
   08:54:14.675.08-Aug-2020 5134.01 7128.42 76.02 7.00 505.87 3320.21
   08:54:14.875.08-Aug-2020 5134.01 7119.80 76.02 7.00 506.07 3320.21
