~Version Information
 VERS.                  2.0:   CWLS log ASCII Standard -VERSION 2.0
 WRAP.                   NO:   One line per depth step
~Well Information Block
#MNEM.UNIT     VALUE/NAME     DESCRIPTION
#---------     -----------    ---------------------------
 STRT.S             03:17:15 08-Aug-20: START TIME 03:17:15 08-Aug-20
 STOP.S             03:24:06 08-Aug-20: STOP TIME  03:24:06 08-Aug-20
 STEP.S                   0.00: STEP TIME
 NULL.                 -999.25: NULL VALUE
 DFWT.                        :  DIST FWL TEXT
 DFST.                        :  DIST FSL TEXT
 DMF .             Drill Floor:  DRILL MEAS FROM
 STIM.      13.47.44 07-Jun-20:  START TIME
 DATE.      13.47.44 27-Jul-20:  END TIME
 SPUD.               07-Jun-20:  SPUD DATE
 NREF.                    Grid:  NORTH REFERENCE
 HPTY.       Minimum Curvature:  HOLE POS TYPE
 DMOD.             Drill Model:  DRILL MOD DESC
 SVYD.                  Survey:  SURVEY DESC
 ILTD.               Lithology:  INTERP LTH DESC
 FTOP.          Formation Tops:  FORM TOPS DESC
 RIG .             West Chirag:  RIG NAME
 PDAT.          Mean Sea Level:  PERMANENT DATUM
 FLD .                     ACG:  FIELD NAME
 SON .        AZ-XX-0906363612:  JOB NUMBER
 CTRY.              Azerbaijan:  COUNTRY NAME
 WELL.           J25 (Slot 35):  WELL NAME
 SRVC.          Turan Drilling:  CONTRACTOR
 COMP.     BP Exploration (Caspian Sea) Ltd:  COMPANY
 UWI .                     N/A:  UNIQUE WELL IDENTIFIER
 API .                     N/A:  API NUMBER
 BASE.              Azerbaijan:  LOGGING EQUIPMENT BASE LOCATION
 REGN.                   EESSA:  REGION
 PROV.                    Baku:  PROVINCE
 STAT.                    Baku:  STATE NAME
 MWDS.                     N/A:  MWD SHOP
 DOE .                     N/A:  DOE NUMBER
 DCON.         Sperry Drilling:  DIRECTNL CONTR
 UNIT.                     N/A:  LOGGING EQUIPMENT ID
 MDS .        Operator Entered:  MAG DATA SOURCE
 JOBN.        AZ-XX-0906363612:  JOB TICKET NUMB
 WTYP.                Deviated:  WELL TYPE
 CNTY.                        :  COUNTY
 LOC .                        :  LOCATION
 LMF .             Drill Floor:  LOG MEASURED FROM
 TVDS.m                  43.00:  TVDSS CORRECTN
 LATI.deg                40.13:  LATITUDE
 LONG.deg                51.22:  LONGITUDE
 WHNS.m                  -7.90:  WELL HEAD N/S
 WHEW.m                  -3.35:  WELL HEAD E/W
 UTMX.m              519005.06:  UTM X
 UTMY.m             4443793.85:  UTM Y
 DFWL.m                   0.00:  DISTANCE FWL
 DFSL.m                   0.00:  DISTANCE FSL
 SDEP.m                   0.00:  START DEPTH
 TDD .m                   0.00:  TOTAL DEPTH (DRILLER)
 VSDR.deg               308.97:  VERT SEC DIRECT
 GVFD.g                   1.00:  GRAVITY FIELD
 MFLD.nT              50350.00:  MAGNETIC FIELD
 MDIP.deg                59.62:  MAGNETIC DIP
 MDEC.deg                 6.44:  MAGNETIC DECL
 GRDC.deg                 0.13:  GRID CORRECTION
 AZTC.deg                 6.32:  AZM TOTAL CORR
 EPD .m                   0.00:  ELEVATION
 EGL .m                   0.00:  GROUND ELEVATION
 WDMS.m                 169.80:  WD ELEV
 APD .m                  43.00:  DEPTH ABOVE PD
 DEP .m                 356.43:  DEPTH
 AGAP.m                  43.00:  AIR GAP
 VSEW.m                  -3.35:  VERT SEC E/W
 VSNS.m                  -7.90:  VERT SEC N/S
 EKB .m                  43.00:  KB ELEVATION
 EDF .m                  43.00:  DF ELEVATION
 TDL .m                 934.00:  TOTAL DEPTH (LOGGER)
 VSC .                       0:  VS TO CLOSURE
 MAGU.                 1852825:  MAGUTM CHECKSUM
~Parameter Information Block
#MNEM.UNIT       Value        Description
#---------     -----------    ---------------------------
 AV  .mps                 0.80:  Ann Velocity 
 AVMX.mps                 1.70:  Max Ann Veloc 
 AZIF.deg               311.41:  Azm, Final 
 BHAT.        Rotary Steerable:  BHA Type 
 BROT.°/30m               0.09:  Build Rotating 
 BS  .in                 12.25:  Bit Size 
 BSZ .in                 12.25:  Bit Size 
 BTPL.psig              800.00:  Bit Press Loss 
 CABU.                      No:  Customer Abuse 
 COMM.                     k:  Run Comments 1 
 TCS .hr                 96.00:  Time Ciculation Ended 
 CV  .mps                 2.03:  Crit Velocity 
 CVMX.mps                 2.42:  Max Crit Veloc 
 DD1 .          Taghi Taghiyev:  Direct Drillr 1 
 DD2 .      Tariel Pirmammadov:  Direct Drillr 2 
 DD3 .          Teymur Aghayev:  Direct Drillr 3 
 DDSV.                 iCruise:  DD Service 
 DEFF.%                  98.70:  % Det Eff 
 DLRX.°/30m               1.00:  Dogleg Rot Max 
 DLSO.°/30m               1.80:  Dogleg Oriented 
 DLSX.°/30m               3.16:  Dogleg Str Max 
 DRET.      15.00.00 07-Aug-20:  Drill End Time 
 DRST.      17.00.00 02-Aug-20:  Drill Start Tim 
 DTIM.hr                 45.90:  Time Drilling 
 EDEP.m                5298.01:  End Depth 
 ENG1.       Seymur Iskandarov:  Engineer 1 
 ENG2.         Yevgeniy Ulikov:  Engineer 2 
 ENG3.      Artemiy Matviyanov:  Engineer 3 
 ENG4.         Bahruz Mehdiyev:  Engineer 4 
 ETIM.      05.00.00 10-Aug-20:  End Time 
 FLOI.gpm              1150.00:  Flow In 
 FLON.gpm               900.00:  Flow In Min 
 FLOS.cptm                0.00:  Fluid Loss 
 FLOX.gpm              1200.00:  Flow In Max 
 FTRO.     Connectivity, Formation Presure:  FTWD Run Obj 
 HFLO.                      No:  High Flow 
 HPRE.                     Yes:  High Pressure 
 HTEM.                      No:  High Temp 
 HYDO.m                   1.80:  Hydro Offset 
 IFIN.deg                 9.71:  Inc, Final 
 IMAX.deg                63.81:  Inc Max 
 IMIN.deg                 9.53:  Inc Min 
 IMND.m                5075.52:  Inc Min Depth 
 IMXD.m                4367.08:  Inc Max Depth 
 JARR.                      No:  Jarring 
 LETM.      15.00.00 07-Aug-20:  Log End Time 
 LOST.hr                     2:  Lost Rig Time 
 LSTM.      17.00.00 02-Aug-20:  Log Start Time 
 MDCL.ppm             42500.00:  Mud Chlorides 
 MDES.     Inversion Oil/Synthetic:  Mud Desc 
 DFD .sg                  1.46:  Mud Density 
 MDMN.sg                  1.46:  Dens Mud Min 
 MDMX.sg                  1.46:  Dens Mud Max 
 MOIL.                      56:  Run Mud Oil % 
 MOWR.                   70:30:  Run Mud OWR 
 MSND.                     0.1:  Run Mud Sand % 
 MSOL.                      19:  Run Mud Solids% 
 DFV .spqt               83.00:  Mud Viscosity 
 MWOD.in                  8.00:  MWD Tool OD 
 MWSI.                     Yes:  Serv Intrp, MWD 
 OTIM.hr                196.57:  Time Operating 
 PCON.           Look Like New:  Pad Condition 
 PMAX.psia             7400.00:  Press Op, Max 
 PV  .cP                 36.00:  Mud PV 
 RUN .                    1000:  Run Number 
 ROPA.m/hr               25.00:  ROP Avg 
 ROPN.m/hr               10.00:  ROP Min 
 ROPX.m/hr               32.00:  ROP Max 
 RPMA.rpm               120.00:  RPM Surface Avg 
 RPMN.rpm               100.00:  RPM Surface Min 
 RPMX.rpm               140.00:  RPM Surface Max 
 RRUN.                    L504:  Rig Run Number 
 SAZI.deg               308.25:  Azm, Start 
 SDEP.m                4364.01:  Start Depth 
 SIDD.                      No:  Serv Intrp, DD 
 SINC.deg                63.81:  Inc, Start 
 SPPA.psig             5800.00:  SPP Avg 
 SPPN.psig             4200.00:  SPP Min 
 SPPX.psig             5950.00:  SPP Max 
 STIM.      18.00.00 01-Aug-20:  Start Time 
 SVCS.                 DD, MWD:  Services 
 SVER.                    9.20:  Sperry Version 
 TDAT.m                 934.00:  Tot Depth Attmp 
 TDDF.                      No:  Trip for DD 
 TDLG.m                 934.00:  Tot Depth Loggd 
 TFF .                      No:  Trip for Fail 
 TQAA.f-kp               31.00:  Torque Abs Avg 
 TQAN.f-kp               25.00:  Torque Abs Min 
 TQAX.f-kp               35.00:  Torque Abs Max 
 TRRT.°/30m              -0.75:  Turn Rotating 
 MRT .                  EWR-M5:  Maximum Recorded Temperature 
 TTMX.degC               95.00:  Max Tool Temp 
 VS01.                90516060:  Virtual Str1 SN 
 VS02.                90528488:  Virtual Str2 SN 
 VS03.                90577970:  Virtual Str3 SN 
 VS04.                12385033:  Virtual Str4 SN 
 VS05.                90522069:  Virtual Str5 SN 
 VS06.                13124134:  Virtual Str6 SN 
 WBMN.klb                20.00:  WOB Min 
 WITN.         Alistair Sprott:  Customer Rep 
 WITN.     Ronal van der Kraan:  Customer Rep 2 
 WOBA.klb                25.00:  WOB Avg 
 WOBX.klb                31.00:  WOB Max 
 YP  .lhf2               32.00:  Yield Point 
~Curve Information Block
#MNEM.UNIT                 API CODE     Curve Description
#---------               -----------    ---------------------------
 TIME.HHMMSS            00 000 000 000:  GT Time & Date
 GTDEPTH.m              00 000 000 000:  GT Depth
 GTPQH.psia             00 000 000 000:  GT HR Quartz Pressure
 GTTQ.degC              00 000 000 000:  GT Quartz Temperature
 GTTN.NONE              00 000 000 000:  GT Test Number
 GTET.sec               00 000 000 000:  GT Elapsed Test Time
 GTTVD.m                00 000 000 000:  GT True Vertical Depth
#Other Information
#
#WARRANTY: Halliburton will use its best efforts to furnish customers with 
#accurate information and interpretations that are part of, and incident to, the services 
#provided.  However, Halliburton cannot and does not warrant the accuracy 
#or correctness of such information and interpretations.  Under no circumstances should any 
#such information or interpretation be relied upon as the sole basis for any drilling, 
#completion, production, or financial decision or any procedure involving any risk to the 
#safety of any drilling venture, drilling rig or its crew or any other third party.  The 
#Customer has full responsibility for all drilling, completion and production operation.  
#Halliburton makes no representations or warranties, either expressed or 
#implied, including, but not limited to, the implied warranties of merchantability or fitness 
#for a particular purpose, with respect to the services rendered.  In no event will 
#Halliburton be liable for failure to obtain any particular results or for 
#any damages, including, but not limited to, indirect, special or consequential damages, 
#resulting from the use of any information or interpretation provided by Halliburton.
#
~A           TIME           GTDEPTH  GTPQH  GTTQ  GTTN  GTET   GTTVD  
# ...
   03:18:01.573.08-Aug-2020 5190.56 7222.20 85.93 1.00  45.98 3375.95
   03:18:01.772.08-Aug-2020 5190.56 7222.20 85.93 1.00  46.18 3375.95
   03:18:01.972.08-Aug-2020 5190.56 7222.64 85.93 1.00  46.38 3375.95
   03:18:02.172.08-Aug-2020 5190.56 7222.33 85.93 1.00  46.58 3375.95
   03:18:02.372.08-Aug-2020 5190.56 7222.21 85.93 1.00  46.78 3375.95
   03:18:02.572.08-Aug-2020 5190.56 7221.79 85.93 1.00  46.98 3375.95
   03:18:02.772.08-Aug-2020 5190.56 7221.79 85.93 1.00  47.18 3375.95
   03:18:02.972.08-Aug-2020 5190.56 7222.12 85.93 1.00  47.38 3375.95
   03:18:03.172.08-Aug-2020 5190.56 7222.61 85.93 1.00  47.58 3375.95
   03:18:03.372.08-Aug-2020 5190.56 7222.18 85.93 1.00  47.78 3375.95
   03:18:03.572.08-Aug-2020 5190.56 7221.06 85.93 1.00  47.98 3375.95
   03:18:03.771.08-Aug-2020 5190.56 7221.06 85.93 1.00  48.18 3375.95
   03:18:03.971.08-Aug-2020 5190.56 7220.97 85.93 1.00  48.38 3375.95
   03:18:04.171.08-Aug-2020 5190.56 7221.07 85.93 1.00  48.58 3375.95
   03:18:04.371.08-Aug-2020 5190.56 7227.08 85.93 1.00  48.78 3375.95
   03:18:04.571.08-Aug-2020 5190.56 7220.91 85.93 1.00  48.98 3375.95
   03:18:04.771.08-Aug-2020 5190.56 7222.28 85.93 1.00  49.17 3375.95
   03:18:04.971.08-Aug-2020 5190.56 7220.91 85.93 1.00  49.37 3375.95
   03:18:05.171.08-Aug-2020 5190.56 7221.63 85.93 1.00  49.57 3375.95
   03:18:05.371.08-Aug-2020 5190.56 7221.79 85.93 1.00  49.77 3375.95
   03:18:05.571.08-Aug-2020 5190.56 7221.63 85.93 1.00  49.97 3375.95
   03:18:05.770.08-Aug-2020 5190.56 7221.63 85.93 1.00  50.17 3375.95
   03:18:05.970.08-Aug-2020 5190.56 7221.69 85.93 1.00  50.37 3375.95
   03:18:06.170.08-Aug-2020 5190.56 7220.42 85.93 1.00  50.57 3375.95
   03:18:06.370.08-Aug-2020 5190.56 7220.86 85.93 1.00  50.77 3375.95
   03:18:06.570.08-Aug-2020 5190.56 7222.02 85.93 1.00  50.97 3375.95
   03:18:06.770.08-Aug-2020 5190.56 7222.02 85.93 1.00  51.17 3375.95
   03:18:06.970.08-Aug-2020 5190.56 7220.70 85.93 1.00  51.37 3375.95
   03:18:07.170.08-Aug-2020 5190.56 7220.34 85.93 1.00  51.57 3375.95
   03:18:07.370.08-Aug-2020 5190.56 7220.41 85.93 1.00  51.77 3375.95
   03:18:07.570.08-Aug-2020 5190.56 7220.72 85.93 1.00  51.97 3375.95
   03:18:07.769.08-Aug-2020 5190.56 7220.72 85.93 1.00  52.17 3375.95
   03:18:07.969.08-Aug-2020 5190.56 7222.79 85.93 1.00  52.37 3375.95
   03:18:08.169.08-Aug-2020 5190.56 7220.44 85.93 1.00  52.57 3375.95
   03:18:08.369.08-Aug-2020 5190.56 7224.19 85.93 1.00  52.77 3375.95
   03:18:08.569.08-Aug-2020 5190.56 7223.53 85.93 1.00  52.97 3375.95
   03:18:08.769.08-Aug-2020 5190.56 7220.40 85.93 1.00  53.17 3375.95
   03:18:08.969.08-Aug-2020 5190.56 7220.55 85.93 1.00  53.37 3375.95
   03:18:09.169.08-Aug-2020 5190.56 7225.49 85.93 1.00  53.57 3375.95
   03:18:09.369.08-Aug-2020 5190.56 7222.09 85.93 1.00  53.77 3375.95
   03:18:09.568.08-Aug-2020 5190.56 7220.38 85.93 1.00  53.97 3375.95
   03:18:09.768.08-Aug-2020 5190.56 7220.38 85.93 1.00  54.17 3375.95
   03:18:09.968.08-Aug-2020 5190.56 7222.13 85.93 1.00  54.37 3375.95
   03:18:10.168.08-Aug-2020 5190.56 7225.34 85.93 1.00  54.57 3375.95
   03:18:10.368.08-Aug-2020 5190.56 7113.12 85.93 1.00  54.77 3375.95
   03:18:10.568.08-Aug-2020 5190.56 6998.86 85.93 1.00  54.97 3375.95
   03:18:10.768.08-Aug-2020 5190.56 6998.86 85.93 1.00  55.17 3375.95
   03:18:10.968.08-Aug-2020 5190.56 6937.55 85.93 1.00  55.37 3375.95
   03:18:11.168.08-Aug-2020 5190.56 6917.99 85.93 1.00  55.57 3375.95
   03:18:11.368.08-Aug-2020 5190.56 6944.09 85.93 1.00  55.77 3375.95
   03:18:11.567.08-Aug-2020 5190.56 6925.74 85.93 1.00  55.97 3375.95
   03:18:11.767.08-Aug-2020 5190.56 6925.74 85.93 1.00  56.17 3375.95
   03:18:11.967.08-Aug-2020 5190.56 7017.58 85.93 1.00  56.37 3375.95
   03:18:12.167.08-Aug-2020 5190.56 7066.60 85.93 1.00  56.57 3375.95
   03:18:12.367.08-Aug-2020 5190.56 7106.14 85.93 1.00  56.77 3375.95
   03:18:12.567.08-Aug-2020 5190.56 7161.50 85.93 1.00  56.97 3375.95
   03:18:12.767.08-Aug-2020 5190.56 7232.56 85.93 1.00  57.17 3375.95
   03:18:12.967.08-Aug-2020 5190.56 7270.83 85.93 1.00  57.37 3375.95
   03:18:13.167.08-Aug-2020 5190.56 7317.05 85.93 1.00  57.57 3375.95
   03:18:13.367.08-Aug-2020 5190.56 7370.05 85.93 1.00  57.77 3375.95
   03:18:13.566.08-Aug-2020 5190.56 7413.66 85.93 1.00  57.97 3375.95
   03:18:13.766.08-Aug-2020 5190.56 7413.66 85.93 1.00  58.17 3375.95
   03:18:13.966.08-Aug-2020 5190.56 7364.17 85.93 1.00  58.37 3375.95
   03:18:14.166.08-Aug-2020 5190.56 7359.98 85.93 1.00  58.57 3375.95
   03:18:14.366.08-Aug-2020 5190.56 7406.94 85.93 1.00  58.77 3375.95
   03:18:14.566.08-Aug-2020 5190.56 7447.33 85.93 1.00  58.97 3375.95
   03:18:14.766.08-Aug-2020 5190.56 7447.33 85.93 1.00  59.17 3375.95
   03:18:14.966.08-Aug-2020 5190.56 7479.25 85.93 1.00  59.37 3375.95
   03:18:15.166.08-Aug-2020 5190.56 7509.22 85.93 1.00  59.57 3375.95
   03:18:15.366.08-Aug-2020 5190.56 7546.22 85.93 1.00  59.77 3375.95
   03:18:15.565.08-Aug-2020 5190.56 7582.41 85.93 1.00  59.97 3375.95
   03:18:15.765.08-Aug-2020 5190.56 7582.41 85.93 1.00  60.17 3375.95
   03:18:15.965.08-Aug-2020 5190.56 7650.00 85.93 1.00  60.37 3375.95
   03:18:16.165.08-Aug-2020 5190.56 7679.18 85.93 1.00  60.57 3375.95
   03:18:16.365.08-Aug-2020 5190.56 7703.25 85.93 1.00  60.77 3375.95
   03:18:16.565.08-Aug-2020 5190.56 7713.61 85.93 1.00  60.97 3375.95
   03:18:16.765.08-Aug-2020 5190.56 7732.13 85.93 1.00  61.17 3375.95
   03:18:16.965.08-Aug-2020 5190.56 7736.33 85.93 1.00  61.37 3375.95
   03:18:17.165.08-Aug-2020 5190.56 7743.28 85.93 1.00  61.57 3375.95
   03:18:17.365.08-Aug-2020 5190.56 7759.52 85.93 1.00  61.77 3375.95
   03:18:17.564.08-Aug-2020 5190.56 7776.02 85.93 1.00  61.97 3375.95
   03:18:17.764.08-Aug-2020 5190.56 7776.02 85.93 1.00  62.17 3375.95
   03:18:17.964.08-Aug-2020 5190.56 7803.22 85.93 1.00  62.37 3375.95
   03:18:18.164.08-Aug-2020 5190.56 7813.35 85.93 1.00  62.57 3375.95
   03:18:18.364.08-Aug-2020 5190.56 7814.10 85.93 1.00  62.77 3375.95
   03:18:18.564.08-Aug-2020 5190.56 7815.74 85.93 1.00  62.97 3375.95
   03:18:18.764.08-Aug-2020 5190.56 7815.74 85.93 1.00  63.17 3375.95
   03:18:18.964.08-Aug-2020 5190.56 7823.40 85.93 1.00  63.37 3375.95
   03:18:19.164.08-Aug-2020 5190.56 7830.16 85.93 1.00  63.57 3375.95
   03:18:19.364.08-Aug-2020 5190.56 7840.04 85.93 1.00  63.77 3375.95
   03:18:19.563.08-Aug-2020 5190.56 7850.93 85.93 1.00  63.97 3375.95
   03:18:19.763.08-Aug-2020 5190.56 7850.93 85.93 1.00  64.17 3375.95
   03:18:19.963.08-Aug-2020 5190.56 7862.29 85.93 1.00  64.37 3375.95
   03:18:20.163.08-Aug-2020 5190.56 7195.32 85.93 1.00  64.57 3375.95
   03:18:20.363.08-Aug-2020 5190.56 7099.65 85.93 1.00  64.77 3375.95
   03:18:20.563.08-Aug-2020 5190.56 7015.27 85.93 1.00  64.97 3375.95
   03:18:20.763.08-Aug-2020 5190.56 7015.27 85.93 1.00  65.17 3375.95
   03:18:20.963.08-Aug-2020 5190.56 6707.34 85.93 1.00  65.37 3375.95
   03:18:21.163.08-Aug-2020 5190.56 6429.24 85.93 1.00  65.57 3375.95
   03:18:21.362.08-Aug-2020 5190.56 6101.14 85.93 1.00  65.77 3375.95
   03:18:21.562.08-Aug-2020 5190.56 5742.07 85.93 1.00  65.97 3375.95
   03:18:21.762.08-Aug-2020 5190.56 5742.07 85.93 1.00  66.17 3375.95
   03:18:21.962.08-Aug-2020 5190.56 5063.76 85.93 1.00  66.37 3375.95
   03:18:22.162.08-Aug-2020 5190.56 4779.82 85.93 1.00  66.57 3375.95
   03:18:22.362.08-Aug-2020 5190.56 4533.62 85.93 1.00  66.77 3375.95
   03:18:22.562.08-Aug-2020 5190.56 4326.52 85.93 1.00  66.97 3375.95
   03:18:22.762.08-Aug-2020 5190.56 4326.52 85.93 1.00  67.17 3375.95
   03:18:22.962.08-Aug-2020 5190.56 3948.48 85.93 1.00  67.37 3375.95
   03:18:23.162.08-Aug-2020 5190.56 3732.32 85.93 1.00  67.57 3375.95
   03:18:23.361.08-Aug-2020 5190.56 3363.60 85.93 1.00  67.77 3375.95
   03:18:23.561.08-Aug-2020 5190.56 2987.59 85.93 1.00  67.97 3375.95
   03:18:23.761.08-Aug-2020 5190.56 2987.59 85.93 1.00  68.17 3375.95
   03:18:23.961.08-Aug-2020 5190.56 2645.90 85.92 1.00  68.37 3375.95
   03:18:24.161.08-Aug-2020 5190.56 2499.43 85.92 1.00  68.57 3375.95
   03:18:24.361.08-Aug-2020 5190.56 2350.95 85.92 1.00  68.76 3375.95
