~Version Information
 VERS.                  2.0:   CWLS log ASCII Standard -VERSION 2.0
 WRAP.                   NO:   One line per depth step
~Well Information Block
#MNEM.UNIT     VALUE/NAME     DESCRIPTION
#---------     -----------    ---------------------------
 STRT.S             07:09:07 08-Aug-20: START TIME 07:09:07 08-Aug-20
 STOP.S             07:17:38 08-Aug-20: STOP TIME  07:17:38 08-Aug-20
 STEP.S                   0.00: STEP TIME
 NULL.                 -999.25: NULL VALUE
 DFWT.                        :  DIST FWL TEXT
 DFST.                        :  DIST FSL TEXT
 DMF .             Drill Floor:  DRILL MEAS FROM
 STIM.      13.47.44 07-Jun-20:  START TIME
 DATE.      13.47.44 27-Jul-20:  END TIME
 SPUD.               07-Jun-20:  SPUD DATE
 NREF.                    Grid:  NORTH REFERENCE
 HPTY.       Minimum Curvature:  HOLE POS TYPE
 DMOD.             Drill Model:  DRILL MOD DESC
 SVYD.                  Survey:  SURVEY DESC
 ILTD.               Lithology:  INTERP LTH DESC
 FTOP.          Formation Tops:  FORM TOPS DESC
 RIG .             West Chirag:  RIG NAME
 PDAT.          Mean Sea Level:  PERMANENT DATUM
 FLD .                     ACG:  FIELD NAME
 SON .        AZ-XX-0906363612:  JOB NUMBER
 CTRY.              Azerbaijan:  COUNTRY NAME
 WELL.           J25 (Slot 35):  WELL NAME
 SRVC.          Turan Drilling:  CONTRACTOR
 COMP.     BP Exploration (Caspian Sea) Ltd:  COMPANY
 UWI .                     N/A:  UNIQUE WELL IDENTIFIER
 API .                     N/A:  API NUMBER
 BASE.              Azerbaijan:  LOGGING EQUIPMENT BASE LOCATION
 REGN.                   EESSA:  REGION
 PROV.                    Baku:  PROVINCE
 STAT.                    Baku:  STATE NAME
 MWDS.                     N/A:  MWD SHOP
 DOE .                     N/A:  DOE NUMBER
 DCON.         Sperry Drilling:  DIRECTNL CONTR
 UNIT.                     N/A:  LOGGING EQUIPMENT ID
 MDS .        Operator Entered:  MAG DATA SOURCE
 JOBN.        AZ-XX-0906363612:  JOB TICKET NUMB
 WTYP.                Deviated:  WELL TYPE
 CNTY.                        :  COUNTY
 LOC .                        :  LOCATION
 LMF .             Drill Floor:  LOG MEASURED FROM
 TVDS.m                  43.00:  TVDSS CORRECTN
 LATI.deg                40.13:  LATITUDE
 LONG.deg                51.22:  LONGITUDE
 WHNS.m                  -7.90:  WELL HEAD N/S
 WHEW.m                  -3.35:  WELL HEAD E/W
 UTMX.m              519005.06:  UTM X
 UTMY.m             4443793.85:  UTM Y
 DFWL.m                   0.00:  DISTANCE FWL
 DFSL.m                   0.00:  DISTANCE FSL
 SDEP.m                   0.00:  START DEPTH
 TDD .m                   0.00:  TOTAL DEPTH (DRILLER)
 VSDR.deg               308.97:  VERT SEC DIRECT
 GVFD.g                   1.00:  GRAVITY FIELD
 MFLD.nT              50350.00:  MAGNETIC FIELD
 MDIP.deg                59.62:  MAGNETIC DIP
 MDEC.deg                 6.44:  MAGNETIC DECL
 GRDC.deg                 0.13:  GRID CORRECTION
 AZTC.deg                 6.32:  AZM TOTAL CORR
 EPD .m                   0.00:  ELEVATION
 EGL .m                   0.00:  GROUND ELEVATION
 WDMS.m                 169.80:  WD ELEV
 APD .m                  43.00:  DEPTH ABOVE PD
 DEP .m                 356.43:  DEPTH
 AGAP.m                  43.00:  AIR GAP
 VSEW.m                  -3.35:  VERT SEC E/W
 VSNS.m                  -7.90:  VERT SEC N/S
 EKB .m                  43.00:  KB ELEVATION
 EDF .m                  43.00:  DF ELEVATION
 TDL .m                 934.00:  TOTAL DEPTH (LOGGER)
 VSC .                       0:  VS TO CLOSURE
 MAGU.                 1852825:  MAGUTM CHECKSUM
~Parameter Information Block
#MNEM.UNIT       Value        Description
#---------     -----------    ---------------------------
 AV  .mps                 0.80:  Ann Velocity 
 AVMX.mps                 1.70:  Max Ann Veloc 
 AZIF.deg               311.41:  Azm, Final 
 BHAT.        Rotary Steerable:  BHA Type 
 BROT.°/30m               0.09:  Build Rotating 
 BS  .in                 12.25:  Bit Size 
 BSZ .in                 12.25:  Bit Size 
 BTPL.psig              800.00:  Bit Press Loss 
 CABU.                      No:  Customer Abuse 
 COMM.                     „Òs:  Run Comments 1 
 TCS .hr                 96.00:  Time Ciculation Ended 
 CV  .mps                 2.03:  Crit Velocity 
 CVMX.mps                 2.42:  Max Crit Veloc 
 DD1 .          Taghi Taghiyev:  Direct Drillr 1 
 DD2 .      Tariel Pirmammadov:  Direct Drillr 2 
 DD3 .          Teymur Aghayev:  Direct Drillr 3 
 DDSV.                 iCruise:  DD Service 
 DEFF.%                  98.70:  % Det Eff 
 DLRX.°/30m               1.00:  Dogleg Rot Max 
 DLSO.°/30m               1.80:  Dogleg Oriented 
 DLSX.°/30m               3.16:  Dogleg Str Max 
 DRET.      15.00.00 07-Aug-20:  Drill End Time 
 DRST.      17.00.00 02-Aug-20:  Drill Start Tim 
 DTIM.hr                 45.90:  Time Drilling 
 EDEP.m                5298.01:  End Depth 
 ENG1.       Seymur Iskandarov:  Engineer 1 
 ENG2.         Yevgeniy Ulikov:  Engineer 2 
 ENG3.      Artemiy Matviyanov:  Engineer 3 
 ENG4.         Bahruz Mehdiyev:  Engineer 4 
 ETIM.      05.00.00 10-Aug-20:  End Time 
 FLOI.gpm              1150.00:  Flow In 
 FLON.gpm               900.00:  Flow In Min 
 FLOS.cptm                0.00:  Fluid Loss 
 FLOX.gpm              1200.00:  Flow In Max 
 FTRO.     Connectivity, Formation Presure:  FTWD Run Obj 
 HFLO.                      No:  High Flow 
 HPRE.                     Yes:  High Pressure 
 HTEM.                      No:  High Temp 
 HYDO.m                   1.80:  Hydro Offset 
 IFIN.deg                 9.71:  Inc, Final 
 IMAX.deg                63.81:  Inc Max 
 IMIN.deg                 9.53:  Inc Min 
 IMND.m                5075.52:  Inc Min Depth 
 IMXD.m                4367.08:  Inc Max Depth 
 JARR.                      No:  Jarring 
 LETM.      15.00.00 07-Aug-20:  Log End Time 
 LOST.hr                     2:  Lost Rig Time 
 LSTM.      17.00.00 02-Aug-20:  Log Start Time 
 MDCL.ppm             42500.00:  Mud Chlorides 
 MDES.     Inversion Oil/Synthetic:  Mud Desc 
 DFD .sg                  1.46:  Mud Density 
 MDMN.sg                  1.46:  Dens Mud Min 
 MDMX.sg                  1.46:  Dens Mud Max 
 MOIL.                      56:  Run Mud Oil % 
 MOWR.                   70:30:  Run Mud OWR 
 MSND.                     0.1:  Run Mud Sand % 
 MSOL.                      19:  Run Mud Solids% 
 DFV .spqt               83.00:  Mud Viscosity 
 MWOD.in                  8.00:  MWD Tool OD 
 MWSI.                     Yes:  Serv Intrp, MWD 
 OTIM.hr                196.57:  Time Operating 
 PCON.           Look Like New:  Pad Condition 
 PMAX.psia             7400.00:  Press Op, Max 
 PV  .cP                 36.00:  Mud PV 
 RUN .                    1000:  Run Number 
 ROPA.m/hr               25.00:  ROP Avg 
 ROPN.m/hr               10.00:  ROP Min 
 ROPX.m/hr               32.00:  ROP Max 
 RPMA.rpm               120.00:  RPM Surface Avg 
 RPMN.rpm               100.00:  RPM Surface Min 
 RPMX.rpm               140.00:  RPM Surface Max 
 RRUN.                    L504:  Rig Run Number 
 SAZI.deg               308.25:  Azm, Start 
 SDEP.m                4364.01:  Start Depth 
 SIDD.                      No:  Serv Intrp, DD 
 SINC.deg                63.81:  Inc, Start 
 SPPA.psig             5800.00:  SPP Avg 
 SPPN.psig             4200.00:  SPP Min 
 SPPX.psig             5950.00:  SPP Max 
 STIM.      18.00.00 01-Aug-20:  Start Time 
 SVCS.                 DD, MWD:  Services 
 SVER.                    9.20:  Sperry Version 
 TDAT.m                 934.00:  Tot Depth Attmp 
 TDDF.                      No:  Trip for DD 
 TDLG.m                 934.00:  Tot Depth Loggd 
 TFF .                      No:  Trip for Fail 
 TQAA.f-kp               31.00:  Torque Abs Avg 
 TQAN.f-kp               25.00:  Torque Abs Min 
 TQAX.f-kp               35.00:  Torque Abs Max 
 TRRT.°/30m              -0.75:  Turn Rotating 
 MRT .                  EWR-M5:  Maximum Recorded Temperature 
 TTMX.degC               95.00:  Max Tool Temp 
 VS01.                90516060:  Virtual Str1 SN 
 VS02.                90528488:  Virtual Str2 SN 
 VS03.                90577970:  Virtual Str3 SN 
 VS04.                12385033:  Virtual Str4 SN 
 VS05.                90522069:  Virtual Str5 SN 
 VS06.                13124134:  Virtual Str6 SN 
 WBMN.klb                20.00:  WOB Min 
 WITN.         Alistair Sprott:  Customer Rep 
 WITN.     Ronal van der Kraan:  Customer Rep 2 
 WOBA.klb                25.00:  WOB Avg 
 WOBX.klb                31.00:  WOB Max 
 YP  .lhf2               32.00:  Yield Point 
~Curve Information Block
#MNEM.UNIT                 API CODE     Curve Description
#---------               -----------    ---------------------------
 TIME.HHMMSS            00 000 000 000:  GT Time & Date
 GTDEPTH.m              00 000 000 000:  GT Depth
 GTPQH.psia             00 000 000 000:  GT HR Quartz Pressure
 GTTQ.degC              00 000 000 000:  GT Quartz Temperature
 GTTN.NONE              00 000 000 000:  GT Test Number
 GTET.sec               00 000 000 000:  GT Elapsed Test Time
 GTTVD.m                00 000 000 000:  GT True Vertical Depth
#Other Information
#
#WARRANTY: Halliburton will use its best efforts to furnish customers with 
#accurate information and interpretations that are part of, and incident to, the services 
#provided.  However, Halliburton cannot and does not warrant the accuracy 
#or correctness of such information and interpretations.  Under no circumstances should any 
#such information or interpretation be relied upon as the sole basis for any drilling, 
#completion, production, or financial decision or any procedure involving any risk to the 
#safety of any drilling venture, drilling rig or its crew or any other third party.  The 
#Customer has full responsibility for all drilling, completion and production operation.  
#Halliburton makes no representations or warranties, either expressed or 
#implied, including, but not limited to, the implied warranties of merchantability or fitness 
#for a particular purpose, with respect to the services rendered.  In no event will 
#Halliburton be liable for failure to obtain any particular results or for 
#any damages, including, but not limited to, indirect, special or consequential damages, 
#resulting from the use of any information or interpretation provided by Halliburton.
#
~A           TIME           GTDEPTH  GTPQH  GTTQ  GTTN  GTET   GTTVD  
# ...
   07:11:25.000.08-Aug-2020 5163.51 4259.73 78.27 5.00 138.00 3349.29
   07:11:25.200.08-Aug-2020 5163.51 4259.73 78.27 5.00 138.20 3349.29
   07:11:25.400.08-Aug-2020 5163.51 4259.45 78.27 5.00 138.40 3349.29
   07:11:25.600.08-Aug-2020 5163.51 4259.70 78.27 5.00 138.60 3349.29
   07:11:25.800.08-Aug-2020 5163.51 4259.76 78.27 5.00 138.80 3349.29
   07:11:26.000.08-Aug-2020 5163.51 4259.47 78.27 5.00 139.00 3349.29
   07:11:26.200.08-Aug-2020 5163.51 4259.47 78.27 5.00 139.20 3349.29
   07:11:26.400.08-Aug-2020 5163.51 4259.78 78.26 5.00 139.40 3349.29
   07:11:26.600.08-Aug-2020 5163.51 4259.87 78.27 5.00 139.60 3349.29
   07:11:26.800.08-Aug-2020 5163.51 4259.52 78.26 5.00 139.80 3349.29
   07:11:27.000.08-Aug-2020 5163.51 4259.38 78.26 5.00 140.00 3349.29
   07:11:27.200.08-Aug-2020 5163.51 4259.38 78.26 5.00 140.20 3349.29
   07:11:27.400.08-Aug-2020 5163.51 4259.44 78.26 5.00 140.40 3349.29
   07:11:27.600.08-Aug-2020 5163.51 4259.55 78.26 5.00 140.60 3349.29
   07:11:27.800.08-Aug-2020 5163.51 4259.72 78.26 5.00 140.80 3349.29
   07:11:28.000.08-Aug-2020 5163.51 4259.66 78.26 5.00 141.00 3349.29
   07:11:28.200.08-Aug-2020 5163.51 4259.66 78.26 5.00 141.20 3349.29
   07:11:28.400.08-Aug-2020 5163.51 4259.50 78.26 5.00 141.40 3349.29
   07:11:28.600.08-Aug-2020 5163.51 4259.58 78.26 5.00 141.60 3349.29
   07:11:28.800.08-Aug-2020 5163.51 4259.75 78.26 5.00 141.80 3349.29
   07:11:29.000.08-Aug-2020 5163.51 4259.72 78.26 5.00 142.00 3349.29
   07:11:29.200.08-Aug-2020 5163.51 4259.72 78.26 5.00 142.20 3349.29
   07:11:29.400.08-Aug-2020 5163.51 4259.63 78.26 5.00 142.40 3349.29
   07:11:29.600.08-Aug-2020 5163.51 4259.60 78.26 5.00 142.60 3349.29
   07:11:29.800.08-Aug-2020 5163.51 4259.39 78.26 5.00 142.80 3349.29
   07:11:30.000.08-Aug-2020 5163.51 4259.59 78.26 5.00 143.00 3349.29
   07:11:30.200.08-Aug-2020 5163.51 4259.59 78.26 5.00 143.20 3349.29
   07:11:30.400.08-Aug-2020 5163.51 4259.50 78.26 5.00 143.40 3349.29
   07:11:30.600.08-Aug-2020 5163.51 4259.60 78.26 5.00 143.60 3349.29
   07:11:30.800.08-Aug-2020 5163.51 4259.56 78.26 5.00 143.80 3349.29
   07:11:31.000.08-Aug-2020 5163.51 4259.51 78.26 5.00 144.00 3349.29
   07:11:31.200.08-Aug-2020 5163.51 4259.51 78.26 5.00 144.20 3349.29
   07:11:31.400.08-Aug-2020 5163.51 4259.65 78.26 5.00 144.40 3349.29
   07:11:31.600.08-Aug-2020 5163.51 4259.47 78.26 5.00 144.60 3349.29
   07:11:31.800.08-Aug-2020 5163.51 4259.69 78.26 5.00 144.80 3349.29
   07:11:32.000.08-Aug-2020 5163.51 4259.82 78.26 5.00 145.00 3349.29
   07:11:32.200.08-Aug-2020 5163.51 4259.82 78.26 5.00 145.20 3349.29
   07:11:32.400.08-Aug-2020 5163.51 4259.86 78.26 5.00 145.40 3349.29
   07:11:32.600.08-Aug-2020 5163.51 4259.70 78.26 5.00 145.60 3349.29
   07:11:32.800.08-Aug-2020 5163.51 4259.74 78.26 5.00 145.80 3349.29
   07:11:33.000.08-Aug-2020 5163.51 4259.68 78.26 5.00 146.00 3349.29
   07:11:33.200.08-Aug-2020 5163.51 4259.68 78.26 5.00 146.20 3349.29
   07:11:33.400.08-Aug-2020 5163.51 4259.75 78.26 5.00 146.40 3349.29
   07:11:33.600.08-Aug-2020 5163.51 4259.58 78.26 5.00 146.60 3349.29
   07:11:33.800.08-Aug-2020 5163.51 4259.63 78.26 5.00 146.80 3349.29
   07:11:34.000.08-Aug-2020 5163.51 4259.59 78.26 5.00 147.00 3349.29
   07:11:34.200.08-Aug-2020 5163.51 4259.59 78.26 5.00 147.20 3349.29
   07:11:34.400.08-Aug-2020 5163.51 4259.47 78.26 5.00 147.40 3349.29
   07:11:34.600.08-Aug-2020 5163.51 4259.80 78.26 5.00 147.60 3349.29
   07:11:34.800.08-Aug-2020 5163.51 4259.93 78.26 5.00 147.80 3349.29
   07:11:35.000.08-Aug-2020 5163.51 4259.65 78.26 5.00 148.00 3349.29
   07:11:35.200.08-Aug-2020 5163.51 4259.65 78.26 5.00 148.20 3349.29
   07:11:35.400.08-Aug-2020 5163.51 4259.85 78.26 5.00 148.40 3349.29
   07:11:35.600.08-Aug-2020 5163.51 4260.09 78.26 5.00 148.60 3349.29
   07:11:35.800.08-Aug-2020 5163.51 4259.83 78.26 5.00 148.80 3349.29
   07:11:36.000.08-Aug-2020 5163.51 4259.69 78.26 5.00 149.00 3349.29
   07:11:36.200.08-Aug-2020 5163.51 4259.69 78.26 5.00 149.20 3349.29
   07:11:36.400.08-Aug-2020 5163.51 4259.50 78.26 5.00 149.40 3349.29
   07:11:36.600.08-Aug-2020 5163.51 4259.63 78.26 5.00 149.60 3349.29
   07:11:36.800.08-Aug-2020 5163.51 4259.59 78.26 5.00 149.80 3349.29
   07:11:37.000.08-Aug-2020 5163.51 4259.72 78.26 5.00 150.00 3349.29
   07:11:37.200.08-Aug-2020 5163.51 4259.72 78.26 5.00 150.20 3349.29
   07:11:37.400.08-Aug-2020 5163.51 4259.84 78.26 5.00 150.40 3349.29
   07:11:37.600.08-Aug-2020 5163.51 4259.77 78.26 5.00 150.60 3349.29
   07:11:37.800.08-Aug-2020 5163.51 4259.73 78.26 5.00 150.80 3349.29
   07:11:38.000.08-Aug-2020 5163.51 4259.72 78.26 5.00 151.00 3349.29
   07:11:38.200.08-Aug-2020 5163.51 4259.72 78.26 5.00 151.20 3349.29
   07:11:38.400.08-Aug-2020 5163.51 4259.76 78.26 5.00 151.40 3349.29
   07:11:38.600.08-Aug-2020 5163.51 4259.69 78.26 5.00 151.60 3349.29
   07:11:38.800.08-Aug-2020 5163.51 4259.95 78.26 5.00 151.80 3349.29
   07:11:39.000.08-Aug-2020 5163.51 4259.87 78.26 5.00 152.00 3349.29
   07:11:39.200.08-Aug-2020 5163.51 4259.87 78.26 5.00 152.20 3349.29
   07:11:39.400.08-Aug-2020 5163.51 4259.62 78.26 5.00 152.40 3349.29
   07:11:39.600.08-Aug-2020 5163.51 4259.81 78.26 5.00 152.60 3349.29
   07:11:39.800.08-Aug-2020 5163.51 4259.69 78.26 5.00 152.80 3349.29
   07:11:40.000.08-Aug-2020 5163.51 4259.73 78.26 5.00 153.00 3349.29
   07:11:40.200.08-Aug-2020 5163.51 4259.63 78.26 5.00 153.20 3349.29
   07:11:40.400.08-Aug-2020 5163.51 4259.70 78.26 5.00 153.40 3349.29
   07:11:40.600.08-Aug-2020 5163.51 4259.66 78.25 5.00 153.60 3349.29
   07:11:40.800.08-Aug-2020 5163.51 4259.79 78.25 5.00 153.80 3349.29
   07:11:41.000.08-Aug-2020 5163.51 4259.85 78.25 5.00 154.00 3349.29
   07:11:41.200.08-Aug-2020 5163.51 4259.85 78.25 5.00 154.20 3349.29
   07:11:41.400.08-Aug-2020 5163.51 4259.75 78.25 5.00 154.40 3349.29
   07:11:41.600.08-Aug-2020 5163.51 4259.73 78.25 5.00 154.60 3349.29
   07:11:41.800.08-Aug-2020 5163.51 4259.68 78.25 5.00 154.80 3349.29
   07:11:42.000.08-Aug-2020 5163.51 4259.87 78.25 5.00 155.00 3349.29
   07:11:42.200.08-Aug-2020 5163.51 4259.87 78.25 5.00 155.20 3349.29
   07:11:42.400.08-Aug-2020 5163.51 4259.96 78.25 5.00 155.40 3349.29
   07:11:42.600.08-Aug-2020 5163.51 4259.94 78.25 5.00 155.60 3349.29
   07:11:42.800.08-Aug-2020 5163.51 4260.05 78.25 5.00 155.80 3349.29
   07:11:43.000.08-Aug-2020 5163.51 4260.06 78.25 5.00 156.00 3349.29
   07:11:43.200.08-Aug-2020 5163.51 4260.06 78.25 5.00 156.20 3349.29
   07:11:43.400.08-Aug-2020 5163.51 4259.67 78.25 5.00 156.40 3349.29
   07:11:43.600.08-Aug-2020 5163.51 4259.41 78.25 5.00 156.60 3349.29
   07:11:43.800.08-Aug-2020 5163.51 4260.38 78.25 5.00 156.80 3349.29
   07:11:44.000.08-Aug-2020 5163.51 4259.93 78.25 5.00 157.00 3349.29
   07:11:44.200.08-Aug-2020 5163.51 4259.93 78.25 5.00 157.20 3349.29
   07:11:44.400.08-Aug-2020 5163.51 4260.17 78.25 5.00 157.40 3349.29
   07:11:44.600.08-Aug-2020 5163.51 4260.48 78.25 5.00 157.60 3349.29
   07:11:44.800.08-Aug-2020 5163.51 4260.08 78.25 5.00 157.80 3349.29
   07:11:45.000.08-Aug-2020 5163.51 4259.54 78.25 5.00 158.00 3349.29
   07:11:45.200.08-Aug-2020 5163.51 4259.54 78.25 5.00 158.20 3349.29
   07:11:45.400.08-Aug-2020 5163.51 4260.04 78.25 5.00 158.40 3349.29
   07:11:45.600.08-Aug-2020 5163.51 4260.14 78.25 5.00 158.60 3349.29
   07:11:45.800.08-Aug-2020 5163.51 4260.21 78.25 5.00 158.80 3349.29
   07:11:46.000.08-Aug-2020 5163.51 4260.11 78.25 5.00 159.00 3349.29
   07:11:46.200.08-Aug-2020 5163.51 4260.01 78.25 5.00 159.20 3349.29
   07:11:46.400.08-Aug-2020 5163.51 4260.07 78.25 5.00 159.40 3349.29
   07:11:46.600.08-Aug-2020 5163.51 4259.95 78.25 5.00 159.60 3349.29
   07:11:46.800.08-Aug-2020 5163.51 4259.85 78.25 5.00 159.80 3349.29
   07:11:47.000.08-Aug-2020 5163.51 4259.87 78.25 5.00 160.00 3349.29
   07:11:47.200.08-Aug-2020 5163.51 4259.87 78.25 5.00 160.20 3349.29
   07:11:47.400.08-Aug-2020 5163.51 4259.98 78.25 5.00 160.40 3349.29
   07:11:47.600.08-Aug-2020 5163.51 4260.00 78.25 5.00 160.60 3349.29
   07:11:47.800.08-Aug-2020 5163.51 4260.00 78.25 5.00 160.80 3349.29
