~Version Information
 VERS.                  2.0:   CWLS log ASCII Standard -VERSION 2.0
 WRAP.                   NO:   One line per depth step
~Well Information Block
#MNEM.UNIT     VALUE/NAME     DESCRIPTION
#---------     -----------    ---------------------------
 STRT.S             05:51:10 08-Aug-20: START TIME 05:51:10 08-Aug-20
 STOP.S             05:59:38 08-Aug-20: STOP TIME  05:59:38 08-Aug-20
 STEP.S                   0.00: STEP TIME
 NULL.                 -999.25: NULL VALUE
 DFWT.                        :  DIST FWL TEXT
 DFST.                        :  DIST FSL TEXT
 DMF .             Drill Floor:  DRILL MEAS FROM
 STIM.      13.47.44 07-Jun-20:  START TIME
 DATE.      13.47.44 27-Jul-20:  END TIME
 SPUD.               07-Jun-20:  SPUD DATE
 NREF.                    Grid:  NORTH REFERENCE
 HPTY.       Minimum Curvature:  HOLE POS TYPE
 DMOD.             Drill Model:  DRILL MOD DESC
 SVYD.                  Survey:  SURVEY DESC
 ILTD.               Lithology:  INTERP LTH DESC
 FTOP.          Formation Tops:  FORM TOPS DESC
 RIG .             West Chirag:  RIG NAME
 PDAT.          Mean Sea Level:  PERMANENT DATUM
 FLD .                     ACG:  FIELD NAME
 SON .        AZ-XX-0906363612:  JOB NUMBER
 CTRY.              Azerbaijan:  COUNTRY NAME
 WELL.           J25 (Slot 35):  WELL NAME
 SRVC.          Turan Drilling:  CONTRACTOR
 COMP.     BP Exploration (Caspian Sea) Ltd:  COMPANY
 UWI .                     N/A:  UNIQUE WELL IDENTIFIER
 API .                     N/A:  API NUMBER
 BASE.              Azerbaijan:  LOGGING EQUIPMENT BASE LOCATION
 REGN.                   EESSA:  REGION
 PROV.                    Baku:  PROVINCE
 STAT.                    Baku:  STATE NAME
 MWDS.                     N/A:  MWD SHOP
 DOE .                     N/A:  DOE NUMBER
 DCON.         Sperry Drilling:  DIRECTNL CONTR
 UNIT.                     N/A:  LOGGING EQUIPMENT ID
 MDS .        Operator Entered:  MAG DATA SOURCE
 JOBN.        AZ-XX-0906363612:  JOB TICKET NUMB
 WTYP.                Deviated:  WELL TYPE
 CNTY.                        :  COUNTY
 LOC .                        :  LOCATION
 LMF .             Drill Floor:  LOG MEASURED FROM
 TVDS.m                  43.00:  TVDSS CORRECTN
 LATI.deg                40.13:  LATITUDE
 LONG.deg                51.22:  LONGITUDE
 WHNS.m                  -7.90:  WELL HEAD N/S
 WHEW.m                  -3.35:  WELL HEAD E/W
 UTMX.m              519005.06:  UTM X
 UTMY.m             4443793.85:  UTM Y
 DFWL.m                   0.00:  DISTANCE FWL
 DFSL.m                   0.00:  DISTANCE FSL
 SDEP.m                   0.00:  START DEPTH
 TDD .m                   0.00:  TOTAL DEPTH (DRILLER)
 VSDR.deg               308.97:  VERT SEC DIRECT
 GVFD.g                   1.00:  GRAVITY FIELD
 MFLD.nT              50350.00:  MAGNETIC FIELD
 MDIP.deg                59.62:  MAGNETIC DIP
 MDEC.deg                 6.44:  MAGNETIC DECL
 GRDC.deg                 0.13:  GRID CORRECTION
 AZTC.deg                 6.32:  AZM TOTAL CORR
 EPD .m                   0.00:  ELEVATION
 EGL .m                   0.00:  GROUND ELEVATION
 WDMS.m                 169.80:  WD ELEV
 APD .m                  43.00:  DEPTH ABOVE PD
 DEP .m                 356.43:  DEPTH
 AGAP.m                  43.00:  AIR GAP
 VSEW.m                  -3.35:  VERT SEC E/W
 VSNS.m                  -7.90:  VERT SEC N/S
 EKB .m                  43.00:  KB ELEVATION
 EDF .m                  43.00:  DF ELEVATION
 TDL .m                 934.00:  TOTAL DEPTH (LOGGER)
 VSC .                       0:  VS TO CLOSURE
 MAGU.                 1852825:  MAGUTM CHECKSUM
~Parameter Information Block
#MNEM.UNIT       Value        Description
#---------     -----------    ---------------------------
 AV  .mps                 0.80:  Ann Velocity 
 AVMX.mps                 1.70:  Max Ann Veloc 
 AZIF.deg               311.41:  Azm, Final 
 BHAT.        Rotary Steerable:  BHA Type 
 BROT.°/30m               0.09:  Build Rotating 
 BS  .in                 12.25:  Bit Size 
 BSZ .in                 12.25:  Bit Size 
 BTPL.psig              800.00:  Bit Press Loss 
 CABU.                      No:  Customer Abuse 
 COMM.                     ¤'V:  Run Comments 1 
 TCS .hr                 96.00:  Time Ciculation Ended 
 CV  .mps                 2.03:  Crit Velocity 
 CVMX.mps                 2.42:  Max Crit Veloc 
 DD1 .          Taghi Taghiyev:  Direct Drillr 1 
 DD2 .      Tariel Pirmammadov:  Direct Drillr 2 
 DD3 .          Teymur Aghayev:  Direct Drillr 3 
 DDSV.                 iCruise:  DD Service 
 DEFF.%                  98.70:  % Det Eff 
 DLRX.°/30m               1.00:  Dogleg Rot Max 
 DLSO.°/30m               1.80:  Dogleg Oriented 
 DLSX.°/30m               3.16:  Dogleg Str Max 
 DRET.      15.00.00 07-Aug-20:  Drill End Time 
 DRST.      17.00.00 02-Aug-20:  Drill Start Tim 
 DTIM.hr                 45.90:  Time Drilling 
 EDEP.m                5298.01:  End Depth 
 ENG1.       Seymur Iskandarov:  Engineer 1 
 ENG2.         Yevgeniy Ulikov:  Engineer 2 
 ENG3.      Artemiy Matviyanov:  Engineer 3 
 ENG4.         Bahruz Mehdiyev:  Engineer 4 
 ETIM.      05.00.00 10-Aug-20:  End Time 
 FLOI.gpm              1150.00:  Flow In 
 FLON.gpm               900.00:  Flow In Min 
 FLOS.cptm                0.00:  Fluid Loss 
 FLOX.gpm              1200.00:  Flow In Max 
 FTRO.     Connectivity, Formation Presure:  FTWD Run Obj 
 HFLO.                      No:  High Flow 
 HPRE.                     Yes:  High Pressure 
 HTEM.                      No:  High Temp 
 HYDO.m                   1.80:  Hydro Offset 
 IFIN.deg                 9.71:  Inc, Final 
 IMAX.deg                63.81:  Inc Max 
 IMIN.deg                 9.53:  Inc Min 
 IMND.m                5075.52:  Inc Min Depth 
 IMXD.m                4367.08:  Inc Max Depth 
 JARR.                      No:  Jarring 
 LETM.      15.00.00 07-Aug-20:  Log End Time 
 LOST.hr                     2:  Lost Rig Time 
 LSTM.      17.00.00 02-Aug-20:  Log Start Time 
 MDCL.ppm             42500.00:  Mud Chlorides 
 MDES.     Inversion Oil/Synthetic:  Mud Desc 
 DFD .sg                  1.46:  Mud Density 
 MDMN.sg                  1.46:  Dens Mud Min 
 MDMX.sg                  1.46:  Dens Mud Max 
 MOIL.                      56:  Run Mud Oil % 
 MOWR.                   70:30:  Run Mud OWR 
 MSND.                     0.1:  Run Mud Sand % 
 MSOL.                      19:  Run Mud Solids% 
 DFV .spqt               83.00:  Mud Viscosity 
 MWOD.in                  8.00:  MWD Tool OD 
 MWSI.                     Yes:  Serv Intrp, MWD 
 OTIM.hr                196.57:  Time Operating 
 PCON.           Look Like New:  Pad Condition 
 PMAX.psia             7400.00:  Press Op, Max 
 PV  .cP                 36.00:  Mud PV 
 RUN .                    1000:  Run Number 
 ROPA.m/hr               25.00:  ROP Avg 
 ROPN.m/hr               10.00:  ROP Min 
 ROPX.m/hr               32.00:  ROP Max 
 RPMA.rpm               120.00:  RPM Surface Avg 
 RPMN.rpm               100.00:  RPM Surface Min 
 RPMX.rpm               140.00:  RPM Surface Max 
 RRUN.                    L504:  Rig Run Number 
 SAZI.deg               308.25:  Azm, Start 
 SDEP.m                4364.01:  Start Depth 
 SIDD.                      No:  Serv Intrp, DD 
 SINC.deg                63.81:  Inc, Start 
 SPPA.psig             5800.00:  SPP Avg 
 SPPN.psig             4200.00:  SPP Min 
 SPPX.psig             5950.00:  SPP Max 
 STIM.      18.00.00 01-Aug-20:  Start Time 
 SVCS.                 DD, MWD:  Services 
 SVER.                    9.20:  Sperry Version 
 TDAT.m                 934.00:  Tot Depth Attmp 
 TDDF.                      No:  Trip for DD 
 TDLG.m                 934.00:  Tot Depth Loggd 
 TFF .                      No:  Trip for Fail 
 TQAA.f-kp               31.00:  Torque Abs Avg 
 TQAN.f-kp               25.00:  Torque Abs Min 
 TQAX.f-kp               35.00:  Torque Abs Max 
 TRRT.°/30m              -0.75:  Turn Rotating 
 MRT .                  EWR-M5:  Maximum Recorded Temperature 
 TTMX.degC               95.00:  Max Tool Temp 
 VS01.                90516060:  Virtual Str1 SN 
 VS02.                90528488:  Virtual Str2 SN 
 VS03.                90577970:  Virtual Str3 SN 
 VS04.                12385033:  Virtual Str4 SN 
 VS05.                90522069:  Virtual Str5 SN 
 VS06.                13124134:  Virtual Str6 SN 
 WBMN.klb                20.00:  WOB Min 
 WITN.         Alistair Sprott:  Customer Rep 
 WITN.     Ronal van der Kraan:  Customer Rep 2 
 WOBA.klb                25.00:  WOB Avg 
 WOBX.klb                31.00:  WOB Max 
 YP  .lhf2               32.00:  Yield Point 
~Curve Information Block
#MNEM.UNIT                 API CODE     Curve Description
#---------               -----------    ---------------------------
 TIME.HHMMSS            00 000 000 000:  GT Time & Date
 GTDEPTH.m              00 000 000 000:  GT Depth
 GTPQH.psia             00 000 000 000:  GT HR Quartz Pressure
 GTTQ.degC              00 000 000 000:  GT Quartz Temperature
 GTTN.NONE              00 000 000 000:  GT Test Number
 GTET.sec               00 000 000 000:  GT Elapsed Test Time
 GTTVD.m                00 000 000 000:  GT True Vertical Depth
#Other Information
#
#WARRANTY: Halliburton will use its best efforts to furnish customers with 
#accurate information and interpretations that are part of, and incident to, the services 
#provided.  However, Halliburton cannot and does not warrant the accuracy 
#or correctness of such information and interpretations.  Under no circumstances should any 
#such information or interpretation be relied upon as the sole basis for any drilling, 
#completion, production, or financial decision or any procedure involving any risk to the 
#safety of any drilling venture, drilling rig or its crew or any other third party.  The 
#Customer has full responsibility for all drilling, completion and production operation.  
#Halliburton makes no representations or warranties, either expressed or 
#implied, including, but not limited to, the implied warranties of merchantability or fitness 
#for a particular purpose, with respect to the services rendered.  In no event will 
#Halliburton be liable for failure to obtain any particular results or for 
#any damages, including, but not limited to, indirect, special or consequential damages, 
#resulting from the use of any information or interpretation provided by Halliburton.
#
~A           TIME           GTDEPTH  GTPQH  GTTQ  GTTN  GTET   GTTVD  
# ...
   05:56:09.742.08-Aug-2020 5190.42 6170.77 82.65 3.00 298.85 3375.81
   05:56:09.942.08-Aug-2020 5190.42 6170.77 82.65 3.00 299.05 3375.81
   05:56:10.142.08-Aug-2020 5190.42 6173.41 82.65 3.00 299.25 3375.81
   05:56:10.342.08-Aug-2020 5190.42 6174.67 82.65 3.00 299.45 3375.81
   05:56:10.542.08-Aug-2020 5190.42 6175.90 82.65 3.00 299.65 3375.81
   05:56:10.741.08-Aug-2020 5190.42 6177.26 82.65 3.00 299.85 3375.81
   05:56:10.941.08-Aug-2020 5190.42 6177.26 82.65 3.00 300.05 3375.81
   05:56:11.141.08-Aug-2020 5190.42 6179.71 82.65 3.00 300.25 3375.81
   05:56:11.341.08-Aug-2020 5190.42 6180.96 82.65 3.00 300.45 3375.81
   05:56:11.541.08-Aug-2020 5190.42 6182.20 82.65 3.00 300.65 3375.81
   05:56:11.741.08-Aug-2020 5190.42 6183.72 82.65 3.00 300.85 3375.81
   05:56:11.941.08-Aug-2020 5190.42 6183.72 82.65 3.00 301.05 3375.81
   05:56:12.141.08-Aug-2020 5190.42 6186.50 82.64 3.00 301.25 3375.81
   05:56:12.341.08-Aug-2020 5190.42 6187.39 82.64 3.00 301.45 3375.81
   05:56:12.541.08-Aug-2020 5190.42 6188.01 82.64 3.00 301.65 3375.81
   05:56:12.740.08-Aug-2020 5190.42 6189.54 82.64 3.00 301.85 3375.81
   05:56:12.940.08-Aug-2020 5190.42 6189.54 82.64 3.00 302.05 3375.81
   05:56:13.140.08-Aug-2020 5190.42 6192.00 82.64 3.00 302.25 3375.81
   05:56:13.340.08-Aug-2020 5190.42 6193.23 82.64 3.00 302.45 3375.81
   05:56:13.540.08-Aug-2020 5190.42 6194.25 82.64 3.00 302.65 3375.81
   05:56:13.740.08-Aug-2020 5190.42 6195.36 82.64 3.00 302.85 3375.81
   05:56:13.940.08-Aug-2020 5190.42 6195.36 82.64 3.00 303.05 3375.81
   05:56:14.140.08-Aug-2020 5190.42 6197.63 82.64 3.00 303.25 3375.81
   05:56:14.340.08-Aug-2020 5190.42 6198.73 82.64 3.00 303.45 3375.81
   05:56:14.539.08-Aug-2020 5190.42 6200.11 82.64 3.00 303.65 3375.81
   05:56:14.739.08-Aug-2020 5190.42 6201.31 82.64 3.00 303.85 3375.81
   05:56:14.939.08-Aug-2020 5190.42 6201.31 82.64 3.00 304.05 3375.81
   05:56:15.139.08-Aug-2020 5190.42 6204.12 82.64 3.00 304.25 3375.81
   05:56:15.339.08-Aug-2020 5190.42 6204.54 82.64 3.00 304.45 3375.81
   05:56:15.539.08-Aug-2020 5190.42 6205.71 82.64 3.00 304.64 3375.81
   05:56:15.739.08-Aug-2020 5190.42 6206.91 82.64 3.00 304.84 3375.81
   05:56:15.939.08-Aug-2020 5190.42 6206.91 82.64 3.00 305.04 3375.81
   05:56:16.139.08-Aug-2020 5190.42 6209.30 82.64 3.00 305.24 3375.81
   05:56:16.339.08-Aug-2020 5190.42 6210.34 82.64 3.00 305.44 3375.81
   05:56:16.538.08-Aug-2020 5190.42 6211.46 82.64 3.00 305.64 3375.81
   05:56:16.738.08-Aug-2020 5190.42 6212.49 82.64 3.00 305.84 3375.81
   05:56:16.938.08-Aug-2020 5190.42 6212.49 82.64 3.00 306.04 3375.81
   05:56:17.138.08-Aug-2020 5190.42 6214.95 82.64 3.00 306.24 3375.81
   05:56:17.338.08-Aug-2020 5190.42 6216.03 82.63 3.00 306.44 3375.81
   05:56:17.538.08-Aug-2020 5190.42 6217.53 82.63 3.00 306.64 3375.81
   05:56:17.738.08-Aug-2020 5190.42 6218.58 82.63 3.00 306.84 3375.81
   05:56:17.938.08-Aug-2020 5190.42 6218.58 82.63 3.00 307.04 3375.81
   05:56:18.138.08-Aug-2020 5190.42 6221.12 82.63 3.00 307.24 3375.81
   05:56:18.338.08-Aug-2020 5190.42 6221.97 82.63 3.00 307.44 3375.81
   05:56:18.537.08-Aug-2020 5190.42 6223.10 82.63 3.00 307.64 3375.81
   05:56:18.737.08-Aug-2020 5190.42 6224.16 82.63 3.00 307.84 3375.81
   05:56:18.937.08-Aug-2020 5190.42 6224.16 82.63 3.00 308.04 3375.81
   05:56:19.137.08-Aug-2020 5190.42 6226.63 82.63 3.00 308.24 3375.81
   05:56:19.337.08-Aug-2020 5190.42 6227.28 82.63 3.00 308.44 3375.81
   05:56:19.537.08-Aug-2020 5190.42 6228.40 82.63 3.00 308.64 3375.81
   05:56:19.737.08-Aug-2020 5190.42 6229.27 82.63 3.00 308.84 3375.81
   05:56:19.937.08-Aug-2020 5190.42 6229.27 82.63 3.00 309.04 3375.81
   05:56:20.137.08-Aug-2020 5190.42 6231.42 82.63 3.00 309.24 3375.81
   05:56:20.337.08-Aug-2020 5190.42 6232.50 82.63 3.00 309.44 3375.81
   05:56:20.536.08-Aug-2020 5190.42 6233.91 82.63 3.00 309.64 3375.81
   05:56:20.736.08-Aug-2020 5190.42 6234.80 82.63 3.00 309.84 3375.81
   05:56:20.936.08-Aug-2020 5190.42 6234.80 82.63 3.00 310.04 3375.81
   05:56:21.136.08-Aug-2020 5190.42 6236.91 82.63 3.00 310.24 3375.81
   05:56:21.336.08-Aug-2020 5190.42 6237.98 82.63 3.00 310.44 3375.81
   05:56:21.536.08-Aug-2020 5190.42 6239.34 82.63 3.00 310.64 3375.81
   05:56:21.736.08-Aug-2020 5190.42 6240.55 82.63 3.00 310.84 3375.81
   05:56:21.936.08-Aug-2020 5190.42 6240.55 82.63 3.00 311.04 3375.81
   05:56:22.136.08-Aug-2020 5190.42 6242.62 82.63 3.00 311.24 3375.81
   05:56:22.336.08-Aug-2020 5190.42 6243.65 82.63 3.00 311.44 3375.81
   05:56:22.535.08-Aug-2020 5190.42 6244.45 82.62 3.00 311.64 3375.81
   05:56:22.735.08-Aug-2020 5190.42 6245.53 82.62 3.00 311.84 3375.81
   05:56:22.935.08-Aug-2020 5190.42 6245.53 82.62 3.00 312.04 3375.81
   05:56:23.135.08-Aug-2020 5190.42 6246.65 82.62 3.00 312.24 3375.81
   05:56:23.335.08-Aug-2020 5190.42 6248.05 82.62 3.00 312.44 3375.81
   05:56:23.535.08-Aug-2020 5190.42 6248.92 82.62 3.00 312.64 3375.81
   05:56:23.735.08-Aug-2020 5190.42 6249.60 82.62 3.00 312.84 3375.81
   05:56:23.935.08-Aug-2020 5190.42 6249.60 82.62 3.00 313.04 3375.81
   05:56:24.135.08-Aug-2020 5190.42 6251.88 82.62 3.00 313.24 3375.81
   05:56:24.335.08-Aug-2020 5190.42 6253.13 82.62 3.00 313.44 3375.81
   05:56:24.534.08-Aug-2020 5190.42 6253.83 82.62 3.00 313.64 3375.81
   05:56:24.734.08-Aug-2020 5190.42 6254.68 82.62 3.00 313.84 3375.81
   05:56:24.934.08-Aug-2020 5190.42 6254.68 82.62 3.00 314.04 3375.81
   05:56:25.134.08-Aug-2020 5190.42 6257.04 82.62 3.00 314.24 3375.81
   05:56:25.334.08-Aug-2020 5190.42 6258.02 82.62 3.00 314.44 3375.81
   05:56:25.534.08-Aug-2020 5190.42 6258.52 82.62 3.00 314.64 3375.81
   05:56:25.734.08-Aug-2020 5190.42 6259.74 82.62 3.00 314.84 3375.81
   05:56:25.934.08-Aug-2020 5190.42 6259.74 82.62 3.00 315.04 3375.81
   05:56:26.134.08-Aug-2020 5190.42 6261.27 82.62 3.00 315.24 3375.81
   05:56:26.333.08-Aug-2020 5190.42 6262.23 82.62 3.00 315.44 3375.81
   05:56:26.533.08-Aug-2020 5190.42 6263.21 82.62 3.00 315.64 3375.81
   05:56:26.733.08-Aug-2020 5190.42 6264.16 82.62 3.00 315.84 3375.81
   05:56:26.933.08-Aug-2020 5190.42 6264.16 82.62 3.00 316.04 3375.81
   05:56:27.133.08-Aug-2020 5190.42 6266.16 82.62 3.00 316.24 3375.81
   05:56:27.333.08-Aug-2020 5190.42 6267.16 82.62 3.00 316.44 3375.81
   05:56:27.533.08-Aug-2020 5190.42 6268.09 82.62 3.00 316.64 3375.81
   05:56:27.733.08-Aug-2020 5190.42 6269.36 82.61 3.00 316.84 3375.81
   05:56:27.933.08-Aug-2020 5190.42 6269.36 82.61 3.00 317.04 3375.81
   05:56:28.133.08-Aug-2020 5190.42 6271.29 82.61 3.00 317.24 3375.81
   05:56:28.332.08-Aug-2020 5190.42 6272.07 82.61 3.00 317.44 3375.81
   05:56:28.532.08-Aug-2020 5190.42 6273.16 82.61 3.00 317.64 3375.81
   05:56:28.732.08-Aug-2020 5190.42 6274.32 82.61 3.00 317.84 3375.81
   05:56:28.932.08-Aug-2020 5190.42 6274.32 82.61 3.00 318.04 3375.81
   05:56:29.132.08-Aug-2020 5190.42 6275.99 82.61 3.00 318.24 3375.81
   05:56:29.332.08-Aug-2020 5190.42 6276.81 82.61 3.00 318.44 3375.81
   05:56:29.532.08-Aug-2020 5190.42 6277.44 82.61 3.00 318.64 3375.81
   05:56:29.732.08-Aug-2020 5190.42 6278.55 82.61 3.00 318.84 3375.81
   05:56:29.932.08-Aug-2020 5190.42 6278.55 82.61 3.00 319.04 3375.81
   05:56:30.132.08-Aug-2020 5190.42 6280.50 82.61 3.00 319.24 3375.81
   05:56:30.331.08-Aug-2020 5190.42 6281.24 82.61 3.00 319.44 3375.81
   05:56:30.531.08-Aug-2020 5190.42 6282.13 82.61 3.00 319.64 3375.81
   05:56:30.731.08-Aug-2020 5190.42 6283.08 82.61 3.00 319.84 3375.81
   05:56:30.931.08-Aug-2020 5190.42 6283.95 82.61 3.00 320.04 3375.81
   05:56:31.131.08-Aug-2020 5190.42 6284.99 82.61 3.00 320.24 3375.81
   05:56:31.331.08-Aug-2020 5190.42 6286.02 82.61 3.00 320.44 3375.81
   05:56:31.531.08-Aug-2020 5190.42 6287.03 82.61 3.00 320.64 3375.81
   05:56:31.731.08-Aug-2020 5190.42 6288.05 82.61 3.00 320.84 3375.81
   05:56:31.931.08-Aug-2020 5190.42 6288.78 82.61 3.00 321.04 3375.81
   05:56:32.131.08-Aug-2020 5190.42 6289.29 82.61 3.00 321.24 3375.81
   05:56:32.330.08-Aug-2020 5190.42 6290.28 82.61 3.00 321.44 3375.81
   05:56:32.530.08-Aug-2020 5190.42 6291.21 82.61 3.00 321.64 3375.81
