~Version Information
 VERS.                  2.0:   CWLS log ASCII Standard -VERSION 2.0
 WRAP.                   NO:   One line per depth step
~Well Information Block
#MNEM.UNIT     VALUE/NAME     DESCRIPTION
#---------     -----------    ---------------------------
 STRT.S             08:45:48 08-Aug-20: START TIME 08:45:48 08-Aug-20
 STOP.S             08:54:16 08-Aug-20: STOP TIME  08:54:16 08-Aug-20
 STEP.S                   0.00: STEP TIME
 NULL.                 -999.25: NULL VALUE
 DFWT.                        :  DIST FWL TEXT
 DFST.                        :  DIST FSL TEXT
 DMF .             Drill Floor:  DRILL MEAS FROM
 STIM.      13.47.44 07-Jun-20:  START TIME
 DATE.      13.47.44 27-Jul-20:  END TIME
 SPUD.               07-Jun-20:  SPUD DATE
 NREF.                    Grid:  NORTH REFERENCE
 HPTY.       Minimum Curvature:  HOLE POS TYPE
 DMOD.             Drill Model:  DRILL MOD DESC
 SVYD.                  Survey:  SURVEY DESC
 ILTD.               Lithology:  INTERP LTH DESC
 FTOP.          Formation Tops:  FORM TOPS DESC
 RIG .             West Chirag:  RIG NAME
 PDAT.          Mean Sea Level:  PERMANENT DATUM
 FLD .                     ACG:  FIELD NAME
 SON .        AZ-XX-0906363612:  JOB NUMBER
 CTRY.              Azerbaijan:  COUNTRY NAME
 WELL.           J25 (Slot 35):  WELL NAME
 SRVC.          Turan Drilling:  CONTRACTOR
 COMP.     BP Exploration (Caspian Sea) Ltd:  COMPANY
 UWI .                     N/A:  UNIQUE WELL IDENTIFIER
 API .                     N/A:  API NUMBER
 BASE.              Azerbaijan:  LOGGING EQUIPMENT BASE LOCATION
 REGN.                   EESSA:  REGION
 PROV.                    Baku:  PROVINCE
 STAT.                    Baku:  STATE NAME
 MWDS.                     N/A:  MWD SHOP
 DOE .                     N/A:  DOE NUMBER
 DCON.         Sperry Drilling:  DIRECTNL CONTR
 UNIT.                     N/A:  LOGGING EQUIPMENT ID
 MDS .        Operator Entered:  MAG DATA SOURCE
 JOBN.        AZ-XX-0906363612:  JOB TICKET NUMB
 WTYP.                Deviated:  WELL TYPE
 CNTY.                        :  COUNTY
 LOC .                        :  LOCATION
 LMF .             Drill Floor:  LOG MEASURED FROM
 TVDS.m                  43.00:  TVDSS CORRECTN
 LATI.deg                40.13:  LATITUDE
 LONG.deg                51.22:  LONGITUDE
 WHNS.m                  -7.90:  WELL HEAD N/S
 WHEW.m                  -3.35:  WELL HEAD E/W
 UTMX.m              519005.06:  UTM X
 UTMY.m             4443793.85:  UTM Y
 DFWL.m                   0.00:  DISTANCE FWL
 DFSL.m                   0.00:  DISTANCE FSL
 SDEP.m                   0.00:  START DEPTH
 TDD .m                   0.00:  TOTAL DEPTH (DRILLER)
 VSDR.deg               308.97:  VERT SEC DIRECT
 GVFD.g                   1.00:  GRAVITY FIELD
 MFLD.nT              50350.00:  MAGNETIC FIELD
 MDIP.deg                59.62:  MAGNETIC DIP
 MDEC.deg                 6.44:  MAGNETIC DECL
 GRDC.deg                 0.13:  GRID CORRECTION
 AZTC.deg                 6.32:  AZM TOTAL CORR
 EPD .m                   0.00:  ELEVATION
 EGL .m                   0.00:  GROUND ELEVATION
 WDMS.m                 169.80:  WD ELEV
 APD .m                  43.00:  DEPTH ABOVE PD
 DEP .m                 356.43:  DEPTH
 AGAP.m                  43.00:  AIR GAP
 VSEW.m                  -3.35:  VERT SEC E/W
 VSNS.m                  -7.90:  VERT SEC N/S
 EKB .m                  43.00:  KB ELEVATION
 EDF .m                  43.00:  DF ELEVATION
 TDL .m                 934.00:  TOTAL DEPTH (LOGGER)
 VSC .                       0:  VS TO CLOSURE
 MAGU.                 1852825:  MAGUTM CHECKSUM
~Parameter Information Block
#MNEM.UNIT       Value        Description
#---------     -----------    ---------------------------
 AV  .mps                 0.80:  Ann Velocity 
 AVMX.mps                 1.70:  Max Ann Veloc 
 AZIF.deg               311.41:  Azm, Final 
 BHAT.        Rotary Steerable:  BHA Type 
 BROT.°/30m               0.09:  Build Rotating 
 BS  .in                 12.25:  Bit Size 
 BSZ .in                 12.25:  Bit Size 
 BTPL.psig              800.00:  Bit Press Loss 
 CABU.                      No:  Customer Abuse 
 COMM.                     ôS:  Run Comments 1 
 TCS .hr                 96.00:  Time Ciculation Ended 
 CV  .mps                 2.03:  Crit Velocity 
 CVMX.mps                 2.42:  Max Crit Veloc 
 DD1 .          Taghi Taghiyev:  Direct Drillr 1 
 DD2 .      Tariel Pirmammadov:  Direct Drillr 2 
 DD3 .          Teymur Aghayev:  Direct Drillr 3 
 DDSV.                 iCruise:  DD Service 
 DEFF.%                  98.70:  % Det Eff 
 DLRX.°/30m               1.00:  Dogleg Rot Max 
 DLSO.°/30m               1.80:  Dogleg Oriented 
 DLSX.°/30m               3.16:  Dogleg Str Max 
 DRET.      15.00.00 07-Aug-20:  Drill End Time 
 DRST.      17.00.00 02-Aug-20:  Drill Start Tim 
 DTIM.hr                 45.90:  Time Drilling 
 EDEP.m                5298.01:  End Depth 
 ENG1.       Seymur Iskandarov:  Engineer 1 
 ENG2.         Yevgeniy Ulikov:  Engineer 2 
 ENG3.      Artemiy Matviyanov:  Engineer 3 
 ENG4.         Bahruz Mehdiyev:  Engineer 4 
 ETIM.      05.00.00 10-Aug-20:  End Time 
 FLOI.gpm              1150.00:  Flow In 
 FLON.gpm               900.00:  Flow In Min 
 FLOS.cptm                0.00:  Fluid Loss 
 FLOX.gpm              1200.00:  Flow In Max 
 FTRO.     Connectivity, Formation Presure:  FTWD Run Obj 
 HFLO.                      No:  High Flow 
 HPRE.                     Yes:  High Pressure 
 HTEM.                      No:  High Temp 
 HYDO.m                   1.80:  Hydro Offset 
 IFIN.deg                 9.71:  Inc, Final 
 IMAX.deg                63.81:  Inc Max 
 IMIN.deg                 9.53:  Inc Min 
 IMND.m                5075.52:  Inc Min Depth 
 IMXD.m                4367.08:  Inc Max Depth 
 JARR.                      No:  Jarring 
 LETM.      15.00.00 07-Aug-20:  Log End Time 
 LOST.hr                     2:  Lost Rig Time 
 LSTM.      17.00.00 02-Aug-20:  Log Start Time 
 MDCL.ppm             42500.00:  Mud Chlorides 
 MDES.     Inversion Oil/Synthetic:  Mud Desc 
 DFD .sg                  1.46:  Mud Density 
 MDMN.sg                  1.46:  Dens Mud Min 
 MDMX.sg                  1.46:  Dens Mud Max 
 MOIL.                      56:  Run Mud Oil % 
 MOWR.                   70:30:  Run Mud OWR 
 MSND.                     0.1:  Run Mud Sand % 
 MSOL.                      19:  Run Mud Solids% 
 DFV .spqt               83.00:  Mud Viscosity 
 MWOD.in                  8.00:  MWD Tool OD 
 MWSI.                     Yes:  Serv Intrp, MWD 
 OTIM.hr                196.57:  Time Operating 
 PCON.           Look Like New:  Pad Condition 
 PMAX.psia             7400.00:  Press Op, Max 
 PV  .cP                 36.00:  Mud PV 
 RUN .                    1000:  Run Number 
 ROPA.m/hr               25.00:  ROP Avg 
 ROPN.m/hr               10.00:  ROP Min 
 ROPX.m/hr               32.00:  ROP Max 
 RPMA.rpm               120.00:  RPM Surface Avg 
 RPMN.rpm               100.00:  RPM Surface Min 
 RPMX.rpm               140.00:  RPM Surface Max 
 RRUN.                    L504:  Rig Run Number 
 SAZI.deg               308.25:  Azm, Start 
 SDEP.m                4364.01:  Start Depth 
 SIDD.                      No:  Serv Intrp, DD 
 SINC.deg                63.81:  Inc, Start 
 SPPA.psig             5800.00:  SPP Avg 
 SPPN.psig             4200.00:  SPP Min 
 SPPX.psig             5950.00:  SPP Max 
 STIM.      18.00.00 01-Aug-20:  Start Time 
 SVCS.                 DD, MWD:  Services 
 SVER.                    9.20:  Sperry Version 
 TDAT.m                 934.00:  Tot Depth Attmp 
 TDDF.                      No:  Trip for DD 
 TDLG.m                 934.00:  Tot Depth Loggd 
 TFF .                      No:  Trip for Fail 
 TQAA.f-kp               31.00:  Torque Abs Avg 
 TQAN.f-kp               25.00:  Torque Abs Min 
 TQAX.f-kp               35.00:  Torque Abs Max 
 TRRT.°/30m              -0.75:  Turn Rotating 
 MRT .                  EWR-M5:  Maximum Recorded Temperature 
 TTMX.degC               95.00:  Max Tool Temp 
 VS01.                90516060:  Virtual Str1 SN 
 VS02.                90528488:  Virtual Str2 SN 
 VS03.                90577970:  Virtual Str3 SN 
 VS04.                12385033:  Virtual Str4 SN 
 VS05.                90522069:  Virtual Str5 SN 
 VS06.                13124134:  Virtual Str6 SN 
 WBMN.klb                20.00:  WOB Min 
 WITN.         Alistair Sprott:  Customer Rep 
 WITN.     Ronal van der Kraan:  Customer Rep 2 
 WOBA.klb                25.00:  WOB Avg 
 WOBX.klb                31.00:  WOB Max 
 YP  .lhf2               32.00:  Yield Point 
~Curve Information Block
#MNEM.UNIT                 API CODE     Curve Description
#---------               -----------    ---------------------------
 TIME.HHMMSS            00 000 000 000:  GT Time & Date
 GTDEPTH.m              00 000 000 000:  GT Depth
 GTPQH.psia             00 000 000 000:  GT HR Quartz Pressure
 GTTQ.degC              00 000 000 000:  GT Quartz Temperature
 GTTN.NONE              00 000 000 000:  GT Test Number
 GTET.sec               00 000 000 000:  GT Elapsed Test Time
 GTTVD.m                00 000 000 000:  GT True Vertical Depth
#Other Information
#
#WARRANTY: Halliburton will use its best efforts to furnish customers with 
#accurate information and interpretations that are part of, and incident to, the services 
#provided.  However, Halliburton cannot and does not warrant the accuracy 
#or correctness of such information and interpretations.  Under no circumstances should any 
#such information or interpretation be relied upon as the sole basis for any drilling, 
#completion, production, or financial decision or any procedure involving any risk to the 
#safety of any drilling venture, drilling rig or its crew or any other third party.  The 
#Customer has full responsibility for all drilling, completion and production operation.  
#Halliburton makes no representations or warranties, either expressed or 
#implied, including, but not limited to, the implied warranties of merchantability or fitness 
#for a particular purpose, with respect to the services rendered.  In no event will 
#Halliburton be liable for failure to obtain any particular results or for 
#any damages, including, but not limited to, indirect, special or consequential damages, 
#resulting from the use of any information or interpretation provided by Halliburton.
#
~A           TIME           GTDEPTH  GTPQH  GTTQ  GTTN  GTET   GTTVD  
# ...
   08:52:43.026.08-Aug-2020 5134.01 1875.14 75.96 7.00 414.22 3320.21
   08:52:43.226.08-Aug-2020 5134.01 1875.14 75.96 7.00 414.42 3320.21
   08:52:43.427.08-Aug-2020 5134.01 1878.25 75.96 7.00 414.62 3320.21
   08:52:43.627.08-Aug-2020 5134.01 1879.79 75.96 7.00 414.82 3320.21
   08:52:43.827.08-Aug-2020 5134.01 1881.34 75.96 7.00 415.02 3320.21
   08:52:44.027.08-Aug-2020 5134.01 1882.99 75.96 7.00 415.22 3320.21
   08:52:44.227.08-Aug-2020 5134.01 1882.99 75.96 7.00 415.42 3320.21
   08:52:44.427.08-Aug-2020 5134.01 1886.04 75.96 7.00 415.62 3320.21
   08:52:44.627.08-Aug-2020 5134.01 1887.62 75.96 7.00 415.82 3320.21
   08:52:44.827.08-Aug-2020 5134.01 1889.22 75.96 7.00 416.02 3320.21
   08:52:45.027.08-Aug-2020 5134.01 1890.67 75.96 7.00 416.22 3320.21
   08:52:45.227.08-Aug-2020 5134.01 1892.27 75.96 7.00 416.42 3320.21
   08:52:45.428.08-Aug-2020 5134.01 1893.87 75.96 7.00 416.62 3320.21
   08:52:45.628.08-Aug-2020 5134.01 1895.41 75.96 7.00 416.82 3320.21
   08:52:45.828.08-Aug-2020 5134.01 1896.99 75.96 7.00 417.02 3320.21
   08:52:46.028.08-Aug-2020 5134.01 1898.69 75.96 7.00 417.22 3320.21
   08:52:46.228.08-Aug-2020 5134.01 1900.27 75.96 7.00 417.42 3320.21
   08:52:46.428.08-Aug-2020 5134.01 1901.74 75.96 7.00 417.62 3320.21
   08:52:46.628.08-Aug-2020 5134.01 1903.26 75.96 7.00 417.82 3320.21
   08:52:46.828.08-Aug-2020 5134.01 1904.98 75.96 7.00 418.02 3320.21
   08:52:47.028.08-Aug-2020 5134.01 1906.64 75.96 7.00 418.22 3320.21
   08:52:47.229.08-Aug-2020 5134.01 1906.64 75.96 7.00 418.42 3320.21
   08:52:47.429.08-Aug-2020 5134.01 1908.46 75.96 7.00 418.62 3320.21
   08:52:47.629.08-Aug-2020 5134.01 1909.96 75.96 7.00 418.82 3320.21
   08:52:47.829.08-Aug-2020 5134.01 1911.45 75.96 7.00 419.02 3320.21
   08:52:48.029.08-Aug-2020 5134.01 1913.04 75.96 7.00 419.22 3320.21
   08:52:48.229.08-Aug-2020 5134.01 1913.04 75.96 7.00 419.42 3320.21
   08:52:48.429.08-Aug-2020 5134.01 1916.06 75.96 7.00 419.62 3320.21
   08:52:48.629.08-Aug-2020 5134.01 1917.56 75.96 7.00 419.82 3320.21
   08:52:48.829.08-Aug-2020 5134.01 1919.15 75.96 7.00 420.02 3320.21
   08:52:49.029.08-Aug-2020 5134.01 1920.68 75.96 7.00 420.22 3320.21
   08:52:49.230.08-Aug-2020 5134.01 1920.68 75.96 7.00 420.42 3320.21
   08:52:49.430.08-Aug-2020 5134.01 1923.75 75.96 7.00 420.62 3320.21
   08:52:49.630.08-Aug-2020 5134.01 1925.27 75.96 7.00 420.82 3320.21
   08:52:49.830.08-Aug-2020 5134.01 1926.79 75.96 7.00 421.02 3320.21
   08:52:50.030.08-Aug-2020 5134.01 1928.31 75.96 7.00 421.22 3320.21
   08:52:50.230.08-Aug-2020 5134.01 1928.31 75.96 7.00 421.42 3320.21
   08:52:50.430.08-Aug-2020 5134.01 1931.61 75.96 7.00 421.62 3320.21
   08:52:50.630.08-Aug-2020 5134.01 1933.01 75.96 7.00 421.82 3320.21
   08:52:50.830.08-Aug-2020 5134.01 1934.48 75.95 7.00 422.02 3320.21
   08:52:51.031.08-Aug-2020 5134.01 1935.96 75.95 7.00 422.22 3320.21
   08:52:51.231.08-Aug-2020 5134.01 1937.51 75.95 7.00 422.42 3320.21
   08:52:51.431.08-Aug-2020 5134.01 1939.00 75.95 7.00 422.62 3320.21
   08:52:51.631.08-Aug-2020 5134.01 1940.51 75.95 7.00 422.82 3320.21
   08:52:51.831.08-Aug-2020 5134.01 1941.96 75.95 7.00 423.02 3320.21
   08:52:52.031.08-Aug-2020 5134.01 1943.51 75.95 7.00 423.22 3320.21
   08:52:52.231.08-Aug-2020 5134.01 1943.51 75.95 7.00 423.42 3320.21
   08:52:52.431.08-Aug-2020 5134.01 1946.54 75.95 7.00 423.62 3320.21
   08:52:52.631.08-Aug-2020 5134.01 1948.06 75.95 7.00 423.82 3320.21
   08:52:52.832.08-Aug-2020 5134.01 1949.57 75.95 7.00 424.02 3320.21
   08:52:53.032.08-Aug-2020 5134.01 1951.07 75.95 7.00 424.22 3320.21
   08:52:53.232.08-Aug-2020 5134.01 1952.55 75.95 7.00 424.42 3320.21
   08:52:53.432.08-Aug-2020 5134.01 1954.24 75.95 7.00 424.62 3320.21
   08:52:53.632.08-Aug-2020 5134.01 1955.35 75.95 7.00 424.82 3320.21
   08:52:53.832.08-Aug-2020 5134.01 1956.39 75.95 7.00 425.02 3320.21
   08:52:54.032.08-Aug-2020 5134.01 1957.66 75.95 7.00 425.22 3320.21
   08:52:54.232.08-Aug-2020 5134.01 1957.66 75.95 7.00 425.43 3320.21
   08:52:54.432.08-Aug-2020 5134.01 1960.47 75.95 7.00 425.63 3320.21
   08:52:54.632.08-Aug-2020 5134.01 1962.08 75.95 7.00 425.83 3320.21
   08:52:54.833.08-Aug-2020 5134.01 1963.76 75.95 7.00 426.03 3320.21
   08:52:55.033.08-Aug-2020 5134.01 1965.11 75.95 7.00 426.23 3320.21
   08:52:55.233.08-Aug-2020 5134.01 1965.11 75.95 7.00 426.43 3320.21
   08:52:55.433.08-Aug-2020 5134.01 1968.03 75.95 7.00 426.63 3320.21
   08:52:55.633.08-Aug-2020 5134.01 1969.48 75.95 7.00 426.83 3320.21
   08:52:55.833.08-Aug-2020 5134.01 1971.13 75.95 7.00 427.03 3320.21
   08:52:56.033.08-Aug-2020 5134.01 1972.75 75.95 7.00 427.23 3320.21
   08:52:56.233.08-Aug-2020 5134.01 1972.75 75.95 7.00 427.43 3320.21
   08:52:56.433.08-Aug-2020 5134.01 1975.73 75.95 7.00 427.63 3320.21
   08:52:56.634.08-Aug-2020 5134.01 1977.29 75.95 7.00 427.83 3320.21
   08:52:56.834.08-Aug-2020 5134.01 1978.59 75.95 7.00 428.03 3320.21
   08:52:57.034.08-Aug-2020 5134.01 1980.05 75.95 7.00 428.23 3320.21
   08:52:57.234.08-Aug-2020 5134.01 1980.05 75.95 7.00 428.43 3320.21
   08:52:57.434.08-Aug-2020 5134.01 1982.99 75.95 7.00 428.63 3320.21
   08:52:57.634.08-Aug-2020 5134.01 1984.46 75.95 7.00 428.83 3320.21
   08:52:57.834.08-Aug-2020 5134.01 1986.02 75.95 7.00 429.03 3320.21
   08:52:58.034.08-Aug-2020 5134.01 1987.44 75.95 7.00 429.23 3320.21
   08:52:58.234.08-Aug-2020 5134.01 1987.44 75.95 7.00 429.43 3320.21
   08:52:58.434.08-Aug-2020 5134.01 1990.47 75.95 7.00 429.63 3320.21
   08:52:58.635.08-Aug-2020 5134.01 1991.94 75.95 7.00 429.83 3320.21
   08:52:58.835.08-Aug-2020 5134.01 1993.43 75.95 7.00 430.03 3320.21
   08:52:59.035.08-Aug-2020 5134.01 1994.93 75.95 7.00 430.23 3320.21
   08:52:59.235.08-Aug-2020 5134.01 1994.93 75.95 7.00 430.43 3320.21
   08:52:59.435.08-Aug-2020 5134.01 1997.10 75.95 7.00 430.63 3320.21
   08:52:59.635.08-Aug-2020 5134.01 1998.55 75.95 7.00 430.83 3320.21
   08:52:59.835.08-Aug-2020 5134.01 2000.13 75.95 7.00 431.03 3320.21
   08:53:00.035.08-Aug-2020 5134.01 2001.73 75.95 7.00 431.23 3320.21
   08:53:00.235.08-Aug-2020 5134.01 2001.73 75.95 7.00 431.43 3320.21
   08:53:00.436.08-Aug-2020 5134.01 2004.53 75.95 7.00 431.63 3320.21
   08:53:00.636.08-Aug-2020 5134.01 2005.94 75.95 7.00 431.83 3320.21
   08:53:00.836.08-Aug-2020 5134.01 2007.44 75.95 7.00 432.03 3320.21
   08:53:01.036.08-Aug-2020 5134.01 2008.89 75.95 7.00 432.23 3320.21
   08:53:01.236.08-Aug-2020 5134.01 2008.89 75.95 7.00 432.43 3320.21
   08:53:01.436.08-Aug-2020 5134.01 2011.75 75.95 7.00 432.63 3320.21
   08:53:01.636.08-Aug-2020 5134.01 2013.26 75.95 7.00 432.83 3320.21
   08:53:01.836.08-Aug-2020 5134.01 2014.73 75.95 7.00 433.03 3320.21
   08:53:02.036.08-Aug-2020 5134.01 2016.21 75.95 7.00 433.23 3320.21
   08:53:02.236.08-Aug-2020 5134.01 2017.70 75.95 7.00 433.43 3320.21
   08:53:02.437.08-Aug-2020 5134.01 2019.15 75.95 7.00 433.63 3320.21
   08:53:02.637.08-Aug-2020 5134.01 2020.60 75.95 7.00 433.83 3320.21
   08:53:02.837.08-Aug-2020 5134.01 2022.07 75.95 7.00 434.03 3320.21
   08:53:03.037.08-Aug-2020 5134.01 2023.75 75.95 7.00 434.23 3320.21
   08:53:03.237.08-Aug-2020 5134.01 2023.75 75.95 7.00 434.43 3320.21
   08:53:03.437.08-Aug-2020 5134.01 2026.54 75.95 7.00 434.63 3320.21
   08:53:03.637.08-Aug-2020 5134.01 2028.18 75.95 7.00 434.83 3320.21
   08:53:03.837.08-Aug-2020 5134.01 2029.68 75.95 7.00 435.03 3320.21
   08:53:04.037.08-Aug-2020 5134.01 2030.95 75.95 7.00 435.23 3320.21
   08:53:04.238.08-Aug-2020 5134.01 2030.95 75.95 7.00 435.43 3320.21
   08:53:04.438.08-Aug-2020 5134.01 2033.82 75.95 7.00 435.63 3320.21
   08:53:04.638.08-Aug-2020 5134.01 2035.31 75.95 7.00 435.83 3320.21
   08:53:04.838.08-Aug-2020 5134.01 2036.91 75.95 7.00 436.03 3320.21
   08:53:05.038.08-Aug-2020 5134.01 2038.47 75.95 7.00 436.23 3320.21
   08:53:05.238.08-Aug-2020 5134.01 2038.47 75.95 7.00 436.43 3320.21
   08:53:05.438.08-Aug-2020 5134.01 2041.29 75.95 7.00 436.63 3320.21
   08:53:05.638.08-Aug-2020 5134.01 2042.92 75.95 7.00 436.83 3320.21
   08:53:05.838.08-Aug-2020 5134.01 2044.31 75.95 7.00 437.03 3320.21
