~Version Information
 VERS.                  2.0:   CWLS log ASCII Standard -VERSION 2.0
 WRAP.                   NO:   One line per depth step
~Well Information Block
#MNEM.UNIT     VALUE/NAME     DESCRIPTION
#---------     -----------    ---------------------------
 STRT.S             02:53:50 29-Jan-21: START TIME 02:53:50 29-Jan-21
 STOP.S             03:00:20 29-Jan-21: STOP TIME  03:00:20 29-Jan-21
 STEP.S                   0.00: STEP TIME
 NULL.                 -999.25: NULL VALUE
 DFWT.                        :  DIST FWL TEXT
 DFST.                        :  DIST FSL TEXT
 DMF .             Drill Floor:  DRILL MEAS FROM
 STIM.      00.00.00 25-Sep-20:  START TIME
 DATE.      16.12.48 31-Jan-21:  END TIME
 SPUD.               20-Sep-20:  SPUD DATE
 NREF.                    Grid:  NORTH REFERENCE
 HPTY.       Minimum Curvature:  HOLE POS TYPE
 DMOD.             Drill Model:  DRILL MOD DESC
 SVYD.                  Survey:  SURVEY DESC
 ILTD.               Lithology:  INTERP LTH DESC
 FTOP.          Formation Tops:  FORM TOPS DESC
 RIG .              East Azeri:  RIG NAME
 PDAT.          Mean Sea Level:  PERMANENT DATUM
 FLD .                     ACG:  FIELD NAME
 SON .        AZ-XX-0906591820:  JOB NUMBER
 CTRY.              Azerbaijan:  COUNTRY NAME
 WELL.                     D37:  WELL NAME
 SRVC.     Turan Drilling & Engineering:  CONTRACTOR
 COMP.     BP Exploration (Caspian Sea) ltd.:  COMPANY
 WTYP.                Deviated:  WELL TYPE
 MDS .        Operator Entered:  MAG DATA SOURCE
 UWI .                     N/A:  UNIQUE WELL IDENTIFIER
 API .                     N/A:  API NUMBER
 BASE.              Azerbaijan:  LOGGING EQUIPMENT BASE LOCATION
 REGN.                   EESSA:  REGION
 PROV.                    Baku:  PROVINCE
 STAT.                    Baku:  STATE NAME
 MWDS.                    Baku:  MWD SHOP
 JOBN.        AZ-XX-0906591820:  JOB TICKET NUMB
 DOE .                     N/A:  DOE NUMBER
 DCON.         Sperry Drilling:  DIRECTNL CONTR
 UNIT.                     N/A:  LOGGING EQUIPMENT ID
 CNTY.                        :  COUNTY
 LOC .                        :  LOCATION
 LMF .             Drill Floor:  LOG MEASURED FROM
 TVDS.m                  43.60:  TVDSS CORRECTN
 LATI.deg                40.02:  LATITUDE
 LONG.deg                51.45:  LONGITUDE
 WHNS.m                  11.04:  WELL HEAD N/S
 WHEW.m                 -12.38:  WELL HEAD E/W
 UTMX.m              538763.98:  UTM X
 UTMY.m             4431880.20:  UTM Y
 DFWL.m                   0.00:  DISTANCE FWL
 DFSL.m                   0.00:  DISTANCE FSL
 SDEP.m                 300.00:  START DEPTH
 TDD .m                4900.01:  TOTAL DEPTH (DRILLER)
 VSDR.deg               185.64:  VERT SEC DIRECT
 GVFD.g                   1.00:  GRAVITY FIELD
 MFLD.nT              50301.00:  MAGNETIC FIELD
 MDIP.deg                59.46:  MAGNETIC DIP
 MDEC.deg                 6.43:  MAGNETIC DECL
 GRDC.deg                 0.29:  GRID CORRECTION
 AZTC.deg                 6.14:  AZM TOTAL CORR
 EPD .m                   0.00:  ELEVATION
 EGL .m                   0.00:  GROUND ELEVATION
 WDMS.m                 151.80:  WD ELEV
 APD .m                  43.60:  DEPTH ABOVE PD
 DEP .m                 571.69:  DEPTH
 AGAP.m                  43.60:  AIR GAP
 VSEW.m                 -12.38:  VERT SEC E/W
 VSNS.m                  11.04:  VERT SEC N/S
 EKB .m                  43.60:  KB ELEVATION
 EDF .m                  43.60:  DF ELEVATION
 TDL .m                 412.00:  TOTAL DEPTH (LOGGER)
 VSC .                       0:  VS TO CLOSURE
 MAGU.                 1849300:  MAGUTM CHECKSUM
~Parameter Information Block
#MNEM.UNIT       Value        Description
#---------     -----------    ---------------------------
 AV  .mps                 2.21:  Ann Velocity 
 AVMX.mps                 2.53:  Max Ann Veloc 
 AZIF.deg               144.83:  Azm, Final 
 BHAT.        Rotary Steerable:  BHA Type 
 BROT.°/30m              -0.52:  Build Rotating 
 BS  .in                  6.50:  Bit Size 
 BTPL.psig              209.00:  Bit Press Loss 
 CABU.                      No:  Customer Abuse 
 CGEO.        Ali Isfandiyarov:  Customer Geo 
 COMM.                     tÿr:  Run Comments 1 
 TCS .hr                 61.31:  Time Ciculation Ended 
 CV  .mps                 4.66:  Crit Velocity 
 CVMX.mps                 5.02:  Max Crit Veloc 
 DD1 .          Fariz Nahmatov:  Direct Drillr 1 
 DD2 .            Musa Ahmadov:  Direct Drillr 2 
 DDSV.               Geo-Pilot:  DD Service 
 DEFF.%                 100.00:  % Det Eff 
 DLRX.°/30m               1.44:  Dogleg Rot Max 
 DLSO.°/30m               0.83:  Dogleg Oriented 
 DLSX.°/30m               1.44:  Dogleg Str Max 
 DRET.      08.30.00 30-Jan-21:  Drill End Time 
 DRST.      21.15.00 27-Jan-21:  Drill Start Tim 
 DTIM.hr                 37.28:  Time Drilling 
 EDEP.m                4867.01:  End Depth 
 ENG1.          Rasim Hashimov:  Engineer 1 
 ENG2.         Almaz Almadatov:  Engineer 2 
 ENG3.        Tamerlan Ahmadov:  Engineer 3 
 ETIM.      22.41.04 31-Jan-21:  End Time 
 FLOI.gpm               400.00:  Flow In 
 FLON.gpm               300.00:  Flow In Min 
 FLOS.cptm                0.00:  Fluid Loss 
 FLOX.gpm               400.00:  Flow In Max 
 HFLO.                      No:  High Flow 
 HPRE.                      No:  High Pressure 
 HTEM.                      No:  High Temp 
 HYDO.m                   1.80:  Hydro Offset 
 IFIN.deg                65.63:  Inc, Final 
 IMAX.deg                66.77:  Inc Max 
 IMIN.deg                65.61:  Inc Min 
 IMND.m                4612.67:  Inc Min Depth 
 IMXD.m                4811.63:  Inc Max Depth 
 JARR.                      No:  Jarring 
 LETM.      08.30.00 30-Jan-21:  Log End Time 
 LOST.hr                     0:  Lost Rig Time 
 LSTM.      21.15.00 27-Jan-21:  Log Start Time 
 MDCL.ppm             41000.00:  Mud Chlorides 
 MDES.     Inversion Oil/Synthetic:  Mud Desc 
 DFD .sg                  1.40:  Mud Density 
 MDMN.sg                  1.40:  Dens Mud Min 
 MDMX.sg                  1.40:  Dens Mud Max 
 MOIL.                      53:  Run Mud Oil % 
 MOWR.                   66:34:  Run Mud OWR 
 MSND.                     0.2:  Run Mud Sand % 
 MSOL.                    17.9:  Run Mud Solids% 
 DFV .spqt               77.00:  Mud Viscosity 
 MWOD.in                  4.75:  MWD Tool OD 
 MWSI.                      No:  Serv Intrp, MWD 
 OTIM.hr                110.38:  Time Operating 
 PCON.           Look Like New:  Pad Condition 
 PMAX.psia             5300.00:  Press Op, Max 
 PV  .cP                 57.00:  Mud PV 
 RUN .                    1200:  Run Number 
 ROPA.m/hr               13.00:  ROP Avg 
 ROPN.m/hr                9.00:  ROP Min 
 ROPX.m/hr               15.00:  ROP Max 
 RPMA.rpm               120.00:  RPM Surface Avg 
 RPMN.rpm               100.00:  RPM Surface Min 
 RPMX.rpm               135.00:  RPM Surface Max 
 RRUN.                    1200:  Rig Run Number 
 RTIM.hr                  2.65:  Time Reaming 
 SAZI.deg               145.04:  Azm, Start 
 SDEP.m                4455.01:  Start Depth 
 SIDD.                      No:  Serv Intrp, DD 
 SINC.deg                65.83:  Inc, Start 
 SPPA.psig             5037.00:  SPP Avg 
 SPPN.psig             4430.00:  SPP Min 
 SPPX.psig             5300.00:  SPP Max 
 STIM.      22.41.04 26-Jan-21:  Start Time 
 SVCS.                 DD, MWD:  Services 
 SVER.                    9.20:  Sperry Version 
 TDAT.m                 412.00:  Tot Depth Attmp 
 TDDF.                      No:  Trip for DD 
 TDLG.m                 412.00:  Tot Depth Loggd 
 TFF .                      No:  Trip for Fail 
 TQAA.f-kp               15.00:  Torque Abs Avg 
 TQAN.f-kp               12.00:  Torque Abs Min 
 TQAX.f-kp               17.00:  Torque Abs Max 
 TRRT.°/30m               1.18:  Turn Rotating 
 MRT .                     ADR:  Maximum Recorded Temperature 
 TTMX.degC               88.24:  Max Tool Temp 
 VS01.                90619458:  Virtual Str1 SN 
 VS02.                90519326:  Virtual Str2 SN 
 VS03.                90522176:  Virtual Str3 SN 
 VS04.                90512683:  Virtual Str4 SN 
 WBMN.klb                 1.00:  WOB Min 
 WITN.           Murad Giluyev:  Customer Rep 
 WITN.     Kamran Kemberlinski:  Customer Rep 2 
 WOBA.klb                 5.00:  WOB Avg 
 WOBX.klb                 9.00:  WOB Max 
 YP  .lhf2               41.00:  Yield Point 
~Curve Information Block
#MNEM.UNIT                 API CODE     Curve Description
#---------               -----------    ---------------------------
 TIME.HHMMSS            00 000 000 000:  GT Time & Date
 GTDEPTH.m              00 000 000 000:  GT Depth
 GTPQH.psia             00 000 000 000:  GT HR Quartz Pressure
 GTTQ.degC              00 000 000 000:  GT Quartz Temperature
 GTTN.NONE              00 000 000 000:  GT Test Number
 GTET.sec               00 000 000 000:  GT Elapsed Test Time
 GTTVD.m                00 000 000 000:  GT True Vertical Depth
#Other Information
#
#WARRANTY: Halliburton will use its best efforts to furnish customers with 
#accurate information and interpretations that are part of, and incident to, the services 
#provided.  However, Halliburton cannot and does not warrant the accuracy 
#or correctness of such information and interpretations.  Under no circumstances should any 
#such information or interpretation be relied upon as the sole basis for any drilling, 
#completion, production, or financial decision or any procedure involving any risk to the 
#safety of any drilling venture, drilling rig or its crew or any other third party.  The 
#Customer has full responsibility for all drilling, completion and production operation.  
#Halliburton makes no representations or warranties, either expressed or 
#implied, including, but not limited to, the implied warranties of merchantability or fitness 
#for a particular purpose, with respect to the services rendered.  In no event will 
#Halliburton be liable for failure to obtain any particular results or for 
#any damages, including, but not limited to, indirect, special or consequential damages, 
#resulting from the use of any information or interpretation provided by Halliburton.
#
~A           TIME           GTDEPTH  GTPQH  GTTQ  GTTN  GTET   GTTVD  
# ...
   02:59:12.823.29-Jan-2021 4635.01 3260.48 77.04 7.00 322.05 2559.44
   02:59:13.023.29-Jan-2021 4635.01 3260.48 77.04 7.00 322.25 2559.44
   02:59:13.223.29-Jan-2021 4635.01 3260.47 77.04 7.00 322.45 2559.44
   02:59:13.423.29-Jan-2021 4635.01 3260.45 77.04 7.00 322.65 2559.44
   02:59:13.623.29-Jan-2021 4635.01 3260.48 77.04 7.00 322.85 2559.44
   02:59:13.823.29-Jan-2021 4635.01 3260.44 77.04 7.00 323.05 2559.44
   02:59:14.023.29-Jan-2021 4635.01 3260.44 77.04 7.00 323.25 2559.44
   02:59:14.223.29-Jan-2021 4635.01 3260.52 77.03 7.00 323.45 2559.44
   02:59:14.423.29-Jan-2021 4635.01 3260.53 77.03 7.00 323.65 2559.44
   02:59:14.623.29-Jan-2021 4635.01 3260.40 77.03 7.00 323.85 2559.44
   02:59:14.823.29-Jan-2021 4635.01 3260.54 77.03 7.00 324.05 2559.44
   02:59:15.024.29-Jan-2021 4635.01 3260.54 77.03 7.00 324.25 2559.44
   02:59:15.224.29-Jan-2021 4635.01 3260.50 77.03 7.00 324.45 2559.44
   02:59:15.424.29-Jan-2021 4635.01 3260.48 77.03 7.00 324.65 2559.44
   02:59:15.624.29-Jan-2021 4635.01 3260.49 77.03 7.00 324.85 2559.44
   02:59:15.824.29-Jan-2021 4635.01 3260.49 77.03 7.00 325.05 2559.44
   02:59:16.024.29-Jan-2021 4635.01 3260.49 77.03 7.00 325.25 2559.44
   02:59:16.224.29-Jan-2021 4635.01 3260.50 77.03 7.00 325.45 2559.44
   02:59:16.424.29-Jan-2021 4635.01 3260.45 77.03 7.00 325.65 2559.44
   02:59:16.624.29-Jan-2021 4635.01 3260.49 77.03 7.00 325.85 2559.44
   02:59:16.824.29-Jan-2021 4635.01 3260.45 77.03 7.00 326.05 2559.44
   02:59:17.024.29-Jan-2021 4635.01 3260.45 77.03 7.00 326.25 2559.44
   02:59:17.224.29-Jan-2021 4635.01 3260.35 77.03 7.00 326.45 2559.44
   02:59:17.424.29-Jan-2021 4635.01 3260.55 77.03 7.00 326.65 2559.44
   02:59:17.624.29-Jan-2021 4635.01 3260.51 77.03 7.00 326.85 2559.44
   02:59:17.824.29-Jan-2021 4635.01 3260.46 77.03 7.00 327.05 2559.44
   02:59:18.024.29-Jan-2021 4635.01 3260.46 77.03 7.00 327.25 2559.44
   02:59:18.224.29-Jan-2021 4635.01 3260.46 77.03 7.00 327.45 2559.44
   02:59:18.424.29-Jan-2021 4635.01 3260.56 77.03 7.00 327.65 2559.44
   02:59:18.624.29-Jan-2021 4635.01 3260.41 77.03 7.00 327.85 2559.44
   02:59:18.824.29-Jan-2021 4635.01 3260.56 77.03 7.00 328.05 2559.44
   02:59:19.024.29-Jan-2021 4635.01 3260.56 77.03 7.00 328.25 2559.44
   02:59:19.224.29-Jan-2021 4635.01 3260.56 77.03 7.00 328.45 2559.44
   02:59:19.424.29-Jan-2021 4635.01 3260.45 77.03 7.00 328.65 2559.44
   02:59:19.624.29-Jan-2021 4635.01 3260.47 77.03 7.00 328.85 2559.44
   02:59:19.824.29-Jan-2021 4635.01 3260.52 77.03 7.00 329.05 2559.44
   02:59:20.024.29-Jan-2021 4635.01 3260.52 77.03 7.00 329.25 2559.44
   02:59:20.224.29-Jan-2021 4635.01 3260.52 77.03 7.00 329.45 2559.44
   02:59:20.424.29-Jan-2021 4635.01 3260.51 77.03 7.00 329.65 2559.44
   02:59:20.624.29-Jan-2021 4635.01 3260.47 77.02 7.00 329.85 2559.44
   02:59:20.824.29-Jan-2021 4635.01 3260.54 77.02 7.00 330.05 2559.44
   02:59:21.024.29-Jan-2021 4635.01 3260.54 77.02 7.00 330.25 2559.44
   02:59:21.224.29-Jan-2021 4635.01 3260.55 77.02 7.00 330.45 2559.44
   02:59:21.424.29-Jan-2021 4635.01 3260.50 77.02 7.00 330.65 2559.44
   02:59:21.624.29-Jan-2021 4635.01 3260.51 77.02 7.00 330.85 2559.44
   02:59:21.824.29-Jan-2021 4635.01 3260.41 77.02 7.00 331.05 2559.44
   02:59:22.024.29-Jan-2021 4635.01 3260.41 77.02 7.00 331.25 2559.44
   02:59:22.225.29-Jan-2021 4635.01 3260.41 77.02 7.00 331.45 2559.44
   02:59:22.425.29-Jan-2021 4635.01 3260.51 77.02 7.00 331.65 2559.44
   02:59:22.625.29-Jan-2021 4635.01 3260.54 77.02 7.00 331.85 2559.44
   02:59:22.825.29-Jan-2021 4635.01 3260.48 77.02 7.00 332.05 2559.44
   02:59:23.025.29-Jan-2021 4635.01 3260.48 77.02 7.00 332.25 2559.44
   02:59:23.225.29-Jan-2021 4635.01 3260.47 77.02 7.00 332.45 2559.44
   02:59:23.425.29-Jan-2021 4635.01 3260.51 77.02 7.00 332.65 2559.44
   02:59:23.625.29-Jan-2021 4635.01 3260.47 77.02 7.00 332.85 2559.44
   02:59:23.825.29-Jan-2021 4635.01 3260.51 77.02 7.00 333.05 2559.44
   02:59:24.025.29-Jan-2021 4635.01 3260.51 77.02 7.00 333.25 2559.44
   02:59:24.225.29-Jan-2021 4635.01 3260.50 77.02 7.00 333.45 2559.44
   02:59:24.425.29-Jan-2021 4635.01 3260.46 77.02 7.00 333.65 2559.44
   02:59:24.625.29-Jan-2021 4635.01 3260.49 77.02 7.00 333.85 2559.44
   02:59:24.825.29-Jan-2021 4635.01 3260.48 77.02 7.00 334.05 2559.44
   02:59:25.025.29-Jan-2021 4635.01 3260.48 77.02 7.00 334.25 2559.44
   02:59:25.225.29-Jan-2021 4635.01 3260.47 77.02 7.00 334.45 2559.44
   02:59:25.425.29-Jan-2021 4635.01 3260.43 77.02 7.00 334.65 2559.44
   02:59:25.625.29-Jan-2021 4635.01 3260.54 77.02 7.00 334.85 2559.44
   02:59:25.825.29-Jan-2021 4635.01 3260.41 77.02 7.00 335.05 2559.44
   02:59:26.025.29-Jan-2021 4635.01 3260.41 77.02 7.00 335.25 2559.44
   02:59:26.225.29-Jan-2021 4635.01 3260.49 77.02 7.00 335.45 2559.44
   02:59:26.425.29-Jan-2021 4635.01 3260.54 77.02 7.00 335.65 2559.44
   02:59:26.625.29-Jan-2021 4635.01 3260.47 77.02 7.00 335.85 2559.44
   02:59:26.825.29-Jan-2021 4635.01 3260.54 77.02 7.00 336.05 2559.44
   02:59:27.025.29-Jan-2021 4635.01 3260.54 77.02 7.00 336.25 2559.44
   02:59:27.225.29-Jan-2021 4635.01 3260.50 77.02 7.00 336.45 2559.44
   02:59:27.425.29-Jan-2021 4635.01 3260.48 77.01 7.00 336.65 2559.44
   02:59:27.625.29-Jan-2021 4635.01 3260.50 77.01 7.00 336.85 2559.44
   02:59:27.825.29-Jan-2021 4635.01 3260.48 77.01 7.00 337.05 2559.44
   02:59:28.025.29-Jan-2021 4635.01 3260.48 77.01 7.00 337.25 2559.44
   02:59:28.225.29-Jan-2021 4635.01 3260.47 77.01 7.00 337.45 2559.44
   02:59:28.425.29-Jan-2021 4635.01 3260.47 77.01 7.00 337.65 2559.44
   02:59:28.625.29-Jan-2021 4635.01 3260.45 77.01 7.00 337.85 2559.44
   02:59:28.825.29-Jan-2021 4635.01 3260.53 77.01 7.00 338.05 2559.44
   02:59:29.025.29-Jan-2021 4635.01 3260.53 77.01 7.00 338.25 2559.44
   02:59:29.226.29-Jan-2021 4635.01 3260.52 77.01 7.00 338.45 2559.44
   02:59:29.426.29-Jan-2021 4635.01 3260.39 77.01 7.00 338.65 2559.44
   02:59:29.626.29-Jan-2021 4635.01 3260.66 77.01 7.00 338.85 2559.44
   02:59:29.826.29-Jan-2021 4635.01 3260.44 77.01 7.00 339.05 2559.44
   02:59:30.026.29-Jan-2021 4635.01 3260.44 77.01 7.00 339.25 2559.44
   02:59:30.226.29-Jan-2021 4635.01 3260.55 77.01 7.00 339.45 2559.44
   02:59:30.426.29-Jan-2021 4635.01 3260.53 77.01 7.00 339.65 2559.44
   02:59:30.626.29-Jan-2021 4635.01 3260.51 77.01 7.00 339.85 2559.44
   02:59:30.826.29-Jan-2021 4635.01 3260.37 77.01 7.00 340.05 2559.44
   02:59:31.026.29-Jan-2021 4635.01 3260.37 77.01 7.00 340.25 2559.44
   02:59:31.226.29-Jan-2021 4635.01 3260.42 77.01 7.00 340.45 2559.44
   02:59:31.426.29-Jan-2021 4635.01 3260.55 77.01 7.00 340.65 2559.44
   02:59:31.626.29-Jan-2021 4635.01 3260.52 77.01 7.00 340.85 2559.44
   02:59:31.826.29-Jan-2021 4635.01 3260.40 77.01 7.00 341.05 2559.44
   02:59:32.026.29-Jan-2021 4635.01 3260.40 77.01 7.00 341.25 2559.44
   02:59:32.226.29-Jan-2021 4635.01 3260.42 77.01 7.00 341.45 2559.44
   02:59:32.426.29-Jan-2021 4635.01 3260.58 77.01 7.00 341.65 2559.44
   02:59:32.626.29-Jan-2021 4635.01 3260.48 77.01 7.00 341.85 2559.44
   02:59:32.826.29-Jan-2021 4635.01 3260.57 77.01 7.00 342.05 2559.44
   02:59:33.026.29-Jan-2021 4635.01 3260.57 77.01 7.00 342.25 2559.44
   02:59:33.226.29-Jan-2021 4635.01 3260.66 77.01 7.00 342.45 2559.44
   02:59:33.426.29-Jan-2021 4635.01 3260.41 77.01 7.00 342.65 2559.44
   02:59:33.626.29-Jan-2021 4635.01 3260.56 77.01 7.00 342.85 2559.44
   02:59:33.826.29-Jan-2021 4635.01 3260.51 77.00 7.00 343.05 2559.44
   02:59:34.026.29-Jan-2021 4635.01 3260.51 77.00 7.00 343.25 2559.44
   02:59:34.226.29-Jan-2021 4635.01 3260.49 77.00 7.00 343.45 2559.44
   02:59:34.426.29-Jan-2021 4635.01 3260.52 77.00 7.00 343.65 2559.44
   02:59:34.626.29-Jan-2021 4635.01 3260.51 77.00 7.00 343.85 2559.44
   02:59:34.826.29-Jan-2021 4635.01 3260.49 77.00 7.00 344.05 2559.44
   02:59:35.026.29-Jan-2021 4635.01 3260.49 77.00 7.00 344.25 2559.44
   02:59:35.226.29-Jan-2021 4635.01 3260.49 77.00 7.00 344.45 2559.44
   02:59:35.426.29-Jan-2021 4635.01 3260.51 77.00 7.00 344.65 2559.44
   02:59:35.626.29-Jan-2021 4635.01 3260.49 77.00 7.00 344.85 2559.44
