~Version Information
 VERS.                  2.0:   CWLS log ASCII Standard -VERSION 2.0
 WRAP.                   NO:   One line per depth step
~Well Information Block
#MNEM.UNIT     VALUE/NAME     DESCRIPTION
#---------     -----------    ---------------------------
 STRT.S             02:53:50 29-Jan-21: START TIME 02:53:50 29-Jan-21
 STOP.S             03:00:20 29-Jan-21: STOP TIME  03:00:20 29-Jan-21
 STEP.S                   0.00: STEP TIME
 NULL.                 -999.25: NULL VALUE
 DFWT.                        :  DIST FWL TEXT
 DFST.                        :  DIST FSL TEXT
 DMF .             Drill Floor:  DRILL MEAS FROM
 STIM.      00.00.00 25-Sep-20:  START TIME
 DATE.      16.12.48 31-Jan-21:  END TIME
 SPUD.               20-Sep-20:  SPUD DATE
 NREF.                    Grid:  NORTH REFERENCE
 HPTY.       Minimum Curvature:  HOLE POS TYPE
 DMOD.             Drill Model:  DRILL MOD DESC
 SVYD.                  Survey:  SURVEY DESC
 ILTD.               Lithology:  INTERP LTH DESC
 FTOP.          Formation Tops:  FORM TOPS DESC
 RIG .              East Azeri:  RIG NAME
 PDAT.          Mean Sea Level:  PERMANENT DATUM
 FLD .                     ACG:  FIELD NAME
 SON .        AZ-XX-0906591820:  JOB NUMBER
 CTRY.              Azerbaijan:  COUNTRY NAME
 WELL.                     D37:  WELL NAME
 SRVC.     Turan Drilling & Engineering:  CONTRACTOR
 COMP.     BP Exploration (Caspian Sea) ltd.:  COMPANY
 WTYP.                Deviated:  WELL TYPE
 MDS .        Operator Entered:  MAG DATA SOURCE
 UWI .                     N/A:  UNIQUE WELL IDENTIFIER
 API .                     N/A:  API NUMBER
 BASE.              Azerbaijan:  LOGGING EQUIPMENT BASE LOCATION
 REGN.                   EESSA:  REGION
 PROV.                    Baku:  PROVINCE
 STAT.                    Baku:  STATE NAME
 MWDS.                    Baku:  MWD SHOP
 JOBN.        AZ-XX-0906591820:  JOB TICKET NUMB
 DOE .                     N/A:  DOE NUMBER
 DCON.         Sperry Drilling:  DIRECTNL CONTR
 UNIT.                     N/A:  LOGGING EQUIPMENT ID
 CNTY.                        :  COUNTY
 LOC .                        :  LOCATION
 LMF .             Drill Floor:  LOG MEASURED FROM
 TVDS.m                  43.60:  TVDSS CORRECTN
 LATI.deg                40.02:  LATITUDE
 LONG.deg                51.45:  LONGITUDE
 WHNS.m                  11.04:  WELL HEAD N/S
 WHEW.m                 -12.38:  WELL HEAD E/W
 UTMX.m              538763.98:  UTM X
 UTMY.m             4431880.20:  UTM Y
 DFWL.m                   0.00:  DISTANCE FWL
 DFSL.m                   0.00:  DISTANCE FSL
 SDEP.m                 300.00:  START DEPTH
 TDD .m                4900.01:  TOTAL DEPTH (DRILLER)
 VSDR.deg               185.64:  VERT SEC DIRECT
 GVFD.g                   1.00:  GRAVITY FIELD
 MFLD.nT              50301.00:  MAGNETIC FIELD
 MDIP.deg                59.46:  MAGNETIC DIP
 MDEC.deg                 6.43:  MAGNETIC DECL
 GRDC.deg                 0.29:  GRID CORRECTION
 AZTC.deg                 6.14:  AZM TOTAL CORR
 EPD .m                   0.00:  ELEVATION
 EGL .m                   0.00:  GROUND ELEVATION
 WDMS.m                 151.80:  WD ELEV
 APD .m                  43.60:  DEPTH ABOVE PD
 DEP .m                 571.69:  DEPTH
 AGAP.m                  43.60:  AIR GAP
 VSEW.m                 -12.38:  VERT SEC E/W
 VSNS.m                  11.04:  VERT SEC N/S
 EKB .m                  43.60:  KB ELEVATION
 EDF .m                  43.60:  DF ELEVATION
 TDL .m                 412.00:  TOTAL DEPTH (LOGGER)
 VSC .                       0:  VS TO CLOSURE
 MAGU.                 1849300:  MAGUTM CHECKSUM
~Parameter Information Block
#MNEM.UNIT       Value        Description
#---------     -----------    ---------------------------
 AV  .mps                 2.21:  Ann Velocity 
 AVMX.mps                 2.53:  Max Ann Veloc 
 AZIF.deg               144.83:  Azm, Final 
 BHAT.        Rotary Steerable:  BHA Type 
 BROT.°/30m              -0.52:  Build Rotating 
 BS  .in                  6.50:  Bit Size 
 BTPL.psig              209.00:  Bit Press Loss 
 CABU.                      No:  Customer Abuse 
 CGEO.        Ali Isfandiyarov:  Customer Geo 
 COMM.                     tÿr:  Run Comments 1 
 TCS .hr                 61.31:  Time Ciculation Ended 
 CV  .mps                 4.66:  Crit Velocity 
 CVMX.mps                 5.02:  Max Crit Veloc 
 DD1 .          Fariz Nahmatov:  Direct Drillr 1 
 DD2 .            Musa Ahmadov:  Direct Drillr 2 
 DDSV.               Geo-Pilot:  DD Service 
 DEFF.%                 100.00:  % Det Eff 
 DLRX.°/30m               1.44:  Dogleg Rot Max 
 DLSO.°/30m               0.83:  Dogleg Oriented 
 DLSX.°/30m               1.44:  Dogleg Str Max 
 DRET.      08.30.00 30-Jan-21:  Drill End Time 
 DRST.      21.15.00 27-Jan-21:  Drill Start Tim 
 DTIM.hr                 37.28:  Time Drilling 
 EDEP.m                4867.01:  End Depth 
 ENG1.          Rasim Hashimov:  Engineer 1 
 ENG2.         Almaz Almadatov:  Engineer 2 
 ENG3.        Tamerlan Ahmadov:  Engineer 3 
 ETIM.      22.41.04 31-Jan-21:  End Time 
 FLOI.gpm               400.00:  Flow In 
 FLON.gpm               300.00:  Flow In Min 
 FLOS.cptm                0.00:  Fluid Loss 
 FLOX.gpm               400.00:  Flow In Max 
 HFLO.                      No:  High Flow 
 HPRE.                      No:  High Pressure 
 HTEM.                      No:  High Temp 
 HYDO.m                   1.80:  Hydro Offset 
 IFIN.deg                65.63:  Inc, Final 
 IMAX.deg                66.77:  Inc Max 
 IMIN.deg                65.61:  Inc Min 
 IMND.m                4612.67:  Inc Min Depth 
 IMXD.m                4811.63:  Inc Max Depth 
 JARR.                      No:  Jarring 
 LETM.      08.30.00 30-Jan-21:  Log End Time 
 LOST.hr                     0:  Lost Rig Time 
 LSTM.      21.15.00 27-Jan-21:  Log Start Time 
 MDCL.ppm             41000.00:  Mud Chlorides 
 MDES.     Inversion Oil/Synthetic:  Mud Desc 
 DFD .sg                  1.40:  Mud Density 
 MDMN.sg                  1.40:  Dens Mud Min 
 MDMX.sg                  1.40:  Dens Mud Max 
 MOIL.                      53:  Run Mud Oil % 
 MOWR.                   66:34:  Run Mud OWR 
 MSND.                     0.2:  Run Mud Sand % 
 MSOL.                    17.9:  Run Mud Solids% 
 DFV .spqt               77.00:  Mud Viscosity 
 MWOD.in                  4.75:  MWD Tool OD 
 MWSI.                      No:  Serv Intrp, MWD 
 OTIM.hr                110.38:  Time Operating 
 PCON.           Look Like New:  Pad Condition 
 PMAX.psia             5300.00:  Press Op, Max 
 PV  .cP                 57.00:  Mud PV 
 RUN .                    1200:  Run Number 
 ROPA.m/hr               13.00:  ROP Avg 
 ROPN.m/hr                9.00:  ROP Min 
 ROPX.m/hr               15.00:  ROP Max 
 RPMA.rpm               120.00:  RPM Surface Avg 
 RPMN.rpm               100.00:  RPM Surface Min 
 RPMX.rpm               135.00:  RPM Surface Max 
 RRUN.                    1200:  Rig Run Number 
 RTIM.hr                  2.65:  Time Reaming 
 SAZI.deg               145.04:  Azm, Start 
 SDEP.m                4455.01:  Start Depth 
 SIDD.                      No:  Serv Intrp, DD 
 SINC.deg                65.83:  Inc, Start 
 SPPA.psig             5037.00:  SPP Avg 
 SPPN.psig             4430.00:  SPP Min 
 SPPX.psig             5300.00:  SPP Max 
 STIM.      22.41.04 26-Jan-21:  Start Time 
 SVCS.                 DD, MWD:  Services 
 SVER.                    9.20:  Sperry Version 
 TDAT.m                 412.00:  Tot Depth Attmp 
 TDDF.                      No:  Trip for DD 
 TDLG.m                 412.00:  Tot Depth Loggd 
 TFF .                      No:  Trip for Fail 
 TQAA.f-kp               15.00:  Torque Abs Avg 
 TQAN.f-kp               12.00:  Torque Abs Min 
 TQAX.f-kp               17.00:  Torque Abs Max 
 TRRT.°/30m               1.18:  Turn Rotating 
 MRT .                     ADR:  Maximum Recorded Temperature 
 TTMX.degC               88.24:  Max Tool Temp 
 VS01.                90619458:  Virtual Str1 SN 
 VS02.                90519326:  Virtual Str2 SN 
 VS03.                90522176:  Virtual Str3 SN 
 VS04.                90512683:  Virtual Str4 SN 
 WBMN.klb                 1.00:  WOB Min 
 WITN.           Murad Giluyev:  Customer Rep 
 WITN.     Kamran Kemberlinski:  Customer Rep 2 
 WOBA.klb                 5.00:  WOB Avg 
 WOBX.klb                 9.00:  WOB Max 
 YP  .lhf2               41.00:  Yield Point 
~Curve Information Block
#MNEM.UNIT                 API CODE     Curve Description
#---------               -----------    ---------------------------
 TIME.HHMMSS            00 000 000 000:  GT Time & Date
 GTDEPTH.m              00 000 000 000:  GT Depth
 GTPQH.psia             00 000 000 000:  GT HR Quartz Pressure
 GTTQ.degC              00 000 000 000:  GT Quartz Temperature
 GTTN.NONE              00 000 000 000:  GT Test Number
 GTET.sec               00 000 000 000:  GT Elapsed Test Time
 GTTVD.m                00 000 000 000:  GT True Vertical Depth
#Other Information
#
#WARRANTY: Halliburton will use its best efforts to furnish customers with 
#accurate information and interpretations that are part of, and incident to, the services 
#provided.  However, Halliburton cannot and does not warrant the accuracy 
#or correctness of such information and interpretations.  Under no circumstances should any 
#such information or interpretation be relied upon as the sole basis for any drilling, 
#completion, production, or financial decision or any procedure involving any risk to the 
#safety of any drilling venture, drilling rig or its crew or any other third party.  The 
#Customer has full responsibility for all drilling, completion and production operation.  
#Halliburton makes no representations or warranties, either expressed or 
#implied, including, but not limited to, the implied warranties of merchantability or fitness 
#for a particular purpose, with respect to the services rendered.  In no event will 
#Halliburton be liable for failure to obtain any particular results or for 
#any damages, including, but not limited to, indirect, special or consequential damages, 
#resulting from the use of any information or interpretation provided by Halliburton.
#
~A           TIME           GTDEPTH  GTPQH  GTTQ  GTTN  GTET   GTTVD  
# ...
   02:58:03.814.29-Jan-2021 4635.01 3258.59 77.15 7.00 253.04 2559.44
   02:58:04.014.29-Jan-2021 4635.01 3258.59 77.15 7.00 253.24 2559.44
   02:58:04.214.29-Jan-2021 4635.01 3258.94 77.14 7.00 253.44 2559.44
   02:58:04.414.29-Jan-2021 4635.01 3259.02 77.14 7.00 253.64 2559.44
   02:58:04.614.29-Jan-2021 4635.01 3259.10 77.14 7.00 253.84 2559.44
   02:58:04.814.29-Jan-2021 4635.01 3259.16 77.14 7.00 254.04 2559.44
   02:58:05.014.29-Jan-2021 4635.01 3259.16 77.14 7.00 254.24 2559.44
   02:58:05.214.29-Jan-2021 4635.01 3259.30 77.14 7.00 254.44 2559.44
   02:58:05.414.29-Jan-2021 4635.01 3259.40 77.14 7.00 254.64 2559.44
   02:58:05.614.29-Jan-2021 4635.01 3259.41 77.14 7.00 254.84 2559.44
   02:58:05.814.29-Jan-2021 4635.01 3259.51 77.14 7.00 255.04 2559.44
   02:58:06.014.29-Jan-2021 4635.01 3259.51 77.14 7.00 255.24 2559.44
   02:58:06.214.29-Jan-2021 4635.01 3259.55 77.14 7.00 255.44 2559.44
   02:58:06.414.29-Jan-2021 4635.01 3259.61 77.14 7.00 255.64 2559.44
   02:58:06.614.29-Jan-2021 4635.01 3259.62 77.14 7.00 255.84 2559.44
   02:58:06.814.29-Jan-2021 4635.01 3259.67 77.14 7.00 256.04 2559.44
   02:58:07.014.29-Jan-2021 4635.01 3259.67 77.14 7.00 256.24 2559.44
   02:58:07.214.29-Jan-2021 4635.01 3259.93 77.14 7.00 256.44 2559.44
   02:58:07.414.29-Jan-2021 4635.01 3259.71 77.14 7.00 256.64 2559.44
   02:58:07.614.29-Jan-2021 4635.01 3259.86 77.14 7.00 256.84 2559.44
   02:58:07.814.29-Jan-2021 4635.01 3259.83 77.14 7.00 257.04 2559.44
   02:58:08.014.29-Jan-2021 4635.01 3259.83 77.14 7.00 257.24 2559.44
   02:58:08.214.29-Jan-2021 4635.01 3259.83 77.14 7.00 257.44 2559.44
   02:58:08.414.29-Jan-2021 4635.01 3259.92 77.14 7.00 257.64 2559.44
   02:58:08.614.29-Jan-2021 4635.01 3259.90 77.14 7.00 257.84 2559.44
   02:58:08.814.29-Jan-2021 4635.01 3259.90 77.14 7.00 258.04 2559.44
   02:58:09.014.29-Jan-2021 4635.01 3259.90 77.14 7.00 258.24 2559.44
   02:58:09.214.29-Jan-2021 4635.01 3259.94 77.14 7.00 258.44 2559.44
   02:58:09.414.29-Jan-2021 4635.01 3259.97 77.14 7.00 258.64 2559.44
   02:58:09.614.29-Jan-2021 4635.01 3259.97 77.14 7.00 258.84 2559.44
   02:58:09.814.29-Jan-2021 4635.01 3259.98 77.14 7.00 259.04 2559.44
   02:58:10.014.29-Jan-2021 4635.01 3259.98 77.14 7.00 259.24 2559.44
   02:58:10.214.29-Jan-2021 4635.01 3260.01 77.14 7.00 259.44 2559.44
   02:58:10.414.29-Jan-2021 4635.01 3260.09 77.13 7.00 259.64 2559.44
   02:58:10.615.29-Jan-2021 4635.01 3260.02 77.13 7.00 259.84 2559.44
   02:58:10.815.29-Jan-2021 4635.01 3260.11 77.13 7.00 260.04 2559.44
   02:58:11.015.29-Jan-2021 4635.01 3260.11 77.13 7.00 260.24 2559.44
   02:58:11.215.29-Jan-2021 4635.01 3260.27 77.13 7.00 260.44 2559.44
   02:58:11.415.29-Jan-2021 4635.01 3260.04 77.13 7.00 260.64 2559.44
   02:58:11.615.29-Jan-2021 4635.01 3260.18 77.13 7.00 260.84 2559.44
   02:58:11.815.29-Jan-2021 4635.01 3260.16 77.13 7.00 261.04 2559.44
   02:58:12.015.29-Jan-2021 4635.01 3260.16 77.13 7.00 261.24 2559.44
   02:58:12.215.29-Jan-2021 4635.01 3260.04 77.13 7.00 261.44 2559.44
   02:58:12.415.29-Jan-2021 4635.01 3260.21 77.13 7.00 261.64 2559.44
   02:58:12.615.29-Jan-2021 4635.01 3260.23 77.13 7.00 261.84 2559.44
   02:58:12.815.29-Jan-2021 4635.01 3260.08 77.13 7.00 262.04 2559.44
   02:58:13.015.29-Jan-2021 4635.01 3260.08 77.13 7.00 262.24 2559.44
   02:58:13.215.29-Jan-2021 4635.01 3260.25 77.13 7.00 262.44 2559.44
   02:58:13.415.29-Jan-2021 4635.01 3260.25 77.13 7.00 262.64 2559.44
   02:58:13.615.29-Jan-2021 4635.01 3260.13 77.13 7.00 262.84 2559.44
   02:58:13.815.29-Jan-2021 4635.01 3260.22 77.13 7.00 263.04 2559.44
   02:58:14.015.29-Jan-2021 4635.01 3260.22 77.13 7.00 263.24 2559.44
   02:58:14.215.29-Jan-2021 4635.01 3260.18 77.13 7.00 263.44 2559.44
   02:58:14.415.29-Jan-2021 4635.01 3260.18 77.13 7.00 263.64 2559.44
   02:58:14.615.29-Jan-2021 4635.01 3260.27 77.13 7.00 263.84 2559.44
   02:58:14.815.29-Jan-2021 4635.01 3260.17 77.13 7.00 264.04 2559.44
   02:58:15.015.29-Jan-2021 4635.01 3260.17 77.13 7.00 264.24 2559.44
   02:58:15.215.29-Jan-2021 4635.01 3260.26 77.13 7.00 264.44 2559.44
   02:58:15.415.29-Jan-2021 4635.01 3260.25 77.13 7.00 264.64 2559.44
   02:58:15.615.29-Jan-2021 4635.01 3260.24 77.13 7.00 264.84 2559.44
   02:58:15.815.29-Jan-2021 4635.01 3260.23 77.13 7.00 265.04 2559.44
   02:58:16.015.29-Jan-2021 4635.01 3260.23 77.13 7.00 265.24 2559.44
   02:58:16.215.29-Jan-2021 4635.01 3260.24 77.13 7.00 265.44 2559.44
   02:58:16.415.29-Jan-2021 4635.01 3260.23 77.13 7.00 265.64 2559.44
   02:58:16.615.29-Jan-2021 4635.01 3260.26 77.13 7.00 265.84 2559.44
   02:58:16.815.29-Jan-2021 4635.01 3260.24 77.12 7.00 266.04 2559.44
   02:58:17.015.29-Jan-2021 4635.01 3260.24 77.12 7.00 266.24 2559.44
   02:58:17.215.29-Jan-2021 4635.01 3260.24 77.12 7.00 266.44 2559.44
   02:58:17.415.29-Jan-2021 4635.01 3260.26 77.12 7.00 266.64 2559.44
   02:58:17.615.29-Jan-2021 4635.01 3260.23 77.12 7.00 266.84 2559.44
   02:58:17.816.29-Jan-2021 4635.01 3260.26 77.12 7.00 267.04 2559.44
   02:58:18.016.29-Jan-2021 4635.01 3260.26 77.12 7.00 267.24 2559.44
   02:58:18.216.29-Jan-2021 4635.01 3260.37 77.12 7.00 267.44 2559.44
   02:58:18.416.29-Jan-2021 4635.01 3260.20 77.12 7.00 267.64 2559.44
   02:58:18.616.29-Jan-2021 4635.01 3260.35 77.12 7.00 267.84 2559.44
   02:58:18.816.29-Jan-2021 4635.01 3260.28 77.12 7.00 268.04 2559.44
   02:58:19.016.29-Jan-2021 4635.01 3260.28 77.12 7.00 268.24 2559.44
   02:58:19.216.29-Jan-2021 4635.01 3260.28 77.12 7.00 268.44 2559.44
   02:58:19.416.29-Jan-2021 4635.01 3260.31 77.12 7.00 268.64 2559.44
   02:58:19.616.29-Jan-2021 4635.01 3260.31 77.12 7.00 268.84 2559.44
   02:58:19.816.29-Jan-2021 4635.01 3260.28 77.12 7.00 269.04 2559.44
   02:58:20.016.29-Jan-2021 4635.01 3260.28 77.12 7.00 269.24 2559.44
   02:58:20.216.29-Jan-2021 4635.01 3260.28 77.12 7.00 269.44 2559.44
   02:58:20.416.29-Jan-2021 4635.01 3260.32 77.12 7.00 269.64 2559.44
   02:58:20.616.29-Jan-2021 4635.01 3260.27 77.12 7.00 269.84 2559.44
   02:58:20.816.29-Jan-2021 4635.01 3260.31 77.12 7.00 270.04 2559.44
   02:58:21.016.29-Jan-2021 4635.01 3260.31 77.12 7.00 270.24 2559.44
   02:58:21.216.29-Jan-2021 4635.01 3260.29 77.12 7.00 270.44 2559.44
   02:58:21.416.29-Jan-2021 4635.01 3260.35 77.12 7.00 270.64 2559.44
   02:58:21.616.29-Jan-2021 4635.01 3260.29 77.12 7.00 270.84 2559.44
   02:58:21.816.29-Jan-2021 4635.01 3260.36 77.12 7.00 271.04 2559.44
   02:58:22.016.29-Jan-2021 4635.01 3260.36 77.12 7.00 271.24 2559.44
   02:58:22.216.29-Jan-2021 4635.01 3260.49 77.12 7.00 271.44 2559.44
   02:58:22.416.29-Jan-2021 4635.01 3260.28 77.12 7.00 271.64 2559.44
   02:58:22.616.29-Jan-2021 4635.01 3260.40 77.12 7.00 271.84 2559.44
   02:58:22.816.29-Jan-2021 4635.01 3260.36 77.12 7.00 272.04 2559.44
   02:58:23.016.29-Jan-2021 4635.01 3260.36 77.12 7.00 272.24 2559.44
   02:58:23.216.29-Jan-2021 4635.01 3260.33 77.11 7.00 272.44 2559.44
   02:58:23.416.29-Jan-2021 4635.01 3260.14 77.11 7.00 272.64 2559.44
   02:58:23.616.29-Jan-2021 4635.01 3260.55 77.11 7.00 272.84 2559.44
   02:58:23.816.29-Jan-2021 4635.01 3260.33 77.11 7.00 273.04 2559.44
   02:58:24.016.29-Jan-2021 4635.01 3260.33 77.11 7.00 273.24 2559.44
   02:58:24.216.29-Jan-2021 4635.01 3260.39 77.11 7.00 273.44 2559.44
   02:58:24.416.29-Jan-2021 4635.01 3260.22 77.11 7.00 273.64 2559.44
   02:58:24.616.29-Jan-2021 4635.01 3260.52 77.11 7.00 273.84 2559.44
   02:58:24.817.29-Jan-2021 4635.01 3260.24 77.11 7.00 274.04 2559.44
   02:58:25.017.29-Jan-2021 4635.01 3260.24 77.11 7.00 274.24 2559.44
   02:58:25.217.29-Jan-2021 4635.01 3260.36 77.11 7.00 274.44 2559.44
   02:58:25.417.29-Jan-2021 4635.01 3260.31 77.11 7.00 274.64 2559.44
   02:58:25.617.29-Jan-2021 4635.01 3260.39 77.11 7.00 274.84 2559.44
   02:58:25.817.29-Jan-2021 4635.01 3260.43 77.11 7.00 275.04 2559.44
   02:58:26.017.29-Jan-2021 4635.01 3260.43 77.11 7.00 275.24 2559.44
   02:58:26.217.29-Jan-2021 4635.01 3260.36 77.11 7.00 275.44 2559.44
   02:58:26.417.29-Jan-2021 4635.01 3260.41 77.11 7.00 275.64 2559.44
   02:58:26.617.29-Jan-2021 4635.01 3260.36 77.11 7.00 275.84 2559.44
