~Version Information
 VERS.                  2.0:   CWLS log ASCII Standard -VERSION 2.0
 WRAP.                   NO:   One line per depth step
~Well Information Block
#MNEM.UNIT     VALUE/NAME     DESCRIPTION
#---------     -----------    ---------------------------
 STRT.S             13:18:38 29-Jan-21: START TIME 13:18:38 29-Jan-21
 STOP.S             13:25:08 29-Jan-21: STOP TIME  13:25:08 29-Jan-21
 STEP.S                   0.00: STEP TIME
 NULL.                 -999.25: NULL VALUE
 DFWT.                        :  DIST FWL TEXT
 DFST.                        :  DIST FSL TEXT
 DMF .             Drill Floor:  DRILL MEAS FROM
 STIM.      00.00.00 25-Sep-20:  START TIME
 DATE.      16.12.48 31-Jan-21:  END TIME
 SPUD.               20-Sep-20:  SPUD DATE
 NREF.                    Grid:  NORTH REFERENCE
 HPTY.       Minimum Curvature:  HOLE POS TYPE
 DMOD.             Drill Model:  DRILL MOD DESC
 SVYD.                  Survey:  SURVEY DESC
 ILTD.               Lithology:  INTERP LTH DESC
 FTOP.          Formation Tops:  FORM TOPS DESC
 RIG .              East Azeri:  RIG NAME
 PDAT.          Mean Sea Level:  PERMANENT DATUM
 FLD .                     ACG:  FIELD NAME
 SON .        AZ-XX-0906591820:  JOB NUMBER
 CTRY.              Azerbaijan:  COUNTRY NAME
 WELL.                     D37:  WELL NAME
 SRVC.     Turan Drilling & Engineering:  CONTRACTOR
 COMP.     BP Exploration (Caspian Sea) ltd.:  COMPANY
 WTYP.                Deviated:  WELL TYPE
 MDS .        Operator Entered:  MAG DATA SOURCE
 UWI .                     N/A:  UNIQUE WELL IDENTIFIER
 API .                     N/A:  API NUMBER
 BASE.              Azerbaijan:  LOGGING EQUIPMENT BASE LOCATION
 REGN.                   EESSA:  REGION
 PROV.                    Baku:  PROVINCE
 STAT.                    Baku:  STATE NAME
 MWDS.                    Baku:  MWD SHOP
 JOBN.        AZ-XX-0906591820:  JOB TICKET NUMB
 DOE .                     N/A:  DOE NUMBER
 DCON.         Sperry Drilling:  DIRECTNL CONTR
 UNIT.                     N/A:  LOGGING EQUIPMENT ID
 CNTY.                        :  COUNTY
 LOC .                        :  LOCATION
 LMF .             Drill Floor:  LOG MEASURED FROM
 TVDS.m                  43.60:  TVDSS CORRECTN
 LATI.deg                40.02:  LATITUDE
 LONG.deg                51.45:  LONGITUDE
 WHNS.m                  11.04:  WELL HEAD N/S
 WHEW.m                 -12.38:  WELL HEAD E/W
 UTMX.m              538763.98:  UTM X
 UTMY.m             4431880.20:  UTM Y
 DFWL.m                   0.00:  DISTANCE FWL
 DFSL.m                   0.00:  DISTANCE FSL
 SDEP.m                 300.00:  START DEPTH
 TDD .m                4900.01:  TOTAL DEPTH (DRILLER)
 VSDR.deg               185.64:  VERT SEC DIRECT
 GVFD.g                   1.00:  GRAVITY FIELD
 MFLD.nT              50301.00:  MAGNETIC FIELD
 MDIP.deg                59.46:  MAGNETIC DIP
 MDEC.deg                 6.43:  MAGNETIC DECL
 GRDC.deg                 0.29:  GRID CORRECTION
 AZTC.deg                 6.14:  AZM TOTAL CORR
 EPD .m                   0.00:  ELEVATION
 EGL .m                   0.00:  GROUND ELEVATION
 WDMS.m                 151.80:  WD ELEV
 APD .m                  43.60:  DEPTH ABOVE PD
 DEP .m                 571.69:  DEPTH
 AGAP.m                  43.60:  AIR GAP
 VSEW.m                 -12.38:  VERT SEC E/W
 VSNS.m                  11.04:  VERT SEC N/S
 EKB .m                  43.60:  KB ELEVATION
 EDF .m                  43.60:  DF ELEVATION
 TDL .m                 412.00:  TOTAL DEPTH (LOGGER)
 VSC .                       0:  VS TO CLOSURE
 MAGU.                 1849300:  MAGUTM CHECKSUM
~Parameter Information Block
#MNEM.UNIT       Value        Description
#---------     -----------    ---------------------------
 AV  .mps                 2.21:  Ann Velocity 
 AVMX.mps                 2.53:  Max Ann Veloc 
 AZIF.deg               144.83:  Azm, Final 
 BHAT.        Rotary Steerable:  BHA Type 
 BROT.°/30m              -0.52:  Build Rotating 
 BS  .in                  6.50:  Bit Size 
 BTPL.psig              209.00:  Bit Press Loss 
 CABU.                      No:  Customer Abuse 
 CGEO.        Ali Isfandiyarov:  Customer Geo 
 COMM.                     lÄt:  Run Comments 1 
 TCS .hr                 61.31:  Time Ciculation Ended 
 CV  .mps                 4.66:  Crit Velocity 
 CVMX.mps                 5.02:  Max Crit Veloc 
 DD1 .          Fariz Nahmatov:  Direct Drillr 1 
 DD2 .            Musa Ahmadov:  Direct Drillr 2 
 DDSV.               Geo-Pilot:  DD Service 
 DEFF.%                 100.00:  % Det Eff 
 DLRX.°/30m               1.44:  Dogleg Rot Max 
 DLSO.°/30m               0.83:  Dogleg Oriented 
 DLSX.°/30m               1.44:  Dogleg Str Max 
 DRET.      08.30.00 30-Jan-21:  Drill End Time 
 DRST.      21.15.00 27-Jan-21:  Drill Start Tim 
 DTIM.hr                 37.28:  Time Drilling 
 EDEP.m                4867.01:  End Depth 
 ENG1.          Rasim Hashimov:  Engineer 1 
 ENG2.         Almaz Almadatov:  Engineer 2 
 ENG3.        Tamerlan Ahmadov:  Engineer 3 
 ETIM.      22.41.04 31-Jan-21:  End Time 
 FLOI.gpm               400.00:  Flow In 
 FLON.gpm               300.00:  Flow In Min 
 FLOS.cptm                0.00:  Fluid Loss 
 FLOX.gpm               400.00:  Flow In Max 
 HFLO.                      No:  High Flow 
 HPRE.                      No:  High Pressure 
 HTEM.                      No:  High Temp 
 HYDO.m                   1.80:  Hydro Offset 
 IFIN.deg                65.63:  Inc, Final 
 IMAX.deg                66.77:  Inc Max 
 IMIN.deg                65.61:  Inc Min 
 IMND.m                4612.67:  Inc Min Depth 
 IMXD.m                4811.63:  Inc Max Depth 
 JARR.                      No:  Jarring 
 LETM.      08.30.00 30-Jan-21:  Log End Time 
 LOST.hr                     0:  Lost Rig Time 
 LSTM.      21.15.00 27-Jan-21:  Log Start Time 
 MDCL.ppm             41000.00:  Mud Chlorides 
 MDES.     Inversion Oil/Synthetic:  Mud Desc 
 DFD .sg                  1.40:  Mud Density 
 MDMN.sg                  1.40:  Dens Mud Min 
 MDMX.sg                  1.40:  Dens Mud Max 
 MOIL.                      53:  Run Mud Oil % 
 MOWR.                   66:34:  Run Mud OWR 
 MSND.                     0.2:  Run Mud Sand % 
 MSOL.                    17.9:  Run Mud Solids% 
 DFV .spqt               77.00:  Mud Viscosity 
 MWOD.in                  4.75:  MWD Tool OD 
 MWSI.                      No:  Serv Intrp, MWD 
 OTIM.hr                110.38:  Time Operating 
 PCON.           Look Like New:  Pad Condition 
 PMAX.psia             5300.00:  Press Op, Max 
 PV  .cP                 57.00:  Mud PV 
 RUN .                    1200:  Run Number 
 ROPA.m/hr               13.00:  ROP Avg 
 ROPN.m/hr                9.00:  ROP Min 
 ROPX.m/hr               15.00:  ROP Max 
 RPMA.rpm               120.00:  RPM Surface Avg 
 RPMN.rpm               100.00:  RPM Surface Min 
 RPMX.rpm               135.00:  RPM Surface Max 
 RRUN.                    1200:  Rig Run Number 
 RTIM.hr                  2.65:  Time Reaming 
 SAZI.deg               145.04:  Azm, Start 
 SDEP.m                4455.01:  Start Depth 
 SIDD.                      No:  Serv Intrp, DD 
 SINC.deg                65.83:  Inc, Start 
 SPPA.psig             5037.00:  SPP Avg 
 SPPN.psig             4430.00:  SPP Min 
 SPPX.psig             5300.00:  SPP Max 
 STIM.      22.41.04 26-Jan-21:  Start Time 
 SVCS.                 DD, MWD:  Services 
 SVER.                    9.20:  Sperry Version 
 TDAT.m                 412.00:  Tot Depth Attmp 
 TDDF.                      No:  Trip for DD 
 TDLG.m                 412.00:  Tot Depth Loggd 
 TFF .                      No:  Trip for Fail 
 TQAA.f-kp               15.00:  Torque Abs Avg 
 TQAN.f-kp               12.00:  Torque Abs Min 
 TQAX.f-kp               17.00:  Torque Abs Max 
 TRRT.°/30m               1.18:  Turn Rotating 
 MRT .                     ADR:  Maximum Recorded Temperature 
 TTMX.degC               88.24:  Max Tool Temp 
 VS01.                90619458:  Virtual Str1 SN 
 VS02.                90519326:  Virtual Str2 SN 
 VS03.                90522176:  Virtual Str3 SN 
 VS04.                90512683:  Virtual Str4 SN 
 WBMN.klb                 1.00:  WOB Min 
 WITN.           Murad Giluyev:  Customer Rep 
 WITN.     Kamran Kemberlinski:  Customer Rep 2 
 WOBA.klb                 5.00:  WOB Avg 
 WOBX.klb                 9.00:  WOB Max 
 YP  .lhf2               41.00:  Yield Point 
~Curve Information Block
#MNEM.UNIT                 API CODE     Curve Description
#---------               -----------    ---------------------------
 TIME.HHMMSS            00 000 000 000:  GT Time & Date
 GTDEPTH.m              00 000 000 000:  GT Depth
 GTPQH.psia             00 000 000 000:  GT HR Quartz Pressure
 GTTQ.degC              00 000 000 000:  GT Quartz Temperature
 GTTN.NONE              00 000 000 000:  GT Test Number
 GTET.sec               00 000 000 000:  GT Elapsed Test Time
 GTTVD.m                00 000 000 000:  GT True Vertical Depth
#Other Information
#
#WARRANTY: Halliburton will use its best efforts to furnish customers with 
#accurate information and interpretations that are part of, and incident to, the services 
#provided.  However, Halliburton cannot and does not warrant the accuracy 
#or correctness of such information and interpretations.  Under no circumstances should any 
#such information or interpretation be relied upon as the sole basis for any drilling, 
#completion, production, or financial decision or any procedure involving any risk to the 
#safety of any drilling venture, drilling rig or its crew or any other third party.  The 
#Customer has full responsibility for all drilling, completion and production operation.  
#Halliburton makes no representations or warranties, either expressed or 
#implied, including, but not limited to, the implied warranties of merchantability or fitness 
#for a particular purpose, with respect to the services rendered.  In no event will 
#Halliburton be liable for failure to obtain any particular results or for 
#any damages, including, but not limited to, indirect, special or consequential damages, 
#resulting from the use of any information or interpretation provided by Halliburton.
#
~A           TIME           GTDEPTH  GTPQH  GTTQ  GTTN   GTET   GTTVD  
   13:18:38.834.29-Jan-2021 4712.01 5656.85 82.51 11.00   0.00 2590.47
   13:18:39.034.29-Jan-2021 4712.01 5656.85 82.51 11.00   0.20 2590.47
   13:18:39.234.29-Jan-2021 4712.01 5657.82 82.51 11.00   0.40 2590.47
   13:18:39.434.29-Jan-2021 4712.01 5654.36 82.50 11.00   0.60 2590.47
   13:18:39.634.29-Jan-2021 4712.01 5653.49 82.50 11.00   0.80 2590.47
   13:18:39.834.29-Jan-2021 4712.01 5650.80 82.50 11.00   1.00 2590.47
   13:18:40.034.29-Jan-2021 4712.01 5650.80 82.50 11.00   1.20 2590.47
   13:18:40.234.29-Jan-2021 4712.01 5652.66 82.50 11.00   1.40 2590.47
   13:18:40.434.29-Jan-2021 4712.01 5650.81 82.50 11.00   1.60 2590.47
   13:18:40.634.29-Jan-2021 4712.01 5646.04 82.50 11.00   1.80 2590.47
   13:18:40.834.29-Jan-2021 4712.01 5651.82 82.50 11.00   2.00 2590.47
   13:18:41.034.29-Jan-2021 4712.01 5651.82 82.50 11.00   2.20 2590.47
   13:18:41.234.29-Jan-2021 4712.01 5647.53 82.50 11.00   2.40 2590.47
   13:18:41.434.29-Jan-2021 4712.01 5652.72 82.50 11.00   2.60 2590.47
   13:18:41.634.29-Jan-2021 4712.01 5653.08 82.50 11.00   2.80 2590.47
   13:18:41.834.29-Jan-2021 4712.01 5654.87 82.49 11.00   3.00 2590.47
   13:18:42.034.29-Jan-2021 4712.01 5654.87 82.49 11.00   3.20 2590.47
   13:18:42.234.29-Jan-2021 4712.01 5655.02 82.49 11.00   3.40 2590.47
   13:18:42.434.29-Jan-2021 4712.01 5649.40 82.49 11.00   3.60 2590.47
   13:18:42.634.29-Jan-2021 4712.01 5657.19 82.49 11.00   3.80 2590.47
   13:18:42.834.29-Jan-2021 4712.01 5655.80 82.49 11.00   4.00 2590.47
   13:18:43.034.29-Jan-2021 4712.01 5655.80 82.49 11.00   4.20 2590.47
   13:18:43.234.29-Jan-2021 4712.01 5655.20 82.49 11.00   4.40 2590.47
   13:18:43.434.29-Jan-2021 4712.01 5654.98 82.49 11.00   4.60 2590.47
   13:18:43.634.29-Jan-2021 4712.01 5656.70 82.49 11.00   4.80 2590.47
   13:18:43.834.29-Jan-2021 4712.01 5654.81 82.49 11.00   5.00 2590.47
   13:18:44.034.29-Jan-2021 4712.01 5654.81 82.49 11.00   5.20 2590.47
   13:18:44.234.29-Jan-2021 4712.01 5655.49 82.48 11.00   5.40 2590.47
   13:18:44.434.29-Jan-2021 4712.01 5655.52 82.48 11.00   5.60 2590.47
   13:18:44.634.29-Jan-2021 4712.01 5654.61 82.48 11.00   5.80 2590.47
   13:18:44.834.29-Jan-2021 4712.01 5655.00 82.48 11.00   6.00 2590.47
   13:18:45.034.29-Jan-2021 4712.01 5655.00 82.48 11.00   6.20 2590.47
   13:18:45.234.29-Jan-2021 4712.01 5655.59 82.48 11.00   6.40 2590.47
   13:18:45.434.29-Jan-2021 4712.01 5655.20 82.48 11.00   6.60 2590.47
   13:18:45.634.29-Jan-2021 4712.01 5656.25 82.48 11.00   6.80 2590.47
   13:18:45.834.29-Jan-2021 4712.01 5655.92 82.48 11.00   7.00 2590.47
   13:18:46.035.29-Jan-2021 4712.01 5655.92 82.48 11.00   7.20 2590.47
   13:18:46.235.29-Jan-2021 4712.01 5655.92 82.48 11.00   7.40 2590.47
   13:18:46.435.29-Jan-2021 4712.01 5657.74 82.47 11.00   7.60 2590.47
   13:18:46.635.29-Jan-2021 4712.01 5652.72 82.47 11.00   7.80 2590.47
   13:18:46.835.29-Jan-2021 4712.01 5656.84 82.47 11.00   8.00 2590.47
   13:18:47.035.29-Jan-2021 4712.01 5656.84 82.47 11.00   8.20 2590.47
   13:18:47.235.29-Jan-2021 4712.01 5657.39 82.47 11.00   8.40 2590.47
   13:18:47.435.29-Jan-2021 4712.01 5655.67 82.47 11.00   8.60 2590.47
   13:18:47.635.29-Jan-2021 4712.01 5655.56 82.47 11.00   8.80 2590.47
   13:18:47.835.29-Jan-2021 4712.01 5656.42 82.47 11.00   9.00 2590.47
   13:18:48.035.29-Jan-2021 4712.01 5656.42 82.47 11.00   9.20 2590.47
   13:18:48.235.29-Jan-2021 4712.01 5655.15 82.47 11.00   9.40 2590.47
   13:18:48.435.29-Jan-2021 4712.01 5654.28 82.47 11.00   9.60 2590.47
   13:18:48.635.29-Jan-2021 4712.01 5655.21 82.47 11.00   9.80 2590.47
   13:18:48.835.29-Jan-2021 4712.01 5654.20 82.46 11.00  10.00 2590.47
   13:18:49.035.29-Jan-2021 4712.01 5654.20 82.46 11.00  10.20 2590.47
   13:18:49.235.29-Jan-2021 4712.01 5654.76 82.46 11.00  10.40 2590.47
   13:18:49.435.29-Jan-2021 4712.01 5655.23 82.46 11.00  10.60 2590.47
   13:18:49.635.29-Jan-2021 4712.01 5653.11 82.46 11.00  10.80 2590.47
   13:18:49.835.29-Jan-2021 4712.01 5652.60 82.46 11.00  11.00 2590.47
   13:18:50.035.29-Jan-2021 4712.01 5652.60 82.46 11.00  11.20 2590.47
   13:18:50.235.29-Jan-2021 4712.01 5656.53 82.46 11.00  11.40 2590.47
   13:18:50.435.29-Jan-2021 4712.01 5651.82 82.46 11.00  11.60 2590.47
   13:18:50.635.29-Jan-2021 4712.01 5655.99 82.46 11.00  11.80 2590.47
   13:18:50.835.29-Jan-2021 4712.01 5651.47 82.46 11.00  12.00 2590.47
   13:18:51.035.29-Jan-2021 4712.01 5651.47 82.46 11.00  12.20 2590.47
   13:18:51.235.29-Jan-2021 4712.01 5657.38 82.45 11.00  12.40 2590.47
   13:18:51.435.29-Jan-2021 4712.01 5652.25 82.45 11.00  12.60 2590.47
   13:18:51.635.29-Jan-2021 4712.01 5651.87 82.45 11.00  12.80 2590.47
   13:18:51.835.29-Jan-2021 4712.01 5657.77 82.45 11.00  13.00 2590.47
   13:18:52.035.29-Jan-2021 4712.01 5657.77 82.45 11.00  13.20 2590.47
   13:18:52.235.29-Jan-2021 4712.01 5651.40 82.45 11.00  13.40 2590.47
   13:18:52.435.29-Jan-2021 4712.01 5653.78 82.45 11.00  13.60 2590.47
   13:18:52.635.29-Jan-2021 4712.01 5655.98 82.45 11.00  13.80 2590.47
   13:18:52.835.29-Jan-2021 4712.01 5658.98 82.45 11.00  14.00 2590.47
   13:18:53.035.29-Jan-2021 4712.01 5658.98 82.45 11.00  14.20 2590.47
   13:18:53.235.29-Jan-2021 4712.01 5658.31 82.45 11.00  14.40 2590.47
   13:18:53.435.29-Jan-2021 4712.01 5657.81 82.44 11.00  14.60 2590.47
   13:18:53.635.29-Jan-2021 4712.01 5656.63 82.44 11.00  14.80 2590.47
   13:18:53.835.29-Jan-2021 4712.01 5653.85 82.44 11.00  15.00 2590.47
   13:18:54.035.29-Jan-2021 4712.01 5653.85 82.44 11.00  15.20 2590.47
   13:18:54.235.29-Jan-2021 4712.01 5657.61 82.44 11.00  15.40 2590.47
   13:18:54.435.29-Jan-2021 4712.01 5694.80 82.44 11.00  15.60 2590.47
   13:18:54.635.29-Jan-2021 4712.01 5770.80 82.44 11.00  15.80 2590.47
   13:18:54.835.29-Jan-2021 4712.01 5836.77 82.44 11.00  16.00 2590.47
   13:18:55.035.29-Jan-2021 4712.01 5836.77 82.44 11.00  16.20 2590.47
   13:18:55.235.29-Jan-2021 4712.01 5936.41 82.44 11.00  16.40 2590.47
   13:18:55.435.29-Jan-2021 4712.01 5976.02 82.44 11.00  16.60 2590.47
   13:18:55.635.29-Jan-2021 4712.01 5958.96 82.44 11.00  16.80 2590.47
   13:18:55.835.29-Jan-2021 4712.01 5922.17 82.43 11.00  17.00 2590.47
   13:18:56.035.29-Jan-2021 4712.01 5922.17 82.43 11.00  17.20 2590.47
   13:18:56.235.29-Jan-2021 4712.01 6042.55 82.43 11.00  17.40 2590.47
   13:18:56.435.29-Jan-2021 4712.01 6110.18 82.43 11.00  17.60 2590.47
   13:18:56.635.29-Jan-2021 4712.01 6199.01 82.43 11.00  17.80 2590.47
   13:18:56.835.29-Jan-2021 4712.01 6162.00 82.43 11.00  18.00 2590.47
   13:18:57.035.29-Jan-2021 4712.01 6162.00 82.43 11.00  18.20 2590.47
   13:18:57.235.29-Jan-2021 4712.01 6239.30 82.43 11.00  18.40 2590.47
   13:18:57.435.29-Jan-2021 4712.01 6203.86 82.43 11.00  18.60 2590.47
   13:18:57.635.29-Jan-2021 4712.01 5793.77 82.43 11.00  18.80 2590.47
   13:18:57.835.29-Jan-2021 4712.01 5818.25 82.43 11.00  19.00 2590.47
   13:18:58.035.29-Jan-2021 4712.01 5818.25 82.43 11.00  19.20 2590.47
   13:18:58.235.29-Jan-2021 4712.01 5895.40 82.43 11.00  19.40 2590.47
   13:18:58.435.29-Jan-2021 4712.01 5933.25 82.42 11.00  19.60 2590.47
   13:18:58.635.29-Jan-2021 4712.01 6047.02 82.42 11.00  19.80 2590.47
   13:18:58.835.29-Jan-2021 4712.01 6201.69 82.42 11.00  20.00 2590.47
   13:18:59.035.29-Jan-2021 4712.01 6201.69 82.42 11.00  20.20 2590.47
   13:18:59.235.29-Jan-2021 4712.01 6178.23 82.42 11.00  20.40 2590.47
   13:18:59.435.29-Jan-2021 4712.01 6009.66 82.42 11.00  20.60 2590.47
   13:18:59.635.29-Jan-2021 4712.01 6053.69 82.42 11.00  20.80 2590.47
   13:18:59.835.29-Jan-2021 4712.01 6051.81 82.42 11.00  21.00 2590.47
   13:19:00.035.29-Jan-2021 4712.01 6051.81 82.42 11.00  21.20 2590.47
   13:19:00.236.29-Jan-2021 4712.01 6046.68 82.42 11.00  21.40 2590.47
   13:19:00.436.29-Jan-2021 4712.01 6045.68 82.42 11.00  21.60 2590.47
   13:19:00.636.29-Jan-2021 4712.01 6045.08 82.42 11.00  21.80 2590.47
   13:19:00.836.29-Jan-2021 4712.01 6044.62 82.41 11.00  22.00 2590.47
   13:19:01.036.29-Jan-2021 4712.01 6044.62 82.41 11.00  22.20 2590.47
   13:19:01.236.29-Jan-2021 4712.01 6042.50 82.41 11.00  22.40 2590.47
