~Version Information
 VERS.                  2.0:   CWLS log ASCII Standard -VERSION 2.0
 WRAP.                   NO:   One line per depth step
~Well Information Block
#MNEM.UNIT     VALUE/NAME     DESCRIPTION
#---------     -----------    ---------------------------
 STRT.S             00:06:31 30-Jan-21: START TIME 00:06:31 30-Jan-21
 STOP.S             00:13:00 30-Jan-21: STOP TIME  00:13:00 30-Jan-21
 STEP.S                   0.00: STEP TIME
 NULL.                 -999.25: NULL VALUE
 DFWT.                        :  DIST FWL TEXT
 DFST.                        :  DIST FSL TEXT
 DMF .             Drill Floor:  DRILL MEAS FROM
 STIM.      00.00.00 25-Sep-20:  START TIME
 DATE.      16.12.48 31-Jan-21:  END TIME
 SPUD.               20-Sep-20:  SPUD DATE
 NREF.                    Grid:  NORTH REFERENCE
 HPTY.       Minimum Curvature:  HOLE POS TYPE
 DMOD.             Drill Model:  DRILL MOD DESC
 SVYD.                  Survey:  SURVEY DESC
 ILTD.               Lithology:  INTERP LTH DESC
 FTOP.          Formation Tops:  FORM TOPS DESC
 RIG .              East Azeri:  RIG NAME
 PDAT.          Mean Sea Level:  PERMANENT DATUM
 FLD .                     ACG:  FIELD NAME
 SON .        AZ-XX-0906591820:  JOB NUMBER
 CTRY.              Azerbaijan:  COUNTRY NAME
 WELL.                     D37:  WELL NAME
 SRVC.     Turan Drilling & Engineering:  CONTRACTOR
 COMP.     BP Exploration (Caspian Sea) ltd.:  COMPANY
 WTYP.                Deviated:  WELL TYPE
 MDS .        Operator Entered:  MAG DATA SOURCE
 UWI .                     N/A:  UNIQUE WELL IDENTIFIER
 API .                     N/A:  API NUMBER
 BASE.              Azerbaijan:  LOGGING EQUIPMENT BASE LOCATION
 REGN.                   EESSA:  REGION
 PROV.                    Baku:  PROVINCE
 STAT.                    Baku:  STATE NAME
 MWDS.                    Baku:  MWD SHOP
 JOBN.        AZ-XX-0906591820:  JOB TICKET NUMB
 DOE .                     N/A:  DOE NUMBER
 DCON.         Sperry Drilling:  DIRECTNL CONTR
 UNIT.                     N/A:  LOGGING EQUIPMENT ID
 CNTY.                        :  COUNTY
 LOC .                        :  LOCATION
 LMF .             Drill Floor:  LOG MEASURED FROM
 TVDS.m                  43.60:  TVDSS CORRECTN
 LATI.deg                40.02:  LATITUDE
 LONG.deg                51.45:  LONGITUDE
 WHNS.m                  11.04:  WELL HEAD N/S
 WHEW.m                 -12.38:  WELL HEAD E/W
 UTMX.m              538763.98:  UTM X
 UTMY.m             4431880.20:  UTM Y
 DFWL.m                   0.00:  DISTANCE FWL
 DFSL.m                   0.00:  DISTANCE FSL
 SDEP.m                 300.00:  START DEPTH
 TDD .m                4900.01:  TOTAL DEPTH (DRILLER)
 VSDR.deg               185.64:  VERT SEC DIRECT
 GVFD.g                   1.00:  GRAVITY FIELD
 MFLD.nT              50301.00:  MAGNETIC FIELD
 MDIP.deg                59.46:  MAGNETIC DIP
 MDEC.deg                 6.43:  MAGNETIC DECL
 GRDC.deg                 0.29:  GRID CORRECTION
 AZTC.deg                 6.14:  AZM TOTAL CORR
 EPD .m                   0.00:  ELEVATION
 EGL .m                   0.00:  GROUND ELEVATION
 WDMS.m                 151.80:  WD ELEV
 APD .m                  43.60:  DEPTH ABOVE PD
 DEP .m                 571.69:  DEPTH
 AGAP.m                  43.60:  AIR GAP
 VSEW.m                 -12.38:  VERT SEC E/W
 VSNS.m                  11.04:  VERT SEC N/S
 EKB .m                  43.60:  KB ELEVATION
 EDF .m                  43.60:  DF ELEVATION
 TDL .m                 412.00:  TOTAL DEPTH (LOGGER)
 VSC .                       0:  VS TO CLOSURE
 MAGU.                 1849300:  MAGUTM CHECKSUM
~Parameter Information Block
#MNEM.UNIT       Value        Description
#---------     -----------    ---------------------------
 AV  .mps                 2.21:  Ann Velocity 
 AVMX.mps                 2.53:  Max Ann Veloc 
 AZIF.deg               144.83:  Azm, Final 
 BHAT.        Rotary Steerable:  BHA Type 
 BROT.°/30m              -0.52:  Build Rotating 
 BS  .in                  6.50:  Bit Size 
 BTPL.psig              209.00:  Bit Press Loss 
 CABU.                      No:  Customer Abuse 
 CGEO.        Ali Isfandiyarov:  Customer Geo 
 COMM.                     Új:  Run Comments 1 
 TCS .hr                 61.31:  Time Ciculation Ended 
 CV  .mps                 4.66:  Crit Velocity 
 CVMX.mps                 5.02:  Max Crit Veloc 
 DD1 .          Fariz Nahmatov:  Direct Drillr 1 
 DD2 .            Musa Ahmadov:  Direct Drillr 2 
 DDSV.               Geo-Pilot:  DD Service 
 DEFF.%                 100.00:  % Det Eff 
 DLRX.°/30m               1.44:  Dogleg Rot Max 
 DLSO.°/30m               0.83:  Dogleg Oriented 
 DLSX.°/30m               1.44:  Dogleg Str Max 
 DRET.      08.30.00 30-Jan-21:  Drill End Time 
 DRST.      21.15.00 27-Jan-21:  Drill Start Tim 
 DTIM.hr                 37.28:  Time Drilling 
 EDEP.m                4867.01:  End Depth 
 ENG1.          Rasim Hashimov:  Engineer 1 
 ENG2.         Almaz Almadatov:  Engineer 2 
 ENG3.        Tamerlan Ahmadov:  Engineer 3 
 ETIM.      22.41.04 31-Jan-21:  End Time 
 FLOI.gpm               400.00:  Flow In 
 FLON.gpm               300.00:  Flow In Min 
 FLOS.cptm                0.00:  Fluid Loss 
 FLOX.gpm               400.00:  Flow In Max 
 HFLO.                      No:  High Flow 
 HPRE.                      No:  High Pressure 
 HTEM.                      No:  High Temp 
 HYDO.m                   1.80:  Hydro Offset 
 IFIN.deg                65.63:  Inc, Final 
 IMAX.deg                66.77:  Inc Max 
 IMIN.deg                65.61:  Inc Min 
 IMND.m                4612.67:  Inc Min Depth 
 IMXD.m                4811.63:  Inc Max Depth 
 JARR.                      No:  Jarring 
 LETM.      08.30.00 30-Jan-21:  Log End Time 
 LOST.hr                     0:  Lost Rig Time 
 LSTM.      21.15.00 27-Jan-21:  Log Start Time 
 MDCL.ppm             41000.00:  Mud Chlorides 
 MDES.     Inversion Oil/Synthetic:  Mud Desc 
 DFD .sg                  1.40:  Mud Density 
 MDMN.sg                  1.40:  Dens Mud Min 
 MDMX.sg                  1.40:  Dens Mud Max 
 MOIL.                      53:  Run Mud Oil % 
 MOWR.                   66:34:  Run Mud OWR 
 MSND.                     0.2:  Run Mud Sand % 
 MSOL.                    17.9:  Run Mud Solids% 
 DFV .spqt               77.00:  Mud Viscosity 
 MWOD.in                  4.75:  MWD Tool OD 
 MWSI.                      No:  Serv Intrp, MWD 
 OTIM.hr                110.38:  Time Operating 
 PCON.           Look Like New:  Pad Condition 
 PMAX.psia             5300.00:  Press Op, Max 
 PV  .cP                 57.00:  Mud PV 
 RUN .                    1200:  Run Number 
 ROPA.m/hr               13.00:  ROP Avg 
 ROPN.m/hr                9.00:  ROP Min 
 ROPX.m/hr               15.00:  ROP Max 
 RPMA.rpm               120.00:  RPM Surface Avg 
 RPMN.rpm               100.00:  RPM Surface Min 
 RPMX.rpm               135.00:  RPM Surface Max 
 RRUN.                    1200:  Rig Run Number 
 RTIM.hr                  2.65:  Time Reaming 
 SAZI.deg               145.04:  Azm, Start 
 SDEP.m                4455.01:  Start Depth 
 SIDD.                      No:  Serv Intrp, DD 
 SINC.deg                65.83:  Inc, Start 
 SPPA.psig             5037.00:  SPP Avg 
 SPPN.psig             4430.00:  SPP Min 
 SPPX.psig             5300.00:  SPP Max 
 STIM.      22.41.04 26-Jan-21:  Start Time 
 SVCS.                 DD, MWD:  Services 
 SVER.                    9.20:  Sperry Version 
 TDAT.m                 412.00:  Tot Depth Attmp 
 TDDF.                      No:  Trip for DD 
 TDLG.m                 412.00:  Tot Depth Loggd 
 TFF .                      No:  Trip for Fail 
 TQAA.f-kp               15.00:  Torque Abs Avg 
 TQAN.f-kp               12.00:  Torque Abs Min 
 TQAX.f-kp               17.00:  Torque Abs Max 
 TRRT.°/30m               1.18:  Turn Rotating 
 MRT .                     ADR:  Maximum Recorded Temperature 
 TTMX.degC               88.24:  Max Tool Temp 
 VS01.                90619458:  Virtual Str1 SN 
 VS02.                90519326:  Virtual Str2 SN 
 VS03.                90522176:  Virtual Str3 SN 
 VS04.                90512683:  Virtual Str4 SN 
 WBMN.klb                 1.00:  WOB Min 
 WITN.           Murad Giluyev:  Customer Rep 
 WITN.     Kamran Kemberlinski:  Customer Rep 2 
 WOBA.klb                 5.00:  WOB Avg 
 WOBX.klb                 9.00:  WOB Max 
 YP  .lhf2               41.00:  Yield Point 
~Curve Information Block
#MNEM.UNIT                 API CODE     Curve Description
#---------               -----------    ---------------------------
 TIME.HHMMSS            00 000 000 000:  GT Time & Date
 GTDEPTH.m              00 000 000 000:  GT Depth
 GTPQH.psia             00 000 000 000:  GT HR Quartz Pressure
 GTTQ.degC              00 000 000 000:  GT Quartz Temperature
 GTTN.NONE              00 000 000 000:  GT Test Number
 GTET.sec               00 000 000 000:  GT Elapsed Test Time
 GTTVD.m                00 000 000 000:  GT True Vertical Depth
#Other Information
#
#WARRANTY: Halliburton will use its best efforts to furnish customers with 
#accurate information and interpretations that are part of, and incident to, the services 
#provided.  However, Halliburton cannot and does not warrant the accuracy 
#or correctness of such information and interpretations.  Under no circumstances should any 
#such information or interpretation be relied upon as the sole basis for any drilling, 
#completion, production, or financial decision or any procedure involving any risk to the 
#safety of any drilling venture, drilling rig or its crew or any other third party.  The 
#Customer has full responsibility for all drilling, completion and production operation.  
#Halliburton makes no representations or warranties, either expressed or 
#implied, including, but not limited to, the implied warranties of merchantability or fitness 
#for a particular purpose, with respect to the services rendered.  In no event will 
#Halliburton be liable for failure to obtain any particular results or for 
#any damages, including, but not limited to, indirect, special or consequential damages, 
#resulting from the use of any information or interpretation provided by Halliburton.
#
~A           TIME           GTDEPTH  GTPQH  GTTQ  GTTN   GTET   GTTVD  
   00:06:31.682.30-Jan-2021 4782.01 5717.33 81.92 14.00   0.00 2618.40
   00:06:31.882.30-Jan-2021 4782.01 5717.33 81.92 14.00   0.20 2618.40
   00:06:32.082.30-Jan-2021 4782.01 5717.29 81.92 14.00   0.40 2618.40
   00:06:32.282.30-Jan-2021 4782.01 5718.04 81.92 14.00   0.60 2618.40
   00:06:32.483.30-Jan-2021 4782.01 5718.43 81.91 14.00   0.80 2618.40
   00:06:32.683.30-Jan-2021 4782.01 5715.08 81.91 14.00   1.00 2618.40
   00:06:32.883.30-Jan-2021 4782.01 5715.08 81.91 14.00   1.20 2618.40
   00:06:33.083.30-Jan-2021 4782.01 5711.96 81.91 14.00   1.40 2618.40
   00:06:33.283.30-Jan-2021 4782.01 5722.96 81.91 14.00   1.60 2618.40
   00:06:33.483.30-Jan-2021 4782.01 5720.30 81.91 14.00   1.80 2618.40
   00:06:33.683.30-Jan-2021 4782.01 5719.60 81.91 14.00   2.00 2618.40
   00:06:33.883.30-Jan-2021 4782.01 5719.60 81.91 14.00   2.20 2618.40
   00:06:34.083.30-Jan-2021 4782.01 5716.77 81.91 14.00   2.40 2618.40
   00:06:34.283.30-Jan-2021 4782.01 5719.94 81.91 14.00   2.60 2618.40
   00:06:34.483.30-Jan-2021 4782.01 5722.40 81.91 14.00   2.80 2618.40
   00:06:34.683.30-Jan-2021 4782.01 5720.90 81.91 14.00   3.00 2618.40
   00:06:34.883.30-Jan-2021 4782.01 5720.90 81.91 14.00   3.20 2618.40
   00:06:35.083.30-Jan-2021 4782.01 5719.14 81.91 14.00   3.40 2618.40
   00:06:35.283.30-Jan-2021 4782.01 5720.72 81.91 14.00   3.60 2618.40
   00:06:35.483.30-Jan-2021 4782.01 5717.45 81.91 14.00   3.80 2618.40
   00:06:35.683.30-Jan-2021 4782.01 5720.70 81.91 14.00   4.00 2618.40
   00:06:35.883.30-Jan-2021 4782.01 5720.70 81.91 14.00   4.20 2618.40
   00:06:36.083.30-Jan-2021 4782.01 5717.33 81.90 14.00   4.40 2618.40
   00:06:36.283.30-Jan-2021 4782.01 5716.38 81.90 14.00   4.60 2618.40
   00:06:36.483.30-Jan-2021 4782.01 5720.90 81.90 14.00   4.80 2618.40
   00:06:36.683.30-Jan-2021 4782.01 5720.17 81.90 14.00   5.00 2618.40
   00:06:36.883.30-Jan-2021 4782.01 5720.17 81.90 14.00   5.20 2618.40
   00:06:37.083.30-Jan-2021 4782.01 5717.76 81.90 14.00   5.40 2618.40
   00:06:37.283.30-Jan-2021 4782.01 5720.67 81.90 14.00   5.60 2618.40
   00:06:37.483.30-Jan-2021 4782.01 5722.02 81.90 14.00   5.80 2618.40
   00:06:37.684.30-Jan-2021 4782.01 5723.00 81.90 14.00   6.00 2618.40
   00:06:37.884.30-Jan-2021 4782.01 5723.00 81.90 14.00   6.20 2618.40
   00:06:38.084.30-Jan-2021 4782.01 5723.00 81.90 14.00   6.40 2618.40
   00:06:38.284.30-Jan-2021 4782.01 5721.92 81.90 14.00   6.60 2618.40
   00:06:38.484.30-Jan-2021 4782.01 5722.46 81.90 14.00   6.80 2618.40
   00:06:38.684.30-Jan-2021 4782.01 5722.21 81.90 14.00   7.00 2618.40
   00:06:38.884.30-Jan-2021 4782.01 5722.21 81.90 14.00   7.20 2618.40
   00:06:39.084.30-Jan-2021 4782.01 5721.41 81.90 14.00   7.40 2618.40
   00:06:39.284.30-Jan-2021 4782.01 5721.39 81.90 14.00   7.60 2618.40
   00:06:39.484.30-Jan-2021 4782.01 5721.67 81.89 14.00   7.80 2618.40
   00:06:39.684.30-Jan-2021 4782.01 5713.41 81.89 14.00   8.00 2618.40
   00:06:39.884.30-Jan-2021 4782.01 5713.41 81.89 14.00   8.20 2618.40
   00:06:40.084.30-Jan-2021 4782.01 5721.01 81.89 14.00   8.40 2618.40
   00:06:40.284.30-Jan-2021 4782.01 5721.10 81.89 14.00   8.60 2618.40
   00:06:40.484.30-Jan-2021 4782.01 5718.45 81.89 14.00   8.80 2618.40
   00:06:40.684.30-Jan-2021 4782.01 5720.01 81.89 14.00   9.00 2618.40
   00:06:40.884.30-Jan-2021 4782.01 5720.01 81.89 14.00   9.20 2618.40
   00:06:41.084.30-Jan-2021 4782.01 5722.08 81.89 14.00   9.40 2618.40
   00:06:41.284.30-Jan-2021 4782.01 5720.81 81.89 14.00   9.60 2618.40
   00:06:41.484.30-Jan-2021 4782.01 5719.96 81.89 14.00   9.80 2618.40
   00:06:41.684.30-Jan-2021 4782.01 5720.39 81.89 14.00  10.00 2618.40
   00:06:41.884.30-Jan-2021 4782.01 5720.39 81.89 14.00  10.20 2618.40
   00:06:42.084.30-Jan-2021 4782.01 5720.33 81.89 14.00  10.40 2618.40
   00:06:42.284.30-Jan-2021 4782.01 5719.33 81.89 14.00  10.60 2618.40
   00:06:42.484.30-Jan-2021 4782.01 5719.74 81.89 14.00  10.80 2618.40
   00:06:42.684.30-Jan-2021 4782.01 5716.94 81.89 14.00  11.00 2618.40
   00:06:42.885.30-Jan-2021 4782.01 5716.94 81.89 14.00  11.20 2618.40
   00:06:43.085.30-Jan-2021 4782.01 5710.95 81.88 14.00  11.40 2618.40
   00:06:43.285.30-Jan-2021 4782.01 5715.29 81.88 14.00  11.60 2618.40
   00:06:43.485.30-Jan-2021 4782.01 5711.89 81.88 14.00  11.80 2618.40
   00:06:43.685.30-Jan-2021 4782.01 5713.08 81.88 14.00  12.00 2618.40
   00:06:43.885.30-Jan-2021 4782.01 5713.08 81.88 14.00  12.20 2618.40
   00:06:44.085.30-Jan-2021 4782.01 5706.21 81.88 14.00  12.40 2618.40
   00:06:44.285.30-Jan-2021 4782.01 5683.17 81.88 14.00  12.60 2618.40
   00:06:44.485.30-Jan-2021 4782.01 5695.31 81.88 14.00  12.80 2618.40
   00:06:44.685.30-Jan-2021 4782.01 5713.56 81.88 14.00  13.00 2618.40
   00:06:44.885.30-Jan-2021 4782.01 5713.56 81.88 14.00  13.20 2618.40
   00:06:45.085.30-Jan-2021 4782.01 5708.97 81.88 14.00  13.40 2618.40
   00:06:45.285.30-Jan-2021 4782.01 5711.85 81.88 14.00  13.60 2618.40
   00:06:45.485.30-Jan-2021 4782.01 5716.12 81.88 14.00  13.80 2618.40
   00:06:45.685.30-Jan-2021 4782.01 5718.10 81.88 14.00  14.00 2618.40
   00:06:45.885.30-Jan-2021 4782.01 5718.10 81.88 14.00  14.20 2618.40
   00:06:46.085.30-Jan-2021 4782.01 5709.85 81.88 14.00  14.40 2618.40
   00:06:46.285.30-Jan-2021 4782.01 5698.97 81.87 14.00  14.60 2618.40
   00:06:46.485.30-Jan-2021 4782.01 5703.56 81.87 14.00  14.80 2618.40
   00:06:46.685.30-Jan-2021 4782.01 5696.82 81.87 14.00  15.00 2618.40
   00:06:46.885.30-Jan-2021 4782.01 5696.82 81.87 14.00  15.20 2618.40
   00:06:47.085.30-Jan-2021 4782.01 5701.44 81.87 14.00  15.40 2618.40
   00:06:47.285.30-Jan-2021 4782.01 5691.87 81.87 14.00  15.60 2618.40
   00:06:47.485.30-Jan-2021 4782.01 5720.84 81.87 14.00  15.80 2618.40
   00:06:47.685.30-Jan-2021 4782.01 5716.85 81.87 14.00  16.00 2618.40
   00:06:47.885.30-Jan-2021 4782.01 5716.85 81.87 14.00  16.20 2618.40
   00:06:48.086.30-Jan-2021 4782.01 5820.29 81.87 14.00  16.40 2618.40
   00:06:48.286.30-Jan-2021 4782.01 5909.44 81.87 14.00  16.60 2618.40
   00:06:48.486.30-Jan-2021 4782.01 5981.49 81.87 14.00  16.80 2618.40
   00:06:48.686.30-Jan-2021 4782.01 5996.65 81.87 14.00  17.00 2618.40
   00:06:48.886.30-Jan-2021 4782.01 5996.65 81.87 14.00  17.20 2618.40
   00:06:49.086.30-Jan-2021 4782.01 6144.92 81.87 14.00  17.40 2618.40
   00:06:49.286.30-Jan-2021 4782.01 6208.51 81.87 14.00  17.60 2618.40
   00:06:49.486.30-Jan-2021 4782.01 6265.12 81.87 14.00  17.80 2618.40
   00:06:49.686.30-Jan-2021 4782.01 6294.68 81.87 14.00  18.00 2618.40
   00:06:49.886.30-Jan-2021 4782.01 6294.68 81.87 14.00  18.20 2618.40
   00:06:50.086.30-Jan-2021 4782.01 6291.72 81.86 14.00  18.40 2618.40
   00:06:50.286.30-Jan-2021 4782.01 6279.81 81.86 14.00  18.60 2618.40
   00:06:50.486.30-Jan-2021 4782.01 6245.64 81.86 14.00  18.80 2618.40
   00:06:50.686.30-Jan-2021 4782.01 5919.51 81.86 14.00  19.00 2618.40
   00:06:50.886.30-Jan-2021 4782.01 5919.51 81.86 14.00  19.20 2618.40
   00:06:51.086.30-Jan-2021 4782.01 6044.03 81.86 14.00  19.40 2618.40
   00:06:51.286.30-Jan-2021 4782.01 6085.66 81.86 14.00  19.60 2618.40
   00:06:51.486.30-Jan-2021 4782.01 6136.13 81.86 14.00  19.80 2618.40
   00:06:51.686.30-Jan-2021 4782.01 6204.12 81.86 14.00  20.00 2618.40
   00:06:51.886.30-Jan-2021 4782.01 6204.12 81.86 14.00  20.20 2618.40
   00:06:52.086.30-Jan-2021 4782.01 6349.06 81.86 14.00  20.40 2618.40
   00:06:52.286.30-Jan-2021 4782.01 6274.76 81.86 14.00  20.60 2618.40
   00:06:52.486.30-Jan-2021 4782.01 5769.28 81.86 14.00  20.80 2618.40
   00:06:52.686.30-Jan-2021 4782.01 5750.94 81.86 14.00  21.00 2618.40
   00:06:52.886.30-Jan-2021 4782.01 5750.94 81.86 14.00  21.20 2618.40
   00:06:53.086.30-Jan-2021 4782.01 5776.51 81.86 14.00  21.40 2618.40
   00:06:53.287.30-Jan-2021 4782.01 5780.61 81.86 14.00  21.60 2618.40
   00:06:53.487.30-Jan-2021 4782.01 5782.70 81.86 14.00  21.80 2618.40
   00:06:53.687.30-Jan-2021 4782.01 5784.29 81.85 14.00  22.00 2618.40
   00:06:53.887.30-Jan-2021 4782.01 5784.29 81.85 14.00  22.20 2618.40
   00:06:54.087.30-Jan-2021 4782.01 5786.00 81.85 14.00  22.40 2618.40
