~Version Information
 VERS.                  2.0:   CWLS log ASCII Standard -VERSION 2.0
 WRAP.                   NO:   One line per depth step
~Well Information Block
#MNEM.UNIT     VALUE/NAME     DESCRIPTION
#---------     -----------    ---------------------------
 STRT.S             00:06:31 30-Jan-21: START TIME 00:06:31 30-Jan-21
 STOP.S             00:13:00 30-Jan-21: STOP TIME  00:13:00 30-Jan-21
 STEP.S                   0.00: STEP TIME
 NULL.                 -999.25: NULL VALUE
 DFWT.                        :  DIST FWL TEXT
 DFST.                        :  DIST FSL TEXT
 DMF .             Drill Floor:  DRILL MEAS FROM
 STIM.      00.00.00 25-Sep-20:  START TIME
 DATE.      16.12.48 31-Jan-21:  END TIME
 SPUD.               20-Sep-20:  SPUD DATE
 NREF.                    Grid:  NORTH REFERENCE
 HPTY.       Minimum Curvature:  HOLE POS TYPE
 DMOD.             Drill Model:  DRILL MOD DESC
 SVYD.                  Survey:  SURVEY DESC
 ILTD.               Lithology:  INTERP LTH DESC
 FTOP.          Formation Tops:  FORM TOPS DESC
 RIG .              East Azeri:  RIG NAME
 PDAT.          Mean Sea Level:  PERMANENT DATUM
 FLD .                     ACG:  FIELD NAME
 SON .        AZ-XX-0906591820:  JOB NUMBER
 CTRY.              Azerbaijan:  COUNTRY NAME
 WELL.                     D37:  WELL NAME
 SRVC.     Turan Drilling & Engineering:  CONTRACTOR
 COMP.     BP Exploration (Caspian Sea) ltd.:  COMPANY
 WTYP.                Deviated:  WELL TYPE
 MDS .        Operator Entered:  MAG DATA SOURCE
 UWI .                     N/A:  UNIQUE WELL IDENTIFIER
 API .                     N/A:  API NUMBER
 BASE.              Azerbaijan:  LOGGING EQUIPMENT BASE LOCATION
 REGN.                   EESSA:  REGION
 PROV.                    Baku:  PROVINCE
 STAT.                    Baku:  STATE NAME
 MWDS.                    Baku:  MWD SHOP
 JOBN.        AZ-XX-0906591820:  JOB TICKET NUMB
 DOE .                     N/A:  DOE NUMBER
 DCON.         Sperry Drilling:  DIRECTNL CONTR
 UNIT.                     N/A:  LOGGING EQUIPMENT ID
 CNTY.                        :  COUNTY
 LOC .                        :  LOCATION
 LMF .             Drill Floor:  LOG MEASURED FROM
 TVDS.m                  43.60:  TVDSS CORRECTN
 LATI.deg                40.02:  LATITUDE
 LONG.deg                51.45:  LONGITUDE
 WHNS.m                  11.04:  WELL HEAD N/S
 WHEW.m                 -12.38:  WELL HEAD E/W
 UTMX.m              538763.98:  UTM X
 UTMY.m             4431880.20:  UTM Y
 DFWL.m                   0.00:  DISTANCE FWL
 DFSL.m                   0.00:  DISTANCE FSL
 SDEP.m                 300.00:  START DEPTH
 TDD .m                4900.01:  TOTAL DEPTH (DRILLER)
 VSDR.deg               185.64:  VERT SEC DIRECT
 GVFD.g                   1.00:  GRAVITY FIELD
 MFLD.nT              50301.00:  MAGNETIC FIELD
 MDIP.deg                59.46:  MAGNETIC DIP
 MDEC.deg                 6.43:  MAGNETIC DECL
 GRDC.deg                 0.29:  GRID CORRECTION
 AZTC.deg                 6.14:  AZM TOTAL CORR
 EPD .m                   0.00:  ELEVATION
 EGL .m                   0.00:  GROUND ELEVATION
 WDMS.m                 151.80:  WD ELEV
 APD .m                  43.60:  DEPTH ABOVE PD
 DEP .m                 571.69:  DEPTH
 AGAP.m                  43.60:  AIR GAP
 VSEW.m                 -12.38:  VERT SEC E/W
 VSNS.m                  11.04:  VERT SEC N/S
 EKB .m                  43.60:  KB ELEVATION
 EDF .m                  43.60:  DF ELEVATION
 TDL .m                 412.00:  TOTAL DEPTH (LOGGER)
 VSC .                       0:  VS TO CLOSURE
 MAGU.                 1849300:  MAGUTM CHECKSUM
~Parameter Information Block
#MNEM.UNIT       Value        Description
#---------     -----------    ---------------------------
 AV  .mps                 2.21:  Ann Velocity 
 AVMX.mps                 2.53:  Max Ann Veloc 
 AZIF.deg               144.83:  Azm, Final 
 BHAT.        Rotary Steerable:  BHA Type 
 BROT.°/30m              -0.52:  Build Rotating 
 BS  .in                  6.50:  Bit Size 
 BTPL.psig              209.00:  Bit Press Loss 
 CABU.                      No:  Customer Abuse 
 CGEO.        Ali Isfandiyarov:  Customer Geo 
 COMM.                     Új:  Run Comments 1 
 TCS .hr                 61.31:  Time Ciculation Ended 
 CV  .mps                 4.66:  Crit Velocity 
 CVMX.mps                 5.02:  Max Crit Veloc 
 DD1 .          Fariz Nahmatov:  Direct Drillr 1 
 DD2 .            Musa Ahmadov:  Direct Drillr 2 
 DDSV.               Geo-Pilot:  DD Service 
 DEFF.%                 100.00:  % Det Eff 
 DLRX.°/30m               1.44:  Dogleg Rot Max 
 DLSO.°/30m               0.83:  Dogleg Oriented 
 DLSX.°/30m               1.44:  Dogleg Str Max 
 DRET.      08.30.00 30-Jan-21:  Drill End Time 
 DRST.      21.15.00 27-Jan-21:  Drill Start Tim 
 DTIM.hr                 37.28:  Time Drilling 
 EDEP.m                4867.01:  End Depth 
 ENG1.          Rasim Hashimov:  Engineer 1 
 ENG2.         Almaz Almadatov:  Engineer 2 
 ENG3.        Tamerlan Ahmadov:  Engineer 3 
 ETIM.      22.41.04 31-Jan-21:  End Time 
 FLOI.gpm               400.00:  Flow In 
 FLON.gpm               300.00:  Flow In Min 
 FLOS.cptm                0.00:  Fluid Loss 
 FLOX.gpm               400.00:  Flow In Max 
 HFLO.                      No:  High Flow 
 HPRE.                      No:  High Pressure 
 HTEM.                      No:  High Temp 
 HYDO.m                   1.80:  Hydro Offset 
 IFIN.deg                65.63:  Inc, Final 
 IMAX.deg                66.77:  Inc Max 
 IMIN.deg                65.61:  Inc Min 
 IMND.m                4612.67:  Inc Min Depth 
 IMXD.m                4811.63:  Inc Max Depth 
 JARR.                      No:  Jarring 
 LETM.      08.30.00 30-Jan-21:  Log End Time 
 LOST.hr                     0:  Lost Rig Time 
 LSTM.      21.15.00 27-Jan-21:  Log Start Time 
 MDCL.ppm             41000.00:  Mud Chlorides 
 MDES.     Inversion Oil/Synthetic:  Mud Desc 
 DFD .sg                  1.40:  Mud Density 
 MDMN.sg                  1.40:  Dens Mud Min 
 MDMX.sg                  1.40:  Dens Mud Max 
 MOIL.                      53:  Run Mud Oil % 
 MOWR.                   66:34:  Run Mud OWR 
 MSND.                     0.2:  Run Mud Sand % 
 MSOL.                    17.9:  Run Mud Solids% 
 DFV .spqt               77.00:  Mud Viscosity 
 MWOD.in                  4.75:  MWD Tool OD 
 MWSI.                      No:  Serv Intrp, MWD 
 OTIM.hr                110.38:  Time Operating 
 PCON.           Look Like New:  Pad Condition 
 PMAX.psia             5300.00:  Press Op, Max 
 PV  .cP                 57.00:  Mud PV 
 RUN .                    1200:  Run Number 
 ROPA.m/hr               13.00:  ROP Avg 
 ROPN.m/hr                9.00:  ROP Min 
 ROPX.m/hr               15.00:  ROP Max 
 RPMA.rpm               120.00:  RPM Surface Avg 
 RPMN.rpm               100.00:  RPM Surface Min 
 RPMX.rpm               135.00:  RPM Surface Max 
 RRUN.                    1200:  Rig Run Number 
 RTIM.hr                  2.65:  Time Reaming 
 SAZI.deg               145.04:  Azm, Start 
 SDEP.m                4455.01:  Start Depth 
 SIDD.                      No:  Serv Intrp, DD 
 SINC.deg                65.83:  Inc, Start 
 SPPA.psig             5037.00:  SPP Avg 
 SPPN.psig             4430.00:  SPP Min 
 SPPX.psig             5300.00:  SPP Max 
 STIM.      22.41.04 26-Jan-21:  Start Time 
 SVCS.                 DD, MWD:  Services 
 SVER.                    9.20:  Sperry Version 
 TDAT.m                 412.00:  Tot Depth Attmp 
 TDDF.                      No:  Trip for DD 
 TDLG.m                 412.00:  Tot Depth Loggd 
 TFF .                      No:  Trip for Fail 
 TQAA.f-kp               15.00:  Torque Abs Avg 
 TQAN.f-kp               12.00:  Torque Abs Min 
 TQAX.f-kp               17.00:  Torque Abs Max 
 TRRT.°/30m               1.18:  Turn Rotating 
 MRT .                     ADR:  Maximum Recorded Temperature 
 TTMX.degC               88.24:  Max Tool Temp 
 VS01.                90619458:  Virtual Str1 SN 
 VS02.                90519326:  Virtual Str2 SN 
 VS03.                90522176:  Virtual Str3 SN 
 VS04.                90512683:  Virtual Str4 SN 
 WBMN.klb                 1.00:  WOB Min 
 WITN.           Murad Giluyev:  Customer Rep 
 WITN.     Kamran Kemberlinski:  Customer Rep 2 
 WOBA.klb                 5.00:  WOB Avg 
 WOBX.klb                 9.00:  WOB Max 
 YP  .lhf2               41.00:  Yield Point 
~Curve Information Block
#MNEM.UNIT                 API CODE     Curve Description
#---------               -----------    ---------------------------
 TIME.HHMMSS            00 000 000 000:  GT Time & Date
 GTDEPTH.m              00 000 000 000:  GT Depth
 GTPQH.psia             00 000 000 000:  GT HR Quartz Pressure
 GTTQ.degC              00 000 000 000:  GT Quartz Temperature
 GTTN.NONE              00 000 000 000:  GT Test Number
 GTET.sec               00 000 000 000:  GT Elapsed Test Time
 GTTVD.m                00 000 000 000:  GT True Vertical Depth
#Other Information
#
#WARRANTY: Halliburton will use its best efforts to furnish customers with 
#accurate information and interpretations that are part of, and incident to, the services 
#provided.  However, Halliburton cannot and does not warrant the accuracy 
#or correctness of such information and interpretations.  Under no circumstances should any 
#such information or interpretation be relied upon as the sole basis for any drilling, 
#completion, production, or financial decision or any procedure involving any risk to the 
#safety of any drilling venture, drilling rig or its crew or any other third party.  The 
#Customer has full responsibility for all drilling, completion and production operation.  
#Halliburton makes no representations or warranties, either expressed or 
#implied, including, but not limited to, the implied warranties of merchantability or fitness 
#for a particular purpose, with respect to the services rendered.  In no event will 
#Halliburton be liable for failure to obtain any particular results or for 
#any damages, including, but not limited to, indirect, special or consequential damages, 
#resulting from the use of any information or interpretation provided by Halliburton.
#
~A           TIME           GTDEPTH  GTPQH  GTTQ  GTTN   GTET   GTTVD  
# ...
   00:12:10.748.30-Jan-2021 4782.01 3137.72 81.20 14.00 339.07 2618.40
   00:12:10.948.30-Jan-2021 4782.01 3137.72 81.20 14.00 339.27 2618.40
   00:12:11.148.30-Jan-2021 4782.01 3137.74 81.20 14.00 339.47 2618.40
   00:12:11.348.30-Jan-2021 4782.01 3137.74 81.20 14.00 339.67 2618.40
   00:12:11.548.30-Jan-2021 4782.01 3137.71 81.20 14.00 339.87 2618.40
   00:12:11.748.30-Jan-2021 4782.01 3137.73 81.20 14.00 340.07 2618.40
   00:12:11.948.30-Jan-2021 4782.01 3137.73 81.20 14.00 340.27 2618.40
   00:12:12.148.30-Jan-2021 4782.01 3137.72 81.20 14.00 340.47 2618.40
   00:12:12.348.30-Jan-2021 4782.01 3137.73 81.20 14.00 340.67 2618.40
   00:12:12.548.30-Jan-2021 4782.01 3137.74 81.20 14.00 340.87 2618.40
   00:12:12.748.30-Jan-2021 4782.01 3137.73 81.20 14.00 341.07 2618.40
   00:12:12.948.30-Jan-2021 4782.01 3137.73 81.20 14.00 341.27 2618.40
   00:12:13.148.30-Jan-2021 4782.01 3137.73 81.20 14.00 341.47 2618.40
   00:12:13.348.30-Jan-2021 4782.01 3137.74 81.20 14.00 341.67 2618.40
   00:12:13.548.30-Jan-2021 4782.01 3137.72 81.20 14.00 341.87 2618.40
   00:12:13.748.30-Jan-2021 4782.01 3137.73 81.20 14.00 342.07 2618.40
   00:12:13.948.30-Jan-2021 4782.01 3137.73 81.20 14.00 342.27 2618.40
   00:12:14.148.30-Jan-2021 4782.01 3137.74 81.20 14.00 342.47 2618.40
   00:12:14.348.30-Jan-2021 4782.01 3137.72 81.20 14.00 342.67 2618.40
   00:12:14.548.30-Jan-2021 4782.01 3137.73 81.20 14.00 342.87 2618.40
   00:12:14.748.30-Jan-2021 4782.01 3137.72 81.20 14.00 343.07 2618.40
   00:12:14.948.30-Jan-2021 4782.01 3137.72 81.20 14.00 343.27 2618.40
   00:12:15.148.30-Jan-2021 4782.01 3137.71 81.20 14.00 343.47 2618.40
   00:12:15.349.30-Jan-2021 4782.01 3137.72 81.20 14.00 343.67 2618.40
   00:12:15.549.30-Jan-2021 4782.01 3137.73 81.20 14.00 343.87 2618.40
   00:12:15.749.30-Jan-2021 4782.01 3137.70 81.20 14.00 344.07 2618.40
   00:12:15.949.30-Jan-2021 4782.01 3137.70 81.20 14.00 344.27 2618.40
   00:12:16.149.30-Jan-2021 4782.01 3137.73 81.20 14.00 344.47 2618.40
   00:12:16.349.30-Jan-2021 4782.01 3137.73 81.20 14.00 344.67 2618.40
   00:12:16.549.30-Jan-2021 4782.01 3137.70 81.19 14.00 344.87 2618.40
   00:12:16.749.30-Jan-2021 4782.01 3137.73 81.19 14.00 345.07 2618.40
   00:12:16.949.30-Jan-2021 4782.01 3137.73 81.19 14.00 345.27 2618.40
   00:12:17.149.30-Jan-2021 4782.01 3137.74 81.19 14.00 345.47 2618.40
   00:12:17.349.30-Jan-2021 4782.01 3137.72 81.19 14.00 345.67 2618.40
   00:12:17.549.30-Jan-2021 4782.01 3137.71 81.19 14.00 345.87 2618.40
   00:12:17.749.30-Jan-2021 4782.01 3138.43 81.19 14.00 346.07 2618.40
   00:12:17.949.30-Jan-2021 4782.01 3138.43 81.19 14.00 346.27 2618.40
   00:12:18.149.30-Jan-2021 4782.01 3911.55 81.19 14.00 346.47 2618.40
   00:12:18.349.30-Jan-2021 4782.01 5731.06 81.19 14.00 346.67 2618.40
   00:12:18.549.30-Jan-2021 4782.01 5730.63 81.19 14.00 346.87 2618.40
   00:12:18.749.30-Jan-2021 4782.01 5729.59 81.19 14.00 347.07 2618.40
   00:12:18.949.30-Jan-2021 4782.01 5729.59 81.19 14.00 347.27 2618.40
   00:12:19.149.30-Jan-2021 4782.01 5731.51 81.19 14.00 347.47 2618.40
   00:12:19.349.30-Jan-2021 4782.01 5732.37 81.19 14.00 347.67 2618.40
   00:12:19.549.30-Jan-2021 4782.01 5731.92 81.19 14.00 347.87 2618.40
   00:12:19.749.30-Jan-2021 4782.01 5725.49 81.19 14.00 348.07 2618.40
   00:12:19.949.30-Jan-2021 4782.01 5725.49 81.19 14.00 348.27 2618.40
   00:12:20.149.30-Jan-2021 4782.01 5733.79 81.19 14.00 348.47 2618.40
   00:12:20.349.30-Jan-2021 4782.01 5736.50 81.19 14.00 348.67 2618.40
   00:12:20.550.30-Jan-2021 4782.01 5731.51 81.19 14.00 348.87 2618.40
   00:12:20.750.30-Jan-2021 4782.01 5730.48 81.19 14.00 349.07 2618.40
   00:12:20.950.30-Jan-2021 4782.01 5730.48 81.19 14.00 349.27 2618.40
   00:12:21.150.30-Jan-2021 4782.01 5738.47 81.19 14.00 349.47 2618.40
   00:12:21.350.30-Jan-2021 4782.01 5734.82 81.19 14.00 349.67 2618.40
   00:12:21.550.30-Jan-2021 4782.01 5735.83 81.19 14.00 349.87 2618.40
   00:12:21.750.30-Jan-2021 4782.01 5733.74 81.19 14.00 350.07 2618.40
   00:12:21.950.30-Jan-2021 4782.01 5733.74 81.19 14.00 350.27 2618.40
   00:12:22.150.30-Jan-2021 4782.01 5732.90 81.19 14.00 350.47 2618.40
   00:12:22.350.30-Jan-2021 4782.01 5737.62 81.19 14.00 350.67 2618.40
   00:12:22.550.30-Jan-2021 4782.01 5735.40 81.19 14.00 350.87 2618.40
   00:12:22.750.30-Jan-2021 4782.01 5737.12 81.19 14.00 351.07 2618.40
   00:12:22.950.30-Jan-2021 4782.01 5737.12 81.19 14.00 351.27 2618.40
   00:12:23.150.30-Jan-2021 4782.01 5735.98 81.19 14.00 351.47 2618.40
   00:12:23.350.30-Jan-2021 4782.01 5736.25 81.19 14.00 351.67 2618.40
   00:12:23.550.30-Jan-2021 4782.01 5737.66 81.19 14.00 351.87 2618.40
   00:12:23.750.30-Jan-2021 4782.01 5737.36 81.19 14.00 352.07 2618.40
   00:12:23.950.30-Jan-2021 4782.01 5737.36 81.19 14.00 352.27 2618.40
   00:12:24.150.30-Jan-2021 4782.01 5737.16 81.19 14.00 352.47 2618.40
   00:12:24.350.30-Jan-2021 4782.01 5736.51 81.19 14.00 352.67 2618.40
   00:12:24.550.30-Jan-2021 4782.01 5737.64 81.19 14.00 352.87 2618.40
   00:12:24.750.30-Jan-2021 4782.01 5736.14 81.19 14.00 353.07 2618.40
   00:12:24.950.30-Jan-2021 4782.01 5736.14 81.19 14.00 353.27 2618.40
   00:12:25.150.30-Jan-2021 4782.01 5736.00 81.19 14.00 353.47 2618.40
   00:12:25.350.30-Jan-2021 4782.01 5737.90 81.19 14.00 353.67 2618.40
   00:12:25.550.30-Jan-2021 4782.01 5736.28 81.19 14.00 353.87 2618.40
   00:12:25.751.30-Jan-2021 4782.01 5733.20 81.19 14.00 354.07 2618.40
   00:12:25.951.30-Jan-2021 4782.01 5733.20 81.19 14.00 354.27 2618.40
   00:12:26.151.30-Jan-2021 4782.01 5736.88 81.19 14.00 354.47 2618.40
   00:12:26.351.30-Jan-2021 4782.01 5735.51 81.19 14.00 354.67 2618.40
   00:12:26.551.30-Jan-2021 4782.01 5735.40 81.19 14.00 354.87 2618.40
   00:12:26.751.30-Jan-2021 4782.01 5733.85 81.19 14.00 355.07 2618.40
   00:12:26.951.30-Jan-2021 4782.01 5733.85 81.19 14.00 355.27 2618.40
   00:12:27.151.30-Jan-2021 4782.01 5736.56 81.19 14.00 355.47 2618.40
   00:12:27.351.30-Jan-2021 4782.01 5736.47 81.19 14.00 355.67 2618.40
   00:12:27.551.30-Jan-2021 4782.01 5735.43 81.19 14.00 355.87 2618.40
   00:12:27.751.30-Jan-2021 4782.01 5735.08 81.19 14.00 356.07 2618.40
   00:12:27.951.30-Jan-2021 4782.01 5735.08 81.19 14.00 356.27 2618.40
   00:12:28.151.30-Jan-2021 4782.01 5736.04 81.19 14.00 356.47 2618.40
   00:12:28.351.30-Jan-2021 4782.01 5736.95 81.19 14.00 356.67 2618.40
   00:12:28.551.30-Jan-2021 4782.01 5735.20 81.19 14.00 356.87 2618.40
   00:12:28.751.30-Jan-2021 4782.01 5736.57 81.19 14.00 357.07 2618.40
   00:12:28.951.30-Jan-2021 4782.01 5736.57 81.19 14.00 357.27 2618.40
   00:12:29.151.30-Jan-2021 4782.01 5736.56 81.19 14.00 357.47 2618.40
   00:12:29.351.30-Jan-2021 4782.01 5736.38 81.19 14.00 357.67 2618.40
   00:12:29.551.30-Jan-2021 4782.01 5736.63 81.19 14.00 357.87 2618.40
   00:12:29.751.30-Jan-2021 4782.01 5734.79 81.19 14.00 358.07 2618.40
   00:12:29.951.30-Jan-2021 4782.01 5734.79 81.19 14.00 358.27 2618.40
   00:12:30.151.30-Jan-2021 4782.01 5735.65 81.19 14.00 358.47 2618.40
   00:12:30.351.30-Jan-2021 4782.01 5737.01 81.19 14.00 358.67 2618.40
   00:12:30.551.30-Jan-2021 4782.01 5729.83 81.19 14.00 358.87 2618.40
   00:12:30.751.30-Jan-2021 4782.01 5734.18 81.19 14.00 359.07 2618.40
   00:12:30.952.30-Jan-2021 4782.01 5734.18 81.19 14.00 359.27 2618.40
   00:12:31.152.30-Jan-2021 4782.01 5736.74 81.19 14.00 359.47 2618.40
   00:12:31.352.30-Jan-2021 4782.01 5735.85 81.19 14.00 359.67 2618.40
   00:12:31.552.30-Jan-2021 4782.01 5734.03 81.19 14.00 359.87 2618.40
   00:12:31.752.30-Jan-2021 4782.01 5730.80 81.19 14.00 360.07 2618.40
   00:12:31.952.30-Jan-2021 4782.01 5730.80 81.19 14.00 360.27 2618.40
   00:12:32.152.30-Jan-2021 4782.01 5738.99 81.19 14.00 360.47 2618.40
   00:12:32.352.30-Jan-2021 4782.01 5736.26 81.19 14.00 360.67 2618.40
   00:12:32.552.30-Jan-2021 4782.01 5733.77 81.19 14.00 360.87 2618.40
   00:12:32.752.30-Jan-2021 4782.01 5736.32 81.19 14.00 361.07 2618.40
   00:12:32.952.30-Jan-2021 4782.01 5736.32 81.19 14.00 361.27 2618.40
   00:12:33.152.30-Jan-2021 4782.01 5731.89 81.19 14.00 361.47 2618.40
