~Version Information
 VERS.                  2.0:   CWLS log ASCII Standard -VERSION 2.0
 WRAP.                   NO:   One line per depth step
~Well Information Block
#MNEM.UNIT     VALUE/NAME     DESCRIPTION
#---------     -----------    ---------------------------
 STRT.S             00:06:31 30-Jan-21: START TIME 00:06:31 30-Jan-21
 STOP.S             00:13:00 30-Jan-21: STOP TIME  00:13:00 30-Jan-21
 STEP.S                   0.00: STEP TIME
 NULL.                 -999.25: NULL VALUE
 DFWT.                        :  DIST FWL TEXT
 DFST.                        :  DIST FSL TEXT
 DMF .             Drill Floor:  DRILL MEAS FROM
 STIM.      00.00.00 25-Sep-20:  START TIME
 DATE.      16.12.48 31-Jan-21:  END TIME
 SPUD.               20-Sep-20:  SPUD DATE
 NREF.                    Grid:  NORTH REFERENCE
 HPTY.       Minimum Curvature:  HOLE POS TYPE
 DMOD.             Drill Model:  DRILL MOD DESC
 SVYD.                  Survey:  SURVEY DESC
 ILTD.               Lithology:  INTERP LTH DESC
 FTOP.          Formation Tops:  FORM TOPS DESC
 RIG .              East Azeri:  RIG NAME
 PDAT.          Mean Sea Level:  PERMANENT DATUM
 FLD .                     ACG:  FIELD NAME
 SON .        AZ-XX-0906591820:  JOB NUMBER
 CTRY.              Azerbaijan:  COUNTRY NAME
 WELL.                     D37:  WELL NAME
 SRVC.     Turan Drilling & Engineering:  CONTRACTOR
 COMP.     BP Exploration (Caspian Sea) ltd.:  COMPANY
 WTYP.                Deviated:  WELL TYPE
 MDS .        Operator Entered:  MAG DATA SOURCE
 UWI .                     N/A:  UNIQUE WELL IDENTIFIER
 API .                     N/A:  API NUMBER
 BASE.              Azerbaijan:  LOGGING EQUIPMENT BASE LOCATION
 REGN.                   EESSA:  REGION
 PROV.                    Baku:  PROVINCE
 STAT.                    Baku:  STATE NAME
 MWDS.                    Baku:  MWD SHOP
 JOBN.        AZ-XX-0906591820:  JOB TICKET NUMB
 DOE .                     N/A:  DOE NUMBER
 DCON.         Sperry Drilling:  DIRECTNL CONTR
 UNIT.                     N/A:  LOGGING EQUIPMENT ID
 CNTY.                        :  COUNTY
 LOC .                        :  LOCATION
 LMF .             Drill Floor:  LOG MEASURED FROM
 TVDS.m                  43.60:  TVDSS CORRECTN
 LATI.deg                40.02:  LATITUDE
 LONG.deg                51.45:  LONGITUDE
 WHNS.m                  11.04:  WELL HEAD N/S
 WHEW.m                 -12.38:  WELL HEAD E/W
 UTMX.m              538763.98:  UTM X
 UTMY.m             4431880.20:  UTM Y
 DFWL.m                   0.00:  DISTANCE FWL
 DFSL.m                   0.00:  DISTANCE FSL
 SDEP.m                 300.00:  START DEPTH
 TDD .m                4900.01:  TOTAL DEPTH (DRILLER)
 VSDR.deg               185.64:  VERT SEC DIRECT
 GVFD.g                   1.00:  GRAVITY FIELD
 MFLD.nT              50301.00:  MAGNETIC FIELD
 MDIP.deg                59.46:  MAGNETIC DIP
 MDEC.deg                 6.43:  MAGNETIC DECL
 GRDC.deg                 0.29:  GRID CORRECTION
 AZTC.deg                 6.14:  AZM TOTAL CORR
 EPD .m                   0.00:  ELEVATION
 EGL .m                   0.00:  GROUND ELEVATION
 WDMS.m                 151.80:  WD ELEV
 APD .m                  43.60:  DEPTH ABOVE PD
 DEP .m                 571.69:  DEPTH
 AGAP.m                  43.60:  AIR GAP
 VSEW.m                 -12.38:  VERT SEC E/W
 VSNS.m                  11.04:  VERT SEC N/S
 EKB .m                  43.60:  KB ELEVATION
 EDF .m                  43.60:  DF ELEVATION
 TDL .m                 412.00:  TOTAL DEPTH (LOGGER)
 VSC .                       0:  VS TO CLOSURE
 MAGU.                 1849300:  MAGUTM CHECKSUM
~Parameter Information Block
#MNEM.UNIT       Value        Description
#---------     -----------    ---------------------------
 AV  .mps                 2.21:  Ann Velocity 
 AVMX.mps                 2.53:  Max Ann Veloc 
 AZIF.deg               144.83:  Azm, Final 
 BHAT.        Rotary Steerable:  BHA Type 
 BROT.°/30m              -0.52:  Build Rotating 
 BS  .in                  6.50:  Bit Size 
 BTPL.psig              209.00:  Bit Press Loss 
 CABU.                      No:  Customer Abuse 
 CGEO.        Ali Isfandiyarov:  Customer Geo 
 COMM.                     Új:  Run Comments 1 
 TCS .hr                 61.31:  Time Ciculation Ended 
 CV  .mps                 4.66:  Crit Velocity 
 CVMX.mps                 5.02:  Max Crit Veloc 
 DD1 .          Fariz Nahmatov:  Direct Drillr 1 
 DD2 .            Musa Ahmadov:  Direct Drillr 2 
 DDSV.               Geo-Pilot:  DD Service 
 DEFF.%                 100.00:  % Det Eff 
 DLRX.°/30m               1.44:  Dogleg Rot Max 
 DLSO.°/30m               0.83:  Dogleg Oriented 
 DLSX.°/30m               1.44:  Dogleg Str Max 
 DRET.      08.30.00 30-Jan-21:  Drill End Time 
 DRST.      21.15.00 27-Jan-21:  Drill Start Tim 
 DTIM.hr                 37.28:  Time Drilling 
 EDEP.m                4867.01:  End Depth 
 ENG1.          Rasim Hashimov:  Engineer 1 
 ENG2.         Almaz Almadatov:  Engineer 2 
 ENG3.        Tamerlan Ahmadov:  Engineer 3 
 ETIM.      22.41.04 31-Jan-21:  End Time 
 FLOI.gpm               400.00:  Flow In 
 FLON.gpm               300.00:  Flow In Min 
 FLOS.cptm                0.00:  Fluid Loss 
 FLOX.gpm               400.00:  Flow In Max 
 HFLO.                      No:  High Flow 
 HPRE.                      No:  High Pressure 
 HTEM.                      No:  High Temp 
 HYDO.m                   1.80:  Hydro Offset 
 IFIN.deg                65.63:  Inc, Final 
 IMAX.deg                66.77:  Inc Max 
 IMIN.deg                65.61:  Inc Min 
 IMND.m                4612.67:  Inc Min Depth 
 IMXD.m                4811.63:  Inc Max Depth 
 JARR.                      No:  Jarring 
 LETM.      08.30.00 30-Jan-21:  Log End Time 
 LOST.hr                     0:  Lost Rig Time 
 LSTM.      21.15.00 27-Jan-21:  Log Start Time 
 MDCL.ppm             41000.00:  Mud Chlorides 
 MDES.     Inversion Oil/Synthetic:  Mud Desc 
 DFD .sg                  1.40:  Mud Density 
 MDMN.sg                  1.40:  Dens Mud Min 
 MDMX.sg                  1.40:  Dens Mud Max 
 MOIL.                      53:  Run Mud Oil % 
 MOWR.                   66:34:  Run Mud OWR 
 MSND.                     0.2:  Run Mud Sand % 
 MSOL.                    17.9:  Run Mud Solids% 
 DFV .spqt               77.00:  Mud Viscosity 
 MWOD.in                  4.75:  MWD Tool OD 
 MWSI.                      No:  Serv Intrp, MWD 
 OTIM.hr                110.38:  Time Operating 
 PCON.           Look Like New:  Pad Condition 
 PMAX.psia             5300.00:  Press Op, Max 
 PV  .cP                 57.00:  Mud PV 
 RUN .                    1200:  Run Number 
 ROPA.m/hr               13.00:  ROP Avg 
 ROPN.m/hr                9.00:  ROP Min 
 ROPX.m/hr               15.00:  ROP Max 
 RPMA.rpm               120.00:  RPM Surface Avg 
 RPMN.rpm               100.00:  RPM Surface Min 
 RPMX.rpm               135.00:  RPM Surface Max 
 RRUN.                    1200:  Rig Run Number 
 RTIM.hr                  2.65:  Time Reaming 
 SAZI.deg               145.04:  Azm, Start 
 SDEP.m                4455.01:  Start Depth 
 SIDD.                      No:  Serv Intrp, DD 
 SINC.deg                65.83:  Inc, Start 
 SPPA.psig             5037.00:  SPP Avg 
 SPPN.psig             4430.00:  SPP Min 
 SPPX.psig             5300.00:  SPP Max 
 STIM.      22.41.04 26-Jan-21:  Start Time 
 SVCS.                 DD, MWD:  Services 
 SVER.                    9.20:  Sperry Version 
 TDAT.m                 412.00:  Tot Depth Attmp 
 TDDF.                      No:  Trip for DD 
 TDLG.m                 412.00:  Tot Depth Loggd 
 TFF .                      No:  Trip for Fail 
 TQAA.f-kp               15.00:  Torque Abs Avg 
 TQAN.f-kp               12.00:  Torque Abs Min 
 TQAX.f-kp               17.00:  Torque Abs Max 
 TRRT.°/30m               1.18:  Turn Rotating 
 MRT .                     ADR:  Maximum Recorded Temperature 
 TTMX.degC               88.24:  Max Tool Temp 
 VS01.                90619458:  Virtual Str1 SN 
 VS02.                90519326:  Virtual Str2 SN 
 VS03.                90522176:  Virtual Str3 SN 
 VS04.                90512683:  Virtual Str4 SN 
 WBMN.klb                 1.00:  WOB Min 
 WITN.           Murad Giluyev:  Customer Rep 
 WITN.     Kamran Kemberlinski:  Customer Rep 2 
 WOBA.klb                 5.00:  WOB Avg 
 WOBX.klb                 9.00:  WOB Max 
 YP  .lhf2               41.00:  Yield Point 
~Curve Information Block
#MNEM.UNIT                 API CODE     Curve Description
#---------               -----------    ---------------------------
 TIME.HHMMSS            00 000 000 000:  GT Time & Date
 GTDEPTH.m              00 000 000 000:  GT Depth
 GTPQH.psia             00 000 000 000:  GT HR Quartz Pressure
 GTTQ.degC              00 000 000 000:  GT Quartz Temperature
 GTTN.NONE              00 000 000 000:  GT Test Number
 GTET.sec               00 000 000 000:  GT Elapsed Test Time
 GTTVD.m                00 000 000 000:  GT True Vertical Depth
#Other Information
#
#WARRANTY: Halliburton will use its best efforts to furnish customers with 
#accurate information and interpretations that are part of, and incident to, the services 
#provided.  However, Halliburton cannot and does not warrant the accuracy 
#or correctness of such information and interpretations.  Under no circumstances should any 
#such information or interpretation be relied upon as the sole basis for any drilling, 
#completion, production, or financial decision or any procedure involving any risk to the 
#safety of any drilling venture, drilling rig or its crew or any other third party.  The 
#Customer has full responsibility for all drilling, completion and production operation.  
#Halliburton makes no representations or warranties, either expressed or 
#implied, including, but not limited to, the implied warranties of merchantability or fitness 
#for a particular purpose, with respect to the services rendered.  In no event will 
#Halliburton be liable for failure to obtain any particular results or for 
#any damages, including, but not limited to, indirect, special or consequential damages, 
#resulting from the use of any information or interpretation provided by Halliburton.
#
~A           TIME           GTDEPTH  GTPQH  GTTQ  GTTN   GTET   GTTVD  
# ...
   00:11:02.935.30-Jan-2021 4782.01 3137.85 81.30 14.00 271.25 2618.40
   00:11:03.135.30-Jan-2021 4782.01 3137.80 81.30 14.00 271.45 2618.40
   00:11:03.335.30-Jan-2021 4782.01 3137.74 81.30 14.00 271.65 2618.40
   00:11:03.535.30-Jan-2021 4782.01 3137.85 81.30 14.00 271.85 2618.40
   00:11:03.735.30-Jan-2021 4782.01 3137.81 81.30 14.00 272.05 2618.40
   00:11:03.935.30-Jan-2021 4782.01 3137.81 81.30 14.00 272.25 2618.40
   00:11:04.135.30-Jan-2021 4782.01 3137.76 81.30 14.00 272.45 2618.40
   00:11:04.335.30-Jan-2021 4782.01 3137.82 81.30 14.00 272.65 2618.40
   00:11:04.535.30-Jan-2021 4782.01 3137.81 81.30 14.00 272.85 2618.40
   00:11:04.735.30-Jan-2021 4782.01 3137.80 81.30 14.00 273.05 2618.40
   00:11:04.935.30-Jan-2021 4782.01 3137.80 81.30 14.00 273.25 2618.40
   00:11:05.135.30-Jan-2021 4782.01 3137.81 81.30 14.00 273.45 2618.40
   00:11:05.335.30-Jan-2021 4782.01 3137.78 81.30 14.00 273.65 2618.40
   00:11:05.535.30-Jan-2021 4782.01 3137.81 81.30 14.00 273.85 2618.40
   00:11:05.735.30-Jan-2021 4782.01 3137.80 81.30 14.00 274.05 2618.40
   00:11:05.935.30-Jan-2021 4782.01 3137.80 81.30 14.00 274.25 2618.40
   00:11:06.135.30-Jan-2021 4782.01 3137.76 81.30 14.00 274.45 2618.40
   00:11:06.335.30-Jan-2021 4782.01 3137.79 81.30 14.00 274.65 2618.40
   00:11:06.535.30-Jan-2021 4782.01 3137.81 81.30 14.00 274.85 2618.40
   00:11:06.735.30-Jan-2021 4782.01 3137.78 81.30 14.00 275.05 2618.40
   00:11:06.935.30-Jan-2021 4782.01 3137.78 81.30 14.00 275.25 2618.40
   00:11:07.135.30-Jan-2021 4782.01 3137.80 81.30 14.00 275.45 2618.40
   00:11:07.335.30-Jan-2021 4782.01 3137.81 81.30 14.00 275.65 2618.40
   00:11:07.535.30-Jan-2021 4782.01 3137.77 81.30 14.00 275.85 2618.40
   00:11:07.736.30-Jan-2021 4782.01 3137.81 81.30 14.00 276.05 2618.40
   00:11:07.936.30-Jan-2021 4782.01 3137.81 81.30 14.00 276.25 2618.40
   00:11:08.136.30-Jan-2021 4782.01 3137.80 81.29 14.00 276.45 2618.40
   00:11:08.336.30-Jan-2021 4782.01 3137.79 81.29 14.00 276.65 2618.40
   00:11:08.536.30-Jan-2021 4782.01 3137.79 81.29 14.00 276.85 2618.40
   00:11:08.736.30-Jan-2021 4782.01 3137.79 81.29 14.00 277.05 2618.40
   00:11:08.936.30-Jan-2021 4782.01 3137.79 81.29 14.00 277.25 2618.40
   00:11:09.136.30-Jan-2021 4782.01 3137.78 81.29 14.00 277.45 2618.40
   00:11:09.336.30-Jan-2021 4782.01 3137.79 81.29 14.00 277.65 2618.40
   00:11:09.536.30-Jan-2021 4782.01 3137.80 81.29 14.00 277.85 2618.40
   00:11:09.736.30-Jan-2021 4782.01 3137.77 81.29 14.00 278.05 2618.40
   00:11:09.936.30-Jan-2021 4782.01 3137.77 81.29 14.00 278.25 2618.40
   00:11:10.136.30-Jan-2021 4782.01 3137.79 81.29 14.00 278.45 2618.40
   00:11:10.336.30-Jan-2021 4782.01 3137.78 81.29 14.00 278.65 2618.40
   00:11:10.536.30-Jan-2021 4782.01 3137.79 81.29 14.00 278.85 2618.40
   00:11:10.736.30-Jan-2021 4782.01 3137.80 81.29 14.00 279.05 2618.40
   00:11:10.936.30-Jan-2021 4782.01 3137.80 81.29 14.00 279.25 2618.40
   00:11:11.136.30-Jan-2021 4782.01 3137.78 81.29 14.00 279.45 2618.40
   00:11:11.336.30-Jan-2021 4782.01 3137.78 81.29 14.00 279.65 2618.40
   00:11:11.536.30-Jan-2021 4782.01 3137.79 81.29 14.00 279.85 2618.40
   00:11:11.736.30-Jan-2021 4782.01 3137.78 81.29 14.00 280.05 2618.40
   00:11:11.936.30-Jan-2021 4782.01 3137.78 81.29 14.00 280.25 2618.40
   00:11:12.136.30-Jan-2021 4782.01 3137.78 81.29 14.00 280.45 2618.40
   00:11:12.336.30-Jan-2021 4782.01 3137.78 81.29 14.00 280.65 2618.40
   00:11:12.536.30-Jan-2021 4782.01 3137.78 81.29 14.00 280.85 2618.40
   00:11:12.736.30-Jan-2021 4782.01 3137.80 81.29 14.00 281.05 2618.40
   00:11:12.937.30-Jan-2021 4782.01 3137.80 81.29 14.00 281.25 2618.40
   00:11:13.137.30-Jan-2021 4782.01 3137.78 81.29 14.00 281.45 2618.40
   00:11:13.337.30-Jan-2021 4782.01 3137.79 81.29 14.00 281.65 2618.40
   00:11:13.537.30-Jan-2021 4782.01 3137.72 81.29 14.00 281.85 2618.40
   00:11:13.737.30-Jan-2021 4782.01 3137.84 81.29 14.00 282.05 2618.40
   00:11:13.937.30-Jan-2021 4782.01 3137.84 81.29 14.00 282.25 2618.40
   00:11:14.137.30-Jan-2021 4782.01 3137.78 81.29 14.00 282.45 2618.40
   00:11:14.337.30-Jan-2021 4782.01 3137.78 81.29 14.00 282.65 2618.40
   00:11:14.537.30-Jan-2021 4782.01 3137.82 81.28 14.00 282.85 2618.40
   00:11:14.737.30-Jan-2021 4782.01 3137.77 81.28 14.00 283.05 2618.40
   00:11:14.937.30-Jan-2021 4782.01 3137.77 81.28 14.00 283.25 2618.40
   00:11:15.137.30-Jan-2021 4782.01 3137.77 81.28 14.00 283.45 2618.40
   00:11:15.337.30-Jan-2021 4782.01 3137.71 81.28 14.00 283.65 2618.40
   00:11:15.537.30-Jan-2021 4782.01 3137.86 81.28 14.00 283.85 2618.40
   00:11:15.737.30-Jan-2021 4782.01 3137.80 81.28 14.00 284.05 2618.40
   00:11:15.937.30-Jan-2021 4782.01 3137.80 81.28 14.00 284.25 2618.40
   00:11:16.137.30-Jan-2021 4782.01 3137.76 81.28 14.00 284.45 2618.40
   00:11:16.337.30-Jan-2021 4782.01 3137.81 81.28 14.00 284.65 2618.40
   00:11:16.537.30-Jan-2021 4782.01 3137.78 81.28 14.00 284.85 2618.40
   00:11:16.737.30-Jan-2021 4782.01 3137.71 81.28 14.00 285.05 2618.40
   00:11:16.937.30-Jan-2021 4782.01 3137.71 81.28 14.00 285.25 2618.40
   00:11:17.137.30-Jan-2021 4782.01 3137.80 81.28 14.00 285.45 2618.40
   00:11:17.337.30-Jan-2021 4782.01 3137.78 81.28 14.00 285.65 2618.40
   00:11:17.537.30-Jan-2021 4782.01 3137.77 81.28 14.00 285.86 2618.40
   00:11:17.737.30-Jan-2021 4782.01 3137.79 81.28 14.00 286.06 2618.40
   00:11:17.937.30-Jan-2021 4782.01 3137.79 81.28 14.00 286.26 2618.40
   00:11:18.138.30-Jan-2021 4782.01 3137.78 81.28 14.00 286.46 2618.40
   00:11:18.338.30-Jan-2021 4782.01 3137.79 81.28 14.00 286.66 2618.40
   00:11:18.538.30-Jan-2021 4782.01 3137.77 81.28 14.00 286.86 2618.40
   00:11:18.738.30-Jan-2021 4782.01 3137.79 81.28 14.00 287.06 2618.40
   00:11:18.938.30-Jan-2021 4782.01 3137.79 81.28 14.00 287.26 2618.40
   00:11:19.138.30-Jan-2021 4782.01 3137.77 81.28 14.00 287.46 2618.40
   00:11:19.338.30-Jan-2021 4782.01 3137.78 81.28 14.00 287.66 2618.40
   00:11:19.538.30-Jan-2021 4782.01 3137.77 81.28 14.00 287.86 2618.40
   00:11:19.738.30-Jan-2021 4782.01 3137.78 81.28 14.00 288.06 2618.40
   00:11:19.938.30-Jan-2021 4782.01 3137.78 81.28 14.00 288.26 2618.40
   00:11:20.138.30-Jan-2021 4782.01 3137.77 81.28 14.00 288.46 2618.40
   00:11:20.338.30-Jan-2021 4782.01 3137.69 81.28 14.00 288.66 2618.40
   00:11:20.538.30-Jan-2021 4782.01 3137.85 81.28 14.00 288.86 2618.40
   00:11:20.738.30-Jan-2021 4782.01 3137.78 81.28 14.00 289.06 2618.40
   00:11:20.938.30-Jan-2021 4782.01 3137.78 81.28 14.00 289.26 2618.40
   00:11:21.138.30-Jan-2021 4782.01 3137.75 81.27 14.00 289.46 2618.40
   00:11:21.338.30-Jan-2021 4782.01 3137.80 81.27 14.00 289.66 2618.40
   00:11:21.538.30-Jan-2021 4782.01 3137.77 81.27 14.00 289.86 2618.40
   00:11:21.738.30-Jan-2021 4782.01 3137.79 81.27 14.00 290.06 2618.40
   00:11:21.938.30-Jan-2021 4782.01 3137.79 81.27 14.00 290.26 2618.40
   00:11:22.138.30-Jan-2021 4782.01 3137.78 81.27 14.00 290.46 2618.40
   00:11:22.338.30-Jan-2021 4782.01 3137.77 81.27 14.00 290.66 2618.40
   00:11:22.538.30-Jan-2021 4782.01 3137.77 81.27 14.00 290.86 2618.40
   00:11:22.738.30-Jan-2021 4782.01 3137.78 81.27 14.00 291.06 2618.40
   00:11:22.938.30-Jan-2021 4782.01 3137.78 81.27 14.00 291.26 2618.40
   00:11:23.138.30-Jan-2021 4782.01 3137.77 81.27 14.00 291.46 2618.40
   00:11:23.339.30-Jan-2021 4782.01 3137.77 81.27 14.00 291.66 2618.40
   00:11:23.539.30-Jan-2021 4782.01 3137.70 81.27 14.00 291.86 2618.40
   00:11:23.739.30-Jan-2021 4782.01 3137.84 81.27 14.00 292.06 2618.40
   00:11:23.939.30-Jan-2021 4782.01 3137.84 81.27 14.00 292.26 2618.40
   00:11:24.139.30-Jan-2021 4782.01 3137.76 81.27 14.00 292.46 2618.40
   00:11:24.339.30-Jan-2021 4782.01 3137.72 81.27 14.00 292.66 2618.40
   00:11:24.539.30-Jan-2021 4782.01 3137.82 81.27 14.00 292.86 2618.40
   00:11:24.739.30-Jan-2021 4782.01 3137.79 81.27 14.00 293.06 2618.40
   00:11:24.939.30-Jan-2021 4782.01 3137.79 81.27 14.00 293.26 2618.40
   00:11:25.139.30-Jan-2021 4782.01 3137.73 81.27 14.00 293.46 2618.40
   00:11:25.339.30-Jan-2021 4782.01 3137.80 81.27 14.00 293.66 2618.40
