~Version Information
 VERS.                  2.0:   CWLS log ASCII Standard -VERSION 2.0
 WRAP.                   NO:   One line per depth step
~Well Information Block
#MNEM.UNIT     VALUE/NAME     DESCRIPTION
#---------     -----------    ---------------------------
 STRT.S             10:42:31 29-Jan-21: START TIME 10:42:31 29-Jan-21
 STOP.S             10:49:01 29-Jan-21: STOP TIME  10:49:01 29-Jan-21
 STEP.S                   0.00: STEP TIME
 NULL.                 -999.25: NULL VALUE
 DFWT.                        :  DIST FWL TEXT
 DFST.                        :  DIST FSL TEXT
 DMF .             Drill Floor:  DRILL MEAS FROM
 STIM.      00.00.00 25-Sep-20:  START TIME
 DATE.      16.12.48 31-Jan-21:  END TIME
 SPUD.               20-Sep-20:  SPUD DATE
 NREF.                    Grid:  NORTH REFERENCE
 HPTY.       Minimum Curvature:  HOLE POS TYPE
 DMOD.             Drill Model:  DRILL MOD DESC
 SVYD.                  Survey:  SURVEY DESC
 ILTD.               Lithology:  INTERP LTH DESC
 FTOP.          Formation Tops:  FORM TOPS DESC
 RIG .              East Azeri:  RIG NAME
 PDAT.          Mean Sea Level:  PERMANENT DATUM
 FLD .                     ACG:  FIELD NAME
 SON .        AZ-XX-0906591820:  JOB NUMBER
 CTRY.              Azerbaijan:  COUNTRY NAME
 WELL.                     D37:  WELL NAME
 SRVC.     Turan Drilling & Engineering:  CONTRACTOR
 COMP.     BP Exploration (Caspian Sea) ltd.:  COMPANY
 WTYP.                Deviated:  WELL TYPE
 MDS .        Operator Entered:  MAG DATA SOURCE
 UWI .                     N/A:  UNIQUE WELL IDENTIFIER
 API .                     N/A:  API NUMBER
 BASE.              Azerbaijan:  LOGGING EQUIPMENT BASE LOCATION
 REGN.                   EESSA:  REGION
 PROV.                    Baku:  PROVINCE
 STAT.                    Baku:  STATE NAME
 MWDS.                    Baku:  MWD SHOP
 JOBN.        AZ-XX-0906591820:  JOB TICKET NUMB
 DOE .                     N/A:  DOE NUMBER
 DCON.         Sperry Drilling:  DIRECTNL CONTR
 UNIT.                     N/A:  LOGGING EQUIPMENT ID
 CNTY.                        :  COUNTY
 LOC .                        :  LOCATION
 LMF .             Drill Floor:  LOG MEASURED FROM
 TVDS.m                  43.60:  TVDSS CORRECTN
 LATI.deg                40.02:  LATITUDE
 LONG.deg                51.45:  LONGITUDE
 WHNS.m                  11.04:  WELL HEAD N/S
 WHEW.m                 -12.38:  WELL HEAD E/W
 UTMX.m              538763.98:  UTM X
 UTMY.m             4431880.20:  UTM Y
 DFWL.m                   0.00:  DISTANCE FWL
 DFSL.m                   0.00:  DISTANCE FSL
 SDEP.m                 300.00:  START DEPTH
 TDD .m                4900.01:  TOTAL DEPTH (DRILLER)
 VSDR.deg               185.64:  VERT SEC DIRECT
 GVFD.g                   1.00:  GRAVITY FIELD
 MFLD.nT              50301.00:  MAGNETIC FIELD
 MDIP.deg                59.46:  MAGNETIC DIP
 MDEC.deg                 6.43:  MAGNETIC DECL
 GRDC.deg                 0.29:  GRID CORRECTION
 AZTC.deg                 6.14:  AZM TOTAL CORR
 EPD .m                   0.00:  ELEVATION
 EGL .m                   0.00:  GROUND ELEVATION
 WDMS.m                 151.80:  WD ELEV
 APD .m                  43.60:  DEPTH ABOVE PD
 DEP .m                 571.69:  DEPTH
 AGAP.m                  43.60:  AIR GAP
 VSEW.m                 -12.38:  VERT SEC E/W
 VSNS.m                  11.04:  VERT SEC N/S
 EKB .m                  43.60:  KB ELEVATION
 EDF .m                  43.60:  DF ELEVATION
 TDL .m                 412.00:  TOTAL DEPTH (LOGGER)
 VSC .                       0:  VS TO CLOSURE
 MAGU.                 1849300:  MAGUTM CHECKSUM
~Parameter Information Block
#MNEM.UNIT       Value        Description
#---------     -----------    ---------------------------
 AV  .mps                 2.21:  Ann Velocity 
 AVMX.mps                 2.53:  Max Ann Veloc 
 AZIF.deg               144.83:  Azm, Final 
 BHAT.        Rotary Steerable:  BHA Type 
 BROT.°/30m              -0.52:  Build Rotating 
 BS  .in                  6.50:  Bit Size 
 BTPL.psig              209.00:  Bit Press Loss 
 CABU.                      No:  Customer Abuse 
 CGEO.        Ali Isfandiyarov:  Customer Geo 
 COMM.                     ,H:  Run Comments 1 
 TCS .hr                 61.31:  Time Ciculation Ended 
 CV  .mps                 4.66:  Crit Velocity 
 CVMX.mps                 5.02:  Max Crit Veloc 
 DD1 .          Fariz Nahmatov:  Direct Drillr 1 
 DD2 .            Musa Ahmadov:  Direct Drillr 2 
 DDSV.               Geo-Pilot:  DD Service 
 DEFF.%                 100.00:  % Det Eff 
 DLRX.°/30m               1.44:  Dogleg Rot Max 
 DLSO.°/30m               0.83:  Dogleg Oriented 
 DLSX.°/30m               1.44:  Dogleg Str Max 
 DRET.      08.30.00 30-Jan-21:  Drill End Time 
 DRST.      21.15.00 27-Jan-21:  Drill Start Tim 
 DTIM.hr                 37.28:  Time Drilling 
 EDEP.m                4867.01:  End Depth 
 ENG1.          Rasim Hashimov:  Engineer 1 
 ENG2.         Almaz Almadatov:  Engineer 2 
 ENG3.        Tamerlan Ahmadov:  Engineer 3 
 ETIM.      22.41.04 31-Jan-21:  End Time 
 FLOI.gpm               400.00:  Flow In 
 FLON.gpm               300.00:  Flow In Min 
 FLOS.cptm                0.00:  Fluid Loss 
 FLOX.gpm               400.00:  Flow In Max 
 HFLO.                      No:  High Flow 
 HPRE.                      No:  High Pressure 
 HTEM.                      No:  High Temp 
 HYDO.m                   1.80:  Hydro Offset 
 IFIN.deg                65.63:  Inc, Final 
 IMAX.deg                66.77:  Inc Max 
 IMIN.deg                65.61:  Inc Min 
 IMND.m                4612.67:  Inc Min Depth 
 IMXD.m                4811.63:  Inc Max Depth 
 JARR.                      No:  Jarring 
 LETM.      08.30.00 30-Jan-21:  Log End Time 
 LOST.hr                     0:  Lost Rig Time 
 LSTM.      21.15.00 27-Jan-21:  Log Start Time 
 MDCL.ppm             41000.00:  Mud Chlorides 
 MDES.     Inversion Oil/Synthetic:  Mud Desc 
 DFD .sg                  1.40:  Mud Density 
 MDMN.sg                  1.40:  Dens Mud Min 
 MDMX.sg                  1.40:  Dens Mud Max 
 MOIL.                      53:  Run Mud Oil % 
 MOWR.                   66:34:  Run Mud OWR 
 MSND.                     0.2:  Run Mud Sand % 
 MSOL.                    17.9:  Run Mud Solids% 
 DFV .spqt               77.00:  Mud Viscosity 
 MWOD.in                  4.75:  MWD Tool OD 
 MWSI.                      No:  Serv Intrp, MWD 
 OTIM.hr                110.38:  Time Operating 
 PCON.           Look Like New:  Pad Condition 
 PMAX.psia             5300.00:  Press Op, Max 
 PV  .cP                 57.00:  Mud PV 
 RUN .                    1200:  Run Number 
 ROPA.m/hr               13.00:  ROP Avg 
 ROPN.m/hr                9.00:  ROP Min 
 ROPX.m/hr               15.00:  ROP Max 
 RPMA.rpm               120.00:  RPM Surface Avg 
 RPMN.rpm               100.00:  RPM Surface Min 
 RPMX.rpm               135.00:  RPM Surface Max 
 RRUN.                    1200:  Rig Run Number 
 RTIM.hr                  2.65:  Time Reaming 
 SAZI.deg               145.04:  Azm, Start 
 SDEP.m                4455.01:  Start Depth 
 SIDD.                      No:  Serv Intrp, DD 
 SINC.deg                65.83:  Inc, Start 
 SPPA.psig             5037.00:  SPP Avg 
 SPPN.psig             4430.00:  SPP Min 
 SPPX.psig             5300.00:  SPP Max 
 STIM.      22.41.04 26-Jan-21:  Start Time 
 SVCS.                 DD, MWD:  Services 
 SVER.                    9.20:  Sperry Version 
 TDAT.m                 412.00:  Tot Depth Attmp 
 TDDF.                      No:  Trip for DD 
 TDLG.m                 412.00:  Tot Depth Loggd 
 TFF .                      No:  Trip for Fail 
 TQAA.f-kp               15.00:  Torque Abs Avg 
 TQAN.f-kp               12.00:  Torque Abs Min 
 TQAX.f-kp               17.00:  Torque Abs Max 
 TRRT.°/30m               1.18:  Turn Rotating 
 MRT .                     ADR:  Maximum Recorded Temperature 
 TTMX.degC               88.24:  Max Tool Temp 
 VS01.                90619458:  Virtual Str1 SN 
 VS02.                90519326:  Virtual Str2 SN 
 VS03.                90522176:  Virtual Str3 SN 
 VS04.                90512683:  Virtual Str4 SN 
 WBMN.klb                 1.00:  WOB Min 
 WITN.           Murad Giluyev:  Customer Rep 
 WITN.     Kamran Kemberlinski:  Customer Rep 2 
 WOBA.klb                 5.00:  WOB Avg 
 WOBX.klb                 9.00:  WOB Max 
 YP  .lhf2               41.00:  Yield Point 
~Curve Information Block
#MNEM.UNIT                 API CODE     Curve Description
#---------               -----------    ---------------------------
 TIME.HHMMSS            00 000 000 000:  GT Time & Date
 GTDEPTH.m              00 000 000 000:  GT Depth
 GTPQH.psia             00 000 000 000:  GT HR Quartz Pressure
 GTTQ.degC              00 000 000 000:  GT Quartz Temperature
 GTTN.NONE              00 000 000 000:  GT Test Number
 GTET.sec               00 000 000 000:  GT Elapsed Test Time
 GTTVD.m                00 000 000 000:  GT True Vertical Depth
#Other Information
#
#WARRANTY: Halliburton will use its best efforts to furnish customers with 
#accurate information and interpretations that are part of, and incident to, the services 
#provided.  However, Halliburton cannot and does not warrant the accuracy 
#or correctness of such information and interpretations.  Under no circumstances should any 
#such information or interpretation be relied upon as the sole basis for any drilling, 
#completion, production, or financial decision or any procedure involving any risk to the 
#safety of any drilling venture, drilling rig or its crew or any other third party.  The 
#Customer has full responsibility for all drilling, completion and production operation.  
#Halliburton makes no representations or warranties, either expressed or 
#implied, including, but not limited to, the implied warranties of merchantability or fitness 
#for a particular purpose, with respect to the services rendered.  In no event will 
#Halliburton be liable for failure to obtain any particular results or for 
#any damages, including, but not limited to, indirect, special or consequential damages, 
#resulting from the use of any information or interpretation provided by Halliburton.
#
~A           TIME           GTDEPTH  GTPQH  GTTQ  GTTN   GTET   GTTVD  
   10:42:31.176.29-Jan-2021 4690.01 5629.12 80.94 10.00   0.00 2581.69
   10:42:31.376.29-Jan-2021 4690.01 5629.12 80.94 10.00   0.20 2581.69
   10:42:31.576.29-Jan-2021 4690.01 5630.28 80.94 10.00   0.40 2581.69
   10:42:31.776.29-Jan-2021 4690.01 5622.02 80.94 10.00   0.60 2581.69
   10:42:31.976.29-Jan-2021 4690.01 5633.45 80.94 10.00   0.80 2581.69
   10:42:32.176.29-Jan-2021 4690.01 5632.42 80.94 10.00   1.00 2581.69
   10:42:32.376.29-Jan-2021 4690.01 5632.42 80.94 10.00   1.20 2581.69
   10:42:32.576.29-Jan-2021 4690.01 5625.28 80.93 10.00   1.40 2581.69
   10:42:32.776.29-Jan-2021 4690.01 5635.06 80.93 10.00   1.60 2581.69
   10:42:32.976.29-Jan-2021 4690.01 5634.14 80.93 10.00   1.80 2581.69
   10:42:33.176.29-Jan-2021 4690.01 5630.99 80.93 10.00   2.00 2581.69
   10:42:33.376.29-Jan-2021 4690.01 5630.99 80.93 10.00   2.20 2581.69
   10:42:33.576.29-Jan-2021 4690.01 5635.41 80.93 10.00   2.40 2581.69
   10:42:33.776.29-Jan-2021 4690.01 5633.59 80.93 10.00   2.60 2581.69
   10:42:33.976.29-Jan-2021 4690.01 5630.92 80.93 10.00   2.80 2581.69
   10:42:34.176.29-Jan-2021 4690.01 5633.00 80.93 10.00   3.00 2581.69
   10:42:34.376.29-Jan-2021 4690.01 5633.00 80.93 10.00   3.20 2581.69
   10:42:34.576.29-Jan-2021 4690.01 5631.19 80.93 10.00   3.40 2581.69
   10:42:34.776.29-Jan-2021 4690.01 5632.37 80.93 10.00   3.60 2581.69
   10:42:34.976.29-Jan-2021 4690.01 5633.98 80.92 10.00   3.80 2581.69
   10:42:35.176.29-Jan-2021 4690.01 5631.13 80.92 10.00   4.00 2581.69
   10:42:35.376.29-Jan-2021 4690.01 5631.13 80.92 10.00   4.20 2581.69
   10:42:35.576.29-Jan-2021 4690.01 5631.62 80.92 10.00   4.40 2581.69
   10:42:35.776.29-Jan-2021 4690.01 5633.48 80.92 10.00   4.60 2581.69
   10:42:35.976.29-Jan-2021 4690.01 5623.83 80.92 10.00   4.80 2581.69
   10:42:36.176.29-Jan-2021 4690.01 5634.60 80.92 10.00   5.00 2581.69
   10:42:36.376.29-Jan-2021 4690.01 5634.60 80.92 10.00   5.20 2581.69
   10:42:36.576.29-Jan-2021 4690.01 5630.42 80.92 10.00   5.40 2581.69
   10:42:36.776.29-Jan-2021 4690.01 5633.86 80.92 10.00   5.60 2581.69
   10:42:36.976.29-Jan-2021 4690.01 5635.50 80.92 10.00   5.80 2581.69
   10:42:37.176.29-Jan-2021 4690.01 5629.97 80.92 10.00   6.00 2581.69
   10:42:37.376.29-Jan-2021 4690.01 5629.97 80.92 10.00   6.20 2581.69
   10:42:37.576.29-Jan-2021 4690.01 5629.97 80.92 10.00   6.40 2581.69
   10:42:37.776.29-Jan-2021 4690.01 5633.78 80.91 10.00   6.60 2581.69
   10:42:37.977.29-Jan-2021 4690.01 5633.78 80.91 10.00   6.80 2581.69
   10:42:38.177.29-Jan-2021 4690.01 5633.23 80.91 10.00   7.00 2581.69
   10:42:38.377.29-Jan-2021 4690.01 5633.23 80.91 10.00   7.20 2581.69
   10:42:38.577.29-Jan-2021 4690.01 5633.23 80.91 10.00   7.40 2581.69
   10:42:38.777.29-Jan-2021 4690.01 5633.20 80.91 10.00   7.60 2581.69
   10:42:38.977.29-Jan-2021 4690.01 5633.04 80.91 10.00   7.80 2581.69
   10:42:39.177.29-Jan-2021 4690.01 5633.73 80.91 10.00   8.00 2581.69
   10:42:39.377.29-Jan-2021 4690.01 5633.73 80.91 10.00   8.20 2581.69
   10:42:39.577.29-Jan-2021 4690.01 5632.68 80.91 10.00   8.40 2581.69
   10:42:39.777.29-Jan-2021 4690.01 5633.05 80.91 10.00   8.60 2581.69
   10:42:39.977.29-Jan-2021 4690.01 5633.69 80.90 10.00   8.80 2581.69
   10:42:40.177.29-Jan-2021 4690.01 5632.90 80.90 10.00   9.00 2581.69
   10:42:40.377.29-Jan-2021 4690.01 5632.90 80.90 10.00   9.20 2581.69
   10:42:40.577.29-Jan-2021 4690.01 5633.90 80.90 10.00   9.40 2581.69
   10:42:40.777.29-Jan-2021 4690.01 5627.69 80.90 10.00   9.60 2581.69
   10:42:40.977.29-Jan-2021 4690.01 5636.11 80.90 10.00   9.80 2581.69
   10:42:41.177.29-Jan-2021 4690.01 5635.55 80.90 10.00  10.00 2581.69
   10:42:41.377.29-Jan-2021 4690.01 5635.55 80.90 10.00  10.20 2581.69
   10:42:41.577.29-Jan-2021 4690.01 5635.27 80.90 10.00  10.40 2581.69
   10:42:41.777.29-Jan-2021 4690.01 5635.58 80.90 10.00  10.60 2581.69
   10:42:41.977.29-Jan-2021 4690.01 5635.72 80.90 10.00  10.80 2581.69
   10:42:42.177.29-Jan-2021 4690.01 5635.78 80.90 10.00  11.00 2581.69
   10:42:42.377.29-Jan-2021 4690.01 5635.78 80.90 10.00  11.20 2581.69
   10:42:42.577.29-Jan-2021 4690.01 5636.79 80.89 10.00  11.40 2581.69
   10:42:42.777.29-Jan-2021 4690.01 5635.52 80.89 10.00  11.60 2581.69
   10:42:42.977.29-Jan-2021 4690.01 5635.98 80.89 10.00  11.80 2581.69
   10:42:43.177.29-Jan-2021 4690.01 5635.18 80.89 10.00  12.00 2581.69
   10:42:43.377.29-Jan-2021 4690.01 5635.18 80.89 10.00  12.20 2581.69
   10:42:43.577.29-Jan-2021 4690.01 5634.94 80.89 10.00  12.40 2581.69
   10:42:43.777.29-Jan-2021 4690.01 5635.17 80.89 10.00  12.60 2581.69
   10:42:43.977.29-Jan-2021 4690.01 5635.08 80.89 10.00  12.80 2581.69
   10:42:44.177.29-Jan-2021 4690.01 5635.18 80.89 10.00  13.00 2581.69
   10:42:44.377.29-Jan-2021 4690.01 5635.18 80.89 10.00  13.20 2581.69
   10:42:44.577.29-Jan-2021 4690.01 5629.78 80.89 10.00  13.40 2581.69
   10:42:44.777.29-Jan-2021 4690.01 5636.06 80.89 10.00  13.60 2581.69
   10:42:44.977.29-Jan-2021 4690.01 5636.84 80.88 10.00  13.80 2581.69
   10:42:45.177.29-Jan-2021 4690.01 5632.17 80.88 10.00  14.00 2581.69
   10:42:45.377.29-Jan-2021 4690.01 5632.17 80.88 10.00  14.20 2581.69
   10:42:45.577.29-Jan-2021 4690.01 5630.83 80.88 10.00  14.40 2581.69
   10:42:45.777.29-Jan-2021 4690.01 5638.10 80.88 10.00  14.60 2581.69
   10:42:45.977.29-Jan-2021 4690.01 5652.07 80.88 10.00  14.80 2581.69
   10:42:46.177.29-Jan-2021 4690.01 5703.98 80.88 10.00  15.00 2581.69
   10:42:46.377.29-Jan-2021 4690.01 5703.98 80.88 10.00  15.20 2581.69
   10:42:46.577.29-Jan-2021 4690.01 5715.07 80.88 10.00  15.40 2581.69
   10:42:46.777.29-Jan-2021 4690.01 5766.40 80.88 10.00  15.60 2581.69
   10:42:46.977.29-Jan-2021 4690.01 5804.94 80.88 10.00  15.80 2581.69
   10:42:47.177.29-Jan-2021 4690.01 5838.30 80.88 10.00  16.00 2581.69
   10:42:47.377.29-Jan-2021 4690.01 5838.30 80.88 10.00  16.20 2581.69
   10:42:47.577.29-Jan-2021 4690.01 5943.78 80.87 10.00  16.40 2581.69
   10:42:47.777.29-Jan-2021 4690.01 5991.46 80.87 10.00  16.60 2581.69
   10:42:47.977.29-Jan-2021 4690.01 6035.15 80.87 10.00  16.80 2581.69
   10:42:48.177.29-Jan-2021 4690.01 6079.80 80.87 10.00  17.00 2581.69
   10:42:48.377.29-Jan-2021 4690.01 6079.80 80.87 10.00  17.20 2581.69
   10:42:48.577.29-Jan-2021 4690.01 6180.91 80.87 10.00  17.40 2581.69
   10:42:48.777.29-Jan-2021 4690.01 6196.28 80.87 10.00  17.60 2581.69
   10:42:48.977.29-Jan-2021 4690.01 6185.78 80.87 10.00  17.80 2581.69
   10:42:49.177.29-Jan-2021 4690.01 6168.12 80.87 10.00  18.00 2581.69
   10:42:49.377.29-Jan-2021 4690.01 6168.12 80.87 10.00  18.20 2581.69
   10:42:49.577.29-Jan-2021 4690.01 6228.30 80.87 10.00  18.40 2581.69
   10:42:49.777.29-Jan-2021 4690.01 6251.15 80.87 10.00  18.60 2581.69
   10:42:49.977.29-Jan-2021 4690.01 6250.74 80.87 10.00  18.80 2581.69
   10:42:50.177.29-Jan-2021 4690.01 6279.49 80.86 10.00  19.00 2581.69
   10:42:50.377.29-Jan-2021 4690.01 6279.49 80.86 10.00  19.20 2581.69
   10:42:50.577.29-Jan-2021 4690.01 6277.12 80.86 10.00  19.40 2581.69
   10:42:50.777.29-Jan-2021 4690.01 6110.18 80.86 10.00  19.60 2581.69
   10:42:50.977.29-Jan-2021 4690.01 5990.58 80.86 10.00  19.80 2581.69
   10:42:51.177.29-Jan-2021 4690.01 6033.45 80.86 10.00  20.00 2581.69
   10:42:51.377.29-Jan-2021 4690.01 6033.45 80.86 10.00  20.20 2581.69
   10:42:51.577.29-Jan-2021 4690.01 6202.49 80.86 10.00  20.40 2581.69
   10:42:51.777.29-Jan-2021 4690.01 6107.67 80.86 10.00  20.60 2581.69
   10:42:51.977.29-Jan-2021 4690.01 5988.61 80.86 10.00  20.80 2581.69
   10:42:52.177.29-Jan-2021 4690.01 6224.41 80.86 10.00  21.00 2581.69
   10:42:52.378.29-Jan-2021 4690.01 6224.41 80.86 10.00  21.20 2581.69
   10:42:52.578.29-Jan-2021 4690.01 5806.87 80.86 10.00  21.40 2581.69
   10:42:52.778.29-Jan-2021 4690.01 5820.74 80.86 10.00  21.60 2581.69
   10:42:52.978.29-Jan-2021 4690.01 5828.38 80.85 10.00  21.80 2581.69
   10:42:53.178.29-Jan-2021 4690.01 5832.22 80.85 10.00  22.00 2581.69
   10:42:53.378.29-Jan-2021 4690.01 5832.22 80.85 10.00  22.20 2581.69
   10:42:53.578.29-Jan-2021 4690.01 5838.09 80.85 10.00  22.40 2581.69
