~Version Information
 VERS.                  2.0:   CWLS log ASCII Standard -VERSION 2.0
 WRAP.                   NO:   One line per depth step
~Well Information Block
#MNEM.UNIT     VALUE/NAME     DESCRIPTION
#---------     -----------    ---------------------------
 STRT.S             02:53:50 29-Jan-21: START TIME 02:53:50 29-Jan-21
 STOP.S             03:00:20 29-Jan-21: STOP TIME  03:00:20 29-Jan-21
 STEP.S                   0.00: STEP TIME
 NULL.                 -999.25: NULL VALUE
 DFWT.                        :  DIST FWL TEXT
 DFST.                        :  DIST FSL TEXT
 DMF .             Drill Floor:  DRILL MEAS FROM
 STIM.      00.00.00 25-Sep-20:  START TIME
 DATE.      16.12.48 31-Jan-21:  END TIME
 SPUD.               20-Sep-20:  SPUD DATE
 NREF.                    Grid:  NORTH REFERENCE
 HPTY.       Minimum Curvature:  HOLE POS TYPE
 DMOD.             Drill Model:  DRILL MOD DESC
 SVYD.                  Survey:  SURVEY DESC
 ILTD.               Lithology:  INTERP LTH DESC
 FTOP.          Formation Tops:  FORM TOPS DESC
 RIG .              East Azeri:  RIG NAME
 PDAT.          Mean Sea Level:  PERMANENT DATUM
 FLD .                     ACG:  FIELD NAME
 SON .        AZ-XX-0906591820:  JOB NUMBER
 CTRY.              Azerbaijan:  COUNTRY NAME
 WELL.                     D37:  WELL NAME
 SRVC.     Turan Drilling & Engineering:  CONTRACTOR
 COMP.     BP Exploration (Caspian Sea) ltd.:  COMPANY
 WTYP.                Deviated:  WELL TYPE
 MDS .        Operator Entered:  MAG DATA SOURCE
 UWI .                     N/A:  UNIQUE WELL IDENTIFIER
 API .                     N/A:  API NUMBER
 BASE.              Azerbaijan:  LOGGING EQUIPMENT BASE LOCATION
 REGN.                   EESSA:  REGION
 PROV.                    Baku:  PROVINCE
 STAT.                    Baku:  STATE NAME
 MWDS.                    Baku:  MWD SHOP
 JOBN.        AZ-XX-0906591820:  JOB TICKET NUMB
 DOE .                     N/A:  DOE NUMBER
 DCON.         Sperry Drilling:  DIRECTNL CONTR
 UNIT.                     N/A:  LOGGING EQUIPMENT ID
 CNTY.                        :  COUNTY
 LOC .                        :  LOCATION
 LMF .             Drill Floor:  LOG MEASURED FROM
 TVDS.m                  43.60:  TVDSS CORRECTN
 LATI.deg                40.02:  LATITUDE
 LONG.deg                51.45:  LONGITUDE
 WHNS.m                  11.04:  WELL HEAD N/S
 WHEW.m                 -12.38:  WELL HEAD E/W
 UTMX.m              538763.98:  UTM X
 UTMY.m             4431880.20:  UTM Y
 DFWL.m                   0.00:  DISTANCE FWL
 DFSL.m                   0.00:  DISTANCE FSL
 SDEP.m                 300.00:  START DEPTH
 TDD .m                4900.01:  TOTAL DEPTH (DRILLER)
 VSDR.deg               185.64:  VERT SEC DIRECT
 GVFD.g                   1.00:  GRAVITY FIELD
 MFLD.nT              50301.00:  MAGNETIC FIELD
 MDIP.deg                59.46:  MAGNETIC DIP
 MDEC.deg                 6.43:  MAGNETIC DECL
 GRDC.deg                 0.29:  GRID CORRECTION
 AZTC.deg                 6.14:  AZM TOTAL CORR
 EPD .m                   0.00:  ELEVATION
 EGL .m                   0.00:  GROUND ELEVATION
 WDMS.m                 151.80:  WD ELEV
 APD .m                  43.60:  DEPTH ABOVE PD
 DEP .m                 571.69:  DEPTH
 AGAP.m                  43.60:  AIR GAP
 VSEW.m                 -12.38:  VERT SEC E/W
 VSNS.m                  11.04:  VERT SEC N/S
 EKB .m                  43.60:  KB ELEVATION
 EDF .m                  43.60:  DF ELEVATION
 TDL .m                 412.00:  TOTAL DEPTH (LOGGER)
 VSC .                       0:  VS TO CLOSURE
 MAGU.                 1849300:  MAGUTM CHECKSUM
~Parameter Information Block
#MNEM.UNIT       Value        Description
#---------     -----------    ---------------------------
 AV  .mps                 2.21:  Ann Velocity 
 AVMX.mps                 2.53:  Max Ann Veloc 
 AZIF.deg               144.83:  Azm, Final 
 BHAT.        Rotary Steerable:  BHA Type 
 BROT.°/30m              -0.52:  Build Rotating 
 BS  .in                  6.50:  Bit Size 
 BTPL.psig              209.00:  Bit Press Loss 
 CABU.                      No:  Customer Abuse 
 CGEO.        Ali Isfandiyarov:  Customer Geo 
 COMM.                     tÿr:  Run Comments 1 
 TCS .hr                 61.31:  Time Ciculation Ended 
 CV  .mps                 4.66:  Crit Velocity 
 CVMX.mps                 5.02:  Max Crit Veloc 
 DD1 .          Fariz Nahmatov:  Direct Drillr 1 
 DD2 .            Musa Ahmadov:  Direct Drillr 2 
 DDSV.               Geo-Pilot:  DD Service 
 DEFF.%                 100.00:  % Det Eff 
 DLRX.°/30m               1.44:  Dogleg Rot Max 
 DLSO.°/30m               0.83:  Dogleg Oriented 
 DLSX.°/30m               1.44:  Dogleg Str Max 
 DRET.      08.30.00 30-Jan-21:  Drill End Time 
 DRST.      21.15.00 27-Jan-21:  Drill Start Tim 
 DTIM.hr                 37.28:  Time Drilling 
 EDEP.m                4867.01:  End Depth 
 ENG1.          Rasim Hashimov:  Engineer 1 
 ENG2.         Almaz Almadatov:  Engineer 2 
 ENG3.        Tamerlan Ahmadov:  Engineer 3 
 ETIM.      22.41.04 31-Jan-21:  End Time 
 FLOI.gpm               400.00:  Flow In 
 FLON.gpm               300.00:  Flow In Min 
 FLOS.cptm                0.00:  Fluid Loss 
 FLOX.gpm               400.00:  Flow In Max 
 HFLO.                      No:  High Flow 
 HPRE.                      No:  High Pressure 
 HTEM.                      No:  High Temp 
 HYDO.m                   1.80:  Hydro Offset 
 IFIN.deg                65.63:  Inc, Final 
 IMAX.deg                66.77:  Inc Max 
 IMIN.deg                65.61:  Inc Min 
 IMND.m                4612.67:  Inc Min Depth 
 IMXD.m                4811.63:  Inc Max Depth 
 JARR.                      No:  Jarring 
 LETM.      08.30.00 30-Jan-21:  Log End Time 
 LOST.hr                     0:  Lost Rig Time 
 LSTM.      21.15.00 27-Jan-21:  Log Start Time 
 MDCL.ppm             41000.00:  Mud Chlorides 
 MDES.     Inversion Oil/Synthetic:  Mud Desc 
 DFD .sg                  1.40:  Mud Density 
 MDMN.sg                  1.40:  Dens Mud Min 
 MDMX.sg                  1.40:  Dens Mud Max 
 MOIL.                      53:  Run Mud Oil % 
 MOWR.                   66:34:  Run Mud OWR 
 MSND.                     0.2:  Run Mud Sand % 
 MSOL.                    17.9:  Run Mud Solids% 
 DFV .spqt               77.00:  Mud Viscosity 
 MWOD.in                  4.75:  MWD Tool OD 
 MWSI.                      No:  Serv Intrp, MWD 
 OTIM.hr                110.38:  Time Operating 
 PCON.           Look Like New:  Pad Condition 
 PMAX.psia             5300.00:  Press Op, Max 
 PV  .cP                 57.00:  Mud PV 
 RUN .                    1200:  Run Number 
 ROPA.m/hr               13.00:  ROP Avg 
 ROPN.m/hr                9.00:  ROP Min 
 ROPX.m/hr               15.00:  ROP Max 
 RPMA.rpm               120.00:  RPM Surface Avg 
 RPMN.rpm               100.00:  RPM Surface Min 
 RPMX.rpm               135.00:  RPM Surface Max 
 RRUN.                    1200:  Rig Run Number 
 RTIM.hr                  2.65:  Time Reaming 
 SAZI.deg               145.04:  Azm, Start 
 SDEP.m                4455.01:  Start Depth 
 SIDD.                      No:  Serv Intrp, DD 
 SINC.deg                65.83:  Inc, Start 
 SPPA.psig             5037.00:  SPP Avg 
 SPPN.psig             4430.00:  SPP Min 
 SPPX.psig             5300.00:  SPP Max 
 STIM.      22.41.04 26-Jan-21:  Start Time 
 SVCS.                 DD, MWD:  Services 
 SVER.                    9.20:  Sperry Version 
 TDAT.m                 412.00:  Tot Depth Attmp 
 TDDF.                      No:  Trip for DD 
 TDLG.m                 412.00:  Tot Depth Loggd 
 TFF .                      No:  Trip for Fail 
 TQAA.f-kp               15.00:  Torque Abs Avg 
 TQAN.f-kp               12.00:  Torque Abs Min 
 TQAX.f-kp               17.00:  Torque Abs Max 
 TRRT.°/30m               1.18:  Turn Rotating 
 MRT .                     ADR:  Maximum Recorded Temperature 
 TTMX.degC               88.24:  Max Tool Temp 
 VS01.                90619458:  Virtual Str1 SN 
 VS02.                90519326:  Virtual Str2 SN 
 VS03.                90522176:  Virtual Str3 SN 
 VS04.                90512683:  Virtual Str4 SN 
 WBMN.klb                 1.00:  WOB Min 
 WITN.           Murad Giluyev:  Customer Rep 
 WITN.     Kamran Kemberlinski:  Customer Rep 2 
 WOBA.klb                 5.00:  WOB Avg 
 WOBX.klb                 9.00:  WOB Max 
 YP  .lhf2               41.00:  Yield Point 
~Curve Information Block
#MNEM.UNIT                 API CODE     Curve Description
#---------               -----------    ---------------------------
 TIME.HHMMSS            00 000 000 000:  GT Time & Date
 GTDEPTH.m              00 000 000 000:  GT Depth
 GTPQH.psia             00 000 000 000:  GT HR Quartz Pressure
 GTTQ.degC              00 000 000 000:  GT Quartz Temperature
 GTTN.NONE              00 000 000 000:  GT Test Number
 GTET.sec               00 000 000 000:  GT Elapsed Test Time
 GTTVD.m                00 000 000 000:  GT True Vertical Depth
#Other Information
#
#WARRANTY: Halliburton will use its best efforts to furnish customers with 
#accurate information and interpretations that are part of, and incident to, the services 
#provided.  However, Halliburton cannot and does not warrant the accuracy 
#or correctness of such information and interpretations.  Under no circumstances should any 
#such information or interpretation be relied upon as the sole basis for any drilling, 
#completion, production, or financial decision or any procedure involving any risk to the 
#safety of any drilling venture, drilling rig or its crew or any other third party.  The 
#Customer has full responsibility for all drilling, completion and production operation.  
#Halliburton makes no representations or warranties, either expressed or 
#implied, including, but not limited to, the implied warranties of merchantability or fitness 
#for a particular purpose, with respect to the services rendered.  In no event will 
#Halliburton be liable for failure to obtain any particular results or for 
#any damages, including, but not limited to, indirect, special or consequential damages, 
#resulting from the use of any information or interpretation provided by Halliburton.
#
~A           TIME           GTDEPTH  GTPQH  GTTQ  GTTN  GTET   GTTVD  
# ...
   02:55:22.791.29-Jan-2021 4635.01 3261.00 77.47 7.00  92.01 2559.44
   02:55:22.991.29-Jan-2021 4635.01 3261.00 77.47 7.00  92.21 2559.44
   02:55:23.191.29-Jan-2021 4635.01 3260.87 77.47 7.00  92.41 2559.44
   02:55:23.391.29-Jan-2021 4635.01 3261.27 77.47 7.00  92.61 2559.44
   02:55:23.591.29-Jan-2021 4635.01 3261.03 77.47 7.00  92.81 2559.44
   02:55:23.791.29-Jan-2021 4635.01 3261.09 77.47 7.00  93.01 2559.44
   02:55:23.991.29-Jan-2021 4635.01 3261.09 77.47 7.00  93.21 2559.44
   02:55:24.191.29-Jan-2021 4635.01 3261.09 77.47 7.00  93.41 2559.44
   02:55:24.391.29-Jan-2021 4635.01 3261.09 77.47 7.00  93.61 2559.44
   02:55:24.591.29-Jan-2021 4635.01 3260.88 77.47 7.00  93.81 2559.44
   02:55:24.791.29-Jan-2021 4635.01 3261.27 77.47 7.00  94.01 2559.44
   02:55:24.991.29-Jan-2021 4635.01 3261.27 77.47 7.00  94.21 2559.44
   02:55:25.191.29-Jan-2021 4635.01 3261.08 77.47 7.00  94.41 2559.44
   02:55:25.391.29-Jan-2021 4635.01 3261.11 77.47 7.00  94.61 2559.44
   02:55:25.591.29-Jan-2021 4635.01 3261.00 77.47 7.00  94.81 2559.44
   02:55:25.791.29-Jan-2021 4635.01 3261.12 77.47 7.00  95.01 2559.44
   02:55:25.992.29-Jan-2021 4635.01 3261.12 77.47 7.00  95.21 2559.44
   02:55:26.192.29-Jan-2021 4635.01 3261.06 77.47 7.00  95.41 2559.44
   02:55:26.392.29-Jan-2021 4635.01 3261.09 77.46 7.00  95.61 2559.44
   02:55:26.592.29-Jan-2021 4635.01 3261.12 77.46 7.00  95.81 2559.44
   02:55:26.792.29-Jan-2021 4635.01 3260.94 77.46 7.00  96.01 2559.44
   02:55:26.992.29-Jan-2021 4635.01 3260.94 77.46 7.00  96.21 2559.44
   02:55:27.192.29-Jan-2021 4635.01 3261.01 77.46 7.00  96.41 2559.44
   02:55:27.392.29-Jan-2021 4635.01 3261.10 77.46 7.00  96.61 2559.44
   02:55:27.592.29-Jan-2021 4635.01 3261.09 77.46 7.00  96.81 2559.44
   02:55:27.792.29-Jan-2021 4635.01 3261.12 77.46 7.00  97.01 2559.44
   02:55:27.992.29-Jan-2021 4635.01 3261.12 77.46 7.00  97.21 2559.44
   02:55:28.192.29-Jan-2021 4635.01 3261.10 77.46 7.00  97.41 2559.44
   02:55:28.392.29-Jan-2021 4635.01 3261.07 77.46 7.00  97.61 2559.44
   02:55:28.592.29-Jan-2021 4635.01 3261.08 77.46 7.00  97.81 2559.44
   02:55:28.792.29-Jan-2021 4635.01 3261.09 77.46 7.00  98.01 2559.44
   02:55:28.992.29-Jan-2021 4635.01 3261.09 77.46 7.00  98.21 2559.44
   02:55:29.192.29-Jan-2021 4635.01 3261.11 77.46 7.00  98.41 2559.44
   02:55:29.392.29-Jan-2021 4635.01 3261.08 77.46 7.00  98.61 2559.44
   02:55:29.592.29-Jan-2021 4635.01 3261.06 77.46 7.00  98.81 2559.44
   02:55:29.792.29-Jan-2021 4635.01 3261.09 77.46 7.00  99.01 2559.44
   02:55:29.992.29-Jan-2021 4635.01 3261.09 77.46 7.00  99.21 2559.44
   02:55:30.192.29-Jan-2021 4635.01 3261.09 77.46 7.00  99.41 2559.44
   02:55:30.392.29-Jan-2021 4635.01 3260.93 77.45 7.00  99.61 2559.44
   02:55:30.592.29-Jan-2021 4635.01 3261.17 77.45 7.00  99.81 2559.44
   02:55:30.792.29-Jan-2021 4635.01 3260.98 77.45 7.00 100.01 2559.44
   02:55:30.992.29-Jan-2021 4635.01 3260.98 77.45 7.00 100.21 2559.44
   02:55:31.192.29-Jan-2021 4635.01 3261.09 77.45 7.00 100.41 2559.44
   02:55:31.392.29-Jan-2021 4635.01 3261.09 77.45 7.00 100.61 2559.44
   02:55:31.592.29-Jan-2021 4635.01 3261.06 77.45 7.00 100.81 2559.44
   02:55:31.792.29-Jan-2021 4635.01 3261.09 77.45 7.00 101.01 2559.44
   02:55:31.992.29-Jan-2021 4635.01 3261.09 77.45 7.00 101.21 2559.44
   02:55:32.192.29-Jan-2021 4635.01 3261.06 77.45 7.00 101.41 2559.44
   02:55:32.392.29-Jan-2021 4635.01 3261.08 77.45 7.00 101.61 2559.44
   02:55:32.592.29-Jan-2021 4635.01 3261.06 77.45 7.00 101.81 2559.44
   02:55:32.792.29-Jan-2021 4635.01 3261.09 77.45 7.00 102.01 2559.44
   02:55:32.992.29-Jan-2021 4635.01 3261.09 77.45 7.00 102.21 2559.44
   02:55:33.193.29-Jan-2021 4635.01 3261.06 77.45 7.00 102.41 2559.44
   02:55:33.393.29-Jan-2021 4635.01 3261.08 77.45 7.00 102.61 2559.44
   02:55:33.593.29-Jan-2021 4635.01 3260.94 77.45 7.00 102.81 2559.44
   02:55:33.793.29-Jan-2021 4635.01 3261.15 77.45 7.00 103.01 2559.44
   02:55:33.993.29-Jan-2021 4635.01 3261.15 77.45 7.00 103.21 2559.44
   02:55:34.193.29-Jan-2021 4635.01 3261.12 77.45 7.00 103.41 2559.44
   02:55:34.393.29-Jan-2021 4635.01 3260.85 77.45 7.00 103.61 2559.44
   02:55:34.593.29-Jan-2021 4635.01 3261.27 77.45 7.00 103.81 2559.44
   02:55:34.793.29-Jan-2021 4635.01 3261.01 77.44 7.00 104.01 2559.44
   02:55:34.993.29-Jan-2021 4635.01 3261.01 77.44 7.00 104.21 2559.44
   02:55:35.193.29-Jan-2021 4635.01 3261.11 77.44 7.00 104.41 2559.44
   02:55:35.393.29-Jan-2021 4635.01 3261.05 77.44 7.00 104.61 2559.44
   02:55:35.593.29-Jan-2021 4635.01 3261.08 77.44 7.00 104.81 2559.44
   02:55:35.793.29-Jan-2021 4635.01 3260.84 77.44 7.00 105.01 2559.44
   02:55:35.993.29-Jan-2021 4635.01 3260.84 77.44 7.00 105.21 2559.44
   02:55:36.193.29-Jan-2021 4635.01 3261.02 77.44 7.00 105.41 2559.44
   02:55:36.393.29-Jan-2021 4635.01 3261.04 77.44 7.00 105.61 2559.44
   02:55:36.593.29-Jan-2021 4635.01 3261.08 77.44 7.00 105.81 2559.44
   02:55:36.793.29-Jan-2021 4635.01 3260.98 77.44 7.00 106.01 2559.44
   02:55:36.993.29-Jan-2021 4635.01 3260.98 77.44 7.00 106.21 2559.44
   02:55:37.193.29-Jan-2021 4635.01 3261.07 77.44 7.00 106.41 2559.44
   02:55:37.393.29-Jan-2021 4635.01 3261.01 77.44 7.00 106.61 2559.44
   02:55:37.593.29-Jan-2021 4635.01 3261.05 77.44 7.00 106.81 2559.44
   02:55:37.793.29-Jan-2021 4635.01 3261.08 77.44 7.00 107.01 2559.44
   02:55:37.993.29-Jan-2021 4635.01 3261.08 77.44 7.00 107.21 2559.44
   02:55:38.193.29-Jan-2021 4635.01 3261.14 77.44 7.00 107.42 2559.44
   02:55:38.393.29-Jan-2021 4635.01 3261.00 77.44 7.00 107.62 2559.44
   02:55:38.593.29-Jan-2021 4635.01 3261.06 77.44 7.00 107.82 2559.44
   02:55:38.793.29-Jan-2021 4635.01 3261.07 77.44 7.00 108.02 2559.44
   02:55:38.993.29-Jan-2021 4635.01 3261.07 77.44 7.00 108.22 2559.44
   02:55:39.193.29-Jan-2021 4635.01 3261.07 77.44 7.00 108.42 2559.44
   02:55:39.393.29-Jan-2021 4635.01 3261.07 77.43 7.00 108.62 2559.44
   02:55:39.593.29-Jan-2021 4635.01 3261.04 77.43 7.00 108.82 2559.44
   02:55:39.793.29-Jan-2021 4635.01 3261.05 77.43 7.00 109.02 2559.44
   02:55:39.993.29-Jan-2021 4635.01 3261.05 77.43 7.00 109.22 2559.44
   02:55:40.193.29-Jan-2021 4635.01 3261.05 77.43 7.00 109.42 2559.44
   02:55:40.394.29-Jan-2021 4635.01 3261.05 77.43 7.00 109.62 2559.44
   02:55:40.594.29-Jan-2021 4635.01 3261.06 77.43 7.00 109.82 2559.44
   02:55:40.794.29-Jan-2021 4635.01 3261.03 77.43 7.00 110.02 2559.44
   02:55:40.994.29-Jan-2021 4635.01 3261.03 77.43 7.00 110.22 2559.44
   02:55:41.194.29-Jan-2021 4635.01 3261.03 77.43 7.00 110.42 2559.44
   02:55:41.394.29-Jan-2021 4635.01 3261.06 77.43 7.00 110.62 2559.44
   02:55:41.594.29-Jan-2021 4635.01 3260.92 77.43 7.00 110.82 2559.44
   02:55:41.794.29-Jan-2021 4635.01 3261.13 77.43 7.00 111.02 2559.44
   02:55:41.994.29-Jan-2021 4635.01 3261.13 77.43 7.00 111.22 2559.44
   02:55:42.194.29-Jan-2021 4635.01 3261.07 77.43 7.00 111.42 2559.44
   02:55:42.394.29-Jan-2021 4635.01 3261.06 77.43 7.00 111.62 2559.44
   02:55:42.594.29-Jan-2021 4635.01 3261.09 77.43 7.00 111.82 2559.44
   02:55:42.794.29-Jan-2021 4635.01 3261.02 77.43 7.00 112.02 2559.44
   02:55:42.994.29-Jan-2021 4635.01 3261.02 77.43 7.00 112.22 2559.44
   02:55:43.194.29-Jan-2021 4635.01 3261.06 77.43 7.00 112.42 2559.44
   02:55:43.394.29-Jan-2021 4635.01 3261.01 77.42 7.00 112.62 2559.44
   02:55:43.594.29-Jan-2021 4635.01 3261.06 77.42 7.00 112.82 2559.44
   02:55:43.794.29-Jan-2021 4635.01 3261.04 77.42 7.00 113.02 2559.44
   02:55:43.994.29-Jan-2021 4635.01 3261.04 77.42 7.00 113.22 2559.44
   02:55:44.194.29-Jan-2021 4635.01 3261.00 77.42 7.00 113.42 2559.44
   02:55:44.394.29-Jan-2021 4635.01 3261.04 77.42 7.00 113.62 2559.44
   02:55:44.594.29-Jan-2021 4635.01 3261.04 77.42 7.00 113.82 2559.44
   02:55:44.794.29-Jan-2021 4635.01 3260.90 77.42 7.00 114.02 2559.44
   02:55:44.994.29-Jan-2021 4635.01 3260.90 77.42 7.00 114.22 2559.44
   02:55:45.194.29-Jan-2021 4635.01 3260.95 77.42 7.00 114.42 2559.44
   02:55:45.394.29-Jan-2021 4635.01 3261.07 77.42 7.00 114.62 2559.44
   02:55:45.594.29-Jan-2021 4635.01 3260.82 77.42 7.00 114.82 2559.44
