~Version Information
 VERS.                  2.0:   CWLS log ASCII Standard -VERSION 2.0
 WRAP.                   NO:   One line per depth step
~Well Information Block
#MNEM.UNIT     VALUE/NAME     DESCRIPTION
#---------     -----------    ---------------------------
 STRT.S             02:53:50 29-Jan-21: START TIME 02:53:50 29-Jan-21
 STOP.S             03:00:20 29-Jan-21: STOP TIME  03:00:20 29-Jan-21
 STEP.S                   0.00: STEP TIME
 NULL.                 -999.25: NULL VALUE
 DFWT.                        :  DIST FWL TEXT
 DFST.                        :  DIST FSL TEXT
 DMF .             Drill Floor:  DRILL MEAS FROM
 STIM.      00.00.00 25-Sep-20:  START TIME
 DATE.      16.12.48 31-Jan-21:  END TIME
 SPUD.               20-Sep-20:  SPUD DATE
 NREF.                    Grid:  NORTH REFERENCE
 HPTY.       Minimum Curvature:  HOLE POS TYPE
 DMOD.             Drill Model:  DRILL MOD DESC
 SVYD.                  Survey:  SURVEY DESC
 ILTD.               Lithology:  INTERP LTH DESC
 FTOP.          Formation Tops:  FORM TOPS DESC
 RIG .              East Azeri:  RIG NAME
 PDAT.          Mean Sea Level:  PERMANENT DATUM
 FLD .                     ACG:  FIELD NAME
 SON .        AZ-XX-0906591820:  JOB NUMBER
 CTRY.              Azerbaijan:  COUNTRY NAME
 WELL.                     D37:  WELL NAME
 SRVC.     Turan Drilling & Engineering:  CONTRACTOR
 COMP.     BP Exploration (Caspian Sea) ltd.:  COMPANY
 WTYP.                Deviated:  WELL TYPE
 MDS .        Operator Entered:  MAG DATA SOURCE
 UWI .                     N/A:  UNIQUE WELL IDENTIFIER
 API .                     N/A:  API NUMBER
 BASE.              Azerbaijan:  LOGGING EQUIPMENT BASE LOCATION
 REGN.                   EESSA:  REGION
 PROV.                    Baku:  PROVINCE
 STAT.                    Baku:  STATE NAME
 MWDS.                    Baku:  MWD SHOP
 JOBN.        AZ-XX-0906591820:  JOB TICKET NUMB
 DOE .                     N/A:  DOE NUMBER
 DCON.         Sperry Drilling:  DIRECTNL CONTR
 UNIT.                     N/A:  LOGGING EQUIPMENT ID
 CNTY.                        :  COUNTY
 LOC .                        :  LOCATION
 LMF .             Drill Floor:  LOG MEASURED FROM
 TVDS.m                  43.60:  TVDSS CORRECTN
 LATI.deg                40.02:  LATITUDE
 LONG.deg                51.45:  LONGITUDE
 WHNS.m                  11.04:  WELL HEAD N/S
 WHEW.m                 -12.38:  WELL HEAD E/W
 UTMX.m              538763.98:  UTM X
 UTMY.m             4431880.20:  UTM Y
 DFWL.m                   0.00:  DISTANCE FWL
 DFSL.m                   0.00:  DISTANCE FSL
 SDEP.m                 300.00:  START DEPTH
 TDD .m                4900.01:  TOTAL DEPTH (DRILLER)
 VSDR.deg               185.64:  VERT SEC DIRECT
 GVFD.g                   1.00:  GRAVITY FIELD
 MFLD.nT              50301.00:  MAGNETIC FIELD
 MDIP.deg                59.46:  MAGNETIC DIP
 MDEC.deg                 6.43:  MAGNETIC DECL
 GRDC.deg                 0.29:  GRID CORRECTION
 AZTC.deg                 6.14:  AZM TOTAL CORR
 EPD .m                   0.00:  ELEVATION
 EGL .m                   0.00:  GROUND ELEVATION
 WDMS.m                 151.80:  WD ELEV
 APD .m                  43.60:  DEPTH ABOVE PD
 DEP .m                 571.69:  DEPTH
 AGAP.m                  43.60:  AIR GAP
 VSEW.m                 -12.38:  VERT SEC E/W
 VSNS.m                  11.04:  VERT SEC N/S
 EKB .m                  43.60:  KB ELEVATION
 EDF .m                  43.60:  DF ELEVATION
 TDL .m                 412.00:  TOTAL DEPTH (LOGGER)
 VSC .                       0:  VS TO CLOSURE
 MAGU.                 1849300:  MAGUTM CHECKSUM
~Parameter Information Block
#MNEM.UNIT       Value        Description
#---------     -----------    ---------------------------
 AV  .mps                 2.21:  Ann Velocity 
 AVMX.mps                 2.53:  Max Ann Veloc 
 AZIF.deg               144.83:  Azm, Final 
 BHAT.        Rotary Steerable:  BHA Type 
 BROT.°/30m              -0.52:  Build Rotating 
 BS  .in                  6.50:  Bit Size 
 BTPL.psig              209.00:  Bit Press Loss 
 CABU.                      No:  Customer Abuse 
 CGEO.        Ali Isfandiyarov:  Customer Geo 
 COMM.                     tÿr:  Run Comments 1 
 TCS .hr                 61.31:  Time Ciculation Ended 
 CV  .mps                 4.66:  Crit Velocity 
 CVMX.mps                 5.02:  Max Crit Veloc 
 DD1 .          Fariz Nahmatov:  Direct Drillr 1 
 DD2 .            Musa Ahmadov:  Direct Drillr 2 
 DDSV.               Geo-Pilot:  DD Service 
 DEFF.%                 100.00:  % Det Eff 
 DLRX.°/30m               1.44:  Dogleg Rot Max 
 DLSO.°/30m               0.83:  Dogleg Oriented 
 DLSX.°/30m               1.44:  Dogleg Str Max 
 DRET.      08.30.00 30-Jan-21:  Drill End Time 
 DRST.      21.15.00 27-Jan-21:  Drill Start Tim 
 DTIM.hr                 37.28:  Time Drilling 
 EDEP.m                4867.01:  End Depth 
 ENG1.          Rasim Hashimov:  Engineer 1 
 ENG2.         Almaz Almadatov:  Engineer 2 
 ENG3.        Tamerlan Ahmadov:  Engineer 3 
 ETIM.      22.41.04 31-Jan-21:  End Time 
 FLOI.gpm               400.00:  Flow In 
 FLON.gpm               300.00:  Flow In Min 
 FLOS.cptm                0.00:  Fluid Loss 
 FLOX.gpm               400.00:  Flow In Max 
 HFLO.                      No:  High Flow 
 HPRE.                      No:  High Pressure 
 HTEM.                      No:  High Temp 
 HYDO.m                   1.80:  Hydro Offset 
 IFIN.deg                65.63:  Inc, Final 
 IMAX.deg                66.77:  Inc Max 
 IMIN.deg                65.61:  Inc Min 
 IMND.m                4612.67:  Inc Min Depth 
 IMXD.m                4811.63:  Inc Max Depth 
 JARR.                      No:  Jarring 
 LETM.      08.30.00 30-Jan-21:  Log End Time 
 LOST.hr                     0:  Lost Rig Time 
 LSTM.      21.15.00 27-Jan-21:  Log Start Time 
 MDCL.ppm             41000.00:  Mud Chlorides 
 MDES.     Inversion Oil/Synthetic:  Mud Desc 
 DFD .sg                  1.40:  Mud Density 
 MDMN.sg                  1.40:  Dens Mud Min 
 MDMX.sg                  1.40:  Dens Mud Max 
 MOIL.                      53:  Run Mud Oil % 
 MOWR.                   66:34:  Run Mud OWR 
 MSND.                     0.2:  Run Mud Sand % 
 MSOL.                    17.9:  Run Mud Solids% 
 DFV .spqt               77.00:  Mud Viscosity 
 MWOD.in                  4.75:  MWD Tool OD 
 MWSI.                      No:  Serv Intrp, MWD 
 OTIM.hr                110.38:  Time Operating 
 PCON.           Look Like New:  Pad Condition 
 PMAX.psia             5300.00:  Press Op, Max 
 PV  .cP                 57.00:  Mud PV 
 RUN .                    1200:  Run Number 
 ROPA.m/hr               13.00:  ROP Avg 
 ROPN.m/hr                9.00:  ROP Min 
 ROPX.m/hr               15.00:  ROP Max 
 RPMA.rpm               120.00:  RPM Surface Avg 
 RPMN.rpm               100.00:  RPM Surface Min 
 RPMX.rpm               135.00:  RPM Surface Max 
 RRUN.                    1200:  Rig Run Number 
 RTIM.hr                  2.65:  Time Reaming 
 SAZI.deg               145.04:  Azm, Start 
 SDEP.m                4455.01:  Start Depth 
 SIDD.                      No:  Serv Intrp, DD 
 SINC.deg                65.83:  Inc, Start 
 SPPA.psig             5037.00:  SPP Avg 
 SPPN.psig             4430.00:  SPP Min 
 SPPX.psig             5300.00:  SPP Max 
 STIM.      22.41.04 26-Jan-21:  Start Time 
 SVCS.                 DD, MWD:  Services 
 SVER.                    9.20:  Sperry Version 
 TDAT.m                 412.00:  Tot Depth Attmp 
 TDDF.                      No:  Trip for DD 
 TDLG.m                 412.00:  Tot Depth Loggd 
 TFF .                      No:  Trip for Fail 
 TQAA.f-kp               15.00:  Torque Abs Avg 
 TQAN.f-kp               12.00:  Torque Abs Min 
 TQAX.f-kp               17.00:  Torque Abs Max 
 TRRT.°/30m               1.18:  Turn Rotating 
 MRT .                     ADR:  Maximum Recorded Temperature 
 TTMX.degC               88.24:  Max Tool Temp 
 VS01.                90619458:  Virtual Str1 SN 
 VS02.                90519326:  Virtual Str2 SN 
 VS03.                90522176:  Virtual Str3 SN 
 VS04.                90512683:  Virtual Str4 SN 
 WBMN.klb                 1.00:  WOB Min 
 WITN.           Murad Giluyev:  Customer Rep 
 WITN.     Kamran Kemberlinski:  Customer Rep 2 
 WOBA.klb                 5.00:  WOB Avg 
 WOBX.klb                 9.00:  WOB Max 
 YP  .lhf2               41.00:  Yield Point 
~Curve Information Block
#MNEM.UNIT                 API CODE     Curve Description
#---------               -----------    ---------------------------
 TIME.HHMMSS            00 000 000 000:  GT Time & Date
 GTDEPTH.m              00 000 000 000:  GT Depth
 GTPQH.psia             00 000 000 000:  GT HR Quartz Pressure
 GTTQ.degC              00 000 000 000:  GT Quartz Temperature
 GTTN.NONE              00 000 000 000:  GT Test Number
 GTET.sec               00 000 000 000:  GT Elapsed Test Time
 GTTVD.m                00 000 000 000:  GT True Vertical Depth
#Other Information
#
#WARRANTY: Halliburton will use its best efforts to furnish customers with 
#accurate information and interpretations that are part of, and incident to, the services 
#provided.  However, Halliburton cannot and does not warrant the accuracy 
#or correctness of such information and interpretations.  Under no circumstances should any 
#such information or interpretation be relied upon as the sole basis for any drilling, 
#completion, production, or financial decision or any procedure involving any risk to the 
#safety of any drilling venture, drilling rig or its crew or any other third party.  The 
#Customer has full responsibility for all drilling, completion and production operation.  
#Halliburton makes no representations or warranties, either expressed or 
#implied, including, but not limited to, the implied warranties of merchantability or fitness 
#for a particular purpose, with respect to the services rendered.  In no event will 
#Halliburton be liable for failure to obtain any particular results or for 
#any damages, including, but not limited to, indirect, special or consequential damages, 
#resulting from the use of any information or interpretation provided by Halliburton.
#
~A           TIME           GTDEPTH  GTPQH  GTTQ  GTTN  GTET   GTTVD  
# ...
   02:58:26.817.29-Jan-2021 4635.01 3260.37 77.11 7.00 276.04 2559.44
   02:58:27.017.29-Jan-2021 4635.01 3260.37 77.11 7.00 276.24 2559.44
   02:58:27.217.29-Jan-2021 4635.01 3260.35 77.11 7.00 276.44 2559.44
   02:58:27.417.29-Jan-2021 4635.01 3260.37 77.11 7.00 276.64 2559.44
   02:58:27.617.29-Jan-2021 4635.01 3260.38 77.11 7.00 276.84 2559.44
   02:58:27.817.29-Jan-2021 4635.01 3260.35 77.11 7.00 277.04 2559.44
   02:58:28.017.29-Jan-2021 4635.01 3260.35 77.11 7.00 277.24 2559.44
   02:58:28.217.29-Jan-2021 4635.01 3260.34 77.11 7.00 277.44 2559.44
   02:58:28.417.29-Jan-2021 4635.01 3260.38 77.11 7.00 277.64 2559.44
   02:58:28.617.29-Jan-2021 4635.01 3260.35 77.11 7.00 277.84 2559.44
   02:58:28.817.29-Jan-2021 4635.01 3260.36 77.11 7.00 278.04 2559.44
   02:58:29.017.29-Jan-2021 4635.01 3260.36 77.11 7.00 278.24 2559.44
   02:58:29.217.29-Jan-2021 4635.01 3260.42 77.10 7.00 278.44 2559.44
   02:58:29.417.29-Jan-2021 4635.01 3260.42 77.10 7.00 278.64 2559.44
   02:58:29.617.29-Jan-2021 4635.01 3260.33 77.10 7.00 278.84 2559.44
   02:58:29.817.29-Jan-2021 4635.01 3260.42 77.10 7.00 279.04 2559.44
   02:58:30.017.29-Jan-2021 4635.01 3260.42 77.10 7.00 279.24 2559.44
   02:58:30.217.29-Jan-2021 4635.01 3260.43 77.10 7.00 279.44 2559.44
   02:58:30.417.29-Jan-2021 4635.01 3260.37 77.10 7.00 279.64 2559.44
   02:58:30.617.29-Jan-2021 4635.01 3260.42 77.10 7.00 279.84 2559.44
   02:58:30.817.29-Jan-2021 4635.01 3260.36 77.10 7.00 280.04 2559.44
   02:58:31.017.29-Jan-2021 4635.01 3260.36 77.10 7.00 280.24 2559.44
   02:58:31.217.29-Jan-2021 4635.01 3260.37 77.10 7.00 280.44 2559.44
   02:58:31.417.29-Jan-2021 4635.01 3260.38 77.10 7.00 280.64 2559.44
   02:58:31.617.29-Jan-2021 4635.01 3260.38 77.10 7.00 280.84 2559.44
   02:58:31.817.29-Jan-2021 4635.01 3260.37 77.10 7.00 281.04 2559.44
   02:58:32.018.29-Jan-2021 4635.01 3260.37 77.10 7.00 281.24 2559.44
   02:58:32.218.29-Jan-2021 4635.01 3260.30 77.10 7.00 281.44 2559.44
   02:58:32.418.29-Jan-2021 4635.01 3260.45 77.10 7.00 281.64 2559.44
   02:58:32.618.29-Jan-2021 4635.01 3260.44 77.10 7.00 281.84 2559.44
   02:58:32.818.29-Jan-2021 4635.01 3260.35 77.10 7.00 282.04 2559.44
   02:58:33.018.29-Jan-2021 4635.01 3260.35 77.10 7.00 282.24 2559.44
   02:58:33.218.29-Jan-2021 4635.01 3260.39 77.10 7.00 282.44 2559.44
   02:58:33.418.29-Jan-2021 4635.01 3260.48 77.10 7.00 282.64 2559.44
   02:58:33.618.29-Jan-2021 4635.01 3260.35 77.10 7.00 282.84 2559.44
   02:58:33.818.29-Jan-2021 4635.01 3260.47 77.10 7.00 283.04 2559.44
   02:58:34.018.29-Jan-2021 4635.01 3260.47 77.10 7.00 283.24 2559.44
   02:58:34.218.29-Jan-2021 4635.01 3260.43 77.10 7.00 283.44 2559.44
   02:58:34.418.29-Jan-2021 4635.01 3260.43 77.10 7.00 283.64 2559.44
   02:58:34.618.29-Jan-2021 4635.01 3260.35 77.10 7.00 283.84 2559.44
   02:58:34.818.29-Jan-2021 4635.01 3260.51 77.10 7.00 284.04 2559.44
   02:58:35.018.29-Jan-2021 4635.01 3260.51 77.10 7.00 284.24 2559.44
   02:58:35.218.29-Jan-2021 4635.01 3260.47 77.10 7.00 284.44 2559.44
   02:58:35.418.29-Jan-2021 4635.01 3260.41 77.09 7.00 284.64 2559.44
   02:58:35.618.29-Jan-2021 4635.01 3260.42 77.09 7.00 284.84 2559.44
   02:58:35.818.29-Jan-2021 4635.01 3260.45 77.09 7.00 285.04 2559.44
   02:58:36.018.29-Jan-2021 4635.01 3260.45 77.09 7.00 285.24 2559.44
   02:58:36.218.29-Jan-2021 4635.01 3260.48 77.09 7.00 285.44 2559.44
   02:58:36.418.29-Jan-2021 4635.01 3260.42 77.09 7.00 285.64 2559.44
   02:58:36.618.29-Jan-2021 4635.01 3260.46 77.09 7.00 285.84 2559.44
   02:58:36.818.29-Jan-2021 4635.01 3260.32 77.09 7.00 286.04 2559.44
   02:58:37.018.29-Jan-2021 4635.01 3260.32 77.09 7.00 286.24 2559.44
   02:58:37.218.29-Jan-2021 4635.01 3260.32 77.09 7.00 286.44 2559.44
   02:58:37.418.29-Jan-2021 4635.01 3260.48 77.09 7.00 286.64 2559.44
   02:58:37.618.29-Jan-2021 4635.01 3260.42 77.09 7.00 286.84 2559.44
   02:58:37.818.29-Jan-2021 4635.01 3260.46 77.09 7.00 287.04 2559.44
   02:58:38.018.29-Jan-2021 4635.01 3260.46 77.09 7.00 287.24 2559.44
   02:58:38.218.29-Jan-2021 4635.01 3260.44 77.09 7.00 287.44 2559.44
   02:58:38.418.29-Jan-2021 4635.01 3260.42 77.09 7.00 287.64 2559.44
   02:58:38.618.29-Jan-2021 4635.01 3260.41 77.09 7.00 287.84 2559.44
   02:58:38.818.29-Jan-2021 4635.01 3260.42 77.09 7.00 288.04 2559.44
   02:58:39.018.29-Jan-2021 4635.01 3260.42 77.09 7.00 288.24 2559.44
   02:58:39.219.29-Jan-2021 4635.01 3260.42 77.09 7.00 288.44 2559.44
   02:58:39.419.29-Jan-2021 4635.01 3260.39 77.09 7.00 288.64 2559.44
   02:58:39.619.29-Jan-2021 4635.01 3260.43 77.09 7.00 288.84 2559.44
   02:58:39.819.29-Jan-2021 4635.01 3260.39 77.09 7.00 289.04 2559.44
   02:58:40.019.29-Jan-2021 4635.01 3260.39 77.09 7.00 289.24 2559.44
   02:58:40.219.29-Jan-2021 4635.01 3260.39 77.09 7.00 289.44 2559.44
   02:58:40.419.29-Jan-2021 4635.01 3260.38 77.09 7.00 289.64 2559.44
   02:58:40.619.29-Jan-2021 4635.01 3260.47 77.09 7.00 289.84 2559.44
   02:58:40.819.29-Jan-2021 4635.01 3260.37 77.09 7.00 290.04 2559.44
   02:58:41.019.29-Jan-2021 4635.01 3260.37 77.09 7.00 290.24 2559.44
   02:58:41.219.29-Jan-2021 4635.01 3260.47 77.09 7.00 290.44 2559.44
   02:58:41.419.29-Jan-2021 4635.01 3260.44 77.09 7.00 290.64 2559.44
   02:58:41.619.29-Jan-2021 4635.01 3260.44 77.09 7.00 290.84 2559.44
   02:58:41.819.29-Jan-2021 4635.01 3260.45 77.08 7.00 291.04 2559.44
   02:58:42.019.29-Jan-2021 4635.01 3260.45 77.08 7.00 291.24 2559.44
   02:58:42.219.29-Jan-2021 4635.01 3260.42 77.08 7.00 291.44 2559.44
   02:58:42.419.29-Jan-2021 4635.01 3260.42 77.08 7.00 291.64 2559.44
   02:58:42.619.29-Jan-2021 4635.01 3260.43 77.08 7.00 291.84 2559.44
   02:58:42.819.29-Jan-2021 4635.01 3260.43 77.08 7.00 292.04 2559.44
   02:58:43.019.29-Jan-2021 4635.01 3260.43 77.08 7.00 292.24 2559.44
   02:58:43.219.29-Jan-2021 4635.01 3260.41 77.08 7.00 292.44 2559.44
   02:58:43.419.29-Jan-2021 4635.01 3260.43 77.08 7.00 292.64 2559.44
   02:58:43.619.29-Jan-2021 4635.01 3260.37 77.08 7.00 292.84 2559.44
   02:58:43.819.29-Jan-2021 4635.01 3260.50 77.08 7.00 293.04 2559.44
   02:58:44.019.29-Jan-2021 4635.01 3260.50 77.08 7.00 293.24 2559.44
   02:58:44.219.29-Jan-2021 4635.01 3260.50 77.08 7.00 293.44 2559.44
   02:58:44.419.29-Jan-2021 4635.01 3260.28 77.08 7.00 293.64 2559.44
   02:58:44.619.29-Jan-2021 4635.01 3260.63 77.08 7.00 293.84 2559.44
   02:58:44.819.29-Jan-2021 4635.01 3260.34 77.08 7.00 294.04 2559.44
   02:58:45.019.29-Jan-2021 4635.01 3260.34 77.08 7.00 294.24 2559.44
   02:58:45.219.29-Jan-2021 4635.01 3260.46 77.08 7.00 294.44 2559.44
   02:58:45.419.29-Jan-2021 4635.01 3260.49 77.08 7.00 294.64 2559.44
   02:58:45.619.29-Jan-2021 4635.01 3260.45 77.08 7.00 294.84 2559.44
   02:58:45.819.29-Jan-2021 4635.01 3260.30 77.08 7.00 295.04 2559.44
   02:58:46.019.29-Jan-2021 4635.01 3260.30 77.08 7.00 295.24 2559.44
   02:58:46.219.29-Jan-2021 4635.01 3260.35 77.08 7.00 295.44 2559.44
   02:58:46.420.29-Jan-2021 4635.01 3260.51 77.08 7.00 295.64 2559.44
   02:58:46.620.29-Jan-2021 4635.01 3260.44 77.08 7.00 295.84 2559.44
   02:58:46.820.29-Jan-2021 4635.01 3260.37 77.08 7.00 296.04 2559.44
   02:58:47.020.29-Jan-2021 4635.01 3260.37 77.08 7.00 296.24 2559.44
   02:58:47.220.29-Jan-2021 4635.01 3260.39 77.08 7.00 296.44 2559.44
   02:58:47.420.29-Jan-2021 4635.01 3260.51 77.08 7.00 296.64 2559.44
   02:58:47.620.29-Jan-2021 4635.01 3260.48 77.08 7.00 296.84 2559.44
   02:58:47.820.29-Jan-2021 4635.01 3260.47 77.08 7.00 297.04 2559.44
   02:58:48.020.29-Jan-2021 4635.01 3260.47 77.08 7.00 297.24 2559.44
   02:58:48.220.29-Jan-2021 4635.01 3260.58 77.07 7.00 297.44 2559.44
   02:58:48.420.29-Jan-2021 4635.01 3260.39 77.07 7.00 297.64 2559.44
   02:58:48.620.29-Jan-2021 4635.01 3260.48 77.07 7.00 297.84 2559.44
   02:58:48.820.29-Jan-2021 4635.01 3260.47 77.07 7.00 298.04 2559.44
   02:58:49.020.29-Jan-2021 4635.01 3260.47 77.07 7.00 298.24 2559.44
   02:58:49.220.29-Jan-2021 4635.01 3260.43 77.07 7.00 298.44 2559.44
   02:58:49.420.29-Jan-2021 4635.01 3260.47 77.07 7.00 298.64 2559.44
   02:58:49.620.29-Jan-2021 4635.01 3260.44 77.07 7.00 298.84 2559.44
