~Version Information
 VERS.                  2.0:   CWLS log ASCII Standard -VERSION 2.0
 WRAP.                   NO:   One line per depth step
~Well Information Block
#MNEM.UNIT     VALUE/NAME     DESCRIPTION
#---------     -----------    ---------------------------
 STRT.S             17:31:15 28-Jan-21: START TIME 17:31:15 28-Jan-21
 STOP.S             17:37:46 28-Jan-21: STOP TIME  17:37:46 28-Jan-21
 STEP.S                   0.00: STEP TIME
 NULL.                 -999.25: NULL VALUE
 DFWT.                        :  DIST FWL TEXT
 DFST.                        :  DIST FSL TEXT
 DMF .             Drill Floor:  DRILL MEAS FROM
 STIM.      00.00.00 25-Sep-20:  START TIME
 DATE.      16.12.48 31-Jan-21:  END TIME
 SPUD.               20-Sep-20:  SPUD DATE
 NREF.                    Grid:  NORTH REFERENCE
 HPTY.       Minimum Curvature:  HOLE POS TYPE
 DMOD.             Drill Model:  DRILL MOD DESC
 SVYD.                  Survey:  SURVEY DESC
 ILTD.               Lithology:  INTERP LTH DESC
 FTOP.          Formation Tops:  FORM TOPS DESC
 RIG .              East Azeri:  RIG NAME
 PDAT.          Mean Sea Level:  PERMANENT DATUM
 FLD .                     ACG:  FIELD NAME
 SON .        AZ-XX-0906591820:  JOB NUMBER
 CTRY.              Azerbaijan:  COUNTRY NAME
 WELL.                     D37:  WELL NAME
 SRVC.     Turan Drilling & Engineering:  CONTRACTOR
 COMP.     BP Exploration (Caspian Sea) ltd.:  COMPANY
 WTYP.                Deviated:  WELL TYPE
 MDS .        Operator Entered:  MAG DATA SOURCE
 UWI .                     N/A:  UNIQUE WELL IDENTIFIER
 API .                     N/A:  API NUMBER
 BASE.              Azerbaijan:  LOGGING EQUIPMENT BASE LOCATION
 REGN.                   EESSA:  REGION
 PROV.                    Baku:  PROVINCE
 STAT.                    Baku:  STATE NAME
 MWDS.                    Baku:  MWD SHOP
 JOBN.        AZ-XX-0906591820:  JOB TICKET NUMB
 DOE .                     N/A:  DOE NUMBER
 DCON.         Sperry Drilling:  DIRECTNL CONTR
 UNIT.                     N/A:  LOGGING EQUIPMENT ID
 CNTY.                        :  COUNTY
 LOC .                        :  LOCATION
 LMF .             Drill Floor:  LOG MEASURED FROM
 TVDS.m                  43.60:  TVDSS CORRECTN
 LATI.deg                40.02:  LATITUDE
 LONG.deg                51.45:  LONGITUDE
 WHNS.m                  11.04:  WELL HEAD N/S
 WHEW.m                 -12.38:  WELL HEAD E/W
 UTMX.m              538763.98:  UTM X
 UTMY.m             4431880.20:  UTM Y
 DFWL.m                   0.00:  DISTANCE FWL
 DFSL.m                   0.00:  DISTANCE FSL
 SDEP.m                 300.00:  START DEPTH
 TDD .m                4900.01:  TOTAL DEPTH (DRILLER)
 VSDR.deg               185.64:  VERT SEC DIRECT
 GVFD.g                   1.00:  GRAVITY FIELD
 MFLD.nT              50301.00:  MAGNETIC FIELD
 MDIP.deg                59.46:  MAGNETIC DIP
 MDEC.deg                 6.43:  MAGNETIC DECL
 GRDC.deg                 0.29:  GRID CORRECTION
 AZTC.deg                 6.14:  AZM TOTAL CORR
 EPD .m                   0.00:  ELEVATION
 EGL .m                   0.00:  GROUND ELEVATION
 WDMS.m                 151.80:  WD ELEV
 APD .m                  43.60:  DEPTH ABOVE PD
 DEP .m                 571.69:  DEPTH
 AGAP.m                  43.60:  AIR GAP
 VSEW.m                 -12.38:  VERT SEC E/W
 VSNS.m                  11.04:  VERT SEC N/S
 EKB .m                  43.60:  KB ELEVATION
 EDF .m                  43.60:  DF ELEVATION
 TDL .m                 412.00:  TOTAL DEPTH (LOGGER)
 VSC .                       0:  VS TO CLOSURE
 MAGU.                 1849300:  MAGUTM CHECKSUM
~Parameter Information Block
#MNEM.UNIT       Value        Description
#---------     -----------    ---------------------------
 AV  .mps                 2.21:  Ann Velocity 
 AVMX.mps                 2.53:  Max Ann Veloc 
 AZIF.deg               144.83:  Azm, Final 
 BHAT.        Rotary Steerable:  BHA Type 
 BROT.°/30m              -0.52:  Build Rotating 
 BS  .in                  6.50:  Bit Size 
 BTPL.psig              209.00:  Bit Press Loss 
 CABU.                      No:  Customer Abuse 
 CGEO.        Ali Isfandiyarov:  Customer Geo 
 COMM.                     ¼¨M:  Run Comments 1 
 TCS .hr                 61.31:  Time Ciculation Ended 
 CV  .mps                 4.66:  Crit Velocity 
 CVMX.mps                 5.02:  Max Crit Veloc 
 DD1 .          Fariz Nahmatov:  Direct Drillr 1 
 DD2 .            Musa Ahmadov:  Direct Drillr 2 
 DDSV.               Geo-Pilot:  DD Service 
 DEFF.%                 100.00:  % Det Eff 
 DLRX.°/30m               1.44:  Dogleg Rot Max 
 DLSO.°/30m               0.83:  Dogleg Oriented 
 DLSX.°/30m               1.44:  Dogleg Str Max 
 DRET.      08.30.00 30-Jan-21:  Drill End Time 
 DRST.      21.15.00 27-Jan-21:  Drill Start Tim 
 DTIM.hr                 37.28:  Time Drilling 
 EDEP.m                4867.01:  End Depth 
 ENG1.          Rasim Hashimov:  Engineer 1 
 ENG2.         Almaz Almadatov:  Engineer 2 
 ENG3.        Tamerlan Ahmadov:  Engineer 3 
 ETIM.      22.41.04 31-Jan-21:  End Time 
 FLOI.gpm               400.00:  Flow In 
 FLON.gpm               300.00:  Flow In Min 
 FLOS.cptm                0.00:  Fluid Loss 
 FLOX.gpm               400.00:  Flow In Max 
 HFLO.                      No:  High Flow 
 HPRE.                      No:  High Pressure 
 HTEM.                      No:  High Temp 
 HYDO.m                   1.80:  Hydro Offset 
 IFIN.deg                65.63:  Inc, Final 
 IMAX.deg                66.77:  Inc Max 
 IMIN.deg                65.61:  Inc Min 
 IMND.m                4612.67:  Inc Min Depth 
 IMXD.m                4811.63:  Inc Max Depth 
 JARR.                      No:  Jarring 
 LETM.      08.30.00 30-Jan-21:  Log End Time 
 LOST.hr                     0:  Lost Rig Time 
 LSTM.      21.15.00 27-Jan-21:  Log Start Time 
 MDCL.ppm             41000.00:  Mud Chlorides 
 MDES.     Inversion Oil/Synthetic:  Mud Desc 
 DFD .sg                  1.40:  Mud Density 
 MDMN.sg                  1.40:  Dens Mud Min 
 MDMX.sg                  1.40:  Dens Mud Max 
 MOIL.                      53:  Run Mud Oil % 
 MOWR.                   66:34:  Run Mud OWR 
 MSND.                     0.2:  Run Mud Sand % 
 MSOL.                    17.9:  Run Mud Solids% 
 DFV .spqt               77.00:  Mud Viscosity 
 MWOD.in                  4.75:  MWD Tool OD 
 MWSI.                      No:  Serv Intrp, MWD 
 OTIM.hr                110.38:  Time Operating 
 PCON.           Look Like New:  Pad Condition 
 PMAX.psia             5300.00:  Press Op, Max 
 PV  .cP                 57.00:  Mud PV 
 RUN .                    1200:  Run Number 
 ROPA.m/hr               13.00:  ROP Avg 
 ROPN.m/hr                9.00:  ROP Min 
 ROPX.m/hr               15.00:  ROP Max 
 RPMA.rpm               120.00:  RPM Surface Avg 
 RPMN.rpm               100.00:  RPM Surface Min 
 RPMX.rpm               135.00:  RPM Surface Max 
 RRUN.                    1200:  Rig Run Number 
 RTIM.hr                  2.65:  Time Reaming 
 SAZI.deg               145.04:  Azm, Start 
 SDEP.m                4455.01:  Start Depth 
 SIDD.                      No:  Serv Intrp, DD 
 SINC.deg                65.83:  Inc, Start 
 SPPA.psig             5037.00:  SPP Avg 
 SPPN.psig             4430.00:  SPP Min 
 SPPX.psig             5300.00:  SPP Max 
 STIM.      22.41.04 26-Jan-21:  Start Time 
 SVCS.                 DD, MWD:  Services 
 SVER.                    9.20:  Sperry Version 
 TDAT.m                 412.00:  Tot Depth Attmp 
 TDDF.                      No:  Trip for DD 
 TDLG.m                 412.00:  Tot Depth Loggd 
 TFF .                      No:  Trip for Fail 
 TQAA.f-kp               15.00:  Torque Abs Avg 
 TQAN.f-kp               12.00:  Torque Abs Min 
 TQAX.f-kp               17.00:  Torque Abs Max 
 TRRT.°/30m               1.18:  Turn Rotating 
 MRT .                     ADR:  Maximum Recorded Temperature 
 TTMX.degC               88.24:  Max Tool Temp 
 VS01.                90619458:  Virtual Str1 SN 
 VS02.                90519326:  Virtual Str2 SN 
 VS03.                90522176:  Virtual Str3 SN 
 VS04.                90512683:  Virtual Str4 SN 
 WBMN.klb                 1.00:  WOB Min 
 WITN.           Murad Giluyev:  Customer Rep 
 WITN.     Kamran Kemberlinski:  Customer Rep 2 
 WOBA.klb                 5.00:  WOB Avg 
 WOBX.klb                 9.00:  WOB Max 
 YP  .lhf2               41.00:  Yield Point 
~Curve Information Block
#MNEM.UNIT                 API CODE     Curve Description
#---------               -----------    ---------------------------
 TIME.HHMMSS            00 000 000 000:  GT Time & Date
 GTDEPTH.m              00 000 000 000:  GT Depth
 GTPQH.psia             00 000 000 000:  GT HR Quartz Pressure
 GTTQ.degC              00 000 000 000:  GT Quartz Temperature
 GTTN.NONE              00 000 000 000:  GT Test Number
 GTET.sec               00 000 000 000:  GT Elapsed Test Time
 GTTVD.m                00 000 000 000:  GT True Vertical Depth
#Other Information
#
#WARRANTY: Halliburton will use its best efforts to furnish customers with 
#accurate information and interpretations that are part of, and incident to, the services 
#provided.  However, Halliburton cannot and does not warrant the accuracy 
#or correctness of such information and interpretations.  Under no circumstances should any 
#such information or interpretation be relied upon as the sole basis for any drilling, 
#completion, production, or financial decision or any procedure involving any risk to the 
#safety of any drilling venture, drilling rig or its crew or any other third party.  The 
#Customer has full responsibility for all drilling, completion and production operation.  
#Halliburton makes no representations or warranties, either expressed or 
#implied, including, but not limited to, the implied warranties of merchantability or fitness 
#for a particular purpose, with respect to the services rendered.  In no event will 
#Halliburton be liable for failure to obtain any particular results or for 
#any damages, including, but not limited to, indirect, special or consequential damages, 
#resulting from the use of any information or interpretation provided by Halliburton.
#
~A           TIME           GTDEPTH  GTPQH  GTTQ  GTTN  GTET   GTTVD  
   17:31:15.289.28-Jan-2021 4557.01 5589.16 75.10 5.00   0.00 2527.68
   17:31:15.489.28-Jan-2021 4557.01 5589.16 75.10 5.00   0.20 2527.68
   17:31:15.689.28-Jan-2021 4557.01 5586.91 75.10 5.00   0.40 2527.68
   17:31:15.889.28-Jan-2021 4557.01 5586.11 75.10 5.00   0.60 2527.68
   17:31:16.089.28-Jan-2021 4557.01 5590.47 75.10 5.00   0.80 2527.68
   17:31:16.289.28-Jan-2021 4557.01 5588.30 75.10 5.00   1.00 2527.68
   17:31:16.489.28-Jan-2021 4557.01 5588.30 75.10 5.00   1.20 2527.68
   17:31:16.689.28-Jan-2021 4557.01 5583.21 75.09 5.00   1.40 2527.68
   17:31:16.889.28-Jan-2021 4557.01 5589.75 75.09 5.00   1.60 2527.68
   17:31:17.089.28-Jan-2021 4557.01 5587.88 75.09 5.00   1.80 2527.68
   17:31:17.289.28-Jan-2021 4557.01 5586.71 75.09 5.00   2.00 2527.68
   17:31:17.489.28-Jan-2021 4557.01 5586.71 75.09 5.00   2.20 2527.68
   17:31:17.689.28-Jan-2021 4557.01 5588.07 75.09 5.00   2.40 2527.68
   17:31:17.889.28-Jan-2021 4557.01 5588.45 75.09 5.00   2.60 2527.68
   17:31:18.089.28-Jan-2021 4557.01 5581.94 75.09 5.00   2.80 2527.68
   17:31:18.289.28-Jan-2021 4557.01 5588.97 75.09 5.00   3.00 2527.68
   17:31:18.489.28-Jan-2021 4557.01 5588.97 75.09 5.00   3.20 2527.68
   17:31:18.689.28-Jan-2021 4557.01 5586.43 75.09 5.00   3.40 2527.68
   17:31:18.889.28-Jan-2021 4557.01 5589.15 75.09 5.00   3.60 2527.68
   17:31:19.089.28-Jan-2021 4557.01 5582.34 75.09 5.00   3.80 2527.68
   17:31:19.290.28-Jan-2021 4557.01 5587.47 75.09 5.00   4.00 2527.68
   17:31:19.490.28-Jan-2021 4557.01 5587.47 75.09 5.00   4.20 2527.68
   17:31:19.690.28-Jan-2021 4557.01 5586.21 75.08 5.00   4.40 2527.68
   17:31:19.890.28-Jan-2021 4557.01 5589.85 75.08 5.00   4.60 2527.68
   17:31:20.090.28-Jan-2021 4557.01 5588.48 75.08 5.00   4.80 2527.68
   17:31:20.290.28-Jan-2021 4557.01 5582.83 75.08 5.00   5.00 2527.68
   17:31:20.490.28-Jan-2021 4557.01 5582.83 75.08 5.00   5.20 2527.68
   17:31:20.690.28-Jan-2021 4557.01 5587.32 75.08 5.00   5.40 2527.68
   17:31:20.890.28-Jan-2021 4557.01 5588.08 75.08 5.00   5.60 2527.68
   17:31:21.090.28-Jan-2021 4557.01 5587.07 75.08 5.00   5.80 2527.68
   17:31:21.290.28-Jan-2021 4557.01 5588.23 75.08 5.00   6.00 2527.68
   17:31:21.490.28-Jan-2021 4557.01 5588.23 75.08 5.00   6.20 2527.68
   17:31:21.690.28-Jan-2021 4557.01 5588.23 75.08 5.00   6.40 2527.68
   17:31:21.890.28-Jan-2021 4557.01 5589.07 75.08 5.00   6.60 2527.68
   17:31:22.090.28-Jan-2021 4557.01 5590.18 75.08 5.00   6.80 2527.68
   17:31:22.290.28-Jan-2021 4557.01 5587.05 75.07 5.00   7.00 2527.68
   17:31:22.490.28-Jan-2021 4557.01 5587.05 75.07 5.00   7.20 2527.68
   17:31:22.690.28-Jan-2021 4557.01 5585.20 75.07 5.00   7.40 2527.68
   17:31:22.890.28-Jan-2021 4557.01 5588.48 75.07 5.00   7.60 2527.68
   17:31:23.090.28-Jan-2021 4557.01 5588.01 75.07 5.00   7.80 2527.68
   17:31:23.290.28-Jan-2021 4557.01 5582.50 75.07 5.00   8.00 2527.68
   17:31:23.490.28-Jan-2021 4557.01 5582.50 75.07 5.00   8.20 2527.68
   17:31:23.690.28-Jan-2021 4557.01 5586.84 75.07 5.00   8.40 2527.68
   17:31:23.890.28-Jan-2021 4557.01 5588.06 75.07 5.00   8.60 2527.68
   17:31:24.090.28-Jan-2021 4557.01 5589.92 75.07 5.00   8.80 2527.68
   17:31:24.291.28-Jan-2021 4557.01 5589.75 75.07 5.00   9.00 2527.68
   17:31:24.491.28-Jan-2021 4557.01 5589.75 75.07 5.00   9.20 2527.68
   17:31:24.691.28-Jan-2021 4557.01 5589.47 75.07 5.00   9.40 2527.68
   17:31:24.891.28-Jan-2021 4557.01 5590.34 75.07 5.00   9.60 2527.68
   17:31:25.091.28-Jan-2021 4557.01 5589.60 75.07 5.00   9.80 2527.68
   17:31:25.291.28-Jan-2021 4557.01 5589.43 75.06 5.00  10.00 2527.68
   17:31:25.491.28-Jan-2021 4557.01 5589.43 75.06 5.00  10.20 2527.68
   17:31:25.691.28-Jan-2021 4557.01 5588.69 75.06 5.00  10.40 2527.68
   17:31:25.891.28-Jan-2021 4557.01 5589.06 75.06 5.00  10.60 2527.68
   17:31:26.091.28-Jan-2021 4557.01 5589.16 75.06 5.00  10.80 2527.68
   17:31:26.291.28-Jan-2021 4557.01 5589.29 75.06 5.00  11.00 2527.68
   17:31:26.491.28-Jan-2021 4557.01 5589.29 75.06 5.00  11.20 2527.68
   17:31:26.691.28-Jan-2021 4557.01 5589.54 75.06 5.00  11.40 2527.68
   17:31:26.891.28-Jan-2021 4557.01 5584.57 75.06 5.00  11.60 2527.68
   17:31:27.091.28-Jan-2021 4557.01 5588.73 75.06 5.00  11.80 2527.68
   17:31:27.291.28-Jan-2021 4557.01 5589.72 75.06 5.00  12.00 2527.68
   17:31:27.491.28-Jan-2021 4557.01 5589.72 75.06 5.00  12.20 2527.68
   17:31:27.691.28-Jan-2021 4557.01 5592.18 75.06 5.00  12.40 2527.68
   17:31:27.891.28-Jan-2021 4557.01 5590.72 75.06 5.00  12.60 2527.68
   17:31:28.091.28-Jan-2021 4557.01 5591.02 75.06 5.00  12.80 2527.68
   17:31:28.291.28-Jan-2021 4557.01 5590.89 75.05 5.00  13.00 2527.68
   17:31:28.491.28-Jan-2021 4557.01 5590.89 75.05 5.00  13.20 2527.68
   17:31:28.691.28-Jan-2021 4557.01 5590.50 75.05 5.00  13.40 2527.68
   17:31:28.891.28-Jan-2021 4557.01 5590.26 75.05 5.00  13.60 2527.68
   17:31:29.091.28-Jan-2021 4557.01 5590.09 75.05 5.00  13.80 2527.68
   17:31:29.291.28-Jan-2021 4557.01 5590.04 75.05 5.00  14.00 2527.68
   17:31:29.492.28-Jan-2021 4557.01 5590.04 75.05 5.00  14.20 2527.68
   17:31:29.692.28-Jan-2021 4557.01 5590.03 75.05 5.00  14.40 2527.68
   17:31:29.892.28-Jan-2021 4557.01 5589.97 75.05 5.00  14.60 2527.68
   17:31:30.092.28-Jan-2021 4557.01 5589.81 75.05 5.00  14.80 2527.68
   17:31:30.292.28-Jan-2021 4557.01 5590.12 75.05 5.00  15.00 2527.68
   17:31:30.492.28-Jan-2021 4557.01 5590.12 75.05 5.00  15.20 2527.68
   17:31:30.692.28-Jan-2021 4557.01 5587.04 75.05 5.00  15.40 2527.68
   17:31:30.892.28-Jan-2021 4557.01 5587.57 75.05 5.00  15.60 2527.68
   17:31:31.092.28-Jan-2021 4557.01 5590.82 75.05 5.00  15.80 2527.68
   17:31:31.292.28-Jan-2021 4557.01 5589.28 75.04 5.00  16.00 2527.68
   17:31:31.492.28-Jan-2021 4557.01 5589.28 75.04 5.00  16.20 2527.68
   17:31:31.692.28-Jan-2021 4557.01 5585.94 75.04 5.00  16.40 2527.68
   17:31:31.892.28-Jan-2021 4557.01 5590.46 75.04 5.00  16.60 2527.68
   17:31:32.092.28-Jan-2021 4557.01 5594.65 75.04 5.00  16.80 2527.68
   17:31:32.292.28-Jan-2021 4557.01 5626.02 75.04 5.00  17.00 2527.68
   17:31:32.492.28-Jan-2021 4557.01 5626.02 75.04 5.00  17.20 2527.68
   17:31:32.692.28-Jan-2021 4557.01 5714.44 75.04 5.00  17.40 2527.68
   17:31:32.892.28-Jan-2021 4557.01 5741.67 75.04 5.00  17.60 2527.68
   17:31:33.092.28-Jan-2021 4557.01 5780.31 75.04 5.00  17.80 2527.68
   17:31:33.292.28-Jan-2021 4557.01 5824.79 75.04 5.00  18.00 2527.68
   17:31:33.492.28-Jan-2021 4557.01 5824.79 75.04 5.00  18.20 2527.68
   17:31:33.692.28-Jan-2021 4557.01 5931.20 75.04 5.00  18.40 2527.68
   17:31:33.892.28-Jan-2021 4557.01 6113.65 75.04 5.00  18.60 2527.68
   17:31:34.092.28-Jan-2021 4557.01 6148.05 75.04 5.00  18.80 2527.68
   17:31:34.292.28-Jan-2021 4557.01 6173.45 75.03 5.00  19.00 2527.68
   17:31:34.493.28-Jan-2021 4557.01 6173.45 75.03 5.00  19.20 2527.68
   17:31:34.693.28-Jan-2021 4557.01 6162.16 75.03 5.00  19.40 2527.68
   17:31:34.893.28-Jan-2021 4557.01 6181.06 75.03 5.00  19.60 2527.68
   17:31:35.093.28-Jan-2021 4557.01 6147.26 75.03 5.00  19.80 2527.68
   17:31:35.293.28-Jan-2021 4557.01 5935.36 75.03 5.00  20.00 2527.68
   17:31:35.493.28-Jan-2021 4557.01 5935.36 75.03 5.00  20.20 2527.68
   17:31:35.693.28-Jan-2021 4557.01 5673.17 75.03 5.00  20.40 2527.68
   17:31:35.893.28-Jan-2021 4557.01 5810.68 75.03 5.00  20.60 2527.68
   17:31:36.093.28-Jan-2021 4557.01 5878.42 75.03 5.00  20.80 2527.68
   17:31:36.293.28-Jan-2021 4557.01 5855.10 75.03 5.00  21.00 2527.68
   17:31:36.493.28-Jan-2021 4557.01 5855.10 75.03 5.00  21.20 2527.68
   17:31:36.693.28-Jan-2021 4557.01 5810.19 75.03 5.00  21.40 2527.68
   17:31:36.893.28-Jan-2021 4557.01 5818.74 75.03 5.00  21.60 2527.68
   17:31:37.093.28-Jan-2021 4557.01 5827.39 75.03 5.00  21.80 2527.68
   17:31:37.293.28-Jan-2021 4557.01 5834.23 75.03 5.00  22.00 2527.68
   17:31:37.493.28-Jan-2021 4557.01 5834.23 75.03 5.00  22.20 2527.68
   17:31:37.693.28-Jan-2021 4557.01 5841.76 75.02 5.00  22.40 2527.68
   17:31:37.893.28-Jan-2021 4557.01 5844.57 75.02 5.00  22.60 2527.68
   17:31:38.093.28-Jan-2021 4557.01 5846.42 75.02 5.00  22.80 2527.68
