~Version Information
 VERS.                  2.0:   CWLS log ASCII Standard -VERSION 2.0
 WRAP.                   NO:   One line per depth step
~Well Information Block
#MNEM.UNIT     VALUE/NAME     DESCRIPTION
#---------     -----------    ---------------------------
 STRT.S             08:50:58 29-Jan-21: START TIME 08:50:58 29-Jan-21
 STOP.S             08:57:28 29-Jan-21: STOP TIME  08:57:28 29-Jan-21
 STEP.S                   0.00: STEP TIME
 NULL.                 -999.25: NULL VALUE
 DFWT.                        :  DIST FWL TEXT
 DFST.                        :  DIST FSL TEXT
 DMF .             Drill Floor:  DRILL MEAS FROM
 STIM.      00.00.00 25-Sep-20:  START TIME
 DATE.      16.12.48 31-Jan-21:  END TIME
 SPUD.               20-Sep-20:  SPUD DATE
 NREF.                    Grid:  NORTH REFERENCE
 HPTY.       Minimum Curvature:  HOLE POS TYPE
 DMOD.             Drill Model:  DRILL MOD DESC
 SVYD.                  Survey:  SURVEY DESC
 ILTD.               Lithology:  INTERP LTH DESC
 FTOP.          Formation Tops:  FORM TOPS DESC
 RIG .              East Azeri:  RIG NAME
 PDAT.          Mean Sea Level:  PERMANENT DATUM
 FLD .                     ACG:  FIELD NAME
 SON .        AZ-XX-0906591820:  JOB NUMBER
 CTRY.              Azerbaijan:  COUNTRY NAME
 WELL.                     D37:  WELL NAME
 SRVC.     Turan Drilling & Engineering:  CONTRACTOR
 COMP.     BP Exploration (Caspian Sea) ltd.:  COMPANY
 WTYP.                Deviated:  WELL TYPE
 MDS .        Operator Entered:  MAG DATA SOURCE
 UWI .                     N/A:  UNIQUE WELL IDENTIFIER
 API .                     N/A:  API NUMBER
 BASE.              Azerbaijan:  LOGGING EQUIPMENT BASE LOCATION
 REGN.                   EESSA:  REGION
 PROV.                    Baku:  PROVINCE
 STAT.                    Baku:  STATE NAME
 MWDS.                    Baku:  MWD SHOP
 JOBN.        AZ-XX-0906591820:  JOB TICKET NUMB
 DOE .                     N/A:  DOE NUMBER
 DCON.         Sperry Drilling:  DIRECTNL CONTR
 UNIT.                     N/A:  LOGGING EQUIPMENT ID
 CNTY.                        :  COUNTY
 LOC .                        :  LOCATION
 LMF .             Drill Floor:  LOG MEASURED FROM
 TVDS.m                  43.60:  TVDSS CORRECTN
 LATI.deg                40.02:  LATITUDE
 LONG.deg                51.45:  LONGITUDE
 WHNS.m                  11.04:  WELL HEAD N/S
 WHEW.m                 -12.38:  WELL HEAD E/W
 UTMX.m              538763.98:  UTM X
 UTMY.m             4431880.20:  UTM Y
 DFWL.m                   0.00:  DISTANCE FWL
 DFSL.m                   0.00:  DISTANCE FSL
 SDEP.m                 300.00:  START DEPTH
 TDD .m                4900.01:  TOTAL DEPTH (DRILLER)
 VSDR.deg               185.64:  VERT SEC DIRECT
 GVFD.g                   1.00:  GRAVITY FIELD
 MFLD.nT              50301.00:  MAGNETIC FIELD
 MDIP.deg                59.46:  MAGNETIC DIP
 MDEC.deg                 6.43:  MAGNETIC DECL
 GRDC.deg                 0.29:  GRID CORRECTION
 AZTC.deg                 6.14:  AZM TOTAL CORR
 EPD .m                   0.00:  ELEVATION
 EGL .m                   0.00:  GROUND ELEVATION
 WDMS.m                 151.80:  WD ELEV
 APD .m                  43.60:  DEPTH ABOVE PD
 DEP .m                 571.69:  DEPTH
 AGAP.m                  43.60:  AIR GAP
 VSEW.m                 -12.38:  VERT SEC E/W
 VSNS.m                  11.04:  VERT SEC N/S
 EKB .m                  43.60:  KB ELEVATION
 EDF .m                  43.60:  DF ELEVATION
 TDL .m                 412.00:  TOTAL DEPTH (LOGGER)
 VSC .                       0:  VS TO CLOSURE
 MAGU.                 1849300:  MAGUTM CHECKSUM
~Parameter Information Block
#MNEM.UNIT       Value        Description
#---------     -----------    ---------------------------
 AV  .mps                 2.21:  Ann Velocity 
 AVMX.mps                 2.53:  Max Ann Veloc 
 AZIF.deg               144.83:  Azm, Final 
 BHAT.        Rotary Steerable:  BHA Type 
 BROT.°/30m              -0.52:  Build Rotating 
 BS  .in                  6.50:  Bit Size 
 BTPL.psig              209.00:  Bit Press Loss 
 CABU.                      No:  Customer Abuse 
 CGEO.        Ali Isfandiyarov:  Customer Geo 
 COMM.                     Ä	‡:  Run Comments 1 
 TCS .hr                 61.31:  Time Ciculation Ended 
 CV  .mps                 4.66:  Crit Velocity 
 CVMX.mps                 5.02:  Max Crit Veloc 
 DD1 .          Fariz Nahmatov:  Direct Drillr 1 
 DD2 .            Musa Ahmadov:  Direct Drillr 2 
 DDSV.               Geo-Pilot:  DD Service 
 DEFF.%                 100.00:  % Det Eff 
 DLRX.°/30m               1.44:  Dogleg Rot Max 
 DLSO.°/30m               0.83:  Dogleg Oriented 
 DLSX.°/30m               1.44:  Dogleg Str Max 
 DRET.      08.30.00 30-Jan-21:  Drill End Time 
 DRST.      21.15.00 27-Jan-21:  Drill Start Tim 
 DTIM.hr                 37.28:  Time Drilling 
 EDEP.m                4867.01:  End Depth 
 ENG1.          Rasim Hashimov:  Engineer 1 
 ENG2.         Almaz Almadatov:  Engineer 2 
 ENG3.        Tamerlan Ahmadov:  Engineer 3 
 ETIM.      22.41.04 31-Jan-21:  End Time 
 FLOI.gpm               400.00:  Flow In 
 FLON.gpm               300.00:  Flow In Min 
 FLOS.cptm                0.00:  Fluid Loss 
 FLOX.gpm               400.00:  Flow In Max 
 HFLO.                      No:  High Flow 
 HPRE.                      No:  High Pressure 
 HTEM.                      No:  High Temp 
 HYDO.m                   1.80:  Hydro Offset 
 IFIN.deg                65.63:  Inc, Final 
 IMAX.deg                66.77:  Inc Max 
 IMIN.deg                65.61:  Inc Min 
 IMND.m                4612.67:  Inc Min Depth 
 IMXD.m                4811.63:  Inc Max Depth 
 JARR.                      No:  Jarring 
 LETM.      08.30.00 30-Jan-21:  Log End Time 
 LOST.hr                     0:  Lost Rig Time 
 LSTM.      21.15.00 27-Jan-21:  Log Start Time 
 MDCL.ppm             41000.00:  Mud Chlorides 
 MDES.     Inversion Oil/Synthetic:  Mud Desc 
 DFD .sg                  1.40:  Mud Density 
 MDMN.sg                  1.40:  Dens Mud Min 
 MDMX.sg                  1.40:  Dens Mud Max 
 MOIL.                      53:  Run Mud Oil % 
 MOWR.                   66:34:  Run Mud OWR 
 MSND.                     0.2:  Run Mud Sand % 
 MSOL.                    17.9:  Run Mud Solids% 
 DFV .spqt               77.00:  Mud Viscosity 
 MWOD.in                  4.75:  MWD Tool OD 
 MWSI.                      No:  Serv Intrp, MWD 
 OTIM.hr                110.38:  Time Operating 
 PCON.           Look Like New:  Pad Condition 
 PMAX.psia             5300.00:  Press Op, Max 
 PV  .cP                 57.00:  Mud PV 
 RUN .                    1200:  Run Number 
 ROPA.m/hr               13.00:  ROP Avg 
 ROPN.m/hr                9.00:  ROP Min 
 ROPX.m/hr               15.00:  ROP Max 
 RPMA.rpm               120.00:  RPM Surface Avg 
 RPMN.rpm               100.00:  RPM Surface Min 
 RPMX.rpm               135.00:  RPM Surface Max 
 RRUN.                    1200:  Rig Run Number 
 RTIM.hr                  2.65:  Time Reaming 
 SAZI.deg               145.04:  Azm, Start 
 SDEP.m                4455.01:  Start Depth 
 SIDD.                      No:  Serv Intrp, DD 
 SINC.deg                65.83:  Inc, Start 
 SPPA.psig             5037.00:  SPP Avg 
 SPPN.psig             4430.00:  SPP Min 
 SPPX.psig             5300.00:  SPP Max 
 STIM.      22.41.04 26-Jan-21:  Start Time 
 SVCS.                 DD, MWD:  Services 
 SVER.                    9.20:  Sperry Version 
 TDAT.m                 412.00:  Tot Depth Attmp 
 TDDF.                      No:  Trip for DD 
 TDLG.m                 412.00:  Tot Depth Loggd 
 TFF .                      No:  Trip for Fail 
 TQAA.f-kp               15.00:  Torque Abs Avg 
 TQAN.f-kp               12.00:  Torque Abs Min 
 TQAX.f-kp               17.00:  Torque Abs Max 
 TRRT.°/30m               1.18:  Turn Rotating 
 MRT .                     ADR:  Maximum Recorded Temperature 
 TTMX.degC               88.24:  Max Tool Temp 
 VS01.                90619458:  Virtual Str1 SN 
 VS02.                90519326:  Virtual Str2 SN 
 VS03.                90522176:  Virtual Str3 SN 
 VS04.                90512683:  Virtual Str4 SN 
 WBMN.klb                 1.00:  WOB Min 
 WITN.           Murad Giluyev:  Customer Rep 
 WITN.     Kamran Kemberlinski:  Customer Rep 2 
 WOBA.klb                 5.00:  WOB Avg 
 WOBX.klb                 9.00:  WOB Max 
 YP  .lhf2               41.00:  Yield Point 
~Curve Information Block
#MNEM.UNIT                 API CODE     Curve Description
#---------               -----------    ---------------------------
 TIME.HHMMSS            00 000 000 000:  GT Time & Date
 GTDEPTH.m              00 000 000 000:  GT Depth
 GTPQH.psia             00 000 000 000:  GT HR Quartz Pressure
 GTTQ.degC              00 000 000 000:  GT Quartz Temperature
 GTTN.NONE              00 000 000 000:  GT Test Number
 GTET.sec               00 000 000 000:  GT Elapsed Test Time
 GTTVD.m                00 000 000 000:  GT True Vertical Depth
#Other Information
#
#WARRANTY: Halliburton will use its best efforts to furnish customers with 
#accurate information and interpretations that are part of, and incident to, the services 
#provided.  However, Halliburton cannot and does not warrant the accuracy 
#or correctness of such information and interpretations.  Under no circumstances should any 
#such information or interpretation be relied upon as the sole basis for any drilling, 
#completion, production, or financial decision or any procedure involving any risk to the 
#safety of any drilling venture, drilling rig or its crew or any other third party.  The 
#Customer has full responsibility for all drilling, completion and production operation.  
#Halliburton makes no representations or warranties, either expressed or 
#implied, including, but not limited to, the implied warranties of merchantability or fitness 
#for a particular purpose, with respect to the services rendered.  In no event will 
#Halliburton be liable for failure to obtain any particular results or for 
#any damages, including, but not limited to, indirect, special or consequential damages, 
#resulting from the use of any information or interpretation provided by Halliburton.
#
~A           TIME           GTDEPTH  GTPQH  GTTQ  GTTN  GTET   GTTVD  
   08:50:58.675.29-Jan-2021 4683.51 5653.12 81.57 9.00   0.00 2579.09
   08:50:58.875.29-Jan-2021 4683.51 5653.12 81.57 9.00   0.20 2579.09
   08:50:59.075.29-Jan-2021 4683.51 5652.61 81.57 9.00   0.40 2579.09
   08:50:59.275.29-Jan-2021 4683.51 5653.54 81.57 9.00   0.60 2579.09
   08:50:59.475.29-Jan-2021 4683.51 5654.66 81.57 9.00   0.80 2579.09
   08:50:59.675.29-Jan-2021 4683.51 5648.56 81.57 9.00   1.00 2579.09
   08:50:59.875.29-Jan-2021 4683.51 5648.56 81.57 9.00   1.20 2579.09
   08:51:00.075.29-Jan-2021 4683.51 5654.58 81.57 9.00   1.40 2579.09
   08:51:00.275.29-Jan-2021 4683.51 5649.13 81.56 9.00   1.60 2579.09
   08:51:00.475.29-Jan-2021 4683.51 5650.40 81.56 9.00   1.80 2579.09
   08:51:00.675.29-Jan-2021 4683.51 5653.07 81.56 9.00   2.00 2579.09
   08:51:00.875.29-Jan-2021 4683.51 5653.07 81.56 9.00   2.20 2579.09
   08:51:01.075.29-Jan-2021 4683.51 5645.30 81.56 9.00   2.40 2579.09
   08:51:01.276.29-Jan-2021 4683.51 5653.48 81.56 9.00   2.60 2579.09
   08:51:01.476.29-Jan-2021 4683.51 5654.33 81.56 9.00   2.80 2579.09
   08:51:01.676.29-Jan-2021 4683.51 5649.28 81.56 9.00   3.00 2579.09
   08:51:01.876.29-Jan-2021 4683.51 5649.28 81.56 9.00   3.20 2579.09
   08:51:02.076.29-Jan-2021 4683.51 5653.76 81.56 9.00   3.40 2579.09
   08:51:02.276.29-Jan-2021 4683.51 5655.08 81.56 9.00   3.60 2579.09
   08:51:02.476.29-Jan-2021 4683.51 5650.13 81.55 9.00   3.80 2579.09
   08:51:02.676.29-Jan-2021 4683.51 5653.19 81.55 9.00   4.00 2579.09
   08:51:02.876.29-Jan-2021 4683.51 5653.19 81.55 9.00   4.20 2579.09
   08:51:03.076.29-Jan-2021 4683.51 5655.18 81.55 9.00   4.40 2579.09
   08:51:03.276.29-Jan-2021 4683.51 5654.65 81.55 9.00   4.60 2579.09
   08:51:03.476.29-Jan-2021 4683.51 5650.09 81.55 9.00   4.80 2579.09
   08:51:03.676.29-Jan-2021 4683.51 5655.35 81.55 9.00   5.00 2579.09
   08:51:03.876.29-Jan-2021 4683.51 5655.35 81.55 9.00   5.20 2579.09
   08:51:04.076.29-Jan-2021 4683.51 5654.08 81.55 9.00   5.40 2579.09
   08:51:04.276.29-Jan-2021 4683.51 5654.17 81.55 9.00   5.60 2579.09
   08:51:04.476.29-Jan-2021 4683.51 5654.26 81.55 9.00   5.80 2579.09
   08:51:04.676.29-Jan-2021 4683.51 5653.82 81.55 9.00   6.00 2579.09
   08:51:04.876.29-Jan-2021 4683.51 5653.82 81.55 9.00   6.20 2579.09
   08:51:05.076.29-Jan-2021 4683.51 5653.64 81.54 9.00   6.40 2579.09
   08:51:05.276.29-Jan-2021 4683.51 5653.61 81.54 9.00   6.60 2579.09
   08:51:05.476.29-Jan-2021 4683.51 5654.19 81.54 9.00   6.80 2579.09
   08:51:05.676.29-Jan-2021 4683.51 5653.49 81.54 9.00   7.00 2579.09
   08:51:05.876.29-Jan-2021 4683.51 5653.49 81.54 9.00   7.20 2579.09
   08:51:06.077.29-Jan-2021 4683.51 5653.49 81.54 9.00   7.40 2579.09
   08:51:06.277.29-Jan-2021 4683.51 5653.59 81.54 9.00   7.60 2579.09
   08:51:06.477.29-Jan-2021 4683.51 5647.87 81.54 9.00   7.80 2579.09
   08:51:06.677.29-Jan-2021 4683.51 5653.94 81.54 9.00   8.00 2579.09
   08:51:06.877.29-Jan-2021 4683.51 5653.94 81.54 9.00   8.20 2579.09
   08:51:07.077.29-Jan-2021 4683.51 5650.97 81.54 9.00   8.40 2579.09
   08:51:07.277.29-Jan-2021 4683.51 5653.79 81.53 9.00   8.60 2579.09
   08:51:07.477.29-Jan-2021 4683.51 5655.12 81.53 9.00   8.80 2579.09
   08:51:07.677.29-Jan-2021 4683.51 5654.26 81.53 9.00   9.00 2579.09
   08:51:07.877.29-Jan-2021 4683.51 5654.26 81.53 9.00   9.20 2579.09
   08:51:08.077.29-Jan-2021 4683.51 5654.97 81.53 9.00   9.40 2579.09
   08:51:08.277.29-Jan-2021 4683.51 5655.14 81.53 9.00   9.60 2579.09
   08:51:08.477.29-Jan-2021 4683.51 5654.58 81.53 9.00   9.80 2579.09
   08:51:08.677.29-Jan-2021 4683.51 5654.63 81.53 9.00  10.00 2579.09
   08:51:08.877.29-Jan-2021 4683.51 5654.63 81.53 9.00  10.20 2579.09
   08:51:09.077.29-Jan-2021 4683.51 5654.30 81.53 9.00  10.40 2579.09
   08:51:09.277.29-Jan-2021 4683.51 5654.21 81.53 9.00  10.60 2579.09
   08:51:09.477.29-Jan-2021 4683.51 5654.20 81.53 9.00  10.80 2579.09
   08:51:09.677.29-Jan-2021 4683.51 5654.31 81.52 9.00  11.00 2579.09
   08:51:09.877.29-Jan-2021 4683.51 5654.31 81.52 9.00  11.20 2579.09
   08:51:10.077.29-Jan-2021 4683.51 5653.21 81.52 9.00  11.40 2579.09
   08:51:10.277.29-Jan-2021 4683.51 5651.90 81.52 9.00  11.60 2579.09
   08:51:10.477.29-Jan-2021 4683.51 5654.25 81.52 9.00  11.80 2579.09
   08:51:10.678.29-Jan-2021 4683.51 5653.63 81.52 9.00  12.00 2579.09
   08:51:10.878.29-Jan-2021 4683.51 5653.63 81.52 9.00  12.20 2579.09
   08:51:11.078.29-Jan-2021 4683.51 5654.62 81.52 9.00  12.40 2579.09
   08:51:11.278.29-Jan-2021 4683.51 5651.48 81.52 9.00  12.60 2579.09
   08:51:11.478.29-Jan-2021 4683.51 5655.67 81.52 9.00  12.80 2579.09
   08:51:11.678.29-Jan-2021 4683.51 5656.53 81.52 9.00  13.00 2579.09
   08:51:11.878.29-Jan-2021 4683.51 5656.53 81.52 9.00  13.20 2579.09
   08:51:12.078.29-Jan-2021 4683.51 5649.39 81.51 9.00  13.40 2579.09
   08:51:12.278.29-Jan-2021 4683.51 5658.03 81.51 9.00  13.60 2579.09
   08:51:12.478.29-Jan-2021 4683.51 5656.90 81.51 9.00  13.80 2579.09
   08:51:12.678.29-Jan-2021 4683.51 5650.29 81.51 9.00  14.00 2579.09
   08:51:12.878.29-Jan-2021 4683.51 5650.29 81.51 9.00  14.20 2579.09
   08:51:13.078.29-Jan-2021 4683.51 5655.73 81.51 9.00  14.40 2579.09
   08:51:13.278.29-Jan-2021 4683.51 5654.43 81.51 9.00  14.60 2579.09
   08:51:13.478.29-Jan-2021 4683.51 5647.85 81.51 9.00  14.80 2579.09
   08:51:13.678.29-Jan-2021 4683.51 5656.48 81.51 9.00  15.00 2579.09
   08:51:13.878.29-Jan-2021 4683.51 5656.48 81.51 9.00  15.20 2579.09
   08:51:14.078.29-Jan-2021 4683.51 5651.66 81.51 9.00  15.40 2579.09
   08:51:14.278.29-Jan-2021 4683.51 5654.91 81.51 9.00  15.60 2579.09
   08:51:14.478.29-Jan-2021 4683.51 5654.35 81.50 9.00  15.80 2579.09
   08:51:14.678.29-Jan-2021 4683.51 5664.05 81.50 9.00  16.00 2579.09
   08:51:14.878.29-Jan-2021 4683.51 5664.05 81.50 9.00  16.20 2579.09
   08:51:15.078.29-Jan-2021 4683.51 5832.54 81.50 9.00  16.40 2579.09
   08:51:15.278.29-Jan-2021 4683.51 5896.97 81.50 9.00  16.60 2579.09
   08:51:15.479.29-Jan-2021 4683.51 5955.05 81.50 9.00  16.80 2579.09
   08:51:15.679.29-Jan-2021 4683.51 6024.68 81.50 9.00  17.00 2579.09
   08:51:15.879.29-Jan-2021 4683.51 6024.68 81.50 9.00  17.20 2579.09
   08:51:16.079.29-Jan-2021 4683.51 6146.07 81.50 9.00  17.40 2579.09
   08:51:16.279.29-Jan-2021 4683.51 6200.71 81.50 9.00  17.60 2579.09
   08:51:16.479.29-Jan-2021 4683.51 6251.82 81.50 9.00  17.80 2579.09
   08:51:16.679.29-Jan-2021 4683.51 6235.05 81.50 9.00  18.00 2579.09
   08:51:16.879.29-Jan-2021 4683.51 6235.05 81.50 9.00  18.20 2579.09
   08:51:17.079.29-Jan-2021 4683.51 6233.49 81.49 9.00  18.40 2579.09
   08:51:17.279.29-Jan-2021 4683.51 6213.03 81.49 9.00  18.60 2579.09
   08:51:17.479.29-Jan-2021 4683.51 6213.86 81.49 9.00  18.80 2579.09
   08:51:17.679.29-Jan-2021 4683.51 6245.57 81.49 9.00  19.00 2579.09
   08:51:17.879.29-Jan-2021 4683.51 6245.57 81.49 9.00  19.20 2579.09
   08:51:18.079.29-Jan-2021 4683.51 5665.47 81.49 9.00  19.40 2579.09
   08:51:18.279.29-Jan-2021 4683.51 5700.13 81.49 9.00  19.60 2579.09
   08:51:18.479.29-Jan-2021 4683.51 5747.26 81.49 9.00  19.80 2579.09
   08:51:18.679.29-Jan-2021 4683.51 5868.32 81.49 9.00  20.00 2579.09
   08:51:18.879.29-Jan-2021 4683.51 5868.32 81.49 9.00  20.20 2579.09
   08:51:19.079.29-Jan-2021 4683.51 6063.80 81.49 9.00  20.40 2579.09
   08:51:19.279.29-Jan-2021 4683.51 6061.34 81.49 9.00  20.60 2579.09
   08:51:19.479.29-Jan-2021 4683.51 6027.45 81.48 9.00  20.80 2579.09
   08:51:19.679.29-Jan-2021 4683.51 6058.40 81.48 9.00  21.00 2579.09
   08:51:19.879.29-Jan-2021 4683.51 6058.40 81.48 9.00  21.20 2579.09
   08:51:20.079.29-Jan-2021 4683.51 6058.66 81.48 9.00  21.40 2579.09
   08:51:20.280.29-Jan-2021 4683.51 6056.29 81.48 9.00  21.60 2579.09
   08:51:20.480.29-Jan-2021 4683.51 6054.77 81.48 9.00  21.80 2579.09
   08:51:20.680.29-Jan-2021 4683.51 6053.81 81.48 9.00  22.00 2579.09
   08:51:20.880.29-Jan-2021 4683.51 6053.81 81.48 9.00  22.20 2579.09
   08:51:21.080.29-Jan-2021 4683.51 6052.94 81.48 9.00  22.40 2579.09
   08:51:21.280.29-Jan-2021 4683.51 6052.66 81.48 9.00  22.60 2579.09
   08:51:21.480.29-Jan-2021 4683.51 6051.87 81.48 9.00  22.80 2579.09
