~Version Information
 VERS.                  2.0:   CWLS log ASCII Standard -VERSION 2.0
 WRAP.                   NO:   One line per depth step
~Well Information Block
#MNEM.UNIT     VALUE/NAME     DESCRIPTION
#---------     -----------    ---------------------------
 STRT.S             01:29:12 30-Jan-21: START TIME 01:29:12 30-Jan-21
 STOP.S             01:35:33 30-Jan-21: STOP TIME  01:35:33 30-Jan-21
 STEP.S                   0.00: STEP TIME
 NULL.                 -999.25: NULL VALUE
 DFWT.                        :  DIST FWL TEXT
 DFST.                        :  DIST FSL TEXT
 DMF .             Drill Floor:  DRILL MEAS FROM
 STIM.      00.00.00 25-Sep-20:  START TIME
 DATE.      16.12.48 31-Jan-21:  END TIME
 SPUD.               20-Sep-20:  SPUD DATE
 NREF.                    Grid:  NORTH REFERENCE
 HPTY.       Minimum Curvature:  HOLE POS TYPE
 DMOD.             Drill Model:  DRILL MOD DESC
 SVYD.                  Survey:  SURVEY DESC
 ILTD.               Lithology:  INTERP LTH DESC
 FTOP.          Formation Tops:  FORM TOPS DESC
 RIG .              East Azeri:  RIG NAME
 PDAT.          Mean Sea Level:  PERMANENT DATUM
 FLD .                     ACG:  FIELD NAME
 SON .        AZ-XX-0906591820:  JOB NUMBER
 CTRY.              Azerbaijan:  COUNTRY NAME
 WELL.                     D37:  WELL NAME
 SRVC.     Turan Drilling & Engineering:  CONTRACTOR
 COMP.     BP Exploration (Caspian Sea) ltd.:  COMPANY
 WTYP.                Deviated:  WELL TYPE
 MDS .        Operator Entered:  MAG DATA SOURCE
 UWI .                     N/A:  UNIQUE WELL IDENTIFIER
 API .                     N/A:  API NUMBER
 BASE.              Azerbaijan:  LOGGING EQUIPMENT BASE LOCATION
 REGN.                   EESSA:  REGION
 PROV.                    Baku:  PROVINCE
 STAT.                    Baku:  STATE NAME
 MWDS.                    Baku:  MWD SHOP
 JOBN.        AZ-XX-0906591820:  JOB TICKET NUMB
 DOE .                     N/A:  DOE NUMBER
 DCON.         Sperry Drilling:  DIRECTNL CONTR
 UNIT.                     N/A:  LOGGING EQUIPMENT ID
 CNTY.                        :  COUNTY
 LOC .                        :  LOCATION
 LMF .             Drill Floor:  LOG MEASURED FROM
 TVDS.m                  43.60:  TVDSS CORRECTN
 LATI.deg                40.02:  LATITUDE
 LONG.deg                51.45:  LONGITUDE
 WHNS.m                  11.04:  WELL HEAD N/S
 WHEW.m                 -12.38:  WELL HEAD E/W
 UTMX.m              538763.98:  UTM X
 UTMY.m             4431880.20:  UTM Y
 DFWL.m                   0.00:  DISTANCE FWL
 DFSL.m                   0.00:  DISTANCE FSL
 SDEP.m                 300.00:  START DEPTH
 TDD .m                4900.01:  TOTAL DEPTH (DRILLER)
 VSDR.deg               185.64:  VERT SEC DIRECT
 GVFD.g                   1.00:  GRAVITY FIELD
 MFLD.nT              50301.00:  MAGNETIC FIELD
 MDIP.deg                59.46:  MAGNETIC DIP
 MDEC.deg                 6.43:  MAGNETIC DECL
 GRDC.deg                 0.29:  GRID CORRECTION
 AZTC.deg                 6.14:  AZM TOTAL CORR
 EPD .m                   0.00:  ELEVATION
 EGL .m                   0.00:  GROUND ELEVATION
 WDMS.m                 151.80:  WD ELEV
 APD .m                  43.60:  DEPTH ABOVE PD
 DEP .m                 571.69:  DEPTH
 AGAP.m                  43.60:  AIR GAP
 VSEW.m                 -12.38:  VERT SEC E/W
 VSNS.m                  11.04:  VERT SEC N/S
 EKB .m                  43.60:  KB ELEVATION
 EDF .m                  43.60:  DF ELEVATION
 TDL .m                 412.00:  TOTAL DEPTH (LOGGER)
 VSC .                       0:  VS TO CLOSURE
 MAGU.                 1849300:  MAGUTM CHECKSUM
~Parameter Information Block
#MNEM.UNIT       Value        Description
#---------     -----------    ---------------------------
 AV  .mps                 2.21:  Ann Velocity 
 AVMX.mps                 2.53:  Max Ann Veloc 
 AZIF.deg               144.83:  Azm, Final 
 BHAT.        Rotary Steerable:  BHA Type 
 BROT.°/30m              -0.52:  Build Rotating 
 BS  .in                  6.50:  Bit Size 
 BTPL.psig              209.00:  Bit Press Loss 
 CABU.                      No:  Customer Abuse 
 CGEO.        Ali Isfandiyarov:  Customer Geo 
 COMM.                     5j:  Run Comments 1 
 TCS .hr                 61.31:  Time Ciculation Ended 
 CV  .mps                 4.66:  Crit Velocity 
 CVMX.mps                 5.02:  Max Crit Veloc 
 DD1 .          Fariz Nahmatov:  Direct Drillr 1 
 DD2 .            Musa Ahmadov:  Direct Drillr 2 
 DDSV.               Geo-Pilot:  DD Service 
 DEFF.%                 100.00:  % Det Eff 
 DLRX.°/30m               1.44:  Dogleg Rot Max 
 DLSO.°/30m               0.83:  Dogleg Oriented 
 DLSX.°/30m               1.44:  Dogleg Str Max 
 DRET.      08.30.00 30-Jan-21:  Drill End Time 
 DRST.      21.15.00 27-Jan-21:  Drill Start Tim 
 DTIM.hr                 37.28:  Time Drilling 
 EDEP.m                4867.01:  End Depth 
 ENG1.          Rasim Hashimov:  Engineer 1 
 ENG2.         Almaz Almadatov:  Engineer 2 
 ENG3.        Tamerlan Ahmadov:  Engineer 3 
 ETIM.      22.41.04 31-Jan-21:  End Time 
 FLOI.gpm               400.00:  Flow In 
 FLON.gpm               300.00:  Flow In Min 
 FLOS.cptm                0.00:  Fluid Loss 
 FLOX.gpm               400.00:  Flow In Max 
 HFLO.                      No:  High Flow 
 HPRE.                      No:  High Pressure 
 HTEM.                      No:  High Temp 
 HYDO.m                   1.80:  Hydro Offset 
 IFIN.deg                65.63:  Inc, Final 
 IMAX.deg                66.77:  Inc Max 
 IMIN.deg                65.61:  Inc Min 
 IMND.m                4612.67:  Inc Min Depth 
 IMXD.m                4811.63:  Inc Max Depth 
 JARR.                      No:  Jarring 
 LETM.      08.30.00 30-Jan-21:  Log End Time 
 LOST.hr                     0:  Lost Rig Time 
 LSTM.      21.15.00 27-Jan-21:  Log Start Time 
 MDCL.ppm             41000.00:  Mud Chlorides 
 MDES.     Inversion Oil/Synthetic:  Mud Desc 
 DFD .sg                  1.40:  Mud Density 
 MDMN.sg                  1.40:  Dens Mud Min 
 MDMX.sg                  1.40:  Dens Mud Max 
 MOIL.                      53:  Run Mud Oil % 
 MOWR.                   66:34:  Run Mud OWR 
 MSND.                     0.2:  Run Mud Sand % 
 MSOL.                    17.9:  Run Mud Solids% 
 DFV .spqt               77.00:  Mud Viscosity 
 MWOD.in                  4.75:  MWD Tool OD 
 MWSI.                      No:  Serv Intrp, MWD 
 OTIM.hr                110.38:  Time Operating 
 PCON.           Look Like New:  Pad Condition 
 PMAX.psia             5300.00:  Press Op, Max 
 PV  .cP                 57.00:  Mud PV 
 RUN .                    1200:  Run Number 
 ROPA.m/hr               13.00:  ROP Avg 
 ROPN.m/hr                9.00:  ROP Min 
 ROPX.m/hr               15.00:  ROP Max 
 RPMA.rpm               120.00:  RPM Surface Avg 
 RPMN.rpm               100.00:  RPM Surface Min 
 RPMX.rpm               135.00:  RPM Surface Max 
 RRUN.                    1200:  Rig Run Number 
 RTIM.hr                  2.65:  Time Reaming 
 SAZI.deg               145.04:  Azm, Start 
 SDEP.m                4455.01:  Start Depth 
 SIDD.                      No:  Serv Intrp, DD 
 SINC.deg                65.83:  Inc, Start 
 SPPA.psig             5037.00:  SPP Avg 
 SPPN.psig             4430.00:  SPP Min 
 SPPX.psig             5300.00:  SPP Max 
 STIM.      22.41.04 26-Jan-21:  Start Time 
 SVCS.                 DD, MWD:  Services 
 SVER.                    9.20:  Sperry Version 
 TDAT.m                 412.00:  Tot Depth Attmp 
 TDDF.                      No:  Trip for DD 
 TDLG.m                 412.00:  Tot Depth Loggd 
 TFF .                      No:  Trip for Fail 
 TQAA.f-kp               15.00:  Torque Abs Avg 
 TQAN.f-kp               12.00:  Torque Abs Min 
 TQAX.f-kp               17.00:  Torque Abs Max 
 TRRT.°/30m               1.18:  Turn Rotating 
 MRT .                     ADR:  Maximum Recorded Temperature 
 TTMX.degC               88.24:  Max Tool Temp 
 VS01.                90619458:  Virtual Str1 SN 
 VS02.                90519326:  Virtual Str2 SN 
 VS03.                90522176:  Virtual Str3 SN 
 VS04.                90512683:  Virtual Str4 SN 
 WBMN.klb                 1.00:  WOB Min 
 WITN.           Murad Giluyev:  Customer Rep 
 WITN.     Kamran Kemberlinski:  Customer Rep 2 
 WOBA.klb                 5.00:  WOB Avg 
 WOBX.klb                 9.00:  WOB Max 
 YP  .lhf2               41.00:  Yield Point 
~Curve Information Block
#MNEM.UNIT                 API CODE     Curve Description
#---------               -----------    ---------------------------
 TIME.HHMMSS            00 000 000 000:  GT Time & Date
 GTDEPTH.m              00 000 000 000:  GT Depth
 GTPQH.psia             00 000 000 000:  GT HR Quartz Pressure
 GTTQ.degC              00 000 000 000:  GT Quartz Temperature
 GTTN.NONE              00 000 000 000:  GT Test Number
 GTET.sec               00 000 000 000:  GT Elapsed Test Time
 GTTVD.m                00 000 000 000:  GT True Vertical Depth
#Other Information
#
#WARRANTY: Halliburton will use its best efforts to furnish customers with 
#accurate information and interpretations that are part of, and incident to, the services 
#provided.  However, Halliburton cannot and does not warrant the accuracy 
#or correctness of such information and interpretations.  Under no circumstances should any 
#such information or interpretation be relied upon as the sole basis for any drilling, 
#completion, production, or financial decision or any procedure involving any risk to the 
#safety of any drilling venture, drilling rig or its crew or any other third party.  The 
#Customer has full responsibility for all drilling, completion and production operation.  
#Halliburton makes no representations or warranties, either expressed or 
#implied, including, but not limited to, the implied warranties of merchantability or fitness 
#for a particular purpose, with respect to the services rendered.  In no event will 
#Halliburton be liable for failure to obtain any particular results or for 
#any damages, including, but not limited to, indirect, special or consequential damages, 
#resulting from the use of any information or interpretation provided by Halliburton.
#
~A           TIME           GTDEPTH  GTPQH  GTTQ  GTTN   GTET   GTTVD  
# ...
   01:32:36.077.30-Jan-2021 4789.01   36.52 81.89 15.00 203.44 2621.19
   01:32:36.277.30-Jan-2021 4789.01   36.52 81.89 15.00 203.64 2621.19
   01:32:36.477.30-Jan-2021 4789.01   36.53 81.89 15.00 203.84 2621.19
   01:32:36.677.30-Jan-2021 4789.01   36.54 81.89 15.00 204.04 2621.19
   01:32:36.877.30-Jan-2021 4789.01   36.54 81.89 15.00 204.24 2621.19
   01:32:37.077.30-Jan-2021 4789.01   36.56 81.89 15.00 204.44 2621.19
   01:32:37.277.30-Jan-2021 4789.01   36.57 81.89 15.00 204.64 2621.19
   01:32:37.477.30-Jan-2021 4789.01   36.58 81.89 15.00 204.84 2621.19
   01:32:37.677.30-Jan-2021 4789.01   36.59 81.89 15.00 205.04 2621.19
   01:32:37.877.30-Jan-2021 4789.01   36.59 81.89 15.00 205.24 2621.19
   01:32:38.077.30-Jan-2021 4789.01   36.61 81.89 15.00 205.44 2621.19
   01:32:38.277.30-Jan-2021 4789.01   36.62 81.89 15.00 205.64 2621.19
   01:32:38.477.30-Jan-2021 4789.01   36.62 81.89 15.00 205.84 2621.19
   01:32:38.677.30-Jan-2021 4789.01   36.64 81.89 15.00 206.04 2621.19
   01:32:38.877.30-Jan-2021 4789.01   36.64 81.89 15.00 206.24 2621.19
   01:32:39.077.30-Jan-2021 4789.01   36.65 81.88 15.00 206.44 2621.19
   01:32:39.277.30-Jan-2021 4789.01   36.66 81.88 15.00 206.64 2621.19
   01:32:39.477.30-Jan-2021 4789.01   36.67 81.88 15.00 206.84 2621.19
   01:32:39.677.30-Jan-2021 4789.01   36.68 81.88 15.00 207.04 2621.19
   01:32:39.877.30-Jan-2021 4789.01   36.68 81.88 15.00 207.24 2621.19
   01:32:40.077.30-Jan-2021 4789.01   36.70 81.88 15.00 207.44 2621.19
   01:32:40.277.30-Jan-2021 4789.01   36.71 81.88 15.00 207.64 2621.19
   01:32:40.477.30-Jan-2021 4789.01   36.71 81.88 15.00 207.84 2621.19
   01:32:40.677.30-Jan-2021 4789.01   36.73 81.88 15.00 208.04 2621.19
   01:32:40.878.30-Jan-2021 4789.01   36.73 81.88 15.00 208.24 2621.19
   01:32:41.078.30-Jan-2021 4789.01   36.74 81.88 15.00 208.44 2621.19
   01:32:41.278.30-Jan-2021 4789.01   36.75 81.88 15.00 208.64 2621.19
   01:32:41.478.30-Jan-2021 4789.01   36.76 81.88 15.00 208.84 2621.19
   01:32:41.678.30-Jan-2021 4789.01   36.76 81.88 15.00 209.04 2621.19
   01:32:41.878.30-Jan-2021 4789.01   36.76 81.88 15.00 209.24 2621.19
   01:32:42.078.30-Jan-2021 4789.01   36.79 81.88 15.00 209.44 2621.19
   01:32:42.278.30-Jan-2021 4789.01   36.79 81.88 15.00 209.64 2621.19
   01:32:42.478.30-Jan-2021 4789.01   36.80 81.88 15.00 209.84 2621.19
   01:32:42.678.30-Jan-2021 4789.01   36.82 81.88 15.00 210.04 2621.19
   01:32:42.878.30-Jan-2021 4789.01   36.82 81.88 15.00 210.24 2621.19
   01:32:43.078.30-Jan-2021 4789.01   36.83 81.88 15.00 210.44 2621.19
   01:32:43.278.30-Jan-2021 4789.01   36.84 81.88 15.00 210.64 2621.19
   01:32:43.478.30-Jan-2021 4789.01   36.85 81.88 15.00 210.84 2621.19
   01:32:43.678.30-Jan-2021 4789.01   36.86 81.88 15.00 211.04 2621.19
   01:32:43.878.30-Jan-2021 4789.01   36.86 81.88 15.00 211.24 2621.19
   01:32:44.078.30-Jan-2021 4789.01   36.87 81.87 15.00 211.44 2621.19
   01:32:44.278.30-Jan-2021 4789.01   36.88 81.87 15.00 211.64 2621.19
   01:32:44.478.30-Jan-2021 4789.01   36.89 81.87 15.00 211.84 2621.19
   01:32:44.678.30-Jan-2021 4789.01   36.90 81.87 15.00 212.04 2621.19
   01:32:44.878.30-Jan-2021 4789.01   36.90 81.87 15.00 212.24 2621.19
   01:32:45.078.30-Jan-2021 4789.01   36.92 81.87 15.00 212.44 2621.19
   01:32:45.278.30-Jan-2021 4789.01   36.92 81.87 15.00 212.64 2621.19
   01:32:45.478.30-Jan-2021 4789.01   36.93 81.87 15.00 212.84 2621.19
   01:32:45.678.30-Jan-2021 4789.01   36.94 81.87 15.00 213.04 2621.19
   01:32:45.878.30-Jan-2021 4789.01   36.94 81.87 15.00 213.24 2621.19
   01:32:46.079.30-Jan-2021 4789.01   36.96 81.87 15.00 213.44 2621.19
   01:32:46.279.30-Jan-2021 4789.01   36.96 81.87 15.00 213.64 2621.19
   01:32:46.479.30-Jan-2021 4789.01   36.97 81.87 15.00 213.84 2621.19
   01:32:46.679.30-Jan-2021 4789.01   36.98 81.87 15.00 214.04 2621.19
   01:32:46.879.30-Jan-2021 4789.01   36.98 81.87 15.00 214.24 2621.19
   01:32:47.079.30-Jan-2021 4789.01   37.00 81.87 15.00 214.44 2621.19
   01:32:47.279.30-Jan-2021 4789.01   37.00 81.87 15.00 214.64 2621.19
   01:32:47.479.30-Jan-2021 4789.01   37.01 81.87 15.00 214.84 2621.19
   01:32:47.679.30-Jan-2021 4789.01   37.02 81.87 15.00 215.04 2621.19
   01:32:47.879.30-Jan-2021 4789.01   37.02 81.87 15.00 215.24 2621.19
   01:32:48.079.30-Jan-2021 4789.01   37.04 81.87 15.00 215.44 2621.19
   01:32:48.279.30-Jan-2021 4789.01   37.05 81.87 15.00 215.64 2621.19
   01:32:48.479.30-Jan-2021 4789.01   37.05 81.87 15.00 215.84 2621.19
   01:32:48.679.30-Jan-2021 4789.01   37.06 81.87 15.00 216.04 2621.19
   01:32:48.879.30-Jan-2021 4789.01   37.06 81.87 15.00 216.24 2621.19
   01:32:49.079.30-Jan-2021 4789.01   37.08 81.86 15.00 216.44 2621.19
   01:32:49.279.30-Jan-2021 4789.01   37.09 81.86 15.00 216.64 2621.19
   01:32:49.479.30-Jan-2021 4789.01   37.09 81.86 15.00 216.84 2621.19
   01:32:49.679.30-Jan-2021 4789.01   37.10 81.86 15.00 217.04 2621.19
   01:32:49.879.30-Jan-2021 4789.01   37.10 81.86 15.00 217.24 2621.19
   01:32:50.079.30-Jan-2021 4789.01   37.12 81.86 15.00 217.44 2621.19
   01:32:50.279.30-Jan-2021 4789.01   37.12 81.86 15.00 217.64 2621.19
   01:32:50.479.30-Jan-2021 4789.01   37.14 81.86 15.00 217.84 2621.19
   01:32:50.679.30-Jan-2021 4789.01   37.14 81.86 15.00 218.04 2621.19
   01:32:50.879.30-Jan-2021 4789.01   37.14 81.86 15.00 218.24 2621.19
   01:32:51.079.30-Jan-2021 4789.01   37.15 81.86 15.00 218.44 2621.19
   01:32:51.280.30-Jan-2021 4789.01   37.17 81.86 15.00 218.64 2621.19
   01:32:51.480.30-Jan-2021 4789.01   37.17 81.86 15.00 218.84 2621.19
   01:32:51.680.30-Jan-2021 4789.01   37.19 81.86 15.00 219.04 2621.19
   01:32:51.880.30-Jan-2021 4789.01   37.19 81.86 15.00 219.24 2621.19
   01:32:52.080.30-Jan-2021 4789.01   37.20 81.86 15.00 219.44 2621.19
   01:32:52.280.30-Jan-2021 4789.01   37.20 81.86 15.00 219.64 2621.19
   01:32:52.480.30-Jan-2021 4789.01   37.21 81.86 15.00 219.84 2621.19
   01:32:52.680.30-Jan-2021 4789.01   37.22 81.86 15.00 220.04 2621.19
   01:32:52.880.30-Jan-2021 4789.01   37.22 81.86 15.00 220.24 2621.19
   01:32:53.080.30-Jan-2021 4789.01   37.24 81.86 15.00 220.44 2621.19
   01:32:53.280.30-Jan-2021 4789.01   37.25 81.86 15.00 220.64 2621.19
   01:32:53.480.30-Jan-2021 4789.01   37.25 81.86 15.00 220.84 2621.19
   01:32:53.680.30-Jan-2021 4789.01   37.26 81.86 15.00 221.04 2621.19
   01:32:53.880.30-Jan-2021 4789.01   37.26 81.86 15.00 221.24 2621.19
   01:32:54.080.30-Jan-2021 4789.01   37.28 81.85 15.00 221.44 2621.19
   01:32:54.280.30-Jan-2021 4789.01   37.29 81.85 15.00 221.64 2621.19
   01:32:54.480.30-Jan-2021 4789.01   37.30 81.85 15.00 221.84 2621.19
   01:32:54.680.30-Jan-2021 4789.01   37.30 81.85 15.00 222.04 2621.19
   01:32:54.880.30-Jan-2021 4789.01   37.30 81.85 15.00 222.24 2621.19
   01:32:55.080.30-Jan-2021 4789.01   37.32 81.85 15.00 222.44 2621.19
   01:32:55.280.30-Jan-2021 4789.01   37.32 81.85 15.00 222.64 2621.19
   01:32:55.480.30-Jan-2021 4789.01   37.33 81.85 15.00 222.84 2621.19
   01:32:55.680.30-Jan-2021 4789.01   37.35 81.85 15.00 223.04 2621.19
   01:32:55.880.30-Jan-2021 4789.01   37.35 81.85 15.00 223.24 2621.19
   01:32:56.080.30-Jan-2021 4789.01   37.36 81.85 15.00 223.44 2621.19
   01:32:56.280.30-Jan-2021 4789.01   37.37 81.85 15.00 223.64 2621.19
   01:32:56.481.30-Jan-2021 4789.01   37.37 81.85 15.00 223.84 2621.19
   01:32:56.681.30-Jan-2021 4789.01   37.38 81.85 15.00 224.04 2621.19
   01:32:56.881.30-Jan-2021 4789.01   37.38 81.85 15.00 224.24 2621.19
   01:32:57.081.30-Jan-2021 4789.01   37.40 81.85 15.00 224.44 2621.19
   01:32:57.281.30-Jan-2021 4789.01   37.41 81.85 15.00 224.64 2621.19
   01:32:57.481.30-Jan-2021 4789.01   37.41 81.85 15.00 224.84 2621.19
   01:32:57.681.30-Jan-2021 4789.01   37.42 81.85 15.00 225.04 2621.19
   01:32:57.881.30-Jan-2021 4789.01   37.42 81.85 15.00 225.24 2621.19
   01:32:58.081.30-Jan-2021 4789.01   37.43 81.85 15.00 225.44 2621.19
   01:32:58.281.30-Jan-2021 4789.01   37.44 81.85 15.00 225.64 2621.19
   01:32:58.481.30-Jan-2021 4789.01   37.45 81.85 15.00 225.84 2621.19
