~Version Information
 VERS.                  2.0:   CWLS log ASCII Standard -VERSION 2.0
 WRAP.                   NO:   One line per depth step
~Well Information Block
#MNEM.UNIT     VALUE/NAME     DESCRIPTION
#---------     -----------    ---------------------------
 STRT.S             13:18:38 29-Jan-21: START TIME 13:18:38 29-Jan-21
 STOP.S             13:25:08 29-Jan-21: STOP TIME  13:25:08 29-Jan-21
 STEP.S                   0.00: STEP TIME
 NULL.                 -999.25: NULL VALUE
 DFWT.                        :  DIST FWL TEXT
 DFST.                        :  DIST FSL TEXT
 DMF .             Drill Floor:  DRILL MEAS FROM
 STIM.      00.00.00 25-Sep-20:  START TIME
 DATE.      16.12.48 31-Jan-21:  END TIME
 SPUD.               20-Sep-20:  SPUD DATE
 NREF.                    Grid:  NORTH REFERENCE
 HPTY.       Minimum Curvature:  HOLE POS TYPE
 DMOD.             Drill Model:  DRILL MOD DESC
 SVYD.                  Survey:  SURVEY DESC
 ILTD.               Lithology:  INTERP LTH DESC
 FTOP.          Formation Tops:  FORM TOPS DESC
 RIG .              East Azeri:  RIG NAME
 PDAT.          Mean Sea Level:  PERMANENT DATUM
 FLD .                     ACG:  FIELD NAME
 SON .        AZ-XX-0906591820:  JOB NUMBER
 CTRY.              Azerbaijan:  COUNTRY NAME
 WELL.                     D37:  WELL NAME
 SRVC.     Turan Drilling & Engineering:  CONTRACTOR
 COMP.     BP Exploration (Caspian Sea) ltd.:  COMPANY
 WTYP.                Deviated:  WELL TYPE
 MDS .        Operator Entered:  MAG DATA SOURCE
 UWI .                     N/A:  UNIQUE WELL IDENTIFIER
 API .                     N/A:  API NUMBER
 BASE.              Azerbaijan:  LOGGING EQUIPMENT BASE LOCATION
 REGN.                   EESSA:  REGION
 PROV.                    Baku:  PROVINCE
 STAT.                    Baku:  STATE NAME
 MWDS.                    Baku:  MWD SHOP
 JOBN.        AZ-XX-0906591820:  JOB TICKET NUMB
 DOE .                     N/A:  DOE NUMBER
 DCON.         Sperry Drilling:  DIRECTNL CONTR
 UNIT.                     N/A:  LOGGING EQUIPMENT ID
 CNTY.                        :  COUNTY
 LOC .                        :  LOCATION
 LMF .             Drill Floor:  LOG MEASURED FROM
 TVDS.m                  43.60:  TVDSS CORRECTN
 LATI.deg                40.02:  LATITUDE
 LONG.deg                51.45:  LONGITUDE
 WHNS.m                  11.04:  WELL HEAD N/S
 WHEW.m                 -12.38:  WELL HEAD E/W
 UTMX.m              538763.98:  UTM X
 UTMY.m             4431880.20:  UTM Y
 DFWL.m                   0.00:  DISTANCE FWL
 DFSL.m                   0.00:  DISTANCE FSL
 SDEP.m                 300.00:  START DEPTH
 TDD .m                4900.01:  TOTAL DEPTH (DRILLER)
 VSDR.deg               185.64:  VERT SEC DIRECT
 GVFD.g                   1.00:  GRAVITY FIELD
 MFLD.nT              50301.00:  MAGNETIC FIELD
 MDIP.deg                59.46:  MAGNETIC DIP
 MDEC.deg                 6.43:  MAGNETIC DECL
 GRDC.deg                 0.29:  GRID CORRECTION
 AZTC.deg                 6.14:  AZM TOTAL CORR
 EPD .m                   0.00:  ELEVATION
 EGL .m                   0.00:  GROUND ELEVATION
 WDMS.m                 151.80:  WD ELEV
 APD .m                  43.60:  DEPTH ABOVE PD
 DEP .m                 571.69:  DEPTH
 AGAP.m                  43.60:  AIR GAP
 VSEW.m                 -12.38:  VERT SEC E/W
 VSNS.m                  11.04:  VERT SEC N/S
 EKB .m                  43.60:  KB ELEVATION
 EDF .m                  43.60:  DF ELEVATION
 TDL .m                 412.00:  TOTAL DEPTH (LOGGER)
 VSC .                       0:  VS TO CLOSURE
 MAGU.                 1849300:  MAGUTM CHECKSUM
~Parameter Information Block
#MNEM.UNIT       Value        Description
#---------     -----------    ---------------------------
 AV  .mps                 2.21:  Ann Velocity 
 AVMX.mps                 2.53:  Max Ann Veloc 
 AZIF.deg               144.83:  Azm, Final 
 BHAT.        Rotary Steerable:  BHA Type 
 BROT.°/30m              -0.52:  Build Rotating 
 BS  .in                  6.50:  Bit Size 
 BTPL.psig              209.00:  Bit Press Loss 
 CABU.                      No:  Customer Abuse 
 CGEO.        Ali Isfandiyarov:  Customer Geo 
 COMM.                     lÄt:  Run Comments 1 
 TCS .hr                 61.31:  Time Ciculation Ended 
 CV  .mps                 4.66:  Crit Velocity 
 CVMX.mps                 5.02:  Max Crit Veloc 
 DD1 .          Fariz Nahmatov:  Direct Drillr 1 
 DD2 .            Musa Ahmadov:  Direct Drillr 2 
 DDSV.               Geo-Pilot:  DD Service 
 DEFF.%                 100.00:  % Det Eff 
 DLRX.°/30m               1.44:  Dogleg Rot Max 
 DLSO.°/30m               0.83:  Dogleg Oriented 
 DLSX.°/30m               1.44:  Dogleg Str Max 
 DRET.      08.30.00 30-Jan-21:  Drill End Time 
 DRST.      21.15.00 27-Jan-21:  Drill Start Tim 
 DTIM.hr                 37.28:  Time Drilling 
 EDEP.m                4867.01:  End Depth 
 ENG1.          Rasim Hashimov:  Engineer 1 
 ENG2.         Almaz Almadatov:  Engineer 2 
 ENG3.        Tamerlan Ahmadov:  Engineer 3 
 ETIM.      22.41.04 31-Jan-21:  End Time 
 FLOI.gpm               400.00:  Flow In 
 FLON.gpm               300.00:  Flow In Min 
 FLOS.cptm                0.00:  Fluid Loss 
 FLOX.gpm               400.00:  Flow In Max 
 HFLO.                      No:  High Flow 
 HPRE.                      No:  High Pressure 
 HTEM.                      No:  High Temp 
 HYDO.m                   1.80:  Hydro Offset 
 IFIN.deg                65.63:  Inc, Final 
 IMAX.deg                66.77:  Inc Max 
 IMIN.deg                65.61:  Inc Min 
 IMND.m                4612.67:  Inc Min Depth 
 IMXD.m                4811.63:  Inc Max Depth 
 JARR.                      No:  Jarring 
 LETM.      08.30.00 30-Jan-21:  Log End Time 
 LOST.hr                     0:  Lost Rig Time 
 LSTM.      21.15.00 27-Jan-21:  Log Start Time 
 MDCL.ppm             41000.00:  Mud Chlorides 
 MDES.     Inversion Oil/Synthetic:  Mud Desc 
 DFD .sg                  1.40:  Mud Density 
 MDMN.sg                  1.40:  Dens Mud Min 
 MDMX.sg                  1.40:  Dens Mud Max 
 MOIL.                      53:  Run Mud Oil % 
 MOWR.                   66:34:  Run Mud OWR 
 MSND.                     0.2:  Run Mud Sand % 
 MSOL.                    17.9:  Run Mud Solids% 
 DFV .spqt               77.00:  Mud Viscosity 
 MWOD.in                  4.75:  MWD Tool OD 
 MWSI.                      No:  Serv Intrp, MWD 
 OTIM.hr                110.38:  Time Operating 
 PCON.           Look Like New:  Pad Condition 
 PMAX.psia             5300.00:  Press Op, Max 
 PV  .cP                 57.00:  Mud PV 
 RUN .                    1200:  Run Number 
 ROPA.m/hr               13.00:  ROP Avg 
 ROPN.m/hr                9.00:  ROP Min 
 ROPX.m/hr               15.00:  ROP Max 
 RPMA.rpm               120.00:  RPM Surface Avg 
 RPMN.rpm               100.00:  RPM Surface Min 
 RPMX.rpm               135.00:  RPM Surface Max 
 RRUN.                    1200:  Rig Run Number 
 RTIM.hr                  2.65:  Time Reaming 
 SAZI.deg               145.04:  Azm, Start 
 SDEP.m                4455.01:  Start Depth 
 SIDD.                      No:  Serv Intrp, DD 
 SINC.deg                65.83:  Inc, Start 
 SPPA.psig             5037.00:  SPP Avg 
 SPPN.psig             4430.00:  SPP Min 
 SPPX.psig             5300.00:  SPP Max 
 STIM.      22.41.04 26-Jan-21:  Start Time 
 SVCS.                 DD, MWD:  Services 
 SVER.                    9.20:  Sperry Version 
 TDAT.m                 412.00:  Tot Depth Attmp 
 TDDF.                      No:  Trip for DD 
 TDLG.m                 412.00:  Tot Depth Loggd 
 TFF .                      No:  Trip for Fail 
 TQAA.f-kp               15.00:  Torque Abs Avg 
 TQAN.f-kp               12.00:  Torque Abs Min 
 TQAX.f-kp               17.00:  Torque Abs Max 
 TRRT.°/30m               1.18:  Turn Rotating 
 MRT .                     ADR:  Maximum Recorded Temperature 
 TTMX.degC               88.24:  Max Tool Temp 
 VS01.                90619458:  Virtual Str1 SN 
 VS02.                90519326:  Virtual Str2 SN 
 VS03.                90522176:  Virtual Str3 SN 
 VS04.                90512683:  Virtual Str4 SN 
 WBMN.klb                 1.00:  WOB Min 
 WITN.           Murad Giluyev:  Customer Rep 
 WITN.     Kamran Kemberlinski:  Customer Rep 2 
 WOBA.klb                 5.00:  WOB Avg 
 WOBX.klb                 9.00:  WOB Max 
 YP  .lhf2               41.00:  Yield Point 
~Curve Information Block
#MNEM.UNIT                 API CODE     Curve Description
#---------               -----------    ---------------------------
 TIME.HHMMSS            00 000 000 000:  GT Time & Date
 GTDEPTH.m              00 000 000 000:  GT Depth
 GTPQH.psia             00 000 000 000:  GT HR Quartz Pressure
 GTTQ.degC              00 000 000 000:  GT Quartz Temperature
 GTTN.NONE              00 000 000 000:  GT Test Number
 GTET.sec               00 000 000 000:  GT Elapsed Test Time
 GTTVD.m                00 000 000 000:  GT True Vertical Depth
#Other Information
#
#WARRANTY: Halliburton will use its best efforts to furnish customers with 
#accurate information and interpretations that are part of, and incident to, the services 
#provided.  However, Halliburton cannot and does not warrant the accuracy 
#or correctness of such information and interpretations.  Under no circumstances should any 
#such information or interpretation be relied upon as the sole basis for any drilling, 
#completion, production, or financial decision or any procedure involving any risk to the 
#safety of any drilling venture, drilling rig or its crew or any other third party.  The 
#Customer has full responsibility for all drilling, completion and production operation.  
#Halliburton makes no representations or warranties, either expressed or 
#implied, including, but not limited to, the implied warranties of merchantability or fitness 
#for a particular purpose, with respect to the services rendered.  In no event will 
#Halliburton be liable for failure to obtain any particular results or for 
#any damages, including, but not limited to, indirect, special or consequential damages, 
#resulting from the use of any information or interpretation provided by Halliburton.
#
~A           TIME           GTDEPTH  GTPQH  GTTQ  GTTN   GTET   GTTVD  
# ...
   13:22:24.850.29-Jan-2021 4712.01 3106.68 81.64 11.00 226.02 2590.47
   13:22:25.050.29-Jan-2021 4712.01 3106.68 81.64 11.00 226.22 2590.47
   13:22:25.250.29-Jan-2021 4712.01 3106.59 81.64 11.00 226.42 2590.47
   13:22:25.450.29-Jan-2021 4712.01 3106.71 81.64 11.00 226.62 2590.47
   13:22:25.650.29-Jan-2021 4712.01 3106.54 81.64 11.00 226.82 2590.47
   13:22:25.850.29-Jan-2021 4712.01 3106.81 81.64 11.00 227.02 2590.47
   13:22:26.050.29-Jan-2021 4712.01 3106.81 81.64 11.00 227.22 2590.47
   13:22:26.250.29-Jan-2021 4712.01 3106.63 81.63 11.00 227.42 2590.47
   13:22:26.450.29-Jan-2021 4712.01 3106.72 81.63 11.00 227.62 2590.47
   13:22:26.650.29-Jan-2021 4712.01 3106.66 81.63 11.00 227.82 2590.47
   13:22:26.850.29-Jan-2021 4712.01 3106.67 81.63 11.00 228.02 2590.47
   13:22:27.050.29-Jan-2021 4712.01 3106.67 81.63 11.00 228.22 2590.47
   13:22:27.250.29-Jan-2021 4712.01 3106.66 81.63 11.00 228.42 2590.47
   13:22:27.450.29-Jan-2021 4712.01 3106.67 81.63 11.00 228.62 2590.47
   13:22:27.650.29-Jan-2021 4712.01 3106.65 81.63 11.00 228.82 2590.47
   13:22:27.850.29-Jan-2021 4712.01 3106.65 81.63 11.00 229.02 2590.47
   13:22:28.050.29-Jan-2021 4712.01 3106.65 81.63 11.00 229.22 2590.47
   13:22:28.250.29-Jan-2021 4712.01 3106.64 81.63 11.00 229.42 2590.47
   13:22:28.450.29-Jan-2021 4712.01 3106.65 81.63 11.00 229.62 2590.47
   13:22:28.650.29-Jan-2021 4712.01 3106.64 81.63 11.00 229.82 2590.47
   13:22:28.850.29-Jan-2021 4712.01 3106.65 81.63 11.00 230.02 2590.47
   13:22:29.050.29-Jan-2021 4712.01 3106.65 81.63 11.00 230.22 2590.47
   13:22:29.250.29-Jan-2021 4712.01 3106.52 81.63 11.00 230.42 2590.47
   13:22:29.450.29-Jan-2021 4712.01 3106.80 81.62 11.00 230.62 2590.47
   13:22:29.650.29-Jan-2021 4712.01 3106.69 81.62 11.00 230.82 2590.47
   13:22:29.850.29-Jan-2021 4712.01 3106.62 81.62 11.00 231.02 2590.47
   13:22:30.050.29-Jan-2021 4712.01 3106.62 81.62 11.00 231.22 2590.47
   13:22:30.250.29-Jan-2021 4712.01 3106.66 81.62 11.00 231.42 2590.47
   13:22:30.450.29-Jan-2021 4712.01 3106.71 81.62 11.00 231.62 2590.47
   13:22:30.650.29-Jan-2021 4712.01 3106.63 81.62 11.00 231.82 2590.47
   13:22:30.850.29-Jan-2021 4712.01 3106.67 81.62 11.00 232.02 2590.47
   13:22:31.050.29-Jan-2021 4712.01 3106.67 81.62 11.00 232.22 2590.47
   13:22:31.250.29-Jan-2021 4712.01 3106.66 81.62 11.00 232.42 2590.47
   13:22:31.450.29-Jan-2021 4712.01 3106.65 81.62 11.00 232.62 2590.47
   13:22:31.650.29-Jan-2021 4712.01 3106.64 81.62 11.00 232.82 2590.47
   13:22:31.850.29-Jan-2021 4712.01 3106.67 81.62 11.00 233.02 2590.47
   13:22:32.050.29-Jan-2021 4712.01 3106.67 81.62 11.00 233.22 2590.47
   13:22:32.250.29-Jan-2021 4712.01 3106.64 81.62 11.00 233.42 2590.47
   13:22:32.450.29-Jan-2021 4712.01 3106.51 81.62 11.00 233.62 2590.47
   13:22:32.650.29-Jan-2021 4712.01 3106.79 81.61 11.00 233.82 2590.47
   13:22:32.850.29-Jan-2021 4712.01 3106.68 81.61 11.00 234.02 2590.47
   13:22:33.050.29-Jan-2021 4712.01 3106.68 81.61 11.00 234.22 2590.47
   13:22:33.250.29-Jan-2021 4712.01 3106.62 81.61 11.00 234.42 2590.47
   13:22:33.450.29-Jan-2021 4712.01 3106.75 81.61 11.00 234.62 2590.47
   13:22:33.650.29-Jan-2021 4712.01 3106.69 81.61 11.00 234.82 2590.47
   13:22:33.851.29-Jan-2021 4712.01 3106.65 81.61 11.00 235.02 2590.47
   13:22:34.051.29-Jan-2021 4712.01 3106.65 81.61 11.00 235.22 2590.47
   13:22:34.251.29-Jan-2021 4712.01 3106.55 81.61 11.00 235.42 2590.47
   13:22:34.451.29-Jan-2021 4712.01 3106.82 81.61 11.00 235.62 2590.47
   13:22:34.651.29-Jan-2021 4712.01 3106.67 81.61 11.00 235.82 2590.47
   13:22:34.851.29-Jan-2021 4712.01 3106.62 81.61 11.00 236.02 2590.47
   13:22:35.051.29-Jan-2021 4712.01 3106.62 81.61 11.00 236.22 2590.47
   13:22:35.251.29-Jan-2021 4712.01 3106.67 81.61 11.00 236.42 2590.47
   13:22:35.451.29-Jan-2021 4712.01 3106.73 81.61 11.00 236.62 2590.47
   13:22:35.651.29-Jan-2021 4712.01 3106.59 81.61 11.00 236.82 2590.47
   13:22:35.851.29-Jan-2021 4712.01 3106.71 81.60 11.00 237.02 2590.47
   13:22:36.051.29-Jan-2021 4712.01 3106.71 81.60 11.00 237.22 2590.47
   13:22:36.251.29-Jan-2021 4712.01 3106.54 81.60 11.00 237.42 2590.47
   13:22:36.451.29-Jan-2021 4712.01 3106.69 81.60 11.00 237.62 2590.47
   13:22:36.651.29-Jan-2021 4712.01 3106.61 81.60 11.00 237.82 2590.47
   13:22:36.851.29-Jan-2021 4712.01 3106.73 81.60 11.00 238.02 2590.47
   13:22:37.051.29-Jan-2021 4712.01 3106.73 81.60 11.00 238.22 2590.47
   13:22:37.251.29-Jan-2021 4712.01 3106.67 81.60 11.00 238.42 2590.47
   13:22:37.451.29-Jan-2021 4712.01 3106.64 81.60 11.00 238.62 2590.47
   13:22:37.651.29-Jan-2021 4712.01 3106.66 81.60 11.00 238.82 2590.47
   13:22:37.851.29-Jan-2021 4712.01 3106.65 81.60 11.00 239.02 2590.47
   13:22:38.051.29-Jan-2021 4712.01 3106.65 81.60 11.00 239.22 2590.47
   13:22:38.251.29-Jan-2021 4712.01 3106.51 81.60 11.00 239.42 2590.47
   13:22:38.451.29-Jan-2021 4712.01 3080.22 81.60 11.00 239.62 2590.47
   13:22:38.651.29-Jan-2021 4712.01 3034.36 81.60 11.00 239.82 2590.47
   13:22:38.851.29-Jan-2021 4712.01 3033.11 81.60 11.00 240.02 2590.47
   13:22:39.051.29-Jan-2021 4712.01 3033.11 81.60 11.00 240.22 2590.47
   13:22:39.251.29-Jan-2021 4712.01 3032.58 81.59 11.00 240.42 2590.47
   13:22:39.451.29-Jan-2021 4712.01 3032.06 81.59 11.00 240.62 2590.47
   13:22:39.651.29-Jan-2021 4712.01 3031.39 81.59 11.00 240.82 2590.47
   13:22:39.851.29-Jan-2021 4712.01 3033.10 81.59 11.00 241.02 2590.47
   13:22:40.051.29-Jan-2021 4712.01 3033.10 81.59 11.00 241.22 2590.47
   13:22:40.251.29-Jan-2021 4712.01 3032.81 81.59 11.00 241.42 2590.47
   13:22:40.451.29-Jan-2021 4712.01 3032.70 81.59 11.00 241.62 2590.47
   13:22:40.651.29-Jan-2021 4712.01 3032.18 81.59 11.00 241.82 2590.47
   13:22:40.851.29-Jan-2021 4712.01 3031.96 81.59 11.00 242.02 2590.47
   13:22:41.051.29-Jan-2021 4712.01 3031.96 81.59 11.00 242.22 2590.47
   13:22:41.251.29-Jan-2021 4712.01 3031.55 81.59 11.00 242.42 2590.47
   13:22:41.451.29-Jan-2021 4712.01 3031.71 81.59 11.00 242.62 2590.47
   13:22:41.651.29-Jan-2021 4712.01 3031.61 81.59 11.00 242.82 2590.47
   13:22:41.851.29-Jan-2021 4712.01 3031.23 81.59 11.00 243.02 2590.47
   13:22:42.051.29-Jan-2021 4712.01 3031.23 81.59 11.00 243.22 2590.47
   13:22:42.251.29-Jan-2021 4712.01 3032.17 81.58 11.00 243.42 2590.47
   13:22:42.451.29-Jan-2021 4712.01 3031.73 81.58 11.00 243.62 2590.47
   13:22:42.651.29-Jan-2021 4712.01 3031.83 81.58 11.00 243.82 2590.47
   13:22:42.851.29-Jan-2021 4712.01 3030.53 81.58 11.00 244.02 2590.47
   13:22:43.051.29-Jan-2021 4712.01 3030.53 81.58 11.00 244.22 2590.47
   13:22:43.251.29-Jan-2021 4712.01 3031.74 81.58 11.00 244.42 2590.47
   13:22:43.451.29-Jan-2021 4712.01 3031.62 81.58 11.00 244.62 2590.47
   13:22:43.651.29-Jan-2021 4712.01 3031.41 81.58 11.00 244.82 2590.47
   13:22:43.851.29-Jan-2021 4712.01 3032.12 81.58 11.00 245.02 2590.47
   13:22:44.051.29-Jan-2021 4712.01 3032.12 81.58 11.00 245.22 2590.47
   13:22:44.251.29-Jan-2021 4712.01 3031.65 81.58 11.00 245.42 2590.47
   13:22:44.451.29-Jan-2021 4712.01 3031.12 81.58 11.00 245.62 2590.47
   13:22:44.651.29-Jan-2021 4712.01 3031.19 81.58 11.00 245.82 2590.47
   13:22:44.851.29-Jan-2021 4712.01 3032.76 81.58 11.00 246.02 2590.47
   13:22:45.051.29-Jan-2021 4712.01 3032.76 81.58 11.00 246.22 2590.47
   13:22:45.251.29-Jan-2021 4712.01 3030.78 81.58 11.00 246.42 2590.47
   13:22:45.451.29-Jan-2021 4712.01 3031.47 81.57 11.00 246.62 2590.47
   13:22:45.651.29-Jan-2021 4712.01 3032.41 81.57 11.00 246.82 2590.47
   13:22:45.851.29-Jan-2021 4712.01 3032.02 81.57 11.00 247.02 2590.47
   13:22:46.051.29-Jan-2021 4712.01 3032.02 81.57 11.00 247.22 2590.47
   13:22:46.251.29-Jan-2021 4712.01 3031.67 81.57 11.00 247.42 2590.47
   13:22:46.451.29-Jan-2021 4712.01 3029.57 81.57 11.00 247.62 2590.47
   13:22:46.651.29-Jan-2021 4712.01 3032.12 81.57 11.00 247.82 2590.47
   13:22:46.851.29-Jan-2021 4712.01 3031.89 81.57 11.00 248.02 2590.47
   13:22:47.051.29-Jan-2021 4712.01 3031.89 81.57 11.00 248.22 2590.47
   13:22:47.251.29-Jan-2021 4712.01 3032.35 81.57 11.00 248.42 2590.47
