~Version Information
 VERS.                  2.0:   CWLS log ASCII Standard -VERSION 2.0
 WRAP.                   NO:   One line per depth step
~Well Information Block
#MNEM.UNIT     VALUE/NAME     DESCRIPTION
#---------     -----------    ---------------------------
 STRT.S             02:56:18 28-Jan-21: START TIME 02:56:18 28-Jan-21
 STOP.S             03:02:54 28-Jan-21: STOP TIME  03:02:54 28-Jan-21
 STEP.S                   0.00: STEP TIME
 NULL.                 -999.25: NULL VALUE
 DFWT.                        :  DIST FWL TEXT
 DFST.                        :  DIST FSL TEXT
 DMF .             Drill Floor:  DRILL MEAS FROM
 STIM.      00.00.00 25-Sep-20:  START TIME
 DATE.      16.12.48 31-Jan-21:  END TIME
 SPUD.               20-Sep-20:  SPUD DATE
 NREF.                    Grid:  NORTH REFERENCE
 HPTY.       Minimum Curvature:  HOLE POS TYPE
 DMOD.             Drill Model:  DRILL MOD DESC
 SVYD.                  Survey:  SURVEY DESC
 ILTD.               Lithology:  INTERP LTH DESC
 FTOP.          Formation Tops:  FORM TOPS DESC
 RIG .              East Azeri:  RIG NAME
 PDAT.          Mean Sea Level:  PERMANENT DATUM
 FLD .                     ACG:  FIELD NAME
 SON .        AZ-XX-0906591820:  JOB NUMBER
 CTRY.              Azerbaijan:  COUNTRY NAME
 WELL.                     D37:  WELL NAME
 SRVC.     Turan Drilling & Engineering:  CONTRACTOR
 COMP.     BP Exploration (Caspian Sea) ltd.:  COMPANY
 WTYP.                Deviated:  WELL TYPE
 MDS .        Operator Entered:  MAG DATA SOURCE
 UWI .                     N/A:  UNIQUE WELL IDENTIFIER
 API .                     N/A:  API NUMBER
 BASE.              Azerbaijan:  LOGGING EQUIPMENT BASE LOCATION
 REGN.                   EESSA:  REGION
 PROV.                    Baku:  PROVINCE
 STAT.                    Baku:  STATE NAME
 MWDS.                    Baku:  MWD SHOP
 JOBN.        AZ-XX-0906591820:  JOB TICKET NUMB
 DOE .                     N/A:  DOE NUMBER
 DCON.         Sperry Drilling:  DIRECTNL CONTR
 UNIT.                     N/A:  LOGGING EQUIPMENT ID
 CNTY.                        :  COUNTY
 LOC .                        :  LOCATION
 LMF .             Drill Floor:  LOG MEASURED FROM
 TVDS.m                  43.60:  TVDSS CORRECTN
 LATI.deg                40.02:  LATITUDE
 LONG.deg                51.45:  LONGITUDE
 WHNS.m                  11.04:  WELL HEAD N/S
 WHEW.m                 -12.38:  WELL HEAD E/W
 UTMX.m              538763.98:  UTM X
 UTMY.m             4431880.20:  UTM Y
 DFWL.m                   0.00:  DISTANCE FWL
 DFSL.m                   0.00:  DISTANCE FSL
 SDEP.m                 300.00:  START DEPTH
 TDD .m                4900.01:  TOTAL DEPTH (DRILLER)
 VSDR.deg               185.64:  VERT SEC DIRECT
 GVFD.g                   1.00:  GRAVITY FIELD
 MFLD.nT              50301.00:  MAGNETIC FIELD
 MDIP.deg                59.46:  MAGNETIC DIP
 MDEC.deg                 6.43:  MAGNETIC DECL
 GRDC.deg                 0.29:  GRID CORRECTION
 AZTC.deg                 6.14:  AZM TOTAL CORR
 EPD .m                   0.00:  ELEVATION
 EGL .m                   0.00:  GROUND ELEVATION
 WDMS.m                 151.80:  WD ELEV
 APD .m                  43.60:  DEPTH ABOVE PD
 DEP .m                 571.69:  DEPTH
 AGAP.m                  43.60:  AIR GAP
 VSEW.m                 -12.38:  VERT SEC E/W
 VSNS.m                  11.04:  VERT SEC N/S
 EKB .m                  43.60:  KB ELEVATION
 EDF .m                  43.60:  DF ELEVATION
 TDL .m                 412.00:  TOTAL DEPTH (LOGGER)
 VSC .                       0:  VS TO CLOSURE
 MAGU.                 1849300:  MAGUTM CHECKSUM
~Parameter Information Block
#MNEM.UNIT       Value        Description
#---------     -----------    ---------------------------
 AV  .mps                 2.21:  Ann Velocity 
 AVMX.mps                 2.53:  Max Ann Veloc 
 AZIF.deg               144.83:  Azm, Final 
 BHAT.        Rotary Steerable:  BHA Type 
 BROT.°/30m              -0.52:  Build Rotating 
 BS  .in                  6.50:  Bit Size 
 BTPL.psig              209.00:  Bit Press Loss 
 CABU.                      No:  Customer Abuse 
 CGEO.        Ali Isfandiyarov:  Customer Geo 
 COMM.                     ì¡€:  Run Comments 1 
 TCS .hr                 61.31:  Time Ciculation Ended 
 CV  .mps                 4.66:  Crit Velocity 
 CVMX.mps                 5.02:  Max Crit Veloc 
 DD1 .          Fariz Nahmatov:  Direct Drillr 1 
 DD2 .            Musa Ahmadov:  Direct Drillr 2 
 DDSV.               Geo-Pilot:  DD Service 
 DEFF.%                 100.00:  % Det Eff 
 DLRX.°/30m               1.44:  Dogleg Rot Max 
 DLSO.°/30m               0.83:  Dogleg Oriented 
 DLSX.°/30m               1.44:  Dogleg Str Max 
 DRET.      08.30.00 30-Jan-21:  Drill End Time 
 DRST.      21.15.00 27-Jan-21:  Drill Start Tim 
 DTIM.hr                 37.28:  Time Drilling 
 EDEP.m                4867.01:  End Depth 
 ENG1.          Rasim Hashimov:  Engineer 1 
 ENG2.         Almaz Almadatov:  Engineer 2 
 ENG3.        Tamerlan Ahmadov:  Engineer 3 
 ETIM.      22.41.04 31-Jan-21:  End Time 
 FLOI.gpm               400.00:  Flow In 
 FLON.gpm               300.00:  Flow In Min 
 FLOS.cptm                0.00:  Fluid Loss 
 FLOX.gpm               400.00:  Flow In Max 
 HFLO.                      No:  High Flow 
 HPRE.                      No:  High Pressure 
 HTEM.                      No:  High Temp 
 HYDO.m                   1.80:  Hydro Offset 
 IFIN.deg                65.63:  Inc, Final 
 IMAX.deg                66.77:  Inc Max 
 IMIN.deg                65.61:  Inc Min 
 IMND.m                4612.67:  Inc Min Depth 
 IMXD.m                4811.63:  Inc Max Depth 
 JARR.                      No:  Jarring 
 LETM.      08.30.00 30-Jan-21:  Log End Time 
 LOST.hr                     0:  Lost Rig Time 
 LSTM.      21.15.00 27-Jan-21:  Log Start Time 
 MDCL.ppm             41000.00:  Mud Chlorides 
 MDES.     Inversion Oil/Synthetic:  Mud Desc 
 DFD .sg                  1.40:  Mud Density 
 MDMN.sg                  1.40:  Dens Mud Min 
 MDMX.sg                  1.40:  Dens Mud Max 
 MOIL.                      53:  Run Mud Oil % 
 MOWR.                   66:34:  Run Mud OWR 
 MSND.                     0.2:  Run Mud Sand % 
 MSOL.                    17.9:  Run Mud Solids% 
 DFV .spqt               77.00:  Mud Viscosity 
 MWOD.in                  4.75:  MWD Tool OD 
 MWSI.                      No:  Serv Intrp, MWD 
 OTIM.hr                110.38:  Time Operating 
 PCON.           Look Like New:  Pad Condition 
 PMAX.psia             5300.00:  Press Op, Max 
 PV  .cP                 57.00:  Mud PV 
 RUN .                    1200:  Run Number 
 ROPA.m/hr               13.00:  ROP Avg 
 ROPN.m/hr                9.00:  ROP Min 
 ROPX.m/hr               15.00:  ROP Max 
 RPMA.rpm               120.00:  RPM Surface Avg 
 RPMN.rpm               100.00:  RPM Surface Min 
 RPMX.rpm               135.00:  RPM Surface Max 
 RRUN.                    1200:  Rig Run Number 
 RTIM.hr                  2.65:  Time Reaming 
 SAZI.deg               145.04:  Azm, Start 
 SDEP.m                4455.01:  Start Depth 
 SIDD.                      No:  Serv Intrp, DD 
 SINC.deg                65.83:  Inc, Start 
 SPPA.psig             5037.00:  SPP Avg 
 SPPN.psig             4430.00:  SPP Min 
 SPPX.psig             5300.00:  SPP Max 
 STIM.      22.41.04 26-Jan-21:  Start Time 
 SVCS.                 DD, MWD:  Services 
 SVER.                    9.20:  Sperry Version 
 TDAT.m                 412.00:  Tot Depth Attmp 
 TDDF.                      No:  Trip for DD 
 TDLG.m                 412.00:  Tot Depth Loggd 
 TFF .                      No:  Trip for Fail 
 TQAA.f-kp               15.00:  Torque Abs Avg 
 TQAN.f-kp               12.00:  Torque Abs Min 
 TQAX.f-kp               17.00:  Torque Abs Max 
 TRRT.°/30m               1.18:  Turn Rotating 
 MRT .                     ADR:  Maximum Recorded Temperature 
 TTMX.degC               88.24:  Max Tool Temp 
 VS01.                90619458:  Virtual Str1 SN 
 VS02.                90519326:  Virtual Str2 SN 
 VS03.                90522176:  Virtual Str3 SN 
 VS04.                90512683:  Virtual Str4 SN 
 WBMN.klb                 1.00:  WOB Min 
 WITN.           Murad Giluyev:  Customer Rep 
 WITN.     Kamran Kemberlinski:  Customer Rep 2 
 WOBA.klb                 5.00:  WOB Avg 
 WOBX.klb                 9.00:  WOB Max 
 YP  .lhf2               41.00:  Yield Point 
~Curve Information Block
#MNEM.UNIT                 API CODE     Curve Description
#---------               -----------    ---------------------------
 TIME.HHMMSS            00 000 000 000:  GT Time & Date
 GTDEPTH.m              00 000 000 000:  GT Depth
 GTPQH.psia             00 000 000 000:  GT HR Quartz Pressure
 GTTQ.degC              00 000 000 000:  GT Quartz Temperature
 GTTN.NONE              00 000 000 000:  GT Test Number
 GTET.sec               00 000 000 000:  GT Elapsed Test Time
 GTTVD.m                00 000 000 000:  GT True Vertical Depth
#Other Information
#
#WARRANTY: Halliburton will use its best efforts to furnish customers with 
#accurate information and interpretations that are part of, and incident to, the services 
#provided.  However, Halliburton cannot and does not warrant the accuracy 
#or correctness of such information and interpretations.  Under no circumstances should any 
#such information or interpretation be relied upon as the sole basis for any drilling, 
#completion, production, or financial decision or any procedure involving any risk to the 
#safety of any drilling venture, drilling rig or its crew or any other third party.  The 
#Customer has full responsibility for all drilling, completion and production operation.  
#Halliburton makes no representations or warranties, either expressed or 
#implied, including, but not limited to, the implied warranties of merchantability or fitness 
#for a particular purpose, with respect to the services rendered.  In no event will 
#Halliburton be liable for failure to obtain any particular results or for 
#any damages, including, but not limited to, indirect, special or consequential damages, 
#resulting from the use of any information or interpretation provided by Halliburton.
#
~A           TIME           GTDEPTH  GTPQH  GTTQ  GTTN  GTET   GTTVD  
# ...
   02:57:50.000.28-Jan-2021 4452.31 5405.94 59.27 2.00  92.00 2484.76
   02:57:50.200.28-Jan-2021 4452.31 5405.94 59.27 2.00  92.20 2484.76
   02:57:50.400.28-Jan-2021 4452.31 5405.93 59.27 2.00  92.40 2484.76
   02:57:50.600.28-Jan-2021 4452.31 5404.66 59.27 2.00  92.60 2484.76
   02:57:50.800.28-Jan-2021 4452.31 5404.31 59.27 2.00  92.80 2484.76
   02:57:51.000.28-Jan-2021 4452.31 5405.35 59.27 2.00  93.00 2484.76
   02:57:51.200.28-Jan-2021 4452.31 5405.35 59.27 2.00  93.20 2484.76
   02:57:51.400.28-Jan-2021 4452.31 5397.29 59.27 2.00  93.40 2484.76
   02:57:51.600.28-Jan-2021 4452.31 5404.58 59.27 2.00  93.60 2484.76
   02:57:51.800.28-Jan-2021 4452.31 5404.39 59.27 2.00  93.80 2484.76
   02:57:52.000.28-Jan-2021 4452.31 5408.19 59.27 2.00  94.00 2484.76
   02:57:52.200.28-Jan-2021 4452.31 5408.19 59.27 2.00  94.20 2484.76
   02:57:52.400.28-Jan-2021 4452.31 5405.21 59.27 2.00  94.40 2484.76
   02:57:52.600.28-Jan-2021 4452.31 5405.12 59.27 2.00  94.60 2484.76
   02:57:52.800.28-Jan-2021 4452.31 5404.52 59.27 2.00  94.80 2484.76
   02:57:53.000.28-Jan-2021 4452.31 5405.90 59.27 2.00  95.00 2484.76
   02:57:53.200.28-Jan-2021 4452.31 5405.90 59.27 2.00  95.20 2484.76
   02:57:53.400.28-Jan-2021 4452.31 5405.71 59.27 2.00  95.40 2484.76
   02:57:53.600.28-Jan-2021 4452.31 5405.74 59.27 2.00  95.60 2484.76
   02:57:53.800.28-Jan-2021 4452.31 5405.02 59.27 2.00  95.80 2484.76
   02:57:54.000.28-Jan-2021 4452.31 5406.15 59.27 2.00  96.00 2484.76
   02:57:54.200.28-Jan-2021 4452.31 5406.15 59.27 2.00  96.20 2484.76
   02:57:54.400.28-Jan-2021 4452.31 5405.14 59.27 2.00  96.40 2484.76
   02:57:54.600.28-Jan-2021 4452.31 5406.17 59.27 2.00  96.60 2484.76
   02:57:54.800.28-Jan-2021 4452.31 5398.20 59.27 2.00  96.80 2484.76
   02:57:55.000.28-Jan-2021 4452.31 5404.82 59.27 2.00  97.00 2484.76
   02:57:55.200.28-Jan-2021 4452.31 5404.82 59.27 2.00  97.20 2484.76
   02:57:55.400.28-Jan-2021 4452.31 5406.18 59.27 2.00  97.40 2484.76
   02:57:55.600.28-Jan-2021 4452.31 5405.06 59.27 2.00  97.60 2484.76
   02:57:55.800.28-Jan-2021 4452.31 5399.33 59.27 2.00  97.80 2484.76
   02:57:56.000.28-Jan-2021 4452.31 5406.13 59.27 2.00  98.00 2484.76
   02:57:56.200.28-Jan-2021 4452.31 5406.13 59.27 2.00  98.20 2484.76
   02:57:56.400.28-Jan-2021 4452.31 5404.72 59.27 2.00  98.40 2484.76
   02:57:56.600.28-Jan-2021 4452.31 5400.15 59.27 2.00  98.60 2484.76
   02:57:56.800.28-Jan-2021 4452.31 5405.12 59.27 2.00  98.80 2484.76
   02:57:57.000.28-Jan-2021 4452.31 5406.64 59.27 2.00  99.00 2484.76
   02:57:57.200.28-Jan-2021 4452.31 5406.64 59.27 2.00  99.20 2484.76
   02:57:57.400.28-Jan-2021 4452.31 5406.09 59.27 2.00  99.40 2484.76
   02:57:57.600.28-Jan-2021 4452.31 5397.68 59.27 2.00  99.60 2484.76
   02:57:57.800.28-Jan-2021 4452.31 5404.36 59.27 2.00  99.80 2484.76
   02:57:58.000.28-Jan-2021 4452.31 5404.63 59.27 2.00 100.00 2484.76
   02:57:58.200.28-Jan-2021 4452.31 5404.63 59.27 2.00 100.20 2484.76
   02:57:58.400.28-Jan-2021 4452.31 5405.52 59.27 2.00 100.40 2484.76
   02:57:58.600.28-Jan-2021 4452.31 5405.74 59.26 2.00 100.60 2484.76
   02:57:58.800.28-Jan-2021 4452.31 5395.66 59.26 2.00 100.80 2484.76
   02:57:59.000.28-Jan-2021 4452.31 5404.19 59.26 2.00 101.00 2484.76
   02:57:59.200.28-Jan-2021 4452.31 5404.19 59.26 2.00 101.20 2484.76
   02:57:59.400.28-Jan-2021 4452.31 5407.66 59.26 2.00 101.40 2484.76
   02:57:59.600.28-Jan-2021 4452.31 5406.54 59.26 2.00 101.60 2484.76
   02:57:59.800.28-Jan-2021 4452.31 5405.28 59.26 2.00 101.80 2484.76
   02:58:00.000.28-Jan-2021 4452.31 5404.90 59.26 2.00 102.00 2484.76
   02:58:00.200.28-Jan-2021 4452.31 5404.90 59.26 2.00 102.20 2484.76
   02:58:00.400.28-Jan-2021 4452.31 5404.96 59.26 2.00 102.40 2484.76
   02:58:00.600.28-Jan-2021 4452.31 5405.94 59.26 2.00 102.60 2484.76
   02:58:00.800.28-Jan-2021 4452.31 5406.10 59.26 2.00 102.80 2484.76
   02:58:01.000.28-Jan-2021 4452.31 5404.75 59.26 2.00 103.00 2484.76
   02:58:01.200.28-Jan-2021 4452.31 5404.75 59.26 2.00 103.20 2484.76
   02:58:01.400.28-Jan-2021 4452.31 5404.78 59.26 2.00 103.40 2484.76
   02:58:01.600.28-Jan-2021 4452.31 5404.73 59.26 2.00 103.60 2484.76
   02:58:01.800.28-Jan-2021 4452.31 5405.45 59.26 2.00 103.80 2484.76
   02:58:02.000.28-Jan-2021 4452.31 5404.62 59.26 2.00 104.00 2484.76
   02:58:02.200.28-Jan-2021 4452.31 5404.62 59.26 2.00 104.20 2484.76
   02:58:02.400.28-Jan-2021 4452.31 5403.62 59.26 2.00 104.40 2484.76
   02:58:02.600.28-Jan-2021 4452.31 5404.67 59.26 2.00 104.60 2484.76
   02:58:02.800.28-Jan-2021 4452.31 5407.72 59.26 2.00 104.80 2484.76
   02:58:03.000.28-Jan-2021 4452.31 5406.32 59.26 2.00 105.00 2484.76
   02:58:03.200.28-Jan-2021 4452.31 5406.32 59.26 2.00 105.20 2484.76
   02:58:03.400.28-Jan-2021 4452.31 5405.31 59.26 2.00 105.40 2484.76
   02:58:03.600.28-Jan-2021 4452.31 5404.94 59.26 2.00 105.60 2484.76
   02:58:03.800.28-Jan-2021 4452.31 5406.10 59.26 2.00 105.80 2484.76
   02:58:04.000.28-Jan-2021 4452.31 5405.53 59.26 2.00 106.00 2484.76
   02:58:04.200.28-Jan-2021 4452.31 5405.53 59.26 2.00 106.20 2484.76
   02:58:04.400.28-Jan-2021 4452.31 5405.99 59.26 2.00 106.40 2484.76
   02:58:04.600.28-Jan-2021 4452.31 5405.16 59.26 2.00 106.60 2484.76
   02:58:04.800.28-Jan-2021 4452.31 5406.81 59.26 2.00 106.80 2484.76
   02:58:05.000.28-Jan-2021 4452.31 5404.81 59.26 2.00 107.00 2484.76
   02:58:05.200.28-Jan-2021 4452.31 5404.81 59.26 2.00 107.20 2484.76
   02:58:05.400.28-Jan-2021 4452.31 5404.81 59.26 2.00 107.40 2484.76
   02:58:05.600.28-Jan-2021 4452.31 5403.31 59.26 2.00 107.60 2484.76
   02:58:05.800.28-Jan-2021 4452.31 5400.32 59.26 2.00 107.80 2484.76
   02:58:06.000.28-Jan-2021 4452.31 5405.01 59.26 2.00 108.00 2484.76
   02:58:06.200.28-Jan-2021 4452.31 5405.01 59.26 2.00 108.20 2484.76
   02:58:06.400.28-Jan-2021 4452.31 5407.86 59.26 2.00 108.40 2484.76
   02:58:06.600.28-Jan-2021 4452.31 5397.16 59.26 2.00 108.60 2484.76
   02:58:06.800.28-Jan-2021 4452.31 5406.30 59.26 2.00 108.80 2484.76
   02:58:07.000.28-Jan-2021 4452.31 5405.86 59.26 2.00 109.00 2484.76
   02:58:07.200.28-Jan-2021 4452.31 5405.86 59.26 2.00 109.20 2484.76
   02:58:07.400.28-Jan-2021 4452.31 5398.01 59.26 2.00 109.40 2484.76
   02:58:07.600.28-Jan-2021 4452.31 5405.04 59.26 2.00 109.60 2484.76
   02:58:07.800.28-Jan-2021 4452.31 5406.36 59.26 2.00 109.80 2484.76
   02:58:08.000.28-Jan-2021 4452.31 5409.06 59.26 2.00 110.00 2484.76
   02:58:08.200.28-Jan-2021 4452.31 5409.06 59.26 2.00 110.20 2484.76
   02:58:08.400.28-Jan-2021 4452.31 5398.25 59.26 2.00 110.40 2484.76
   02:58:08.600.28-Jan-2021 4452.31 5404.31 59.26 2.00 110.60 2484.76
   02:58:08.800.28-Jan-2021 4452.31 5404.57 59.26 2.00 110.80 2484.76
   02:58:09.000.28-Jan-2021 4452.31 5408.63 59.26 2.00 111.00 2484.76
   02:58:09.200.28-Jan-2021 4452.31 5408.63 59.26 2.00 111.20 2484.76
   02:58:09.400.28-Jan-2021 4452.31 5406.44 59.26 2.00 111.40 2484.76
   02:58:09.600.28-Jan-2021 4452.31 5395.91 59.26 2.00 111.60 2484.76
   02:58:09.800.28-Jan-2021 4452.31 5404.50 59.26 2.00 111.80 2484.76
   02:58:10.000.28-Jan-2021 4452.31 5405.54 59.26 2.00 112.00 2484.76
   02:58:10.200.28-Jan-2021 4452.31 5405.54 59.26 2.00 112.20 2484.76
   02:58:10.400.28-Jan-2021 4452.31 5407.42 59.26 2.00 112.40 2484.76
   02:58:10.600.28-Jan-2021 4452.31 5405.39 59.26 2.00 112.60 2484.76
   02:58:10.800.28-Jan-2021 4452.31 5405.29 59.26 2.00 112.80 2484.76
   02:58:11.000.28-Jan-2021 4452.31 5405.97 59.26 2.00 113.00 2484.76
   02:58:11.200.28-Jan-2021 4452.31 5405.97 59.26 2.00 113.20 2484.76
   02:58:11.400.28-Jan-2021 4452.31 5406.27 59.26 2.00 113.40 2484.76
   02:58:11.600.28-Jan-2021 4452.31 5405.96 59.26 2.00 113.60 2484.76
   02:58:11.800.28-Jan-2021 4452.31 5405.25 59.26 2.00 113.80 2484.76
   02:58:12.000.28-Jan-2021 4452.31 5406.29 59.26 2.00 114.00 2484.76
   02:58:12.200.28-Jan-2021 4452.31 5406.29 59.26 2.00 114.20 2484.76
   02:58:12.400.28-Jan-2021 4452.31 5405.23 59.26 2.00 114.40 2484.76
   02:58:12.600.28-Jan-2021 4452.31 5405.35 59.26 2.00 114.60 2484.76
   02:58:12.800.28-Jan-2021 4452.31 5404.62 59.26 2.00 114.80 2484.76
