~Version Information
 VERS.                  2.0:   CWLS log ASCII Standard -VERSION 2.0
 WRAP.                   NO:   One line per depth step
~Well Information Block
#MNEM.UNIT     VALUE/NAME     DESCRIPTION
#---------     -----------    ---------------------------
 STRT.S             14:24:44 28-Jan-21: START TIME 14:24:44 28-Jan-21
 STOP.S             14:31:13 28-Jan-21: STOP TIME  14:31:13 28-Jan-21
 STEP.S                   0.00: STEP TIME
 NULL.                 -999.25: NULL VALUE
 DFWT.                        :  DIST FWL TEXT
 DFST.                        :  DIST FSL TEXT
 DMF .             Drill Floor:  DRILL MEAS FROM
 STIM.      00.00.00 25-Sep-20:  START TIME
 DATE.      16.12.48 31-Jan-21:  END TIME
 SPUD.               20-Sep-20:  SPUD DATE
 NREF.                    Grid:  NORTH REFERENCE
 HPTY.       Minimum Curvature:  HOLE POS TYPE
 DMOD.             Drill Model:  DRILL MOD DESC
 SVYD.                  Survey:  SURVEY DESC
 ILTD.               Lithology:  INTERP LTH DESC
 FTOP.          Formation Tops:  FORM TOPS DESC
 RIG .              East Azeri:  RIG NAME
 PDAT.          Mean Sea Level:  PERMANENT DATUM
 FLD .                     ACG:  FIELD NAME
 SON .        AZ-XX-0906591820:  JOB NUMBER
 CTRY.              Azerbaijan:  COUNTRY NAME
 WELL.                     D37:  WELL NAME
 SRVC.     Turan Drilling & Engineering:  CONTRACTOR
 COMP.     BP Exploration (Caspian Sea) ltd.:  COMPANY
 WTYP.                Deviated:  WELL TYPE
 MDS .        Operator Entered:  MAG DATA SOURCE
 UWI .                     N/A:  UNIQUE WELL IDENTIFIER
 API .                     N/A:  API NUMBER
 BASE.              Azerbaijan:  LOGGING EQUIPMENT BASE LOCATION
 REGN.                   EESSA:  REGION
 PROV.                    Baku:  PROVINCE
 STAT.                    Baku:  STATE NAME
 MWDS.                    Baku:  MWD SHOP
 JOBN.        AZ-XX-0906591820:  JOB TICKET NUMB
 DOE .                     N/A:  DOE NUMBER
 DCON.         Sperry Drilling:  DIRECTNL CONTR
 UNIT.                     N/A:  LOGGING EQUIPMENT ID
 CNTY.                        :  COUNTY
 LOC .                        :  LOCATION
 LMF .             Drill Floor:  LOG MEASURED FROM
 TVDS.m                  43.60:  TVDSS CORRECTN
 LATI.deg                40.02:  LATITUDE
 LONG.deg                51.45:  LONGITUDE
 WHNS.m                  11.04:  WELL HEAD N/S
 WHEW.m                 -12.38:  WELL HEAD E/W
 UTMX.m              538763.98:  UTM X
 UTMY.m             4431880.20:  UTM Y
 DFWL.m                   0.00:  DISTANCE FWL
 DFSL.m                   0.00:  DISTANCE FSL
 SDEP.m                 300.00:  START DEPTH
 TDD .m                4900.01:  TOTAL DEPTH (DRILLER)
 VSDR.deg               185.64:  VERT SEC DIRECT
 GVFD.g                   1.00:  GRAVITY FIELD
 MFLD.nT              50301.00:  MAGNETIC FIELD
 MDIP.deg                59.46:  MAGNETIC DIP
 MDEC.deg                 6.43:  MAGNETIC DECL
 GRDC.deg                 0.29:  GRID CORRECTION
 AZTC.deg                 6.14:  AZM TOTAL CORR
 EPD .m                   0.00:  ELEVATION
 EGL .m                   0.00:  GROUND ELEVATION
 WDMS.m                 151.80:  WD ELEV
 APD .m                  43.60:  DEPTH ABOVE PD
 DEP .m                 571.69:  DEPTH
 AGAP.m                  43.60:  AIR GAP
 VSEW.m                 -12.38:  VERT SEC E/W
 VSNS.m                  11.04:  VERT SEC N/S
 EKB .m                  43.60:  KB ELEVATION
 EDF .m                  43.60:  DF ELEVATION
 TDL .m                 412.00:  TOTAL DEPTH (LOGGER)
 VSC .                       0:  VS TO CLOSURE
 MAGU.                 1849300:  MAGUTM CHECKSUM
~Parameter Information Block
#MNEM.UNIT       Value        Description
#---------     -----------    ---------------------------
 AV  .mps                 2.21:  Ann Velocity 
 AVMX.mps                 2.53:  Max Ann Veloc 
 AZIF.deg               144.83:  Azm, Final 
 BHAT.        Rotary Steerable:  BHA Type 
 BROT.°/30m              -0.52:  Build Rotating 
 BS  .in                  6.50:  Bit Size 
 BTPL.psig              209.00:  Bit Press Loss 
 CABU.                      No:  Customer Abuse 
 CGEO.        Ali Isfandiyarov:  Customer Geo 
 COMM.                     Âh:  Run Comments 1 
 TCS .hr                 61.31:  Time Ciculation Ended 
 CV  .mps                 4.66:  Crit Velocity 
 CVMX.mps                 5.02:  Max Crit Veloc 
 DD1 .          Fariz Nahmatov:  Direct Drillr 1 
 DD2 .            Musa Ahmadov:  Direct Drillr 2 
 DDSV.               Geo-Pilot:  DD Service 
 DEFF.%                 100.00:  % Det Eff 
 DLRX.°/30m               1.44:  Dogleg Rot Max 
 DLSO.°/30m               0.83:  Dogleg Oriented 
 DLSX.°/30m               1.44:  Dogleg Str Max 
 DRET.      08.30.00 30-Jan-21:  Drill End Time 
 DRST.      21.15.00 27-Jan-21:  Drill Start Tim 
 DTIM.hr                 37.28:  Time Drilling 
 EDEP.m                4867.01:  End Depth 
 ENG1.          Rasim Hashimov:  Engineer 1 
 ENG2.         Almaz Almadatov:  Engineer 2 
 ENG3.        Tamerlan Ahmadov:  Engineer 3 
 ETIM.      22.41.04 31-Jan-21:  End Time 
 FLOI.gpm               400.00:  Flow In 
 FLON.gpm               300.00:  Flow In Min 
 FLOS.cptm                0.00:  Fluid Loss 
 FLOX.gpm               400.00:  Flow In Max 
 HFLO.                      No:  High Flow 
 HPRE.                      No:  High Pressure 
 HTEM.                      No:  High Temp 
 HYDO.m                   1.80:  Hydro Offset 
 IFIN.deg                65.63:  Inc, Final 
 IMAX.deg                66.77:  Inc Max 
 IMIN.deg                65.61:  Inc Min 
 IMND.m                4612.67:  Inc Min Depth 
 IMXD.m                4811.63:  Inc Max Depth 
 JARR.                      No:  Jarring 
 LETM.      08.30.00 30-Jan-21:  Log End Time 
 LOST.hr                     0:  Lost Rig Time 
 LSTM.      21.15.00 27-Jan-21:  Log Start Time 
 MDCL.ppm             41000.00:  Mud Chlorides 
 MDES.     Inversion Oil/Synthetic:  Mud Desc 
 DFD .sg                  1.40:  Mud Density 
 MDMN.sg                  1.40:  Dens Mud Min 
 MDMX.sg                  1.40:  Dens Mud Max 
 MOIL.                      53:  Run Mud Oil % 
 MOWR.                   66:34:  Run Mud OWR 
 MSND.                     0.2:  Run Mud Sand % 
 MSOL.                    17.9:  Run Mud Solids% 
 DFV .spqt               77.00:  Mud Viscosity 
 MWOD.in                  4.75:  MWD Tool OD 
 MWSI.                      No:  Serv Intrp, MWD 
 OTIM.hr                110.38:  Time Operating 
 PCON.           Look Like New:  Pad Condition 
 PMAX.psia             5300.00:  Press Op, Max 
 PV  .cP                 57.00:  Mud PV 
 RUN .                    1200:  Run Number 
 ROPA.m/hr               13.00:  ROP Avg 
 ROPN.m/hr                9.00:  ROP Min 
 ROPX.m/hr               15.00:  ROP Max 
 RPMA.rpm               120.00:  RPM Surface Avg 
 RPMN.rpm               100.00:  RPM Surface Min 
 RPMX.rpm               135.00:  RPM Surface Max 
 RRUN.                    1200:  Rig Run Number 
 RTIM.hr                  2.65:  Time Reaming 
 SAZI.deg               145.04:  Azm, Start 
 SDEP.m                4455.01:  Start Depth 
 SIDD.                      No:  Serv Intrp, DD 
 SINC.deg                65.83:  Inc, Start 
 SPPA.psig             5037.00:  SPP Avg 
 SPPN.psig             4430.00:  SPP Min 
 SPPX.psig             5300.00:  SPP Max 
 STIM.      22.41.04 26-Jan-21:  Start Time 
 SVCS.                 DD, MWD:  Services 
 SVER.                    9.20:  Sperry Version 
 TDAT.m                 412.00:  Tot Depth Attmp 
 TDDF.                      No:  Trip for DD 
 TDLG.m                 412.00:  Tot Depth Loggd 
 TFF .                      No:  Trip for Fail 
 TQAA.f-kp               15.00:  Torque Abs Avg 
 TQAN.f-kp               12.00:  Torque Abs Min 
 TQAX.f-kp               17.00:  Torque Abs Max 
 TRRT.°/30m               1.18:  Turn Rotating 
 MRT .                     ADR:  Maximum Recorded Temperature 
 TTMX.degC               88.24:  Max Tool Temp 
 VS01.                90619458:  Virtual Str1 SN 
 VS02.                90519326:  Virtual Str2 SN 
 VS03.                90522176:  Virtual Str3 SN 
 VS04.                90512683:  Virtual Str4 SN 
 WBMN.klb                 1.00:  WOB Min 
 WITN.           Murad Giluyev:  Customer Rep 
 WITN.     Kamran Kemberlinski:  Customer Rep 2 
 WOBA.klb                 5.00:  WOB Avg 
 WOBX.klb                 9.00:  WOB Max 
 YP  .lhf2               41.00:  Yield Point 
~Curve Information Block
#MNEM.UNIT                 API CODE     Curve Description
#---------               -----------    ---------------------------
 TIME.HHMMSS            00 000 000 000:  GT Time & Date
 GTDEPTH.m              00 000 000 000:  GT Depth
 GTPQH.psia             00 000 000 000:  GT HR Quartz Pressure
 GTTQ.degC              00 000 000 000:  GT Quartz Temperature
 GTTN.NONE              00 000 000 000:  GT Test Number
 GTET.sec               00 000 000 000:  GT Elapsed Test Time
 GTTVD.m                00 000 000 000:  GT True Vertical Depth
#Other Information
#
#WARRANTY: Halliburton will use its best efforts to furnish customers with 
#accurate information and interpretations that are part of, and incident to, the services 
#provided.  However, Halliburton cannot and does not warrant the accuracy 
#or correctness of such information and interpretations.  Under no circumstances should any 
#such information or interpretation be relied upon as the sole basis for any drilling, 
#completion, production, or financial decision or any procedure involving any risk to the 
#safety of any drilling venture, drilling rig or its crew or any other third party.  The 
#Customer has full responsibility for all drilling, completion and production operation.  
#Halliburton makes no representations or warranties, either expressed or 
#implied, including, but not limited to, the implied warranties of merchantability or fitness 
#for a particular purpose, with respect to the services rendered.  In no event will 
#Halliburton be liable for failure to obtain any particular results or for 
#any damages, including, but not limited to, indirect, special or consequential damages, 
#resulting from the use of any information or interpretation provided by Halliburton.
#
~A           TIME           GTDEPTH  GTPQH  GTTQ  GTTN  GTET   GTTVD  
# ...
   14:29:43.105.28-Jan-2021 4530.01 3137.18 71.15 4.00 299.06 2516.71
   14:29:43.305.28-Jan-2021 4530.01 3137.18 71.15 4.00 299.26 2516.71
   14:29:43.505.28-Jan-2021 4530.01 3137.17 71.15 4.00 299.46 2516.71
   14:29:43.705.28-Jan-2021 4530.01 3137.17 71.14 4.00 299.66 2516.71
   14:29:43.905.28-Jan-2021 4530.01 3137.17 71.14 4.00 299.86 2516.71
   14:29:44.105.28-Jan-2021 4530.01 3137.16 71.14 4.00 300.06 2516.71
   14:29:44.305.28-Jan-2021 4530.01 3137.16 71.14 4.00 300.26 2516.71
   14:29:44.505.28-Jan-2021 4530.01 3137.16 71.14 4.00 300.46 2516.71
   14:29:44.705.28-Jan-2021 4530.01 3137.17 71.14 4.00 300.66 2516.71
   14:29:44.905.28-Jan-2021 4530.01 3137.11 71.14 4.00 300.86 2516.71
   14:29:45.105.28-Jan-2021 4530.01 3137.20 71.14 4.00 301.06 2516.71
   14:29:45.305.28-Jan-2021 4530.01 3137.20 71.14 4.00 301.26 2516.71
   14:29:45.505.28-Jan-2021 4530.01 3137.15 71.14 4.00 301.46 2516.71
   14:29:45.705.28-Jan-2021 4530.01 3137.18 71.14 4.00 301.66 2516.71
   14:29:45.905.28-Jan-2021 4530.01 3137.16 71.14 4.00 301.86 2516.71
   14:29:46.105.28-Jan-2021 4530.01 3137.17 71.14 4.00 302.06 2516.71
   14:29:46.305.28-Jan-2021 4530.01 3137.17 71.14 4.00 302.26 2516.71
   14:29:46.505.28-Jan-2021 4530.01 3137.17 71.14 4.00 302.46 2516.71
   14:29:46.705.28-Jan-2021 4530.01 3137.16 71.14 4.00 302.66 2516.71
   14:29:46.905.28-Jan-2021 4530.01 3137.18 71.14 4.00 302.86 2516.71
   14:29:47.106.28-Jan-2021 4530.01 3137.16 71.14 4.00 303.06 2516.71
   14:29:47.306.28-Jan-2021 4530.01 3137.16 71.14 4.00 303.26 2516.71
   14:29:47.506.28-Jan-2021 4530.01 3137.15 71.14 4.00 303.46 2516.71
   14:29:47.706.28-Jan-2021 4530.01 3137.17 71.14 4.00 303.66 2516.71
   14:29:47.906.28-Jan-2021 4530.01 3137.16 71.14 4.00 303.86 2516.71
   14:29:48.106.28-Jan-2021 4530.01 3137.10 71.14 4.00 304.06 2516.71
   14:29:48.306.28-Jan-2021 4530.01 3137.10 71.14 4.00 304.26 2516.71
   14:29:48.506.28-Jan-2021 4530.01 3137.18 71.14 4.00 304.46 2516.71
   14:29:48.706.28-Jan-2021 4530.01 3137.16 71.14 4.00 304.66 2516.71
   14:29:48.906.28-Jan-2021 4530.01 3137.13 71.14 4.00 304.86 2516.71
   14:29:49.106.28-Jan-2021 4530.01 3137.20 71.14 4.00 305.06 2516.71
   14:29:49.306.28-Jan-2021 4530.01 3137.20 71.14 4.00 305.26 2516.71
   14:29:49.506.28-Jan-2021 4530.01 3137.18 71.14 4.00 305.46 2516.71
   14:29:49.706.28-Jan-2021 4530.01 3137.14 71.14 4.00 305.66 2516.71
   14:29:49.906.28-Jan-2021 4530.01 3137.18 71.14 4.00 305.86 2516.71
   14:29:50.106.28-Jan-2021 4530.01 3137.17 71.14 4.00 306.06 2516.71
   14:29:50.306.28-Jan-2021 4530.01 3137.17 71.14 4.00 306.26 2516.71
   14:29:50.506.28-Jan-2021 4530.01 3137.18 71.14 4.00 306.46 2516.71
   14:29:50.706.28-Jan-2021 4530.01 3137.17 71.14 4.00 306.66 2516.71
   14:29:50.906.28-Jan-2021 4530.01 3137.16 71.14 4.00 306.86 2516.71
   14:29:51.106.28-Jan-2021 4530.01 3137.17 71.14 4.00 307.06 2516.71
   14:29:51.306.28-Jan-2021 4530.01 3137.17 71.14 4.00 307.26 2516.71
   14:29:51.506.28-Jan-2021 4530.01 3137.18 71.14 4.00 307.46 2516.71
   14:29:51.706.28-Jan-2021 4530.01 3137.18 71.14 4.00 307.66 2516.71
   14:29:51.907.28-Jan-2021 4530.01 3137.17 71.14 4.00 307.86 2516.71
   14:29:52.107.28-Jan-2021 4530.01 3137.17 71.14 4.00 308.06 2516.71
   14:29:52.307.28-Jan-2021 4530.01 3137.17 71.14 4.00 308.26 2516.71
   14:29:52.507.28-Jan-2021 4530.01 3137.17 71.14 4.00 308.46 2516.71
   14:29:52.707.28-Jan-2021 4530.01 3137.18 71.14 4.00 308.66 2516.71
   14:29:52.907.28-Jan-2021 4530.01 3137.19 71.14 4.00 308.86 2516.71
   14:29:53.107.28-Jan-2021 4530.01 3137.17 71.14 4.00 309.06 2516.71
   14:29:53.307.28-Jan-2021 4530.01 3137.17 71.14 4.00 309.26 2516.71
   14:29:53.507.28-Jan-2021 4530.01 3137.17 71.14 4.00 309.46 2516.71
   14:29:53.707.28-Jan-2021 4530.01 3137.17 71.14 4.00 309.66 2516.71
   14:29:53.907.28-Jan-2021 4530.01 3137.16 71.14 4.00 309.86 2516.71
   14:29:54.107.28-Jan-2021 4530.01 3137.18 71.14 4.00 310.06 2516.71
   14:29:54.307.28-Jan-2021 4530.01 3137.18 71.14 4.00 310.26 2516.71
   14:29:54.507.28-Jan-2021 4530.01 3137.17 71.14 4.00 310.46 2516.71
   14:29:54.707.28-Jan-2021 4530.01 3137.17 71.14 4.00 310.66 2516.71
   14:29:54.907.28-Jan-2021 4530.01 3137.17 71.14 4.00 310.86 2516.71
   14:29:55.107.28-Jan-2021 4530.01 3137.16 71.14 4.00 311.06 2516.71
   14:29:55.307.28-Jan-2021 4530.01 3137.16 71.14 4.00 311.26 2516.71
   14:29:55.507.28-Jan-2021 4530.01 3137.17 71.14 4.00 311.46 2516.71
   14:29:55.707.28-Jan-2021 4530.01 3137.16 71.14 4.00 311.66 2516.71
   14:29:55.907.28-Jan-2021 4530.01 3137.16 71.14 4.00 311.86 2516.71
   14:29:56.107.28-Jan-2021 4530.01 3137.16 71.14 4.00 312.06 2516.71
   14:29:56.307.28-Jan-2021 4530.01 3137.16 71.14 4.00 312.26 2516.71
   14:29:56.507.28-Jan-2021 4530.01 3137.19 71.14 4.00 312.46 2516.71
   14:29:56.707.28-Jan-2021 4530.01 3137.17 71.14 4.00 312.66 2516.71
   14:29:56.908.28-Jan-2021 4530.01 3137.17 71.14 4.00 312.86 2516.71
   14:29:57.108.28-Jan-2021 4530.01 3137.18 71.14 4.00 313.06 2516.71
   14:29:57.308.28-Jan-2021 4530.01 3137.18 71.14 4.00 313.26 2516.71
   14:29:57.508.28-Jan-2021 4530.01 3137.18 71.14 4.00 313.46 2516.71
   14:29:57.708.28-Jan-2021 4530.01 3137.16 71.14 4.00 313.66 2516.71
   14:29:57.908.28-Jan-2021 4530.01 3137.18 71.14 4.00 313.87 2516.71
   14:29:58.108.28-Jan-2021 4530.01 3137.16 71.14 4.00 314.07 2516.71
   14:29:58.308.28-Jan-2021 4530.01 3137.16 71.14 4.00 314.27 2516.71
   14:29:58.508.28-Jan-2021 4530.01 3137.17 71.14 4.00 314.47 2516.71
   14:29:58.708.28-Jan-2021 4530.01 3137.16 71.14 4.00 314.67 2516.71
   14:29:58.908.28-Jan-2021 4530.01 3137.17 71.14 4.00 314.87 2516.71
   14:29:59.108.28-Jan-2021 4530.01 3137.17 71.14 4.00 315.07 2516.71
   14:29:59.308.28-Jan-2021 4530.01 3137.17 71.14 4.00 315.27 2516.71
   14:29:59.508.28-Jan-2021 4530.01 3137.18 71.14 4.00 315.47 2516.71
   14:29:59.708.28-Jan-2021 4530.01 3137.19 71.14 4.00 315.67 2516.71
   14:29:59.908.28-Jan-2021 4530.01 3137.14 71.14 4.00 315.87 2516.71
   14:30:00.108.28-Jan-2021 4530.01 3137.19 71.14 4.00 316.07 2516.71
   14:30:00.308.28-Jan-2021 4530.01 3137.19 71.14 4.00 316.27 2516.71
   14:30:00.508.28-Jan-2021 4530.01 3137.13 71.13 4.00 316.47 2516.71
   14:30:00.708.28-Jan-2021 4530.01 3137.20 71.13 4.00 316.67 2516.71
   14:30:00.908.28-Jan-2021 4530.01 3137.19 71.14 4.00 316.87 2516.71
   14:30:01.108.28-Jan-2021 4530.01 3137.17 71.13 4.00 317.07 2516.71
   14:30:01.308.28-Jan-2021 4530.01 3137.17 71.13 4.00 317.27 2516.71
   14:30:01.508.28-Jan-2021 4530.01 3137.17 71.13 4.00 317.47 2516.71
   14:30:01.709.28-Jan-2021 4530.01 3137.11 71.13 4.00 317.67 2516.71
   14:30:01.909.28-Jan-2021 4530.01 3137.21 71.13 4.00 317.87 2516.71
   14:30:02.109.28-Jan-2021 4530.01 3137.19 71.13 4.00 318.07 2516.71
   14:30:02.309.28-Jan-2021 4530.01 3137.19 71.13 4.00 318.27 2516.71
   14:30:02.509.28-Jan-2021 4530.01 3137.18 71.13 4.00 318.47 2516.71
   14:30:02.709.28-Jan-2021 4530.01 3137.18 71.13 4.00 318.67 2516.71
   14:30:02.909.28-Jan-2021 4530.01 3137.16 71.13 4.00 318.87 2516.71
   14:30:03.109.28-Jan-2021 4530.01 3137.11 71.13 4.00 319.07 2516.71
   14:30:03.309.28-Jan-2021 4530.01 3137.11 71.13 4.00 319.27 2516.71
   14:30:03.509.28-Jan-2021 4530.01 3137.20 71.13 4.00 319.47 2516.71
   14:30:03.709.28-Jan-2021 4530.01 3137.16 71.13 4.00 319.67 2516.71
   14:30:03.909.28-Jan-2021 4530.01 3137.19 71.13 4.00 319.87 2516.71
   14:30:04.109.28-Jan-2021 4530.01 3137.17 71.13 4.00 320.07 2516.71
   14:30:04.309.28-Jan-2021 4530.01 3137.17 71.13 4.00 320.27 2516.71
   14:30:04.509.28-Jan-2021 4530.01 3137.17 71.13 4.00 320.47 2516.71
   14:30:04.709.28-Jan-2021 4530.01 3137.17 71.13 4.00 320.67 2516.71
   14:30:04.909.28-Jan-2021 4530.01 3137.17 71.13 4.00 320.87 2516.71
   14:30:05.109.28-Jan-2021 4530.01 3137.17 71.13 4.00 321.07 2516.71
   14:30:05.309.28-Jan-2021 4530.01 3137.17 71.13 4.00 321.27 2516.71
   14:30:05.509.28-Jan-2021 4530.01 3137.17 71.13 4.00 321.47 2516.71
   14:30:05.709.28-Jan-2021 4530.01 3137.17 71.13 4.00 321.67 2516.71
   14:30:05.909.28-Jan-2021 4530.01 3137.16 71.13 4.00 321.87 2516.71
