~Version Information
 VERS.                  2.0:   CWLS log ASCII Standard -VERSION 2.0
 WRAP.                   NO:   One line per depth step
~Well Information Block
#MNEM.UNIT     VALUE/NAME     DESCRIPTION
#---------     -----------    ---------------------------
 STRT.S             01:54:12 30-Jan-21: START TIME 01:54:12 30-Jan-21
 STOP.S             02:00:42 30-Jan-21: STOP TIME  02:00:42 30-Jan-21
 STEP.S                   0.00: STEP TIME
 NULL.                 -999.25: NULL VALUE
 DFWT.                        :  DIST FWL TEXT
 DFST.                        :  DIST FSL TEXT
 DMF .             Drill Floor:  DRILL MEAS FROM
 STIM.      00.00.00 25-Sep-20:  START TIME
 DATE.      16.12.48 31-Jan-21:  END TIME
 SPUD.               20-Sep-20:  SPUD DATE
 NREF.                    Grid:  NORTH REFERENCE
 HPTY.       Minimum Curvature:  HOLE POS TYPE
 DMOD.             Drill Model:  DRILL MOD DESC
 SVYD.                  Survey:  SURVEY DESC
 ILTD.               Lithology:  INTERP LTH DESC
 FTOP.          Formation Tops:  FORM TOPS DESC
 RIG .              East Azeri:  RIG NAME
 PDAT.          Mean Sea Level:  PERMANENT DATUM
 FLD .                     ACG:  FIELD NAME
 SON .        AZ-XX-0906591820:  JOB NUMBER
 CTRY.              Azerbaijan:  COUNTRY NAME
 WELL.                     D37:  WELL NAME
 SRVC.     Turan Drilling & Engineering:  CONTRACTOR
 COMP.     BP Exploration (Caspian Sea) ltd.:  COMPANY
 WTYP.                Deviated:  WELL TYPE
 MDS .        Operator Entered:  MAG DATA SOURCE
 UWI .                     N/A:  UNIQUE WELL IDENTIFIER
 API .                     N/A:  API NUMBER
 BASE.              Azerbaijan:  LOGGING EQUIPMENT BASE LOCATION
 REGN.                   EESSA:  REGION
 PROV.                    Baku:  PROVINCE
 STAT.                    Baku:  STATE NAME
 MWDS.                    Baku:  MWD SHOP
 JOBN.        AZ-XX-0906591820:  JOB TICKET NUMB
 DOE .                     N/A:  DOE NUMBER
 DCON.         Sperry Drilling:  DIRECTNL CONTR
 UNIT.                     N/A:  LOGGING EQUIPMENT ID
 CNTY.                        :  COUNTY
 LOC .                        :  LOCATION
 LMF .             Drill Floor:  LOG MEASURED FROM
 TVDS.m                  43.60:  TVDSS CORRECTN
 LATI.deg                40.02:  LATITUDE
 LONG.deg                51.45:  LONGITUDE
 WHNS.m                  11.04:  WELL HEAD N/S
 WHEW.m                 -12.38:  WELL HEAD E/W
 UTMX.m              538763.98:  UTM X
 UTMY.m             4431880.20:  UTM Y
 DFWL.m                   0.00:  DISTANCE FWL
 DFSL.m                   0.00:  DISTANCE FSL
 SDEP.m                 300.00:  START DEPTH
 TDD .m                4900.01:  TOTAL DEPTH (DRILLER)
 VSDR.deg               185.64:  VERT SEC DIRECT
 GVFD.g                   1.00:  GRAVITY FIELD
 MFLD.nT              50301.00:  MAGNETIC FIELD
 MDIP.deg                59.46:  MAGNETIC DIP
 MDEC.deg                 6.43:  MAGNETIC DECL
 GRDC.deg                 0.29:  GRID CORRECTION
 AZTC.deg                 6.14:  AZM TOTAL CORR
 EPD .m                   0.00:  ELEVATION
 EGL .m                   0.00:  GROUND ELEVATION
 WDMS.m                 151.80:  WD ELEV
 APD .m                  43.60:  DEPTH ABOVE PD
 DEP .m                 571.69:  DEPTH
 AGAP.m                  43.60:  AIR GAP
 VSEW.m                 -12.38:  VERT SEC E/W
 VSNS.m                  11.04:  VERT SEC N/S
 EKB .m                  43.60:  KB ELEVATION
 EDF .m                  43.60:  DF ELEVATION
 TDL .m                 412.00:  TOTAL DEPTH (LOGGER)
 VSC .                       0:  VS TO CLOSURE
 MAGU.                 1849300:  MAGUTM CHECKSUM
~Parameter Information Block
#MNEM.UNIT       Value        Description
#---------     -----------    ---------------------------
 AV  .mps                 2.21:  Ann Velocity 
 AVMX.mps                 2.53:  Max Ann Veloc 
 AZIF.deg               144.83:  Azm, Final 
 BHAT.        Rotary Steerable:  BHA Type 
 BROT.°/30m              -0.52:  Build Rotating 
 BS  .in                  6.50:  Bit Size 
 BTPL.psig              209.00:  Bit Press Loss 
 CABU.                      No:  Customer Abuse 
 CGEO.        Ali Isfandiyarov:  Customer Geo 
 COMM.                     d!e:  Run Comments 1 
 TCS .hr                 61.31:  Time Ciculation Ended 
 CV  .mps                 4.66:  Crit Velocity 
 CVMX.mps                 5.02:  Max Crit Veloc 
 DD1 .          Fariz Nahmatov:  Direct Drillr 1 
 DD2 .            Musa Ahmadov:  Direct Drillr 2 
 DDSV.               Geo-Pilot:  DD Service 
 DEFF.%                 100.00:  % Det Eff 
 DLRX.°/30m               1.44:  Dogleg Rot Max 
 DLSO.°/30m               0.83:  Dogleg Oriented 
 DLSX.°/30m               1.44:  Dogleg Str Max 
 DRET.      08.30.00 30-Jan-21:  Drill End Time 
 DRST.      21.15.00 27-Jan-21:  Drill Start Tim 
 DTIM.hr                 37.28:  Time Drilling 
 EDEP.m                4867.01:  End Depth 
 ENG1.          Rasim Hashimov:  Engineer 1 
 ENG2.         Almaz Almadatov:  Engineer 2 
 ENG3.        Tamerlan Ahmadov:  Engineer 3 
 ETIM.      22.41.04 31-Jan-21:  End Time 
 FLOI.gpm               400.00:  Flow In 
 FLON.gpm               300.00:  Flow In Min 
 FLOS.cptm                0.00:  Fluid Loss 
 FLOX.gpm               400.00:  Flow In Max 
 HFLO.                      No:  High Flow 
 HPRE.                      No:  High Pressure 
 HTEM.                      No:  High Temp 
 HYDO.m                   1.80:  Hydro Offset 
 IFIN.deg                65.63:  Inc, Final 
 IMAX.deg                66.77:  Inc Max 
 IMIN.deg                65.61:  Inc Min 
 IMND.m                4612.67:  Inc Min Depth 
 IMXD.m                4811.63:  Inc Max Depth 
 JARR.                      No:  Jarring 
 LETM.      08.30.00 30-Jan-21:  Log End Time 
 LOST.hr                     0:  Lost Rig Time 
 LSTM.      21.15.00 27-Jan-21:  Log Start Time 
 MDCL.ppm             41000.00:  Mud Chlorides 
 MDES.     Inversion Oil/Synthetic:  Mud Desc 
 DFD .sg                  1.40:  Mud Density 
 MDMN.sg                  1.40:  Dens Mud Min 
 MDMX.sg                  1.40:  Dens Mud Max 
 MOIL.                      53:  Run Mud Oil % 
 MOWR.                   66:34:  Run Mud OWR 
 MSND.                     0.2:  Run Mud Sand % 
 MSOL.                    17.9:  Run Mud Solids% 
 DFV .spqt               77.00:  Mud Viscosity 
 MWOD.in                  4.75:  MWD Tool OD 
 MWSI.                      No:  Serv Intrp, MWD 
 OTIM.hr                110.38:  Time Operating 
 PCON.           Look Like New:  Pad Condition 
 PMAX.psia             5300.00:  Press Op, Max 
 PV  .cP                 57.00:  Mud PV 
 RUN .                    1200:  Run Number 
 ROPA.m/hr               13.00:  ROP Avg 
 ROPN.m/hr                9.00:  ROP Min 
 ROPX.m/hr               15.00:  ROP Max 
 RPMA.rpm               120.00:  RPM Surface Avg 
 RPMN.rpm               100.00:  RPM Surface Min 
 RPMX.rpm               135.00:  RPM Surface Max 
 RRUN.                    1200:  Rig Run Number 
 RTIM.hr                  2.65:  Time Reaming 
 SAZI.deg               145.04:  Azm, Start 
 SDEP.m                4455.01:  Start Depth 
 SIDD.                      No:  Serv Intrp, DD 
 SINC.deg                65.83:  Inc, Start 
 SPPA.psig             5037.00:  SPP Avg 
 SPPN.psig             4430.00:  SPP Min 
 SPPX.psig             5300.00:  SPP Max 
 STIM.      22.41.04 26-Jan-21:  Start Time 
 SVCS.                 DD, MWD:  Services 
 SVER.                    9.20:  Sperry Version 
 TDAT.m                 412.00:  Tot Depth Attmp 
 TDDF.                      No:  Trip for DD 
 TDLG.m                 412.00:  Tot Depth Loggd 
 TFF .                      No:  Trip for Fail 
 TQAA.f-kp               15.00:  Torque Abs Avg 
 TQAN.f-kp               12.00:  Torque Abs Min 
 TQAX.f-kp               17.00:  Torque Abs Max 
 TRRT.°/30m               1.18:  Turn Rotating 
 MRT .                     ADR:  Maximum Recorded Temperature 
 TTMX.degC               88.24:  Max Tool Temp 
 VS01.                90619458:  Virtual Str1 SN 
 VS02.                90519326:  Virtual Str2 SN 
 VS03.                90522176:  Virtual Str3 SN 
 VS04.                90512683:  Virtual Str4 SN 
 WBMN.klb                 1.00:  WOB Min 
 WITN.           Murad Giluyev:  Customer Rep 
 WITN.     Kamran Kemberlinski:  Customer Rep 2 
 WOBA.klb                 5.00:  WOB Avg 
 WOBX.klb                 9.00:  WOB Max 
 YP  .lhf2               41.00:  Yield Point 
~Curve Information Block
#MNEM.UNIT                 API CODE     Curve Description
#---------               -----------    ---------------------------
 TIME.HHMMSS            00 000 000 000:  GT Time & Date
 GTDEPTH.m              00 000 000 000:  GT Depth
 GTPQH.psia             00 000 000 000:  GT HR Quartz Pressure
 GTTQ.degC              00 000 000 000:  GT Quartz Temperature
 GTTN.NONE              00 000 000 000:  GT Test Number
 GTET.sec               00 000 000 000:  GT Elapsed Test Time
 GTTVD.m                00 000 000 000:  GT True Vertical Depth
#Other Information
#
#WARRANTY: Halliburton will use its best efforts to furnish customers with 
#accurate information and interpretations that are part of, and incident to, the services 
#provided.  However, Halliburton cannot and does not warrant the accuracy 
#or correctness of such information and interpretations.  Under no circumstances should any 
#such information or interpretation be relied upon as the sole basis for any drilling, 
#completion, production, or financial decision or any procedure involving any risk to the 
#safety of any drilling venture, drilling rig or its crew or any other third party.  The 
#Customer has full responsibility for all drilling, completion and production operation.  
#Halliburton makes no representations or warranties, either expressed or 
#implied, including, but not limited to, the implied warranties of merchantability or fitness 
#for a particular purpose, with respect to the services rendered.  In no event will 
#Halliburton be liable for failure to obtain any particular results or for 
#any damages, including, but not limited to, indirect, special or consequential damages, 
#resulting from the use of any information or interpretation provided by Halliburton.
#
~A           TIME           GTDEPTH  GTPQH  GTTQ  GTTN   GTET   GTTVD  
# ...
   01:54:58.135.30-Jan-2021 4790.01 5732.98 80.63 16.00  45.21 2621.59
   01:54:58.335.30-Jan-2021 4790.01 5727.92 80.63 16.00  45.41 2621.59
   01:54:58.535.30-Jan-2021 4790.01 5730.86 80.63 16.00  45.61 2621.59
   01:54:58.735.30-Jan-2021 4790.01 5734.26 80.63 16.00  45.81 2621.59
   01:54:58.935.30-Jan-2021 4790.01 5734.98 80.63 16.00  46.01 2621.59
   01:54:59.135.30-Jan-2021 4790.01 5734.98 80.63 16.00  46.21 2621.59
   01:54:59.335.30-Jan-2021 4790.01 5732.35 80.63 16.00  46.41 2621.59
   01:54:59.535.30-Jan-2021 4790.01 5734.07 80.63 16.00  46.61 2621.59
   01:54:59.735.30-Jan-2021 4790.01 5735.34 80.63 16.00  46.81 2621.59
   01:54:59.935.30-Jan-2021 4790.01 5730.60 80.63 16.00  47.01 2621.59
   01:55:00.135.30-Jan-2021 4790.01 5730.60 80.63 16.00  47.21 2621.59
   01:55:00.335.30-Jan-2021 4790.01 5734.79 80.63 16.00  47.41 2621.59
   01:55:00.535.30-Jan-2021 4790.01 5735.80 80.62 16.00  47.61 2621.59
   01:55:00.735.30-Jan-2021 4790.01 5733.50 80.62 16.00  47.81 2621.59
   01:55:00.935.30-Jan-2021 4790.01 5730.17 80.62 16.00  48.01 2621.59
   01:55:01.136.30-Jan-2021 4790.01 5730.17 80.62 16.00  48.21 2621.59
   01:55:01.336.30-Jan-2021 4790.01 5733.31 80.62 16.00  48.41 2621.59
   01:55:01.536.30-Jan-2021 4790.01 5734.75 80.62 16.00  48.61 2621.59
   01:55:01.736.30-Jan-2021 4790.01 5733.96 80.62 16.00  48.81 2621.59
   01:55:01.936.30-Jan-2021 4790.01 5732.61 80.62 16.00  49.01 2621.59
   01:55:02.136.30-Jan-2021 4790.01 5732.61 80.62 16.00  49.21 2621.59
   01:55:02.336.30-Jan-2021 4790.01 5734.19 80.62 16.00  49.41 2621.59
   01:55:02.536.30-Jan-2021 4790.01 5734.40 80.62 16.00  49.61 2621.59
   01:55:02.736.30-Jan-2021 4790.01 5733.79 80.62 16.00  49.81 2621.59
   01:55:02.936.30-Jan-2021 4790.01 5733.88 80.62 16.00  50.01 2621.59
   01:55:03.136.30-Jan-2021 4790.01 5733.88 80.62 16.00  50.21 2621.59
   01:55:03.336.30-Jan-2021 4790.01 5733.95 80.62 16.00  50.41 2621.59
   01:55:03.536.30-Jan-2021 4790.01 5733.71 80.62 16.00  50.61 2621.59
   01:55:03.736.30-Jan-2021 4790.01 5728.24 80.62 16.00  50.81 2621.59
   01:55:03.936.30-Jan-2021 4790.01 5733.13 80.62 16.00  51.01 2621.59
   01:55:04.136.30-Jan-2021 4790.01 5733.13 80.62 16.00  51.21 2621.59
   01:55:04.336.30-Jan-2021 4790.01 5734.42 80.62 16.00  51.41 2621.59
   01:55:04.536.30-Jan-2021 4790.01 5729.78 80.62 16.00  51.61 2621.59
   01:55:04.736.30-Jan-2021 4790.01 5733.09 80.62 16.00  51.81 2621.59
   01:55:04.936.30-Jan-2021 4790.01 5733.46 80.62 16.00  52.01 2621.59
   01:55:05.136.30-Jan-2021 4790.01 5733.46 80.62 16.00  52.21 2621.59
   01:55:05.336.30-Jan-2021 4790.01 5733.25 80.62 16.00  52.41 2621.59
   01:55:05.536.30-Jan-2021 4790.01 5733.79 80.62 16.00  52.61 2621.59
   01:55:05.736.30-Jan-2021 4790.01 5734.02 80.62 16.00  52.81 2621.59
   01:55:05.936.30-Jan-2021 4790.01 5734.71 80.62 16.00  53.01 2621.59
   01:55:06.136.30-Jan-2021 4790.01 5734.71 80.62 16.00  53.21 2621.59
   01:55:06.337.30-Jan-2021 4790.01 5734.78 80.62 16.00  53.41 2621.59
   01:55:06.537.30-Jan-2021 4790.01 5734.27 80.62 16.00  53.61 2621.59
   01:55:06.737.30-Jan-2021 4790.01 5734.82 80.62 16.00  53.81 2621.59
   01:55:06.937.30-Jan-2021 4790.01 5735.08 80.62 16.00  54.01 2621.59
   01:55:07.137.30-Jan-2021 4790.01 5735.08 80.62 16.00  54.21 2621.59
   01:55:07.337.30-Jan-2021 4790.01 5734.30 80.62 16.00  54.41 2621.59
   01:55:07.537.30-Jan-2021 4790.01 5735.19 80.62 16.00  54.61 2621.59
   01:55:07.737.30-Jan-2021 4790.01 5735.64 80.62 16.00  54.81 2621.59
   01:55:07.937.30-Jan-2021 4790.01 5723.90 80.62 16.00  55.01 2621.59
   01:55:08.137.30-Jan-2021 4790.01 5723.90 80.62 16.00  55.21 2621.59
   01:55:08.337.30-Jan-2021 4790.01 5735.61 80.62 16.00  55.41 2621.59
   01:55:08.537.30-Jan-2021 4790.01 5736.31 80.62 16.00  55.61 2621.59
   01:55:08.737.30-Jan-2021 4790.01 5731.22 80.62 16.00  55.81 2621.59
   01:55:08.937.30-Jan-2021 4790.01 5728.92 80.62 16.00  56.01 2621.59
   01:55:09.137.30-Jan-2021 4790.01 5728.92 80.62 16.00  56.21 2621.59
   01:55:09.337.30-Jan-2021 4790.01 5737.10 80.62 16.00  56.41 2621.59
   01:55:09.537.30-Jan-2021 4790.01 5736.05 80.62 16.00  56.61 2621.59
   01:55:09.737.30-Jan-2021 4790.01 5730.48 80.62 16.00  56.81 2621.59
   01:55:09.937.30-Jan-2021 4790.01 5732.16 80.62 16.00  57.01 2621.59
   01:55:10.137.30-Jan-2021 4790.01 5732.16 80.62 16.00  57.21 2621.59
   01:55:10.337.30-Jan-2021 4790.01 5736.44 80.62 16.00  57.41 2621.59
   01:55:10.537.30-Jan-2021 4790.01 5734.16 80.62 16.00  57.61 2621.59
   01:55:10.737.30-Jan-2021 4790.01 5734.59 80.62 16.00  57.81 2621.59
   01:55:10.937.30-Jan-2021 4790.01 5731.50 80.62 16.00  58.01 2621.59
   01:55:11.137.30-Jan-2021 4790.01 5731.50 80.62 16.00  58.21 2621.59
   01:55:11.337.30-Jan-2021 4790.01 5737.65 80.62 16.00  58.41 2621.59
   01:55:11.538.30-Jan-2021 4790.01 5736.71 80.61 16.00  58.61 2621.59
   01:55:11.738.30-Jan-2021 4790.01 5733.25 80.61 16.00  58.81 2621.59
   01:55:11.938.30-Jan-2021 4790.01 5733.32 80.61 16.00  59.01 2621.59
   01:55:12.138.30-Jan-2021 4790.01 5733.32 80.61 16.00  59.21 2621.59
   01:55:12.338.30-Jan-2021 4790.01 5735.31 80.61 16.00  59.41 2621.59
   01:55:12.538.30-Jan-2021 4790.01 5735.65 80.61 16.00  59.61 2621.59
   01:55:12.738.30-Jan-2021 4790.01 5735.27 80.61 16.00  59.81 2621.59
   01:55:12.938.30-Jan-2021 4790.01 5733.67 80.61 16.00  60.01 2621.59
   01:55:13.138.30-Jan-2021 4790.01 5733.67 80.61 16.00  60.21 2621.59
   01:55:13.338.30-Jan-2021 4790.01 5735.11 80.61 16.00  60.41 2621.59
   01:55:13.538.30-Jan-2021 4790.01 5735.10 80.61 16.00  60.61 2621.59
   01:55:13.738.30-Jan-2021 4790.01 5734.52 80.61 16.00  60.81 2621.59
   01:55:13.938.30-Jan-2021 4790.01 5735.04 80.61 16.00  61.01 2621.59
   01:55:14.138.30-Jan-2021 4790.01 5735.04 80.61 16.00  61.21 2621.59
   01:55:14.338.30-Jan-2021 4790.01 5735.12 80.61 16.00  61.41 2621.59
   01:55:14.538.30-Jan-2021 4790.01 5734.79 80.61 16.00  61.61 2621.59
   01:55:14.738.30-Jan-2021 4790.01 5727.95 80.61 16.00  61.81 2621.59
   01:55:14.938.30-Jan-2021 4790.01 5735.98 80.61 16.00  62.01 2621.59
   01:55:15.138.30-Jan-2021 4790.01 5735.98 80.61 16.00  62.21 2621.59
   01:55:15.338.30-Jan-2021 4790.01 5735.18 80.61 16.00  62.41 2621.59
   01:55:15.538.30-Jan-2021 4790.01 5732.14 80.61 16.00  62.61 2621.59
   01:55:15.738.30-Jan-2021 4790.01 5734.83 80.61 16.00  62.81 2621.59
   01:55:15.938.30-Jan-2021 4790.01 5734.78 80.61 16.00  63.01 2621.59
   01:55:16.138.30-Jan-2021 4790.01 5734.78 80.61 16.00  63.21 2621.59
   01:55:16.338.30-Jan-2021 4790.01 5735.46 80.61 16.00  63.41 2621.59
   01:55:16.538.30-Jan-2021 4790.01 5734.69 80.61 16.00  63.61 2621.59
   01:55:16.739.30-Jan-2021 4790.01 5735.02 80.61 16.00  63.81 2621.59
   01:55:16.939.30-Jan-2021 4790.01 5735.89 80.61 16.00  64.01 2621.59
   01:55:17.139.30-Jan-2021 4790.01 5735.89 80.61 16.00  64.21 2621.59
   01:55:17.339.30-Jan-2021 4790.01 5735.59 80.61 16.00  64.41 2621.59
   01:55:17.539.30-Jan-2021 4790.01 5735.34 80.61 16.00  64.61 2621.59
   01:55:17.739.30-Jan-2021 4790.01 5735.20 80.61 16.00  64.81 2621.59
   01:55:17.939.30-Jan-2021 4790.01 5735.60 80.61 16.00  65.01 2621.59
   01:55:18.139.30-Jan-2021 4790.01 5735.60 80.61 16.00  65.21 2621.59
   01:55:18.339.30-Jan-2021 4790.01 5736.16 80.61 16.00  65.41 2621.59
   01:55:18.539.30-Jan-2021 4790.01 5736.10 80.61 16.00  65.61 2621.59
   01:55:18.739.30-Jan-2021 4790.01 5735.46 80.61 16.00  65.81 2621.59
   01:55:18.939.30-Jan-2021 4790.01 5725.55 80.61 16.00  66.01 2621.59
   01:55:19.139.30-Jan-2021 4790.01 5725.55 80.61 16.00  66.21 2621.59
   01:55:19.339.30-Jan-2021 4790.01 5735.20 80.61 16.00  66.41 2621.59
   01:55:19.539.30-Jan-2021 4790.01 5735.81 80.61 16.00  66.61 2621.59
   01:55:19.739.30-Jan-2021 4790.01 5733.67 80.61 16.00  66.81 2621.59
   01:55:19.939.30-Jan-2021 4790.01 5726.52 80.61 16.00  67.01 2621.59
   01:55:20.139.30-Jan-2021 4790.01 5726.52 80.61 16.00  67.21 2621.59
   01:55:20.339.30-Jan-2021 4790.01 5737.79 80.61 16.00  67.41 2621.59
   01:55:20.539.30-Jan-2021 4790.01 5736.70 80.61 16.00  67.61 2621.59
