~Version Information
 VERS.                  2.0:   CWLS log ASCII Standard -VERSION 2.0
 WRAP.                   NO:   One line per depth step
~Well Information Block
#MNEM.UNIT     VALUE/NAME     DESCRIPTION
#---------     -----------    ---------------------------
 STRT.S             10:42:31 29-Jan-21: START TIME 10:42:31 29-Jan-21
 STOP.S             10:49:01 29-Jan-21: STOP TIME  10:49:01 29-Jan-21
 STEP.S                   0.00: STEP TIME
 NULL.                 -999.25: NULL VALUE
 DFWT.                        :  DIST FWL TEXT
 DFST.                        :  DIST FSL TEXT
 DMF .             Drill Floor:  DRILL MEAS FROM
 STIM.      00.00.00 25-Sep-20:  START TIME
 DATE.      16.12.48 31-Jan-21:  END TIME
 SPUD.               20-Sep-20:  SPUD DATE
 NREF.                    Grid:  NORTH REFERENCE
 HPTY.       Minimum Curvature:  HOLE POS TYPE
 DMOD.             Drill Model:  DRILL MOD DESC
 SVYD.                  Survey:  SURVEY DESC
 ILTD.               Lithology:  INTERP LTH DESC
 FTOP.          Formation Tops:  FORM TOPS DESC
 RIG .              East Azeri:  RIG NAME
 PDAT.          Mean Sea Level:  PERMANENT DATUM
 FLD .                     ACG:  FIELD NAME
 SON .        AZ-XX-0906591820:  JOB NUMBER
 CTRY.              Azerbaijan:  COUNTRY NAME
 WELL.                     D37:  WELL NAME
 SRVC.     Turan Drilling & Engineering:  CONTRACTOR
 COMP.     BP Exploration (Caspian Sea) ltd.:  COMPANY
 WTYP.                Deviated:  WELL TYPE
 MDS .        Operator Entered:  MAG DATA SOURCE
 UWI .                     N/A:  UNIQUE WELL IDENTIFIER
 API .                     N/A:  API NUMBER
 BASE.              Azerbaijan:  LOGGING EQUIPMENT BASE LOCATION
 REGN.                   EESSA:  REGION
 PROV.                    Baku:  PROVINCE
 STAT.                    Baku:  STATE NAME
 MWDS.                    Baku:  MWD SHOP
 JOBN.        AZ-XX-0906591820:  JOB TICKET NUMB
 DOE .                     N/A:  DOE NUMBER
 DCON.         Sperry Drilling:  DIRECTNL CONTR
 UNIT.                     N/A:  LOGGING EQUIPMENT ID
 CNTY.                        :  COUNTY
 LOC .                        :  LOCATION
 LMF .             Drill Floor:  LOG MEASURED FROM
 TVDS.m                  43.60:  TVDSS CORRECTN
 LATI.deg                40.02:  LATITUDE
 LONG.deg                51.45:  LONGITUDE
 WHNS.m                  11.04:  WELL HEAD N/S
 WHEW.m                 -12.38:  WELL HEAD E/W
 UTMX.m              538763.98:  UTM X
 UTMY.m             4431880.20:  UTM Y
 DFWL.m                   0.00:  DISTANCE FWL
 DFSL.m                   0.00:  DISTANCE FSL
 SDEP.m                 300.00:  START DEPTH
 TDD .m                4900.01:  TOTAL DEPTH (DRILLER)
 VSDR.deg               185.64:  VERT SEC DIRECT
 GVFD.g                   1.00:  GRAVITY FIELD
 MFLD.nT              50301.00:  MAGNETIC FIELD
 MDIP.deg                59.46:  MAGNETIC DIP
 MDEC.deg                 6.43:  MAGNETIC DECL
 GRDC.deg                 0.29:  GRID CORRECTION
 AZTC.deg                 6.14:  AZM TOTAL CORR
 EPD .m                   0.00:  ELEVATION
 EGL .m                   0.00:  GROUND ELEVATION
 WDMS.m                 151.80:  WD ELEV
 APD .m                  43.60:  DEPTH ABOVE PD
 DEP .m                 571.69:  DEPTH
 AGAP.m                  43.60:  AIR GAP
 VSEW.m                 -12.38:  VERT SEC E/W
 VSNS.m                  11.04:  VERT SEC N/S
 EKB .m                  43.60:  KB ELEVATION
 EDF .m                  43.60:  DF ELEVATION
 TDL .m                 412.00:  TOTAL DEPTH (LOGGER)
 VSC .                       0:  VS TO CLOSURE
 MAGU.                 1849300:  MAGUTM CHECKSUM
~Parameter Information Block
#MNEM.UNIT       Value        Description
#---------     -----------    ---------------------------
 AV  .mps                 2.21:  Ann Velocity 
 AVMX.mps                 2.53:  Max Ann Veloc 
 AZIF.deg               144.83:  Azm, Final 
 BHAT.        Rotary Steerable:  BHA Type 
 BROT.°/30m              -0.52:  Build Rotating 
 BS  .in                  6.50:  Bit Size 
 BTPL.psig              209.00:  Bit Press Loss 
 CABU.                      No:  Customer Abuse 
 CGEO.        Ali Isfandiyarov:  Customer Geo 
 COMM.                     ,H:  Run Comments 1 
 TCS .hr                 61.31:  Time Ciculation Ended 
 CV  .mps                 4.66:  Crit Velocity 
 CVMX.mps                 5.02:  Max Crit Veloc 
 DD1 .          Fariz Nahmatov:  Direct Drillr 1 
 DD2 .            Musa Ahmadov:  Direct Drillr 2 
 DDSV.               Geo-Pilot:  DD Service 
 DEFF.%                 100.00:  % Det Eff 
 DLRX.°/30m               1.44:  Dogleg Rot Max 
 DLSO.°/30m               0.83:  Dogleg Oriented 
 DLSX.°/30m               1.44:  Dogleg Str Max 
 DRET.      08.30.00 30-Jan-21:  Drill End Time 
 DRST.      21.15.00 27-Jan-21:  Drill Start Tim 
 DTIM.hr                 37.28:  Time Drilling 
 EDEP.m                4867.01:  End Depth 
 ENG1.          Rasim Hashimov:  Engineer 1 
 ENG2.         Almaz Almadatov:  Engineer 2 
 ENG3.        Tamerlan Ahmadov:  Engineer 3 
 ETIM.      22.41.04 31-Jan-21:  End Time 
 FLOI.gpm               400.00:  Flow In 
 FLON.gpm               300.00:  Flow In Min 
 FLOS.cptm                0.00:  Fluid Loss 
 FLOX.gpm               400.00:  Flow In Max 
 HFLO.                      No:  High Flow 
 HPRE.                      No:  High Pressure 
 HTEM.                      No:  High Temp 
 HYDO.m                   1.80:  Hydro Offset 
 IFIN.deg                65.63:  Inc, Final 
 IMAX.deg                66.77:  Inc Max 
 IMIN.deg                65.61:  Inc Min 
 IMND.m                4612.67:  Inc Min Depth 
 IMXD.m                4811.63:  Inc Max Depth 
 JARR.                      No:  Jarring 
 LETM.      08.30.00 30-Jan-21:  Log End Time 
 LOST.hr                     0:  Lost Rig Time 
 LSTM.      21.15.00 27-Jan-21:  Log Start Time 
 MDCL.ppm             41000.00:  Mud Chlorides 
 MDES.     Inversion Oil/Synthetic:  Mud Desc 
 DFD .sg                  1.40:  Mud Density 
 MDMN.sg                  1.40:  Dens Mud Min 
 MDMX.sg                  1.40:  Dens Mud Max 
 MOIL.                      53:  Run Mud Oil % 
 MOWR.                   66:34:  Run Mud OWR 
 MSND.                     0.2:  Run Mud Sand % 
 MSOL.                    17.9:  Run Mud Solids% 
 DFV .spqt               77.00:  Mud Viscosity 
 MWOD.in                  4.75:  MWD Tool OD 
 MWSI.                      No:  Serv Intrp, MWD 
 OTIM.hr                110.38:  Time Operating 
 PCON.           Look Like New:  Pad Condition 
 PMAX.psia             5300.00:  Press Op, Max 
 PV  .cP                 57.00:  Mud PV 
 RUN .                    1200:  Run Number 
 ROPA.m/hr               13.00:  ROP Avg 
 ROPN.m/hr                9.00:  ROP Min 
 ROPX.m/hr               15.00:  ROP Max 
 RPMA.rpm               120.00:  RPM Surface Avg 
 RPMN.rpm               100.00:  RPM Surface Min 
 RPMX.rpm               135.00:  RPM Surface Max 
 RRUN.                    1200:  Rig Run Number 
 RTIM.hr                  2.65:  Time Reaming 
 SAZI.deg               145.04:  Azm, Start 
 SDEP.m                4455.01:  Start Depth 
 SIDD.                      No:  Serv Intrp, DD 
 SINC.deg                65.83:  Inc, Start 
 SPPA.psig             5037.00:  SPP Avg 
 SPPN.psig             4430.00:  SPP Min 
 SPPX.psig             5300.00:  SPP Max 
 STIM.      22.41.04 26-Jan-21:  Start Time 
 SVCS.                 DD, MWD:  Services 
 SVER.                    9.20:  Sperry Version 
 TDAT.m                 412.00:  Tot Depth Attmp 
 TDDF.                      No:  Trip for DD 
 TDLG.m                 412.00:  Tot Depth Loggd 
 TFF .                      No:  Trip for Fail 
 TQAA.f-kp               15.00:  Torque Abs Avg 
 TQAN.f-kp               12.00:  Torque Abs Min 
 TQAX.f-kp               17.00:  Torque Abs Max 
 TRRT.°/30m               1.18:  Turn Rotating 
 MRT .                     ADR:  Maximum Recorded Temperature 
 TTMX.degC               88.24:  Max Tool Temp 
 VS01.                90619458:  Virtual Str1 SN 
 VS02.                90519326:  Virtual Str2 SN 
 VS03.                90522176:  Virtual Str3 SN 
 VS04.                90512683:  Virtual Str4 SN 
 WBMN.klb                 1.00:  WOB Min 
 WITN.           Murad Giluyev:  Customer Rep 
 WITN.     Kamran Kemberlinski:  Customer Rep 2 
 WOBA.klb                 5.00:  WOB Avg 
 WOBX.klb                 9.00:  WOB Max 
 YP  .lhf2               41.00:  Yield Point 
~Curve Information Block
#MNEM.UNIT                 API CODE     Curve Description
#---------               -----------    ---------------------------
 TIME.HHMMSS            00 000 000 000:  GT Time & Date
 GTDEPTH.m              00 000 000 000:  GT Depth
 GTPQH.psia             00 000 000 000:  GT HR Quartz Pressure
 GTTQ.degC              00 000 000 000:  GT Quartz Temperature
 GTTN.NONE              00 000 000 000:  GT Test Number
 GTET.sec               00 000 000 000:  GT Elapsed Test Time
 GTTVD.m                00 000 000 000:  GT True Vertical Depth
#Other Information
#
#WARRANTY: Halliburton will use its best efforts to furnish customers with 
#accurate information and interpretations that are part of, and incident to, the services 
#provided.  However, Halliburton cannot and does not warrant the accuracy 
#or correctness of such information and interpretations.  Under no circumstances should any 
#such information or interpretation be relied upon as the sole basis for any drilling, 
#completion, production, or financial decision or any procedure involving any risk to the 
#safety of any drilling venture, drilling rig or its crew or any other third party.  The 
#Customer has full responsibility for all drilling, completion and production operation.  
#Halliburton makes no representations or warranties, either expressed or 
#implied, including, but not limited to, the implied warranties of merchantability or fitness 
#for a particular purpose, with respect to the services rendered.  In no event will 
#Halliburton be liable for failure to obtain any particular results or for 
#any damages, including, but not limited to, indirect, special or consequential damages, 
#resulting from the use of any information or interpretation provided by Halliburton.
#
~A           TIME           GTDEPTH  GTPQH  GTTQ  GTTN   GTET   GTTVD  
# ...
   10:44:24.184.29-Jan-2021 4690.01 3068.01 80.49 10.00 113.01 2581.69
   10:44:24.384.29-Jan-2021 4690.01 3068.01 80.49 10.00 113.21 2581.69
   10:44:24.584.29-Jan-2021 4690.01 3067.97 80.49 10.00 113.41 2581.69
   10:44:24.784.29-Jan-2021 4690.01 3067.98 80.49 10.00 113.61 2581.69
   10:44:24.984.29-Jan-2021 4690.01 3067.97 80.49 10.00 113.81 2581.69
   10:44:25.184.29-Jan-2021 4690.01 3067.98 80.49 10.00 114.01 2581.69
   10:44:25.384.29-Jan-2021 4690.01 3067.98 80.49 10.00 114.21 2581.69
   10:44:25.584.29-Jan-2021 4690.01 3067.97 80.48 10.00 114.41 2581.69
   10:44:25.784.29-Jan-2021 4690.01 3067.96 80.48 10.00 114.61 2581.69
   10:44:25.984.29-Jan-2021 4690.01 3067.97 80.48 10.00 114.81 2581.69
   10:44:26.184.29-Jan-2021 4690.01 3067.96 80.48 10.00 115.01 2581.69
   10:44:26.384.29-Jan-2021 4690.01 3067.96 80.48 10.00 115.21 2581.69
   10:44:26.584.29-Jan-2021 4690.01 3067.95 80.48 10.00 115.41 2581.69
   10:44:26.784.29-Jan-2021 4690.01 3067.96 80.48 10.00 115.61 2581.69
   10:44:26.984.29-Jan-2021 4690.01 3067.94 80.48 10.00 115.81 2581.69
   10:44:27.184.29-Jan-2021 4690.01 3067.91 80.48 10.00 116.01 2581.69
   10:44:27.384.29-Jan-2021 4690.01 3067.91 80.48 10.00 116.21 2581.69
   10:44:27.584.29-Jan-2021 4690.01 3067.96 80.48 10.00 116.41 2581.69
   10:44:27.784.29-Jan-2021 4690.01 3067.94 80.48 10.00 116.61 2581.69
   10:44:27.984.29-Jan-2021 4690.01 3067.91 80.48 10.00 116.81 2581.69
   10:44:28.184.29-Jan-2021 4690.01 3067.99 80.48 10.00 117.01 2581.69
   10:44:28.384.29-Jan-2021 4690.01 3067.99 80.48 10.00 117.21 2581.69
   10:44:28.584.29-Jan-2021 4690.01 3067.94 80.47 10.00 117.41 2581.69
   10:44:28.784.29-Jan-2021 4690.01 3067.95 80.47 10.00 117.61 2581.69
   10:44:28.984.29-Jan-2021 4690.01 3067.95 80.47 10.00 117.81 2581.69
   10:44:29.184.29-Jan-2021 4690.01 3067.94 80.47 10.00 118.01 2581.69
   10:44:29.384.29-Jan-2021 4690.01 3067.94 80.47 10.00 118.21 2581.69
   10:44:29.584.29-Jan-2021 4690.01 3067.97 80.47 10.00 118.41 2581.69
   10:44:29.784.29-Jan-2021 4690.01 3067.95 80.47 10.00 118.61 2581.69
   10:44:29.984.29-Jan-2021 4690.01 3067.92 80.47 10.00 118.81 2581.69
   10:44:30.184.29-Jan-2021 4690.01 3067.94 80.47 10.00 119.01 2581.69
   10:44:30.384.29-Jan-2021 4690.01 3067.94 80.47 10.00 119.21 2581.69
   10:44:30.584.29-Jan-2021 4690.01 3067.94 80.47 10.00 119.41 2581.69
   10:44:30.784.29-Jan-2021 4690.01 3067.88 80.47 10.00 119.61 2581.69
   10:44:30.984.29-Jan-2021 4690.01 3067.96 80.47 10.00 119.81 2581.69
   10:44:31.184.29-Jan-2021 4690.01 3067.93 80.47 10.00 120.01 2581.69
   10:44:31.384.29-Jan-2021 4690.01 3067.93 80.47 10.00 120.21 2581.69
   10:44:31.584.29-Jan-2021 4690.01 3067.92 80.46 10.00 120.41 2581.69
   10:44:31.784.29-Jan-2021 4690.01 3067.92 80.46 10.00 120.61 2581.69
   10:44:31.985.29-Jan-2021 4690.01 3067.88 80.46 10.00 120.81 2581.69
   10:44:32.185.29-Jan-2021 4690.01 3067.94 80.46 10.00 121.01 2581.69
   10:44:32.385.29-Jan-2021 4690.01 3067.94 80.46 10.00 121.21 2581.69
   10:44:32.585.29-Jan-2021 4690.01 3067.92 80.46 10.00 121.41 2581.69
   10:44:32.785.29-Jan-2021 4690.01 3067.92 80.46 10.00 121.61 2581.69
   10:44:32.985.29-Jan-2021 4690.01 3067.92 80.46 10.00 121.81 2581.69
   10:44:33.185.29-Jan-2021 4690.01 3067.92 80.46 10.00 122.01 2581.69
   10:44:33.385.29-Jan-2021 4690.01 3067.92 80.46 10.00 122.21 2581.69
   10:44:33.585.29-Jan-2021 4690.01 3067.91 80.46 10.00 122.41 2581.69
   10:44:33.785.29-Jan-2021 4690.01 3067.91 80.46 10.00 122.61 2581.69
   10:44:33.985.29-Jan-2021 4690.01 3067.91 80.46 10.00 122.81 2581.69
   10:44:34.185.29-Jan-2021 4690.01 3067.90 80.46 10.00 123.01 2581.69
   10:44:34.385.29-Jan-2021 4690.01 3067.90 80.46 10.00 123.21 2581.69
   10:44:34.585.29-Jan-2021 4690.01 3067.90 80.45 10.00 123.41 2581.69
   10:44:34.785.29-Jan-2021 4690.01 3067.90 80.45 10.00 123.61 2581.69
   10:44:34.985.29-Jan-2021 4690.01 3067.90 80.45 10.00 123.81 2581.69
   10:44:35.185.29-Jan-2021 4690.01 3067.89 80.45 10.00 124.01 2581.69
   10:44:35.385.29-Jan-2021 4690.01 3067.89 80.45 10.00 124.21 2581.69
   10:44:35.585.29-Jan-2021 4690.01 3067.87 80.45 10.00 124.41 2581.69
   10:44:35.785.29-Jan-2021 4690.01 3067.90 80.45 10.00 124.61 2581.69
   10:44:35.985.29-Jan-2021 4690.01 3067.89 80.45 10.00 124.81 2581.69
   10:44:36.185.29-Jan-2021 4690.01 3067.90 80.45 10.00 125.01 2581.69
   10:44:36.385.29-Jan-2021 4690.01 3067.90 80.45 10.00 125.21 2581.69
   10:44:36.585.29-Jan-2021 4690.01 3067.90 80.45 10.00 125.41 2581.69
   10:44:36.785.29-Jan-2021 4690.01 3067.90 80.45 10.00 125.61 2581.69
   10:44:36.985.29-Jan-2021 4690.01 3067.89 80.45 10.00 125.81 2581.69
   10:44:37.185.29-Jan-2021 4690.01 3067.89 80.45 10.00 126.01 2581.69
   10:44:37.385.29-Jan-2021 4690.01 3067.89 80.45 10.00 126.21 2581.69
   10:44:37.585.29-Jan-2021 4690.01 3067.88 80.44 10.00 126.41 2581.69
   10:44:37.785.29-Jan-2021 4690.01 3067.88 80.44 10.00 126.61 2581.69
   10:44:37.985.29-Jan-2021 4690.01 3067.87 80.44 10.00 126.81 2581.69
   10:44:38.185.29-Jan-2021 4690.01 3067.88 80.44 10.00 127.01 2581.69
   10:44:38.385.29-Jan-2021 4690.01 3067.88 80.44 10.00 127.21 2581.69
   10:44:38.585.29-Jan-2021 4690.01 3067.87 80.44 10.00 127.41 2581.69
   10:44:38.785.29-Jan-2021 4690.01 3067.84 80.44 10.00 127.61 2581.69
   10:44:38.985.29-Jan-2021 4690.01 3067.90 80.44 10.00 127.81 2581.69
   10:44:39.185.29-Jan-2021 4690.01 3067.89 80.44 10.00 128.01 2581.69
   10:44:39.385.29-Jan-2021 4690.01 3067.89 80.44 10.00 128.21 2581.69
   10:44:39.585.29-Jan-2021 4690.01 3067.86 80.44 10.00 128.41 2581.69
   10:44:39.785.29-Jan-2021 4690.01 3067.89 80.44 10.00 128.61 2581.69
   10:44:39.985.29-Jan-2021 4690.01 3067.88 80.44 10.00 128.81 2581.69
   10:44:40.185.29-Jan-2021 4690.01 3067.87 80.44 10.00 129.01 2581.69
   10:44:40.385.29-Jan-2021 4690.01 3067.87 80.44 10.00 129.21 2581.69
   10:44:40.585.29-Jan-2021 4690.01 3067.88 80.43 10.00 129.41 2581.69
   10:44:40.785.29-Jan-2021 4690.01 3067.87 80.43 10.00 129.61 2581.69
   10:44:40.985.29-Jan-2021 4690.01 3067.86 80.43 10.00 129.81 2581.69
   10:44:41.185.29-Jan-2021 4690.01 3067.85 80.43 10.00 130.01 2581.69
   10:44:41.385.29-Jan-2021 4690.01 3067.85 80.43 10.00 130.21 2581.69
   10:44:41.585.29-Jan-2021 4690.01 3067.88 80.43 10.00 130.41 2581.69
   10:44:41.785.29-Jan-2021 4690.01 3067.85 80.43 10.00 130.61 2581.69
   10:44:41.985.29-Jan-2021 4690.01 3067.86 80.43 10.00 130.81 2581.69
   10:44:42.185.29-Jan-2021 4690.01 3067.87 80.43 10.00 131.01 2581.69
   10:44:42.385.29-Jan-2021 4690.01 3067.87 80.43 10.00 131.21 2581.69
   10:44:42.585.29-Jan-2021 4690.01 3067.86 80.43 10.00 131.41 2581.69
   10:44:42.785.29-Jan-2021 4690.01 3067.86 80.43 10.00 131.61 2581.69
   10:44:42.985.29-Jan-2021 4690.01 3067.86 80.43 10.00 131.81 2581.69
   10:44:43.185.29-Jan-2021 4690.01 3067.85 80.43 10.00 132.01 2581.69
   10:44:43.385.29-Jan-2021 4690.01 3067.85 80.43 10.00 132.21 2581.69
   10:44:43.585.29-Jan-2021 4690.01 3067.81 80.42 10.00 132.41 2581.69
   10:44:43.785.29-Jan-2021 4690.01 3067.88 80.42 10.00 132.61 2581.69
   10:44:43.985.29-Jan-2021 4690.01 3067.86 80.42 10.00 132.81 2581.69
   10:44:44.185.29-Jan-2021 4690.01 3065.79 80.42 10.00 133.01 2581.69
   10:44:44.385.29-Jan-2021 4690.01 3065.79 80.42 10.00 133.21 2581.69
   10:44:44.585.29-Jan-2021 4690.01 3062.37 80.42 10.00 133.41 2581.69
   10:44:44.785.29-Jan-2021 4690.01 3062.33 80.42 10.00 133.61 2581.69
   10:44:44.985.29-Jan-2021 4690.01 3062.36 80.42 10.00 133.81 2581.69
   10:44:45.185.29-Jan-2021 4690.01 3062.28 80.42 10.00 134.01 2581.69
   10:44:45.385.29-Jan-2021 4690.01 3062.28 80.42 10.00 134.21 2581.69
   10:44:45.585.29-Jan-2021 4690.01 3062.32 80.42 10.00 134.41 2581.69
   10:44:45.785.29-Jan-2021 4690.01 3062.30 80.42 10.00 134.61 2581.69
   10:44:45.985.29-Jan-2021 4690.01 3062.31 80.42 10.00 134.81 2581.69
   10:44:46.186.29-Jan-2021 4690.01 3062.32 80.42 10.00 135.01 2581.69
   10:44:46.386.29-Jan-2021 4690.01 3062.32 80.42 10.00 135.21 2581.69
   10:44:46.586.29-Jan-2021 4690.01 3062.30 80.41 10.00 135.41 2581.69
