~Version Information
 VERS.                  2.0:   CWLS log ASCII Standard -VERSION 2.0
 WRAP.                   NO:   One line per depth step
~Well Information Block
#MNEM.UNIT     VALUE/NAME     DESCRIPTION
#---------     -----------    ---------------------------
 STRT.S             02:23:02 28-Jan-21: START TIME 02:23:02 28-Jan-21
 STOP.S             02:29:37 28-Jan-21: STOP TIME  02:29:37 28-Jan-21
 STEP.S                   0.00: STEP TIME
 NULL.                 -999.25: NULL VALUE
 DFWT.                        :  DIST FWL TEXT
 DFST.                        :  DIST FSL TEXT
 DMF .             Drill Floor:  DRILL MEAS FROM
 STIM.      00.00.00 25-Sep-20:  START TIME
 DATE.      16.12.48 31-Jan-21:  END TIME
 SPUD.               20-Sep-20:  SPUD DATE
 NREF.                    Grid:  NORTH REFERENCE
 HPTY.       Minimum Curvature:  HOLE POS TYPE
 DMOD.             Drill Model:  DRILL MOD DESC
 SVYD.                  Survey:  SURVEY DESC
 ILTD.               Lithology:  INTERP LTH DESC
 FTOP.          Formation Tops:  FORM TOPS DESC
 RIG .              East Azeri:  RIG NAME
 PDAT.          Mean Sea Level:  PERMANENT DATUM
 FLD .                     ACG:  FIELD NAME
 SON .        AZ-XX-0906591820:  JOB NUMBER
 CTRY.              Azerbaijan:  COUNTRY NAME
 WELL.                     D37:  WELL NAME
 SRVC.     Turan Drilling & Engineering:  CONTRACTOR
 COMP.     BP Exploration (Caspian Sea) ltd.:  COMPANY
 WTYP.                Deviated:  WELL TYPE
 MDS .        Operator Entered:  MAG DATA SOURCE
 UWI .                     N/A:  UNIQUE WELL IDENTIFIER
 API .                     N/A:  API NUMBER
 BASE.              Azerbaijan:  LOGGING EQUIPMENT BASE LOCATION
 REGN.                   EESSA:  REGION
 PROV.                    Baku:  PROVINCE
 STAT.                    Baku:  STATE NAME
 MWDS.                    Baku:  MWD SHOP
 JOBN.        AZ-XX-0906591820:  JOB TICKET NUMB
 DOE .                     N/A:  DOE NUMBER
 DCON.         Sperry Drilling:  DIRECTNL CONTR
 UNIT.                     N/A:  LOGGING EQUIPMENT ID
 CNTY.                        :  COUNTY
 LOC .                        :  LOCATION
 LMF .             Drill Floor:  LOG MEASURED FROM
 TVDS.m                  43.60:  TVDSS CORRECTN
 LATI.deg                40.02:  LATITUDE
 LONG.deg                51.45:  LONGITUDE
 WHNS.m                  11.04:  WELL HEAD N/S
 WHEW.m                 -12.38:  WELL HEAD E/W
 UTMX.m              538763.98:  UTM X
 UTMY.m             4431880.20:  UTM Y
 DFWL.m                   0.00:  DISTANCE FWL
 DFSL.m                   0.00:  DISTANCE FSL
 SDEP.m                 300.00:  START DEPTH
 TDD .m                4900.01:  TOTAL DEPTH (DRILLER)
 VSDR.deg               185.64:  VERT SEC DIRECT
 GVFD.g                   1.00:  GRAVITY FIELD
 MFLD.nT              50301.00:  MAGNETIC FIELD
 MDIP.deg                59.46:  MAGNETIC DIP
 MDEC.deg                 6.43:  MAGNETIC DECL
 GRDC.deg                 0.29:  GRID CORRECTION
 AZTC.deg                 6.14:  AZM TOTAL CORR
 EPD .m                   0.00:  ELEVATION
 EGL .m                   0.00:  GROUND ELEVATION
 WDMS.m                 151.80:  WD ELEV
 APD .m                  43.60:  DEPTH ABOVE PD
 DEP .m                 571.69:  DEPTH
 AGAP.m                  43.60:  AIR GAP
 VSEW.m                 -12.38:  VERT SEC E/W
 VSNS.m                  11.04:  VERT SEC N/S
 EKB .m                  43.60:  KB ELEVATION
 EDF .m                  43.60:  DF ELEVATION
 TDL .m                 412.00:  TOTAL DEPTH (LOGGER)
 VSC .                       0:  VS TO CLOSURE
 MAGU.                 1849300:  MAGUTM CHECKSUM
~Parameter Information Block
#MNEM.UNIT       Value        Description
#---------     -----------    ---------------------------
 AV  .mps                 2.21:  Ann Velocity 
 AVMX.mps                 2.53:  Max Ann Veloc 
 AZIF.deg               144.83:  Azm, Final 
 BHAT.        Rotary Steerable:  BHA Type 
 BROT.°/30m              -0.52:  Build Rotating 
 BS  .in                  6.50:  Bit Size 
 BTPL.psig              209.00:  Bit Press Loss 
 CABU.                      No:  Customer Abuse 
 CGEO.        Ali Isfandiyarov:  Customer Geo 
 TCS .hr                 61.31:  Time Ciculation Ended 
 CV  .mps                 4.66:  Crit Velocity 
 CVMX.mps                 5.02:  Max Crit Veloc 
 DD1 .          Fariz Nahmatov:  Direct Drillr 1 
 DD2 .            Musa Ahmadov:  Direct Drillr 2 
 DDSV.               Geo-Pilot:  DD Service 
 DEFF.%                 100.00:  % Det Eff 
 DLRX.°/30m               1.44:  Dogleg Rot Max 
 DLSO.°/30m               0.83:  Dogleg Oriented 
 DLSX.°/30m               1.44:  Dogleg Str Max 
 DRET.      08.30.00 30-Jan-21:  Drill End Time 
 DRST.      21.15.00 27-Jan-21:  Drill Start Tim 
 DTIM.hr                 37.28:  Time Drilling 
 EDEP.m                4867.01:  End Depth 
 ENG1.          Rasim Hashimov:  Engineer 1 
 ENG2.         Almaz Almadatov:  Engineer 2 
 ENG3.        Tamerlan Ahmadov:  Engineer 3 
 ETIM.      22.41.04 31-Jan-21:  End Time 
 FLOI.gpm               400.00:  Flow In 
 FLON.gpm               300.00:  Flow In Min 
 FLOS.cptm                0.00:  Fluid Loss 
 FLOX.gpm               400.00:  Flow In Max 
 HFLO.                      No:  High Flow 
 HPRE.                      No:  High Pressure 
 HTEM.                      No:  High Temp 
 HYDO.m                   1.80:  Hydro Offset 
 IFIN.deg                65.63:  Inc, Final 
 IMAX.deg                66.77:  Inc Max 
 IMIN.deg                65.61:  Inc Min 
 IMND.m                4612.67:  Inc Min Depth 
 IMXD.m                4811.63:  Inc Max Depth 
 JARR.                      No:  Jarring 
 LETM.      08.30.00 30-Jan-21:  Log End Time 
 LOST.hr                     0:  Lost Rig Time 
 LSTM.      21.15.00 27-Jan-21:  Log Start Time 
 MDCL.ppm             41000.00:  Mud Chlorides 
 MDES.     Inversion Oil/Synthetic:  Mud Desc 
 DFD .sg                  1.40:  Mud Density 
 MDMN.sg                  1.40:  Dens Mud Min 
 MDMX.sg                  1.40:  Dens Mud Max 
 MOIL.                      53:  Run Mud Oil % 
 MOWR.                   66:34:  Run Mud OWR 
 MSND.                     0.2:  Run Mud Sand % 
 MSOL.                    17.9:  Run Mud Solids% 
 DFV .spqt               77.00:  Mud Viscosity 
 MWOD.in                  4.75:  MWD Tool OD 
 MWSI.                      No:  Serv Intrp, MWD 
 OTIM.hr                110.38:  Time Operating 
 PCON.           Look Like New:  Pad Condition 
 PMAX.psia             5300.00:  Press Op, Max 
 PV  .cP                 57.00:  Mud PV 
 RUN .                    1200:  Run Number 
 ROPA.m/hr               13.00:  ROP Avg 
 ROPN.m/hr                9.00:  ROP Min 
 ROPX.m/hr               15.00:  ROP Max 
 RPMA.rpm               120.00:  RPM Surface Avg 
 RPMN.rpm               100.00:  RPM Surface Min 
 RPMX.rpm               135.00:  RPM Surface Max 
 RRUN.                    1200:  Rig Run Number 
 RTIM.hr                  2.65:  Time Reaming 
 SAZI.deg               145.04:  Azm, Start 
 SDEP.m                4455.01:  Start Depth 
 SIDD.                      No:  Serv Intrp, DD 
 SINC.deg                65.83:  Inc, Start 
 SPPA.psig             5037.00:  SPP Avg 
 SPPN.psig             4430.00:  SPP Min 
 SPPX.psig             5300.00:  SPP Max 
 STIM.      22.41.04 26-Jan-21:  Start Time 
 SVCS.                 DD, MWD:  Services 
 SVER.                    9.20:  Sperry Version 
 TDAT.m                 412.00:  Tot Depth Attmp 
 TDDF.                      No:  Trip for DD 
 TDLG.m                 412.00:  Tot Depth Loggd 
 TFF .                      No:  Trip for Fail 
 TQAA.f-kp               15.00:  Torque Abs Avg 
 TQAN.f-kp               12.00:  Torque Abs Min 
 TQAX.f-kp               17.00:  Torque Abs Max 
 TRRT.°/30m               1.18:  Turn Rotating 
 MRT .                     ADR:  Maximum Recorded Temperature 
 TTMX.degC               88.24:  Max Tool Temp 
 VS01.                90619458:  Virtual Str1 SN 
 VS02.                90519326:  Virtual Str2 SN 
 VS03.                90522176:  Virtual Str3 SN 
 VS04.                90512683:  Virtual Str4 SN 
 WBMN.klb                 1.00:  WOB Min 
 WITN.           Murad Giluyev:  Customer Rep 
 WITN.     Kamran Kemberlinski:  Customer Rep 2 
 WOBA.klb                 5.00:  WOB Avg 
 WOBX.klb                 9.00:  WOB Max 
 YP  .lhf2               41.00:  Yield Point 
~Curve Information Block
#MNEM.UNIT                 API CODE     Curve Description
#---------               -----------    ---------------------------
 TIME.HHMMSS            00 000 000 000:  GT Time & Date
 GTDEPTH.m              00 000 000 000:  GT Depth
 GTPQH.psia             00 000 000 000:  GT HR Quartz Pressure
 GTTQ.degC              00 000 000 000:  GT Quartz Temperature
 GTTN.NONE              00 000 000 000:  GT Test Number
 GTET.sec               00 000 000 000:  GT Elapsed Test Time
 GTTVD.m                00 000 000 000:  GT True Vertical Depth
#Other Information
#
#WARRANTY: Halliburton will use its best efforts to furnish customers with 
#accurate information and interpretations that are part of, and incident to, the services 
#provided.  However, Halliburton cannot and does not warrant the accuracy 
#or correctness of such information and interpretations.  Under no circumstances should any 
#such information or interpretation be relied upon as the sole basis for any drilling, 
#completion, production, or financial decision or any procedure involving any risk to the 
#safety of any drilling venture, drilling rig or its crew or any other third party.  The 
#Customer has full responsibility for all drilling, completion and production operation.  
#Halliburton makes no representations or warranties, either expressed or 
#implied, including, but not limited to, the implied warranties of merchantability or fitness 
#for a particular purpose, with respect to the services rendered.  In no event will 
#Halliburton be liable for failure to obtain any particular results or for 
#any damages, including, but not limited to, indirect, special or consequential damages, 
#resulting from the use of any information or interpretation provided by Halliburton.
#
~A           TIME           GTDEPTH  GTPQH  GTTQ  GTTN  GTET   GTTVD  
# ...
   02:26:29.000.28-Jan-2021 4453.81 5410.39 60.78 1.00 207.00 2485.38
   02:26:29.200.28-Jan-2021 4453.81 5410.39 60.78 1.00 207.20 2485.38
   02:26:29.400.28-Jan-2021 4453.81 5414.46 60.78 1.00 207.40 2485.38
   02:26:29.600.28-Jan-2021 4453.81 5412.99 60.78 1.00 207.60 2485.38
   02:26:29.800.28-Jan-2021 4453.81 5413.35 60.78 1.00 207.80 2485.38
   02:26:30.000.28-Jan-2021 4453.81 5410.89 60.78 1.00 208.00 2485.38
   02:26:30.200.28-Jan-2021 4453.81 5410.89 60.78 1.00 208.20 2485.38
   02:26:30.400.28-Jan-2021 4453.81 5412.65 60.78 1.00 208.40 2485.38
   02:26:30.600.28-Jan-2021 4453.81 5412.18 60.78 1.00 208.60 2485.38
   02:26:30.800.28-Jan-2021 4453.81 5413.76 60.78 1.00 208.80 2485.38
   02:26:31.000.28-Jan-2021 4453.81 5411.34 60.78 1.00 209.00 2485.38
   02:26:31.200.28-Jan-2021 4453.81 5411.34 60.78 1.00 209.20 2485.38
   02:26:31.400.28-Jan-2021 4453.81 5413.08 60.78 1.00 209.40 2485.38
   02:26:31.600.28-Jan-2021 4453.81 5411.28 60.78 1.00 209.60 2485.38
   02:26:31.800.28-Jan-2021 4453.81 5413.28 60.78 1.00 209.80 2485.38
   02:26:32.000.28-Jan-2021 4453.81 5411.85 60.78 1.00 210.00 2485.38
   02:26:32.200.28-Jan-2021 4453.81 5411.85 60.78 1.00 210.20 2485.38
   02:26:32.400.28-Jan-2021 4453.81 5412.81 60.78 1.00 210.40 2485.38
   02:26:32.600.28-Jan-2021 4453.81 5410.94 60.78 1.00 210.60 2485.38
   02:26:32.800.28-Jan-2021 4453.81 5415.00 60.77 1.00 210.80 2485.38
   02:26:33.000.28-Jan-2021 4453.81 5410.99 60.77 1.00 211.00 2485.38
   02:26:33.200.28-Jan-2021 4453.81 5410.99 60.77 1.00 211.20 2485.38
   02:26:33.400.28-Jan-2021 4453.81 5413.45 60.77 1.00 211.40 2485.38
   02:26:33.600.28-Jan-2021 4453.81 5412.60 60.77 1.00 211.60 2485.38
   02:26:33.800.28-Jan-2021 4453.81 5415.52 60.77 1.00 211.80 2485.38
   02:26:34.000.28-Jan-2021 4453.81 5404.30 60.77 1.00 212.00 2485.38
   02:26:34.200.28-Jan-2021 4453.81 5404.30 60.77 1.00 212.20 2485.38
   02:26:34.400.28-Jan-2021 4453.81 5411.62 60.77 1.00 212.40 2485.38
   02:26:34.600.28-Jan-2021 4453.81 5414.54 60.77 1.00 212.60 2485.38
   02:26:34.800.28-Jan-2021 4453.81 5406.41 60.77 1.00 212.80 2485.38
   02:26:35.000.28-Jan-2021 4453.81 5412.11 60.77 1.00 213.00 2485.38
   02:26:35.200.28-Jan-2021 4453.81 5412.11 60.77 1.00 213.20 2485.38
   02:26:35.400.28-Jan-2021 4453.81 5414.69 60.77 1.00 213.40 2485.38
   02:26:35.600.28-Jan-2021 4453.81 5413.73 60.77 1.00 213.60 2485.38
   02:26:35.800.28-Jan-2021 4453.81 5412.57 60.77 1.00 213.80 2485.38
   02:26:36.000.28-Jan-2021 4453.81 5410.35 60.77 1.00 214.00 2485.38
   02:26:36.200.28-Jan-2021 4453.81 5410.35 60.77 1.00 214.20 2485.38
   02:26:36.400.28-Jan-2021 4453.81 5412.70 60.77 1.00 214.40 2485.38
   02:26:36.600.28-Jan-2021 4453.81 5412.91 60.77 1.00 214.60 2485.38
   02:26:36.800.28-Jan-2021 4453.81 5414.43 60.77 1.00 214.80 2485.38
   02:26:37.000.28-Jan-2021 4453.81 5413.57 60.77 1.00 215.00 2485.38
   02:26:37.200.28-Jan-2021 4453.81 5413.57 60.77 1.00 215.20 2485.38
   02:26:37.400.28-Jan-2021 4453.81 5412.84 60.77 1.00 215.40 2485.38
   02:26:37.600.28-Jan-2021 4453.81 5411.75 60.77 1.00 215.60 2485.38
   02:26:37.800.28-Jan-2021 4453.81 5412.08 60.77 1.00 215.80 2485.38
   02:26:38.000.28-Jan-2021 4453.81 5413.59 60.77 1.00 216.00 2485.38
   02:26:38.200.28-Jan-2021 4453.81 5413.59 60.77 1.00 216.20 2485.38
   02:26:38.400.28-Jan-2021 4453.81 5412.68 60.77 1.00 216.40 2485.38
   02:26:38.600.28-Jan-2021 4453.81 5412.61 60.77 1.00 216.60 2485.38
   02:26:38.800.28-Jan-2021 4453.81 5411.07 60.77 1.00 216.80 2485.38
   02:26:39.000.28-Jan-2021 4453.81 5412.95 60.77 1.00 217.00 2485.38
   02:26:39.200.28-Jan-2021 4453.81 5412.95 60.77 1.00 217.20 2485.38
   02:26:39.400.28-Jan-2021 4453.81 5412.31 60.77 1.00 217.40 2485.38
   02:26:39.600.28-Jan-2021 4453.81 5404.74 60.77 1.00 217.60 2485.38
   02:26:39.800.28-Jan-2021 4453.81 5410.44 60.77 1.00 217.80 2485.38
   02:26:40.000.28-Jan-2021 4453.81 5413.02 60.77 1.00 218.00 2485.38
   02:26:40.200.28-Jan-2021 4453.81 5413.02 60.77 1.00 218.20 2485.38
   02:26:40.400.28-Jan-2021 4453.81 5413.33 60.77 1.00 218.40 2485.38
   02:26:40.600.28-Jan-2021 4453.81 5412.86 60.77 1.00 218.60 2485.38
   02:26:40.800.28-Jan-2021 4453.81 5411.10 60.76 1.00 218.80 2485.38
   02:26:41.000.28-Jan-2021 4453.81 5413.01 60.76 1.00 219.00 2485.38
   02:26:41.200.28-Jan-2021 4453.81 5413.01 60.76 1.00 219.20 2485.38
   02:26:41.400.28-Jan-2021 4453.81 5412.37 60.76 1.00 219.40 2485.38
   02:26:41.600.28-Jan-2021 4453.81 5413.48 60.76 1.00 219.60 2485.38
   02:26:41.800.28-Jan-2021 4453.81 5411.13 60.76 1.00 219.80 2485.38
   02:26:42.000.28-Jan-2021 4453.81 5413.38 60.76 1.00 220.00 2485.38
   02:26:42.200.28-Jan-2021 4453.81 5413.38 60.76 1.00 220.20 2485.38
   02:26:42.400.28-Jan-2021 4453.81 5412.55 60.76 1.00 220.40 2485.38
   02:26:42.600.28-Jan-2021 4453.81 5413.22 60.76 1.00 220.60 2485.38
   02:26:42.800.28-Jan-2021 4453.81 5411.52 60.76 1.00 220.80 2485.38
   02:26:43.000.28-Jan-2021 4453.81 5406.14 60.76 1.00 221.00 2485.38
   02:26:43.200.28-Jan-2021 4453.81 5406.14 60.76 1.00 221.20 2485.38
   02:26:43.400.28-Jan-2021 4453.81 5411.40 60.76 1.00 221.40 2485.38
   02:26:43.600.28-Jan-2021 4453.81 5415.58 60.76 1.00 221.60 2485.38
   02:26:43.800.28-Jan-2021 4453.81 5411.09 60.76 1.00 221.80 2485.38
   02:26:44.000.28-Jan-2021 4453.81 5407.78 60.76 1.00 222.00 2485.38
   02:26:44.200.28-Jan-2021 4453.81 5407.78 60.76 1.00 222.20 2485.38
   02:26:44.400.28-Jan-2021 4453.81 5412.79 60.76 1.00 222.40 2485.38
   02:26:44.600.28-Jan-2021 4453.81 5415.96 60.76 1.00 222.60 2485.38
   02:26:44.800.28-Jan-2021 4453.81 5404.14 60.76 1.00 222.80 2485.38
   02:26:45.000.28-Jan-2021 4453.81 5412.42 60.76 1.00 223.00 2485.38
   02:26:45.200.28-Jan-2021 4453.81 5412.42 60.76 1.00 223.20 2485.38
   02:26:45.400.28-Jan-2021 4453.81 5414.53 60.76 1.00 223.40 2485.38
   02:26:45.600.28-Jan-2021 4453.81 5406.27 60.76 1.00 223.60 2485.38
   02:26:45.800.28-Jan-2021 4453.81 5411.74 60.76 1.00 223.80 2485.38
   02:26:46.000.28-Jan-2021 4453.81 5411.37 60.76 1.00 224.00 2485.38
   02:26:46.200.28-Jan-2021 4453.81 5411.37 60.76 1.00 224.20 2485.38
   02:26:46.400.28-Jan-2021 4453.81 5415.40 60.76 1.00 224.40 2485.38
   02:26:46.600.28-Jan-2021 4453.81 5412.55 60.76 1.00 224.60 2485.38
   02:26:46.800.28-Jan-2021 4453.81 5403.75 60.76 1.00 224.80 2485.38
   02:26:47.000.28-Jan-2021 4453.81 5409.78 60.76 1.00 225.00 2485.38
   02:26:47.200.28-Jan-2021 4453.81 5409.78 60.76 1.00 225.20 2485.38
   02:26:47.400.28-Jan-2021 4453.81 5414.44 60.76 1.00 225.40 2485.38
   02:26:47.600.28-Jan-2021 4453.81 5413.20 60.76 1.00 225.60 2485.38
   02:26:47.800.28-Jan-2021 4453.81 5412.76 60.76 1.00 225.80 2485.38
   02:26:48.000.28-Jan-2021 4453.81 5410.99 60.76 1.00 226.00 2485.38
   02:26:48.200.28-Jan-2021 4453.81 5410.99 60.76 1.00 226.20 2485.38
   02:26:48.400.28-Jan-2021 4453.81 5411.36 60.75 1.00 226.40 2485.38
   02:26:48.600.28-Jan-2021 4453.81 5412.45 60.75 1.00 226.60 2485.38
   02:26:48.800.28-Jan-2021 4453.81 5413.51 60.75 1.00 226.80 2485.38
   02:26:49.000.28-Jan-2021 4453.81 5411.35 60.75 1.00 227.00 2485.38
   02:26:49.200.28-Jan-2021 4453.81 5411.35 60.75 1.00 227.20 2485.38
   02:26:49.400.28-Jan-2021 4453.81 5411.83 60.75 1.00 227.40 2485.38
   02:26:49.600.28-Jan-2021 4453.81 5411.95 60.75 1.00 227.60 2485.38
   02:26:49.800.28-Jan-2021 4453.81 5413.02 60.75 1.00 227.80 2485.38
   02:26:50.000.28-Jan-2021 4453.81 5411.08 60.75 1.00 228.00 2485.38
   02:26:50.200.28-Jan-2021 4453.81 5411.08 60.75 1.00 228.20 2485.38
   02:26:50.400.28-Jan-2021 4453.81 5411.17 60.75 1.00 228.40 2485.38
   02:26:50.600.28-Jan-2021 4453.81 5410.67 60.75 1.00 228.60 2485.38
   02:26:50.800.28-Jan-2021 4453.81 5415.06 60.75 1.00 228.80 2485.38
   02:26:51.000.28-Jan-2021 4453.81 5413.00 60.75 1.00 229.00 2485.38
   02:26:51.200.28-Jan-2021 4453.81 5413.00 60.75 1.00 229.20 2485.38
   02:26:51.400.28-Jan-2021 4453.81 5412.21 60.75 1.00 229.40 2485.38
   02:26:51.600.28-Jan-2021 4453.81 5411.01 60.75 1.00 229.60 2485.38
   02:26:51.800.28-Jan-2021 4453.81 5413.42 60.75 1.00 229.80 2485.38
