~Version Information
 VERS.                  2.0:   CWLS log ASCII Standard -VERSION 2.0
 WRAP.                   NO:   One line per depth step
~Well Information Block
#MNEM.UNIT     VALUE/NAME     DESCRIPTION
#---------     -----------    ---------------------------
 STRT.S             20:44:12 29-Jan-21: START TIME 20:44:12 29-Jan-21
 STOP.S             20:50:42 29-Jan-21: STOP TIME  20:50:42 29-Jan-21
 STEP.S                   0.00: STEP TIME
 NULL.                 -999.25: NULL VALUE
 DFWT.                        :  DIST FWL TEXT
 DFST.                        :  DIST FSL TEXT
 DMF .             Drill Floor:  DRILL MEAS FROM
 STIM.      00.00.00 25-Sep-20:  START TIME
 DATE.      16.12.48 31-Jan-21:  END TIME
 SPUD.               20-Sep-20:  SPUD DATE
 NREF.                    Grid:  NORTH REFERENCE
 HPTY.       Minimum Curvature:  HOLE POS TYPE
 DMOD.             Drill Model:  DRILL MOD DESC
 SVYD.                  Survey:  SURVEY DESC
 ILTD.               Lithology:  INTERP LTH DESC
 FTOP.          Formation Tops:  FORM TOPS DESC
 RIG .              East Azeri:  RIG NAME
 PDAT.          Mean Sea Level:  PERMANENT DATUM
 FLD .                     ACG:  FIELD NAME
 SON .        AZ-XX-0906591820:  JOB NUMBER
 CTRY.              Azerbaijan:  COUNTRY NAME
 WELL.                     D37:  WELL NAME
 SRVC.     Turan Drilling & Engineering:  CONTRACTOR
 COMP.     BP Exploration (Caspian Sea) ltd.:  COMPANY
 WTYP.                Deviated:  WELL TYPE
 MDS .        Operator Entered:  MAG DATA SOURCE
 UWI .                     N/A:  UNIQUE WELL IDENTIFIER
 API .                     N/A:  API NUMBER
 BASE.              Azerbaijan:  LOGGING EQUIPMENT BASE LOCATION
 REGN.                   EESSA:  REGION
 PROV.                    Baku:  PROVINCE
 STAT.                    Baku:  STATE NAME
 MWDS.                    Baku:  MWD SHOP
 JOBN.        AZ-XX-0906591820:  JOB TICKET NUMB
 DOE .                     N/A:  DOE NUMBER
 DCON.         Sperry Drilling:  DIRECTNL CONTR
 UNIT.                     N/A:  LOGGING EQUIPMENT ID
 CNTY.                        :  COUNTY
 LOC .                        :  LOCATION
 LMF .             Drill Floor:  LOG MEASURED FROM
 TVDS.m                  43.60:  TVDSS CORRECTN
 LATI.deg                40.02:  LATITUDE
 LONG.deg                51.45:  LONGITUDE
 WHNS.m                  11.04:  WELL HEAD N/S
 WHEW.m                 -12.38:  WELL HEAD E/W
 UTMX.m              538763.98:  UTM X
 UTMY.m             4431880.20:  UTM Y
 DFWL.m                   0.00:  DISTANCE FWL
 DFSL.m                   0.00:  DISTANCE FSL
 SDEP.m                 300.00:  START DEPTH
 TDD .m                4900.01:  TOTAL DEPTH (DRILLER)
 VSDR.deg               185.64:  VERT SEC DIRECT
 GVFD.g                   1.00:  GRAVITY FIELD
 MFLD.nT              50301.00:  MAGNETIC FIELD
 MDIP.deg                59.46:  MAGNETIC DIP
 MDEC.deg                 6.43:  MAGNETIC DECL
 GRDC.deg                 0.29:  GRID CORRECTION
 AZTC.deg                 6.14:  AZM TOTAL CORR
 EPD .m                   0.00:  ELEVATION
 EGL .m                   0.00:  GROUND ELEVATION
 WDMS.m                 151.80:  WD ELEV
 APD .m                  43.60:  DEPTH ABOVE PD
 DEP .m                 571.69:  DEPTH
 AGAP.m                  43.60:  AIR GAP
 VSEW.m                 -12.38:  VERT SEC E/W
 VSNS.m                  11.04:  VERT SEC N/S
 EKB .m                  43.60:  KB ELEVATION
 EDF .m                  43.60:  DF ELEVATION
 TDL .m                 412.00:  TOTAL DEPTH (LOGGER)
 VSC .                       0:  VS TO CLOSURE
 MAGU.                 1849300:  MAGUTM CHECKSUM
~Parameter Information Block
#MNEM.UNIT       Value        Description
#---------     -----------    ---------------------------
 AV  .mps                 2.21:  Ann Velocity 
 AVMX.mps                 2.53:  Max Ann Veloc 
 AZIF.deg               144.83:  Azm, Final 
 BHAT.        Rotary Steerable:  BHA Type 
 BROT.°/30m              -0.52:  Build Rotating 
 BS  .in                  6.50:  Bit Size 
 BTPL.psig              209.00:  Bit Press Loss 
 CABU.                      No:  Customer Abuse 
 CGEO.        Ali Isfandiyarov:  Customer Geo 
 TCS .hr                 61.31:  Time Ciculation Ended 
 CV  .mps                 4.66:  Crit Velocity 
 CVMX.mps                 5.02:  Max Crit Veloc 
 DD1 .          Fariz Nahmatov:  Direct Drillr 1 
 DD2 .            Musa Ahmadov:  Direct Drillr 2 
 DDSV.               Geo-Pilot:  DD Service 
 DEFF.%                 100.00:  % Det Eff 
 DLRX.°/30m               1.44:  Dogleg Rot Max 
 DLSO.°/30m               0.83:  Dogleg Oriented 
 DLSX.°/30m               1.44:  Dogleg Str Max 
 DRET.      08.30.00 30-Jan-21:  Drill End Time 
 DRST.      21.15.00 27-Jan-21:  Drill Start Tim 
 DTIM.hr                 37.28:  Time Drilling 
 EDEP.m                4867.01:  End Depth 
 ENG1.          Rasim Hashimov:  Engineer 1 
 ENG2.         Almaz Almadatov:  Engineer 2 
 ENG3.        Tamerlan Ahmadov:  Engineer 3 
 ETIM.      22.41.04 31-Jan-21:  End Time 
 FLOI.gpm               400.00:  Flow In 
 FLON.gpm               300.00:  Flow In Min 
 FLOS.cptm                0.00:  Fluid Loss 
 FLOX.gpm               400.00:  Flow In Max 
 HFLO.                      No:  High Flow 
 HPRE.                      No:  High Pressure 
 HTEM.                      No:  High Temp 
 HYDO.m                   1.80:  Hydro Offset 
 IFIN.deg                65.63:  Inc, Final 
 IMAX.deg                66.77:  Inc Max 
 IMIN.deg                65.61:  Inc Min 
 IMND.m                4612.67:  Inc Min Depth 
 IMXD.m                4811.63:  Inc Max Depth 
 JARR.                      No:  Jarring 
 LETM.      08.30.00 30-Jan-21:  Log End Time 
 LOST.hr                     0:  Lost Rig Time 
 LSTM.      21.15.00 27-Jan-21:  Log Start Time 
 MDCL.ppm             41000.00:  Mud Chlorides 
 MDES.     Inversion Oil/Synthetic:  Mud Desc 
 DFD .sg                  1.40:  Mud Density 
 MDMN.sg                  1.40:  Dens Mud Min 
 MDMX.sg                  1.40:  Dens Mud Max 
 MOIL.                      53:  Run Mud Oil % 
 MOWR.                   66:34:  Run Mud OWR 
 MSND.                     0.2:  Run Mud Sand % 
 MSOL.                    17.9:  Run Mud Solids% 
 DFV .spqt               77.00:  Mud Viscosity 
 MWOD.in                  4.75:  MWD Tool OD 
 MWSI.                      No:  Serv Intrp, MWD 
 OTIM.hr                110.38:  Time Operating 
 PCON.           Look Like New:  Pad Condition 
 PMAX.psia             5300.00:  Press Op, Max 
 PV  .cP                 57.00:  Mud PV 
 RUN .                    1200:  Run Number 
 ROPA.m/hr               13.00:  ROP Avg 
 ROPN.m/hr                9.00:  ROP Min 
 ROPX.m/hr               15.00:  ROP Max 
 RPMA.rpm               120.00:  RPM Surface Avg 
 RPMN.rpm               100.00:  RPM Surface Min 
 RPMX.rpm               135.00:  RPM Surface Max 
 RRUN.                    1200:  Rig Run Number 
 RTIM.hr                  2.65:  Time Reaming 
 SAZI.deg               145.04:  Azm, Start 
 SDEP.m                4455.01:  Start Depth 
 SIDD.                      No:  Serv Intrp, DD 
 SINC.deg                65.83:  Inc, Start 
 SPPA.psig             5037.00:  SPP Avg 
 SPPN.psig             4430.00:  SPP Min 
 SPPX.psig             5300.00:  SPP Max 
 STIM.      22.41.04 26-Jan-21:  Start Time 
 SVCS.                 DD, MWD:  Services 
 SVER.                    9.20:  Sperry Version 
 TDAT.m                 412.00:  Tot Depth Attmp 
 TDDF.                      No:  Trip for DD 
 TDLG.m                 412.00:  Tot Depth Loggd 
 TFF .                      No:  Trip for Fail 
 TQAA.f-kp               15.00:  Torque Abs Avg 
 TQAN.f-kp               12.00:  Torque Abs Min 
 TQAX.f-kp               17.00:  Torque Abs Max 
 TRRT.°/30m               1.18:  Turn Rotating 
 MRT .                     ADR:  Maximum Recorded Temperature 
 TTMX.degC               88.24:  Max Tool Temp 
 VS01.                90619458:  Virtual Str1 SN 
 VS02.                90519326:  Virtual Str2 SN 
 VS03.                90522176:  Virtual Str3 SN 
 VS04.                90512683:  Virtual Str4 SN 
 WBMN.klb                 1.00:  WOB Min 
 WITN.           Murad Giluyev:  Customer Rep 
 WITN.     Kamran Kemberlinski:  Customer Rep 2 
 WOBA.klb                 5.00:  WOB Avg 
 WOBX.klb                 9.00:  WOB Max 
 YP  .lhf2               41.00:  Yield Point 
~Curve Information Block
#MNEM.UNIT                 API CODE     Curve Description
#---------               -----------    ---------------------------
 TIME.HHMMSS            00 000 000 000:  GT Time & Date
 GTDEPTH.m              00 000 000 000:  GT Depth
 GTPQH.psia             00 000 000 000:  GT HR Quartz Pressure
 GTTQ.degC              00 000 000 000:  GT Quartz Temperature
 GTTN.NONE              00 000 000 000:  GT Test Number
 GTET.sec               00 000 000 000:  GT Elapsed Test Time
 GTTVD.m                00 000 000 000:  GT True Vertical Depth
#Other Information
#
#WARRANTY: Halliburton will use its best efforts to furnish customers with 
#accurate information and interpretations that are part of, and incident to, the services 
#provided.  However, Halliburton cannot and does not warrant the accuracy 
#or correctness of such information and interpretations.  Under no circumstances should any 
#such information or interpretation be relied upon as the sole basis for any drilling, 
#completion, production, or financial decision or any procedure involving any risk to the 
#safety of any drilling venture, drilling rig or its crew or any other third party.  The 
#Customer has full responsibility for all drilling, completion and production operation.  
#Halliburton makes no representations or warranties, either expressed or 
#implied, including, but not limited to, the implied warranties of merchantability or fitness 
#for a particular purpose, with respect to the services rendered.  In no event will 
#Halliburton be liable for failure to obtain any particular results or for 
#any damages, including, but not limited to, indirect, special or consequential damages, 
#resulting from the use of any information or interpretation provided by Halliburton.
#
~A           TIME           GTDEPTH  GTPQH  GTTQ  GTTN   GTET   GTTVD  
# ...
   20:48:43.830.29-Jan-2021 4766.51 3131.29 83.01 13.00 271.23 2612.24
   20:48:44.030.29-Jan-2021 4766.51 3131.29 83.01 13.00 271.43 2612.24
   20:48:44.230.29-Jan-2021 4766.51 3131.28 83.00 13.00 271.63 2612.24
   20:48:44.430.29-Jan-2021 4766.51 3131.28 83.00 13.00 271.83 2612.24
   20:48:44.630.29-Jan-2021 4766.51 3131.27 83.00 13.00 272.03 2612.24
   20:48:44.830.29-Jan-2021 4766.51 3131.27 83.00 13.00 272.23 2612.24
   20:48:45.030.29-Jan-2021 4766.51 3131.28 83.00 13.00 272.43 2612.24
   20:48:45.230.29-Jan-2021 4766.51 3131.28 83.00 13.00 272.63 2612.24
   20:48:45.430.29-Jan-2021 4766.51 3131.27 83.00 13.00 272.83 2612.24
   20:48:45.630.29-Jan-2021 4766.51 3131.27 83.00 13.00 273.03 2612.24
   20:48:45.830.29-Jan-2021 4766.51 3131.27 83.00 13.00 273.23 2612.24
   20:48:46.031.29-Jan-2021 4766.51 3131.30 83.00 13.00 273.43 2612.24
   20:48:46.231.29-Jan-2021 4766.51 3131.30 83.00 13.00 273.63 2612.24
   20:48:46.431.29-Jan-2021 4766.51 3131.29 83.00 13.00 273.83 2612.24
   20:48:46.631.29-Jan-2021 4766.51 3131.22 83.00 13.00 274.03 2612.24
   20:48:46.831.29-Jan-2021 4766.51 3131.22 83.00 13.00 274.23 2612.24
   20:48:47.031.29-Jan-2021 4766.51 3131.30 83.00 13.00 274.43 2612.24
   20:48:47.231.29-Jan-2021 4766.51 3131.29 83.00 13.00 274.63 2612.24
   20:48:47.431.29-Jan-2021 4766.51 3131.28 83.00 13.00 274.83 2612.24
   20:48:47.631.29-Jan-2021 4766.51 3131.24 83.00 13.00 275.03 2612.24
   20:48:47.831.29-Jan-2021 4766.51 3131.24 83.00 13.00 275.23 2612.24
   20:48:48.031.29-Jan-2021 4766.51 3131.30 82.99 13.00 275.43 2612.24
   20:48:48.231.29-Jan-2021 4766.51 3131.28 82.99 13.00 275.63 2612.24
   20:48:48.431.29-Jan-2021 4766.51 3131.27 82.99 13.00 275.83 2612.24
   20:48:48.631.29-Jan-2021 4766.51 3131.24 82.99 13.00 276.03 2612.24
   20:48:48.831.29-Jan-2021 4766.51 3131.24 82.99 13.00 276.23 2612.24
   20:48:49.031.29-Jan-2021 4766.51 3131.31 82.99 13.00 276.43 2612.24
   20:48:49.231.29-Jan-2021 4766.51 3131.28 82.99 13.00 276.63 2612.24
   20:48:49.431.29-Jan-2021 4766.51 3131.27 82.99 13.00 276.83 2612.24
   20:48:49.631.29-Jan-2021 4766.51 3131.29 82.99 13.00 277.03 2612.24
   20:48:49.831.29-Jan-2021 4766.51 3131.29 82.99 13.00 277.23 2612.24
   20:48:50.031.29-Jan-2021 4766.51 3131.34 82.99 13.00 277.43 2612.24
   20:48:50.231.29-Jan-2021 4766.51 3131.28 82.99 13.00 277.63 2612.24
   20:48:50.431.29-Jan-2021 4766.51 3131.29 82.99 13.00 277.83 2612.24
   20:48:50.631.29-Jan-2021 4766.51 3131.26 82.99 13.00 278.03 2612.24
   20:48:50.831.29-Jan-2021 4766.51 3131.26 82.99 13.00 278.23 2612.24
   20:48:51.031.29-Jan-2021 4766.51 3131.28 82.99 13.00 278.43 2612.24
   20:48:51.231.29-Jan-2021 4766.51 3131.28 82.98 13.00 278.63 2612.24
   20:48:51.431.29-Jan-2021 4766.51 3131.26 82.98 13.00 278.83 2612.24
   20:48:51.631.29-Jan-2021 4766.51 3131.28 82.98 13.00 279.03 2612.24
   20:48:51.831.29-Jan-2021 4766.51 3131.28 82.98 13.00 279.23 2612.24
   20:48:52.031.29-Jan-2021 4766.51 3131.28 82.98 13.00 279.43 2612.24
   20:48:52.231.29-Jan-2021 4766.51 3131.27 82.98 13.00 279.63 2612.24
   20:48:52.431.29-Jan-2021 4766.51 3131.27 82.98 13.00 279.83 2612.24
   20:48:52.631.29-Jan-2021 4766.51 3131.27 82.98 13.00 280.03 2612.24
   20:48:52.831.29-Jan-2021 4766.51 3131.27 82.98 13.00 280.23 2612.24
   20:48:53.031.29-Jan-2021 4766.51 3131.27 82.98 13.00 280.43 2612.24
   20:48:53.231.29-Jan-2021 4766.51 3131.27 82.98 13.00 280.63 2612.24
   20:48:53.431.29-Jan-2021 4766.51 3131.22 82.98 13.00 280.83 2612.24
   20:48:53.631.29-Jan-2021 4766.51 3131.33 82.98 13.00 281.03 2612.24
   20:48:53.831.29-Jan-2021 4766.51 3131.33 82.98 13.00 281.23 2612.24
   20:48:54.031.29-Jan-2021 4766.51 3131.28 82.98 13.00 281.43 2612.24
   20:48:54.231.29-Jan-2021 4766.51 3131.27 82.98 13.00 281.63 2612.24
   20:48:54.432.29-Jan-2021 4766.51 3131.28 82.98 13.00 281.83 2612.24
   20:48:54.632.29-Jan-2021 4766.51 3131.29 82.98 13.00 282.03 2612.24
   20:48:54.832.29-Jan-2021 4766.51 3131.29 82.98 13.00 282.23 2612.24
   20:48:55.032.29-Jan-2021 4766.51 3131.27 82.97 13.00 282.43 2612.24
   20:48:55.232.29-Jan-2021 4766.51 3131.27 82.97 13.00 282.63 2612.24
   20:48:55.432.29-Jan-2021 4766.51 3131.28 82.97 13.00 282.83 2612.24
   20:48:55.632.29-Jan-2021 4766.51 3131.27 82.97 13.00 283.03 2612.24
   20:48:55.832.29-Jan-2021 4766.51 3131.27 82.97 13.00 283.23 2612.24
   20:48:56.032.29-Jan-2021 4766.51 3131.27 82.97 13.00 283.43 2612.24
   20:48:56.232.29-Jan-2021 4766.51 3131.26 82.97 13.00 283.63 2612.24
   20:48:56.432.29-Jan-2021 4766.51 3131.27 82.97 13.00 283.83 2612.24
   20:48:56.632.29-Jan-2021 4766.51 3131.21 82.97 13.00 284.03 2612.24
   20:48:56.832.29-Jan-2021 4766.51 3131.21 82.97 13.00 284.23 2612.24
   20:48:57.032.29-Jan-2021 4766.51 3131.29 82.97 13.00 284.43 2612.24
   20:48:57.232.29-Jan-2021 4766.51 3131.28 82.97 13.00 284.63 2612.24
   20:48:57.432.29-Jan-2021 4766.51 3131.20 82.97 13.00 284.83 2612.24
   20:48:57.632.29-Jan-2021 4766.51 3131.33 82.97 13.00 285.03 2612.24
   20:48:57.832.29-Jan-2021 4766.51 3131.33 82.97 13.00 285.23 2612.24
   20:48:58.032.29-Jan-2021 4766.51 3131.28 82.97 13.00 285.43 2612.24
   20:48:58.232.29-Jan-2021 4766.51 3131.24 82.97 13.00 285.63 2612.24
   20:48:58.432.29-Jan-2021 4766.51 3131.28 82.96 13.00 285.83 2612.24
   20:48:58.632.29-Jan-2021 4766.51 3131.28 82.96 13.00 286.03 2612.24
   20:48:58.832.29-Jan-2021 4766.51 3131.28 82.96 13.00 286.23 2612.24
   20:48:59.032.29-Jan-2021 4766.51 3131.27 82.96 13.00 286.43 2612.24
   20:48:59.232.29-Jan-2021 4766.51 3131.26 82.96 13.00 286.63 2612.24
   20:48:59.432.29-Jan-2021 4766.51 3131.24 82.96 13.00 286.83 2612.24
   20:48:59.632.29-Jan-2021 4766.51 3131.32 82.96 13.00 287.03 2612.24
   20:48:59.832.29-Jan-2021 4766.51 3131.32 82.96 13.00 287.23 2612.24
   20:49:00.032.29-Jan-2021 4766.51 3131.27 82.96 13.00 287.43 2612.24
   20:49:00.232.29-Jan-2021 4766.51 3131.25 82.96 13.00 287.63 2612.24
   20:49:00.432.29-Jan-2021 4766.51 3131.28 82.96 13.00 287.83 2612.24
   20:49:00.632.29-Jan-2021 4766.51 3131.23 82.96 13.00 288.03 2612.24
   20:49:00.832.29-Jan-2021 4766.51 3131.23 82.96 13.00 288.23 2612.24
   20:49:01.032.29-Jan-2021 4766.51 3131.28 82.96 13.00 288.43 2612.24
   20:49:01.232.29-Jan-2021 4766.51 3131.27 82.96 13.00 288.63 2612.24
   20:49:01.432.29-Jan-2021 4766.51 3131.25 82.96 13.00 288.83 2612.24
   20:49:01.632.29-Jan-2021 4766.51 3131.29 82.96 13.00 289.03 2612.24
   20:49:01.832.29-Jan-2021 4766.51 3131.29 82.96 13.00 289.23 2612.24
   20:49:02.032.29-Jan-2021 4766.51 3131.27 82.96 13.00 289.43 2612.24
   20:49:02.232.29-Jan-2021 4766.51 3131.25 82.95 13.00 289.63 2612.24
   20:49:02.432.29-Jan-2021 4766.51 3131.27 82.95 13.00 289.83 2612.24
   20:49:02.632.29-Jan-2021 4766.51 3131.25 82.95 13.00 290.03 2612.24
   20:49:02.833.29-Jan-2021 4766.51 3131.25 82.95 13.00 290.23 2612.24
   20:49:03.033.29-Jan-2021 4766.51 3131.25 82.95 13.00 290.43 2612.24
   20:49:03.233.29-Jan-2021 4766.51 3131.26 82.95 13.00 290.63 2612.24
   20:49:03.433.29-Jan-2021 4766.51 3131.26 82.95 13.00 290.83 2612.24
   20:49:03.633.29-Jan-2021 4766.51 3131.26 82.95 13.00 291.03 2612.24
   20:49:03.833.29-Jan-2021 4766.51 3131.26 82.95 13.00 291.23 2612.24
   20:49:04.033.29-Jan-2021 4766.51 3131.26 82.95 13.00 291.43 2612.24
   20:49:04.233.29-Jan-2021 4766.51 3131.21 82.95 13.00 291.63 2612.24
   20:49:04.433.29-Jan-2021 4766.51 3131.31 82.95 13.00 291.83 2612.24
   20:49:04.633.29-Jan-2021 4766.51 3131.28 82.95 13.00 292.03 2612.24
   20:49:04.833.29-Jan-2021 4766.51 3131.28 82.95 13.00 292.23 2612.24
   20:49:05.033.29-Jan-2021 4766.51 3131.25 82.95 13.00 292.43 2612.24
   20:49:05.233.29-Jan-2021 4766.51 3131.28 82.95 13.00 292.63 2612.24
   20:49:05.433.29-Jan-2021 4766.51 3131.26 82.94 13.00 292.83 2612.24
   20:49:05.633.29-Jan-2021 4766.51 3131.26 82.94 13.00 293.03 2612.24
   20:49:05.833.29-Jan-2021 4766.51 3131.26 82.94 13.00 293.23 2612.24
   20:49:06.033.29-Jan-2021 4766.51 3131.26 82.94 13.00 293.43 2612.24
   20:49:06.233.29-Jan-2021 4766.51 3131.26 82.94 13.00 293.63 2612.24
