~Version Information
 VERS.                  2.0:   CWLS log ASCII Standard -VERSION 2.0
 WRAP.                   NO:   One line per depth step
~Well Information Block
#MNEM.UNIT     VALUE/NAME     DESCRIPTION
#---------     -----------    ---------------------------
 STRT.S             20:44:12 29-Jan-21: START TIME 20:44:12 29-Jan-21
 STOP.S             20:50:42 29-Jan-21: STOP TIME  20:50:42 29-Jan-21
 STEP.S                   0.00: STEP TIME
 NULL.                 -999.25: NULL VALUE
 DFWT.                        :  DIST FWL TEXT
 DFST.                        :  DIST FSL TEXT
 DMF .             Drill Floor:  DRILL MEAS FROM
 STIM.      00.00.00 25-Sep-20:  START TIME
 DATE.      16.12.48 31-Jan-21:  END TIME
 SPUD.               20-Sep-20:  SPUD DATE
 NREF.                    Grid:  NORTH REFERENCE
 HPTY.       Minimum Curvature:  HOLE POS TYPE
 DMOD.             Drill Model:  DRILL MOD DESC
 SVYD.                  Survey:  SURVEY DESC
 ILTD.               Lithology:  INTERP LTH DESC
 FTOP.          Formation Tops:  FORM TOPS DESC
 RIG .              East Azeri:  RIG NAME
 PDAT.          Mean Sea Level:  PERMANENT DATUM
 FLD .                     ACG:  FIELD NAME
 SON .        AZ-XX-0906591820:  JOB NUMBER
 CTRY.              Azerbaijan:  COUNTRY NAME
 WELL.                     D37:  WELL NAME
 SRVC.     Turan Drilling & Engineering:  CONTRACTOR
 COMP.     BP Exploration (Caspian Sea) ltd.:  COMPANY
 WTYP.                Deviated:  WELL TYPE
 MDS .        Operator Entered:  MAG DATA SOURCE
 UWI .                     N/A:  UNIQUE WELL IDENTIFIER
 API .                     N/A:  API NUMBER
 BASE.              Azerbaijan:  LOGGING EQUIPMENT BASE LOCATION
 REGN.                   EESSA:  REGION
 PROV.                    Baku:  PROVINCE
 STAT.                    Baku:  STATE NAME
 MWDS.                    Baku:  MWD SHOP
 JOBN.        AZ-XX-0906591820:  JOB TICKET NUMB
 DOE .                     N/A:  DOE NUMBER
 DCON.         Sperry Drilling:  DIRECTNL CONTR
 UNIT.                     N/A:  LOGGING EQUIPMENT ID
 CNTY.                        :  COUNTY
 LOC .                        :  LOCATION
 LMF .             Drill Floor:  LOG MEASURED FROM
 TVDS.m                  43.60:  TVDSS CORRECTN
 LATI.deg                40.02:  LATITUDE
 LONG.deg                51.45:  LONGITUDE
 WHNS.m                  11.04:  WELL HEAD N/S
 WHEW.m                 -12.38:  WELL HEAD E/W
 UTMX.m              538763.98:  UTM X
 UTMY.m             4431880.20:  UTM Y
 DFWL.m                   0.00:  DISTANCE FWL
 DFSL.m                   0.00:  DISTANCE FSL
 SDEP.m                 300.00:  START DEPTH
 TDD .m                4900.01:  TOTAL DEPTH (DRILLER)
 VSDR.deg               185.64:  VERT SEC DIRECT
 GVFD.g                   1.00:  GRAVITY FIELD
 MFLD.nT              50301.00:  MAGNETIC FIELD
 MDIP.deg                59.46:  MAGNETIC DIP
 MDEC.deg                 6.43:  MAGNETIC DECL
 GRDC.deg                 0.29:  GRID CORRECTION
 AZTC.deg                 6.14:  AZM TOTAL CORR
 EPD .m                   0.00:  ELEVATION
 EGL .m                   0.00:  GROUND ELEVATION
 WDMS.m                 151.80:  WD ELEV
 APD .m                  43.60:  DEPTH ABOVE PD
 DEP .m                 571.69:  DEPTH
 AGAP.m                  43.60:  AIR GAP
 VSEW.m                 -12.38:  VERT SEC E/W
 VSNS.m                  11.04:  VERT SEC N/S
 EKB .m                  43.60:  KB ELEVATION
 EDF .m                  43.60:  DF ELEVATION
 TDL .m                 412.00:  TOTAL DEPTH (LOGGER)
 VSC .                       0:  VS TO CLOSURE
 MAGU.                 1849300:  MAGUTM CHECKSUM
~Parameter Information Block
#MNEM.UNIT       Value        Description
#---------     -----------    ---------------------------
 AV  .mps                 2.21:  Ann Velocity 
 AVMX.mps                 2.53:  Max Ann Veloc 
 AZIF.deg               144.83:  Azm, Final 
 BHAT.        Rotary Steerable:  BHA Type 
 BROT.°/30m              -0.52:  Build Rotating 
 BS  .in                  6.50:  Bit Size 
 BTPL.psig              209.00:  Bit Press Loss 
 CABU.                      No:  Customer Abuse 
 CGEO.        Ali Isfandiyarov:  Customer Geo 
 TCS .hr                 61.31:  Time Ciculation Ended 
 CV  .mps                 4.66:  Crit Velocity 
 CVMX.mps                 5.02:  Max Crit Veloc 
 DD1 .          Fariz Nahmatov:  Direct Drillr 1 
 DD2 .            Musa Ahmadov:  Direct Drillr 2 
 DDSV.               Geo-Pilot:  DD Service 
 DEFF.%                 100.00:  % Det Eff 
 DLRX.°/30m               1.44:  Dogleg Rot Max 
 DLSO.°/30m               0.83:  Dogleg Oriented 
 DLSX.°/30m               1.44:  Dogleg Str Max 
 DRET.      08.30.00 30-Jan-21:  Drill End Time 
 DRST.      21.15.00 27-Jan-21:  Drill Start Tim 
 DTIM.hr                 37.28:  Time Drilling 
 EDEP.m                4867.01:  End Depth 
 ENG1.          Rasim Hashimov:  Engineer 1 
 ENG2.         Almaz Almadatov:  Engineer 2 
 ENG3.        Tamerlan Ahmadov:  Engineer 3 
 ETIM.      22.41.04 31-Jan-21:  End Time 
 FLOI.gpm               400.00:  Flow In 
 FLON.gpm               300.00:  Flow In Min 
 FLOS.cptm                0.00:  Fluid Loss 
 FLOX.gpm               400.00:  Flow In Max 
 HFLO.                      No:  High Flow 
 HPRE.                      No:  High Pressure 
 HTEM.                      No:  High Temp 
 HYDO.m                   1.80:  Hydro Offset 
 IFIN.deg                65.63:  Inc, Final 
 IMAX.deg                66.77:  Inc Max 
 IMIN.deg                65.61:  Inc Min 
 IMND.m                4612.67:  Inc Min Depth 
 IMXD.m                4811.63:  Inc Max Depth 
 JARR.                      No:  Jarring 
 LETM.      08.30.00 30-Jan-21:  Log End Time 
 LOST.hr                     0:  Lost Rig Time 
 LSTM.      21.15.00 27-Jan-21:  Log Start Time 
 MDCL.ppm             41000.00:  Mud Chlorides 
 MDES.     Inversion Oil/Synthetic:  Mud Desc 
 DFD .sg                  1.40:  Mud Density 
 MDMN.sg                  1.40:  Dens Mud Min 
 MDMX.sg                  1.40:  Dens Mud Max 
 MOIL.                      53:  Run Mud Oil % 
 MOWR.                   66:34:  Run Mud OWR 
 MSND.                     0.2:  Run Mud Sand % 
 MSOL.                    17.9:  Run Mud Solids% 
 DFV .spqt               77.00:  Mud Viscosity 
 MWOD.in                  4.75:  MWD Tool OD 
 MWSI.                      No:  Serv Intrp, MWD 
 OTIM.hr                110.38:  Time Operating 
 PCON.           Look Like New:  Pad Condition 
 PMAX.psia             5300.00:  Press Op, Max 
 PV  .cP                 57.00:  Mud PV 
 RUN .                    1200:  Run Number 
 ROPA.m/hr               13.00:  ROP Avg 
 ROPN.m/hr                9.00:  ROP Min 
 ROPX.m/hr               15.00:  ROP Max 
 RPMA.rpm               120.00:  RPM Surface Avg 
 RPMN.rpm               100.00:  RPM Surface Min 
 RPMX.rpm               135.00:  RPM Surface Max 
 RRUN.                    1200:  Rig Run Number 
 RTIM.hr                  2.65:  Time Reaming 
 SAZI.deg               145.04:  Azm, Start 
 SDEP.m                4455.01:  Start Depth 
 SIDD.                      No:  Serv Intrp, DD 
 SINC.deg                65.83:  Inc, Start 
 SPPA.psig             5037.00:  SPP Avg 
 SPPN.psig             4430.00:  SPP Min 
 SPPX.psig             5300.00:  SPP Max 
 STIM.      22.41.04 26-Jan-21:  Start Time 
 SVCS.                 DD, MWD:  Services 
 SVER.                    9.20:  Sperry Version 
 TDAT.m                 412.00:  Tot Depth Attmp 
 TDDF.                      No:  Trip for DD 
 TDLG.m                 412.00:  Tot Depth Loggd 
 TFF .                      No:  Trip for Fail 
 TQAA.f-kp               15.00:  Torque Abs Avg 
 TQAN.f-kp               12.00:  Torque Abs Min 
 TQAX.f-kp               17.00:  Torque Abs Max 
 TRRT.°/30m               1.18:  Turn Rotating 
 MRT .                     ADR:  Maximum Recorded Temperature 
 TTMX.degC               88.24:  Max Tool Temp 
 VS01.                90619458:  Virtual Str1 SN 
 VS02.                90519326:  Virtual Str2 SN 
 VS03.                90522176:  Virtual Str3 SN 
 VS04.                90512683:  Virtual Str4 SN 
 WBMN.klb                 1.00:  WOB Min 
 WITN.           Murad Giluyev:  Customer Rep 
 WITN.     Kamran Kemberlinski:  Customer Rep 2 
 WOBA.klb                 5.00:  WOB Avg 
 WOBX.klb                 9.00:  WOB Max 
 YP  .lhf2               41.00:  Yield Point 
~Curve Information Block
#MNEM.UNIT                 API CODE     Curve Description
#---------               -----------    ---------------------------
 TIME.HHMMSS            00 000 000 000:  GT Time & Date
 GTDEPTH.m              00 000 000 000:  GT Depth
 GTPQH.psia             00 000 000 000:  GT HR Quartz Pressure
 GTTQ.degC              00 000 000 000:  GT Quartz Temperature
 GTTN.NONE              00 000 000 000:  GT Test Number
 GTET.sec               00 000 000 000:  GT Elapsed Test Time
 GTTVD.m                00 000 000 000:  GT True Vertical Depth
#Other Information
#
#WARRANTY: Halliburton will use its best efforts to furnish customers with 
#accurate information and interpretations that are part of, and incident to, the services 
#provided.  However, Halliburton cannot and does not warrant the accuracy 
#or correctness of such information and interpretations.  Under no circumstances should any 
#such information or interpretation be relied upon as the sole basis for any drilling, 
#completion, production, or financial decision or any procedure involving any risk to the 
#safety of any drilling venture, drilling rig or its crew or any other third party.  The 
#Customer has full responsibility for all drilling, completion and production operation.  
#Halliburton makes no representations or warranties, either expressed or 
#implied, including, but not limited to, the implied warranties of merchantability or fitness 
#for a particular purpose, with respect to the services rendered.  In no event will 
#Halliburton be liable for failure to obtain any particular results or for 
#any damages, including, but not limited to, indirect, special or consequential damages, 
#resulting from the use of any information or interpretation provided by Halliburton.
#
~A           TIME           GTDEPTH  GTPQH  GTTQ  GTTN   GTET   GTTVD  
# ...
   20:49:29.036.29-Jan-2021 4766.51 3131.23 82.88 13.00 316.44 2612.24
   20:49:29.236.29-Jan-2021 4766.51 3131.24 82.88 13.00 316.64 2612.24
   20:49:29.436.29-Jan-2021 4766.51 3131.26 82.88 13.00 316.84 2612.24
   20:49:29.636.29-Jan-2021 4766.51 3131.26 82.88 13.00 317.04 2612.24
   20:49:29.836.29-Jan-2021 4766.51 3131.26 82.88 13.00 317.24 2612.24
   20:49:30.036.29-Jan-2021 4766.51 3131.18 82.88 13.00 317.44 2612.24
   20:49:30.236.29-Jan-2021 4766.51 3131.30 82.88 13.00 317.64 2612.24
   20:49:30.436.29-Jan-2021 4766.51 3131.27 82.88 13.00 317.84 2612.24
   20:49:30.636.29-Jan-2021 4766.51 3131.25 82.88 13.00 318.04 2612.24
   20:49:30.836.29-Jan-2021 4766.51 3131.25 82.88 13.00 318.24 2612.24
   20:49:31.036.29-Jan-2021 4766.51 3131.20 82.87 13.00 318.44 2612.24
   20:49:31.236.29-Jan-2021 4766.51 3131.29 82.87 13.00 318.64 2612.24
   20:49:31.436.29-Jan-2021 4766.51 3131.26 82.87 13.00 318.84 2612.24
   20:49:31.636.29-Jan-2021 4766.51 3131.23 82.87 13.00 319.04 2612.24
   20:49:31.836.29-Jan-2021 4766.51 3131.23 82.87 13.00 319.24 2612.24
   20:49:32.036.29-Jan-2021 4766.51 3131.20 82.87 13.00 319.44 2612.24
   20:49:32.236.29-Jan-2021 4766.51 3131.31 82.87 13.00 319.64 2612.24
   20:49:32.436.29-Jan-2021 4766.51 3131.26 82.87 13.00 319.84 2612.24
   20:49:32.636.29-Jan-2021 4766.51 3131.26 82.87 13.00 320.04 2612.24
   20:49:32.836.29-Jan-2021 4766.51 3131.26 82.87 13.00 320.24 2612.24
   20:49:33.036.29-Jan-2021 4766.51 3131.27 82.87 13.00 320.44 2612.24
   20:49:33.236.29-Jan-2021 4766.51 3131.18 82.87 13.00 320.64 2612.24
   20:49:33.436.29-Jan-2021 4766.51 3131.31 82.87 13.00 320.84 2612.24
   20:49:33.636.29-Jan-2021 4766.51 3131.24 82.87 13.00 321.04 2612.24
   20:49:33.836.29-Jan-2021 4766.51 3131.24 82.87 13.00 321.24 2612.24
   20:49:34.036.29-Jan-2021 4766.51 3131.23 82.87 13.00 321.44 2612.24
   20:49:34.236.29-Jan-2021 4766.51 3131.25 82.87 13.00 321.64 2612.24
   20:49:34.436.29-Jan-2021 4766.51 3131.24 82.87 13.00 321.84 2612.24
   20:49:34.636.29-Jan-2021 4766.51 3131.24 82.87 13.00 322.04 2612.24
   20:49:34.836.29-Jan-2021 4766.51 3131.24 82.87 13.00 322.24 2612.24
   20:49:35.036.29-Jan-2021 4766.51 3131.23 82.86 13.00 322.44 2612.24
   20:49:35.236.29-Jan-2021 4766.51 3131.23 82.86 13.00 322.64 2612.24
   20:49:35.436.29-Jan-2021 4766.51 3131.24 82.86 13.00 322.84 2612.24
   20:49:35.636.29-Jan-2021 4766.51 3131.22 82.86 13.00 323.04 2612.24
   20:49:35.836.29-Jan-2021 4766.51 3131.22 82.86 13.00 323.24 2612.24
   20:49:36.036.29-Jan-2021 4766.51 3131.24 82.86 13.00 323.44 2612.24
   20:49:36.236.29-Jan-2021 4766.51 3131.23 82.86 13.00 323.64 2612.24
   20:49:36.436.29-Jan-2021 4766.51 3131.23 82.86 13.00 323.84 2612.24
   20:49:36.636.29-Jan-2021 4766.51 3131.21 82.86 13.00 324.04 2612.24
   20:49:36.837.29-Jan-2021 4766.51 3131.21 82.86 13.00 324.24 2612.24
   20:49:37.037.29-Jan-2021 4766.51 3131.28 82.86 13.00 324.44 2612.24
   20:49:37.237.29-Jan-2021 4766.51 3131.26 82.86 13.00 324.64 2612.24
   20:49:37.437.29-Jan-2021 4766.51 3131.24 82.86 13.00 324.84 2612.24
   20:49:37.637.29-Jan-2021 4766.51 3131.22 82.86 13.00 325.04 2612.24
   20:49:37.837.29-Jan-2021 4766.51 3131.22 82.86 13.00 325.24 2612.24
   20:49:38.037.29-Jan-2021 4766.51 3131.23 82.86 13.00 325.44 2612.24
   20:49:38.237.29-Jan-2021 4766.51 3131.24 82.86 13.00 325.64 2612.24
   20:49:38.437.29-Jan-2021 4766.51 3131.21 82.85 13.00 325.84 2612.24
   20:49:38.637.29-Jan-2021 4766.51 3131.24 82.85 13.00 326.04 2612.24
   20:49:38.837.29-Jan-2021 4766.51 3131.24 82.85 13.00 326.24 2612.24
   20:49:39.037.29-Jan-2021 4766.51 3131.23 82.85 13.00 326.44 2612.24
   20:49:39.237.29-Jan-2021 4766.51 3131.22 82.85 13.00 326.64 2612.24
   20:49:39.437.29-Jan-2021 4766.51 3131.23 82.85 13.00 326.84 2612.24
   20:49:39.637.29-Jan-2021 4766.51 3131.21 82.85 13.00 327.04 2612.24
   20:49:39.837.29-Jan-2021 4766.51 3131.21 82.85 13.00 327.24 2612.24
   20:49:40.037.29-Jan-2021 4766.51 3131.17 82.85 13.00 327.44 2612.24
   20:49:40.237.29-Jan-2021 4766.51 3131.29 82.85 13.00 327.64 2612.24
   20:49:40.437.29-Jan-2021 4766.51 3131.25 82.85 13.00 327.84 2612.24
   20:49:40.637.29-Jan-2021 4766.51 3131.24 82.85 13.00 328.04 2612.24
   20:49:40.837.29-Jan-2021 4766.51 3131.24 82.85 13.00 328.24 2612.24
   20:49:41.037.29-Jan-2021 4766.51 3131.30 82.85 13.00 328.44 2612.24
   20:49:41.237.29-Jan-2021 4766.51 3131.25 82.85 13.00 328.64 2612.24
   20:49:41.437.29-Jan-2021 4766.51 3131.24 82.85 13.00 328.84 2612.24
   20:49:41.637.29-Jan-2021 4766.51 3131.22 82.85 13.00 329.04 2612.24
   20:49:41.837.29-Jan-2021 4766.51 3131.22 82.85 13.00 329.24 2612.24
   20:49:42.037.29-Jan-2021 4766.51 3131.25 82.85 13.00 329.44 2612.24
   20:49:42.237.29-Jan-2021 4766.51 3131.25 82.84 13.00 329.64 2612.24
   20:49:42.437.29-Jan-2021 4766.51 3131.23 82.84 13.00 329.84 2612.24
   20:49:42.637.29-Jan-2021 4766.51 3131.21 82.84 13.00 330.04 2612.24
   20:49:42.837.29-Jan-2021 4766.51 3131.21 82.84 13.00 330.24 2612.24
   20:49:43.037.29-Jan-2021 4766.51 3131.28 82.84 13.00 330.44 2612.24
   20:49:43.237.29-Jan-2021 4766.51 3131.25 82.84 13.00 330.64 2612.24
   20:49:43.437.29-Jan-2021 4766.51 3131.24 82.84 13.00 330.84 2612.24
   20:49:43.637.29-Jan-2021 4766.51 3131.22 82.84 13.00 331.04 2612.24
   20:49:43.837.29-Jan-2021 4766.51 3131.22 82.84 13.00 331.24 2612.24
   20:49:44.037.29-Jan-2021 4766.51 3131.19 82.84 13.00 331.44 2612.24
   20:49:44.237.29-Jan-2021 4766.51 3131.28 82.84 13.00 331.64 2612.24
   20:49:44.437.29-Jan-2021 4766.51 3131.24 82.84 13.00 331.84 2612.24
   20:49:44.637.29-Jan-2021 4766.51 3131.23 82.84 13.00 332.04 2612.24
   20:49:44.837.29-Jan-2021 4766.51 3131.23 82.84 13.00 332.24 2612.24
   20:49:45.037.29-Jan-2021 4766.51 3131.24 82.84 13.00 332.44 2612.24
   20:49:45.238.29-Jan-2021 4766.51 3131.23 82.84 13.00 332.64 2612.24
   20:49:45.438.29-Jan-2021 4766.51 3131.24 82.84 13.00 332.84 2612.24
   20:49:45.638.29-Jan-2021 4766.51 3131.22 82.84 13.00 333.04 2612.24
   20:49:45.838.29-Jan-2021 4766.51 3131.22 82.84 13.00 333.24 2612.24
   20:49:46.038.29-Jan-2021 4766.51 3131.22 82.84 13.00 333.44 2612.24
   20:49:46.238.29-Jan-2021 4766.51 3131.23 82.83 13.00 333.64 2612.24
   20:49:46.438.29-Jan-2021 4766.51 3131.21 82.83 13.00 333.84 2612.24
   20:49:46.638.29-Jan-2021 4766.51 3131.22 82.83 13.00 334.04 2612.24
   20:49:46.838.29-Jan-2021 4766.51 3131.22 82.83 13.00 334.24 2612.24
   20:49:47.038.29-Jan-2021 4766.51 3131.22 82.83 13.00 334.44 2612.24
   20:49:47.238.29-Jan-2021 4766.51 3131.22 82.83 13.00 334.64 2612.24
   20:49:47.438.29-Jan-2021 4766.51 3131.22 82.83 13.00 334.84 2612.24
   20:49:47.638.29-Jan-2021 4766.51 3131.18 82.83 13.00 335.04 2612.24
   20:49:47.838.29-Jan-2021 4766.51 3131.18 82.83 13.00 335.24 2612.24
   20:49:48.038.29-Jan-2021 4766.51 3131.25 82.83 13.00 335.44 2612.24
   20:49:48.238.29-Jan-2021 4766.51 3131.24 82.83 13.00 335.64 2612.24
   20:49:48.438.29-Jan-2021 4766.51 3131.21 82.83 13.00 335.84 2612.24
   20:49:48.638.29-Jan-2021 4766.51 3131.24 82.83 13.00 336.04 2612.24
   20:49:48.838.29-Jan-2021 4766.51 3131.24 82.83 13.00 336.24 2612.24
   20:49:49.038.29-Jan-2021 4766.51 3131.23 82.83 13.00 336.44 2612.24
   20:49:49.238.29-Jan-2021 4766.51 3131.21 82.83 13.00 336.64 2612.24
   20:49:49.438.29-Jan-2021 4766.51 3131.22 82.83 13.00 336.84 2612.24
   20:49:49.638.29-Jan-2021 4766.51 3131.23 82.83 13.00 337.04 2612.24
   20:49:49.838.29-Jan-2021 4766.51 3131.23 82.83 13.00 337.24 2612.24
   20:49:50.038.29-Jan-2021 4766.51 3131.22 82.82 13.00 337.44 2612.24
   20:49:50.238.29-Jan-2021 4766.51 3131.22 82.82 13.00 337.64 2612.24
   20:49:50.438.29-Jan-2021 4766.51 3131.21 82.82 13.00 337.84 2612.24
   20:49:50.638.29-Jan-2021 4766.51 3131.22 82.82 13.00 338.04 2612.24
   20:49:50.838.29-Jan-2021 4766.51 3131.22 82.82 13.00 338.24 2612.24
   20:49:51.038.29-Jan-2021 4766.51 3131.27 82.82 13.00 338.44 2612.24
   20:49:51.238.29-Jan-2021 4766.51 3131.24 82.82 13.00 338.64 2612.24
   20:49:51.438.29-Jan-2021 4766.51 3131.23 82.82 13.00 338.84 2612.24
