~Version Information
 VERS.                  2.0:   CWLS log ASCII Standard -VERSION 2.0
 WRAP.                   NO:   One line per depth step
~Well Information Block
#MNEM.UNIT     VALUE/NAME     DESCRIPTION
#---------     -----------    ---------------------------
 STRT.S             11:33:05 30-Jan-21: START TIME 11:33:05 30-Jan-21
 STOP.S             11:39:34 30-Jan-21: STOP TIME  11:39:34 30-Jan-21
 STEP.S                   0.00: STEP TIME
 NULL.                 -999.25: NULL VALUE
 DFWT.                        :  DIST FWL TEXT
 DFST.                        :  DIST FSL TEXT
 DMF .             Drill Floor:  DRILL MEAS FROM
 STIM.      00.00.00 25-Sep-20:  START TIME
 DATE.      16.12.48 31-Jan-21:  END TIME
 SPUD.               20-Sep-20:  SPUD DATE
 NREF.                    Grid:  NORTH REFERENCE
 HPTY.       Minimum Curvature:  HOLE POS TYPE
 DMOD.             Drill Model:  DRILL MOD DESC
 SVYD.                  Survey:  SURVEY DESC
 ILTD.               Lithology:  INTERP LTH DESC
 FTOP.          Formation Tops:  FORM TOPS DESC
 RIG .              East Azeri:  RIG NAME
 PDAT.          Mean Sea Level:  PERMANENT DATUM
 FLD .                     ACG:  FIELD NAME
 SON .        AZ-XX-0906591820:  JOB NUMBER
 CTRY.              Azerbaijan:  COUNTRY NAME
 WELL.                     D37:  WELL NAME
 SRVC.     Turan Drilling & Engineering:  CONTRACTOR
 COMP.     BP Exploration (Caspian Sea) ltd.:  COMPANY
 WTYP.                Deviated:  WELL TYPE
 MDS .        Operator Entered:  MAG DATA SOURCE
 UWI .                     N/A:  UNIQUE WELL IDENTIFIER
 API .                     N/A:  API NUMBER
 BASE.              Azerbaijan:  LOGGING EQUIPMENT BASE LOCATION
 REGN.                   EESSA:  REGION
 PROV.                    Baku:  PROVINCE
 STAT.                    Baku:  STATE NAME
 MWDS.                    Baku:  MWD SHOP
 JOBN.        AZ-XX-0906591820:  JOB TICKET NUMB
 DOE .                     N/A:  DOE NUMBER
 DCON.         Sperry Drilling:  DIRECTNL CONTR
 UNIT.                     N/A:  LOGGING EQUIPMENT ID
 CNTY.                        :  COUNTY
 LOC .                        :  LOCATION
 LMF .             Drill Floor:  LOG MEASURED FROM
 TVDS.m                  43.60:  TVDSS CORRECTN
 LATI.deg                40.02:  LATITUDE
 LONG.deg                51.45:  LONGITUDE
 WHNS.m                  11.04:  WELL HEAD N/S
 WHEW.m                 -12.38:  WELL HEAD E/W
 UTMX.m              538763.98:  UTM X
 UTMY.m             4431880.20:  UTM Y
 DFWL.m                   0.00:  DISTANCE FWL
 DFSL.m                   0.00:  DISTANCE FSL
 SDEP.m                 300.00:  START DEPTH
 TDD .m                4900.01:  TOTAL DEPTH (DRILLER)
 VSDR.deg               185.64:  VERT SEC DIRECT
 GVFD.g                   1.00:  GRAVITY FIELD
 MFLD.nT              50301.00:  MAGNETIC FIELD
 MDIP.deg                59.46:  MAGNETIC DIP
 MDEC.deg                 6.43:  MAGNETIC DECL
 GRDC.deg                 0.29:  GRID CORRECTION
 AZTC.deg                 6.14:  AZM TOTAL CORR
 EPD .m                   0.00:  ELEVATION
 EGL .m                   0.00:  GROUND ELEVATION
 WDMS.m                 151.80:  WD ELEV
 APD .m                  43.60:  DEPTH ABOVE PD
 DEP .m                 571.69:  DEPTH
 AGAP.m                  43.60:  AIR GAP
 VSEW.m                 -12.38:  VERT SEC E/W
 VSNS.m                  11.04:  VERT SEC N/S
 EKB .m                  43.60:  KB ELEVATION
 EDF .m                  43.60:  DF ELEVATION
 TDL .m                 412.00:  TOTAL DEPTH (LOGGER)
 VSC .                       0:  VS TO CLOSURE
 MAGU.                 1849300:  MAGUTM CHECKSUM
~Parameter Information Block
#MNEM.UNIT       Value        Description
#---------     -----------    ---------------------------
 AV  .mps                 2.21:  Ann Velocity 
 AVMX.mps                 2.53:  Max Ann Veloc 
 AZIF.deg               144.83:  Azm, Final 
 BHAT.        Rotary Steerable:  BHA Type 
 BROT.°/30m              -0.52:  Build Rotating 
 BS  .in                  6.50:  Bit Size 
 BTPL.psig              209.00:  Bit Press Loss 
 CABU.                      No:  Customer Abuse 
 CGEO.        Ali Isfandiyarov:  Customer Geo 
 COMM.                     <»c:  Run Comments 1 
 TCS .hr                 61.31:  Time Ciculation Ended 
 CV  .mps                 4.66:  Crit Velocity 
 CVMX.mps                 5.02:  Max Crit Veloc 
 DD1 .          Fariz Nahmatov:  Direct Drillr 1 
 DD2 .            Musa Ahmadov:  Direct Drillr 2 
 DDSV.               Geo-Pilot:  DD Service 
 DEFF.%                 100.00:  % Det Eff 
 DLRX.°/30m               1.44:  Dogleg Rot Max 
 DLSO.°/30m               0.83:  Dogleg Oriented 
 DLSX.°/30m               1.44:  Dogleg Str Max 
 DRET.      08.30.00 30-Jan-21:  Drill End Time 
 DRST.      21.15.00 27-Jan-21:  Drill Start Tim 
 DTIM.hr                 37.28:  Time Drilling 
 EDEP.m                4867.01:  End Depth 
 ENG1.          Rasim Hashimov:  Engineer 1 
 ENG2.         Almaz Almadatov:  Engineer 2 
 ENG3.        Tamerlan Ahmadov:  Engineer 3 
 ETIM.      22.41.04 31-Jan-21:  End Time 
 FLOI.gpm               400.00:  Flow In 
 FLON.gpm               300.00:  Flow In Min 
 FLOS.cptm                0.00:  Fluid Loss 
 FLOX.gpm               400.00:  Flow In Max 
 HFLO.                      No:  High Flow 
 HPRE.                      No:  High Pressure 
 HTEM.                      No:  High Temp 
 HYDO.m                   1.80:  Hydro Offset 
 IFIN.deg                65.63:  Inc, Final 
 IMAX.deg                66.77:  Inc Max 
 IMIN.deg                65.61:  Inc Min 
 IMND.m                4612.67:  Inc Min Depth 
 IMXD.m                4811.63:  Inc Max Depth 
 JARR.                      No:  Jarring 
 LETM.      08.30.00 30-Jan-21:  Log End Time 
 LOST.hr                     0:  Lost Rig Time 
 LSTM.      21.15.00 27-Jan-21:  Log Start Time 
 MDCL.ppm             41000.00:  Mud Chlorides 
 MDES.     Inversion Oil/Synthetic:  Mud Desc 
 DFD .sg                  1.40:  Mud Density 
 MDMN.sg                  1.40:  Dens Mud Min 
 MDMX.sg                  1.40:  Dens Mud Max 
 MOIL.                      53:  Run Mud Oil % 
 MOWR.                   66:34:  Run Mud OWR 
 MSND.                     0.2:  Run Mud Sand % 
 MSOL.                    17.9:  Run Mud Solids% 
 DFV .spqt               77.00:  Mud Viscosity 
 MWOD.in                  4.75:  MWD Tool OD 
 MWSI.                      No:  Serv Intrp, MWD 
 OTIM.hr                110.38:  Time Operating 
 PCON.           Look Like New:  Pad Condition 
 PMAX.psia             5300.00:  Press Op, Max 
 PV  .cP                 57.00:  Mud PV 
 RUN .                    1200:  Run Number 
 ROPA.m/hr               13.00:  ROP Avg 
 ROPN.m/hr                9.00:  ROP Min 
 ROPX.m/hr               15.00:  ROP Max 
 RPMA.rpm               120.00:  RPM Surface Avg 
 RPMN.rpm               100.00:  RPM Surface Min 
 RPMX.rpm               135.00:  RPM Surface Max 
 RRUN.                    1200:  Rig Run Number 
 RTIM.hr                  2.65:  Time Reaming 
 SAZI.deg               145.04:  Azm, Start 
 SDEP.m                4455.01:  Start Depth 
 SIDD.                      No:  Serv Intrp, DD 
 SINC.deg                65.83:  Inc, Start 
 SPPA.psig             5037.00:  SPP Avg 
 SPPN.psig             4430.00:  SPP Min 
 SPPX.psig             5300.00:  SPP Max 
 STIM.      22.41.04 26-Jan-21:  Start Time 
 SVCS.                 DD, MWD:  Services 
 SVER.                    9.20:  Sperry Version 
 TDAT.m                 412.00:  Tot Depth Attmp 
 TDDF.                      No:  Trip for DD 
 TDLG.m                 412.00:  Tot Depth Loggd 
 TFF .                      No:  Trip for Fail 
 TQAA.f-kp               15.00:  Torque Abs Avg 
 TQAN.f-kp               12.00:  Torque Abs Min 
 TQAX.f-kp               17.00:  Torque Abs Max 
 TRRT.°/30m               1.18:  Turn Rotating 
 MRT .                     ADR:  Maximum Recorded Temperature 
 TTMX.degC               88.24:  Max Tool Temp 
 VS01.                90619458:  Virtual Str1 SN 
 VS02.                90519326:  Virtual Str2 SN 
 VS03.                90522176:  Virtual Str3 SN 
 VS04.                90512683:  Virtual Str4 SN 
 WBMN.klb                 1.00:  WOB Min 
 WITN.           Murad Giluyev:  Customer Rep 
 WITN.     Kamran Kemberlinski:  Customer Rep 2 
 WOBA.klb                 5.00:  WOB Avg 
 WOBX.klb                 9.00:  WOB Max 
 YP  .lhf2               41.00:  Yield Point 
~Curve Information Block
#MNEM.UNIT                 API CODE     Curve Description
#---------               -----------    ---------------------------
 TIME.HHMMSS            00 000 000 000:  GT Time & Date
 GTDEPTH.m              00 000 000 000:  GT Depth
 GTPQH.psia             00 000 000 000:  GT HR Quartz Pressure
 GTTQ.degC              00 000 000 000:  GT Quartz Temperature
 GTTN.NONE              00 000 000 000:  GT Test Number
 GTET.sec               00 000 000 000:  GT Elapsed Test Time
 GTTVD.m                00 000 000 000:  GT True Vertical Depth
#Other Information
#
#WARRANTY: Halliburton will use its best efforts to furnish customers with 
#accurate information and interpretations that are part of, and incident to, the services 
#provided.  However, Halliburton cannot and does not warrant the accuracy 
#or correctness of such information and interpretations.  Under no circumstances should any 
#such information or interpretation be relied upon as the sole basis for any drilling, 
#completion, production, or financial decision or any procedure involving any risk to the 
#safety of any drilling venture, drilling rig or its crew or any other third party.  The 
#Customer has full responsibility for all drilling, completion and production operation.  
#Halliburton makes no representations or warranties, either expressed or 
#implied, including, but not limited to, the implied warranties of merchantability or fitness 
#for a particular purpose, with respect to the services rendered.  In no event will 
#Halliburton be liable for failure to obtain any particular results or for 
#any damages, including, but not limited to, indirect, special or consequential damages, 
#resulting from the use of any information or interpretation provided by Halliburton.
#
~A           TIME           GTDEPTH  GTPQH  GTTQ  GTTN   GTET   GTTVD  
   11:33:05.181.30-Jan-2021 4826.01 5720.91 85.18 18.00   0.00 2635.88
   11:33:05.381.30-Jan-2021 4826.01 5720.91 85.18 18.00   0.20 2635.88
   11:33:05.581.30-Jan-2021 4826.01 5720.55 85.18 18.00   0.40 2635.88
   11:33:05.781.30-Jan-2021 4826.01 5719.74 85.17 18.00   0.60 2635.88
   11:33:05.981.30-Jan-2021 4826.01 5715.62 85.17 18.00   0.80 2635.88
   11:33:06.181.30-Jan-2021 4826.01 5718.67 85.17 18.00   1.00 2635.88
   11:33:06.381.30-Jan-2021 4826.01 5718.67 85.17 18.00   1.20 2635.88
   11:33:06.581.30-Jan-2021 4826.01 5721.44 85.17 18.00   1.40 2635.88
   11:33:06.781.30-Jan-2021 4826.01 5720.41 85.17 18.00   1.60 2635.88
   11:33:06.981.30-Jan-2021 4826.01 5719.37 85.17 18.00   1.80 2635.88
   11:33:07.181.30-Jan-2021 4826.01 5720.49 85.17 18.00   2.00 2635.88
   11:33:07.381.30-Jan-2021 4826.01 5720.49 85.17 18.00   2.20 2635.88
   11:33:07.581.30-Jan-2021 4826.01 5724.55 85.17 18.00   2.40 2635.88
   11:33:07.781.30-Jan-2021 4826.01 5722.31 85.17 18.00   2.60 2635.88
   11:33:07.981.30-Jan-2021 4826.01 5721.52 85.17 18.00   2.80 2635.88
   11:33:08.181.30-Jan-2021 4826.01 5720.93 85.17 18.00   3.00 2635.88
   11:33:08.381.30-Jan-2021 4826.01 5720.93 85.17 18.00   3.20 2635.88
   11:33:08.581.30-Jan-2021 4826.01 5723.61 85.16 18.00   3.40 2635.88
   11:33:08.781.30-Jan-2021 4826.01 5723.26 85.16 18.00   3.60 2635.88
   11:33:08.981.30-Jan-2021 4826.01 5722.56 85.16 18.00   3.80 2635.88
   11:33:09.181.30-Jan-2021 4826.01 5715.19 85.16 18.00   4.00 2635.88
   11:33:09.381.30-Jan-2021 4826.01 5715.19 85.16 18.00   4.20 2635.88
   11:33:09.581.30-Jan-2021 4826.01 5722.50 85.16 18.00   4.40 2635.88
   11:33:09.781.30-Jan-2021 4826.01 5722.67 85.16 18.00   4.60 2635.88
   11:33:09.981.30-Jan-2021 4826.01 5723.71 85.16 18.00   4.80 2635.88
   11:33:10.181.30-Jan-2021 4826.01 5719.09 85.16 18.00   5.00 2635.88
   11:33:10.381.30-Jan-2021 4826.01 5719.09 85.16 18.00   5.20 2635.88
   11:33:10.582.30-Jan-2021 4826.01 5723.00 85.16 18.00   5.40 2635.88
   11:33:10.782.30-Jan-2021 4826.01 5724.05 85.16 18.00   5.60 2635.88
   11:33:10.982.30-Jan-2021 4826.01 5725.13 85.15 18.00   5.80 2635.88
   11:33:11.182.30-Jan-2021 4826.01 5722.60 85.15 18.00   6.00 2635.88
   11:33:11.382.30-Jan-2021 4826.01 5722.60 85.15 18.00   6.20 2635.88
   11:33:11.582.30-Jan-2021 4826.01 5724.04 85.15 18.00   6.40 2635.88
   11:33:11.782.30-Jan-2021 4826.01 5725.77 85.15 18.00   6.60 2635.88
   11:33:11.982.30-Jan-2021 4826.01 5725.73 85.15 18.00   6.80 2635.88
   11:33:12.182.30-Jan-2021 4826.01 5723.89 85.15 18.00   7.00 2635.88
   11:33:12.382.30-Jan-2021 4826.01 5723.89 85.15 18.00   7.20 2635.88
   11:33:12.582.30-Jan-2021 4826.01 5723.89 85.15 18.00   7.40 2635.88
   11:33:12.782.30-Jan-2021 4826.01 5724.60 85.15 18.00   7.60 2635.88
   11:33:12.982.30-Jan-2021 4826.01 5726.42 85.15 18.00   7.80 2635.88
   11:33:13.182.30-Jan-2021 4826.01 5723.94 85.15 18.00   8.00 2635.88
   11:33:13.382.30-Jan-2021 4826.01 5723.94 85.15 18.00   8.20 2635.88
   11:33:13.582.30-Jan-2021 4826.01 5723.13 85.14 18.00   8.40 2635.88
   11:33:13.782.30-Jan-2021 4826.01 5723.13 85.14 18.00   8.60 2635.88
   11:33:13.982.30-Jan-2021 4826.01 5726.16 85.14 18.00   8.80 2635.88
   11:33:14.182.30-Jan-2021 4826.01 5723.63 85.14 18.00   9.00 2635.88
   11:33:14.382.30-Jan-2021 4826.01 5723.63 85.14 18.00   9.20 2635.88
   11:33:14.582.30-Jan-2021 4826.01 5715.55 85.14 18.00   9.40 2635.88
   11:33:14.782.30-Jan-2021 4826.01 5724.86 85.14 18.00   9.60 2635.88
   11:33:14.982.30-Jan-2021 4826.01 5725.95 85.14 18.00   9.80 2635.88
   11:33:15.182.30-Jan-2021 4826.01 5724.34 85.14 18.00  10.00 2635.88
   11:33:15.382.30-Jan-2021 4826.01 5724.34 85.14 18.00  10.20 2635.88
   11:33:15.582.30-Jan-2021 4826.01 5716.37 85.14 18.00  10.40 2635.88
   11:33:15.782.30-Jan-2021 4826.01 5724.45 85.14 18.00  10.60 2635.88
   11:33:15.982.30-Jan-2021 4826.01 5727.16 85.14 18.00  10.80 2635.88
   11:33:16.183.30-Jan-2021 4826.01 5725.94 85.13 18.00  11.00 2635.88
   11:33:16.383.30-Jan-2021 4826.01 5725.94 85.13 18.00  11.20 2635.88
   11:33:16.583.30-Jan-2021 4826.01 5720.94 85.13 18.00  11.40 2635.88
   11:33:16.783.30-Jan-2021 4826.01 5724.18 85.13 18.00  11.60 2635.88
   11:33:16.983.30-Jan-2021 4826.01 5726.49 85.13 18.00  11.80 2635.88
   11:33:17.183.30-Jan-2021 4826.01 5726.40 85.13 18.00  12.00 2635.88
   11:33:17.383.30-Jan-2021 4826.01 5726.40 85.13 18.00  12.20 2635.88
   11:33:17.583.30-Jan-2021 4826.01 5722.55 85.13 18.00  12.40 2635.88
   11:33:17.783.30-Jan-2021 4826.01 5724.42 85.13 18.00  12.60 2635.88
   11:33:17.983.30-Jan-2021 4826.01 5724.98 85.13 18.00  12.80 2635.88
   11:33:18.183.30-Jan-2021 4826.01 5726.22 85.13 18.00  13.00 2635.88
   11:33:18.383.30-Jan-2021 4826.01 5726.22 85.13 18.00  13.20 2635.88
   11:33:18.583.30-Jan-2021 4826.01 5723.93 85.13 18.00  13.40 2635.88
   11:33:18.783.30-Jan-2021 4826.01 5723.89 85.12 18.00  13.60 2635.88
   11:33:18.983.30-Jan-2021 4826.01 5720.76 85.12 18.00  13.80 2635.88
   11:33:19.183.30-Jan-2021 4826.01 5725.35 85.12 18.00  14.00 2635.88
   11:33:19.383.30-Jan-2021 4826.01 5725.35 85.12 18.00  14.20 2635.88
   11:33:19.583.30-Jan-2021 4826.01 5724.46 85.12 18.00  14.40 2635.88
   11:33:19.783.30-Jan-2021 4826.01 5724.24 85.12 18.00  14.60 2635.88
   11:33:19.983.30-Jan-2021 4826.01 5722.16 85.12 18.00  14.80 2635.88
   11:33:20.183.30-Jan-2021 4826.01 5723.70 85.12 18.00  15.00 2635.88
   11:33:20.383.30-Jan-2021 4826.01 5723.70 85.12 18.00  15.20 2635.88
   11:33:20.583.30-Jan-2021 4826.01 5725.96 85.12 18.00  15.40 2635.88
   11:33:20.783.30-Jan-2021 4826.01 5725.57 85.12 18.00  15.60 2635.88
   11:33:20.983.30-Jan-2021 4826.01 5725.29 85.12 18.00  15.80 2635.88
   11:33:21.183.30-Jan-2021 4826.01 5756.81 85.12 18.00  16.00 2635.88
   11:33:21.383.30-Jan-2021 4826.01 5756.81 85.12 18.00  16.20 2635.88
   11:33:21.583.30-Jan-2021 4826.01 5829.58 85.11 18.00  16.40 2635.88
   11:33:21.783.30-Jan-2021 4826.01 5856.92 85.11 18.00  16.60 2635.88
   11:33:21.984.30-Jan-2021 4826.01 5879.97 85.11 18.00  16.80 2635.88
   11:33:22.184.30-Jan-2021 4826.01 5900.57 85.11 18.00  17.00 2635.88
   11:33:22.384.30-Jan-2021 4826.01 5900.57 85.11 18.00  17.20 2635.88
   11:33:22.584.30-Jan-2021 4826.01 6082.60 85.11 18.00  17.40 2635.88
   11:33:22.784.30-Jan-2021 4826.01 6223.80 85.11 18.00  17.60 2635.88
   11:33:22.984.30-Jan-2021 4826.01 6279.12 85.11 18.00  17.80 2635.88
   11:33:23.184.30-Jan-2021 4826.01 6297.39 85.11 18.00  18.00 2635.88
   11:33:23.384.30-Jan-2021 4826.01 6297.39 85.11 18.00  18.20 2635.88
   11:33:23.584.30-Jan-2021 4826.01 6263.89 85.11 18.00  18.40 2635.88
   11:33:23.784.30-Jan-2021 4826.01 6301.18 85.11 18.00  18.60 2635.88
   11:33:23.984.30-Jan-2021 4826.01 6326.43 85.10 18.00  18.80 2635.88
   11:33:24.184.30-Jan-2021 4826.01 6229.56 85.10 18.00  19.00 2635.88
   11:33:24.384.30-Jan-2021 4826.01 6229.56 85.10 18.00  19.20 2635.88
   11:33:24.584.30-Jan-2021 4826.01 6267.13 85.10 18.00  19.40 2635.88
   11:33:24.784.30-Jan-2021 4826.01 6147.86 85.10 18.00  19.60 2635.88
   11:33:24.984.30-Jan-2021 4826.01 6290.33 85.10 18.00  19.80 2635.88
   11:33:25.184.30-Jan-2021 4826.01 6227.60 85.10 18.00  20.00 2635.88
   11:33:25.384.30-Jan-2021 4826.01 6227.60 85.10 18.00  20.20 2635.88
   11:33:25.584.30-Jan-2021 4826.01 5877.14 85.10 18.00  20.40 2635.88
   11:33:25.784.30-Jan-2021 4826.01 5919.75 85.10 18.00  20.60 2635.88
   11:33:25.984.30-Jan-2021 4826.01 5947.09 85.10 18.00  20.80 2635.88
   11:33:26.184.30-Jan-2021 4826.01 5962.33 85.10 18.00  21.00 2635.88
   11:33:26.384.30-Jan-2021 4826.01 5962.33 85.10 18.00  21.20 2635.88
   11:33:26.584.30-Jan-2021 4826.01 5982.15 85.10 18.00  21.40 2635.88
   11:33:26.784.30-Jan-2021 4826.01 5987.01 85.09 18.00  21.60 2635.88
   11:33:26.984.30-Jan-2021 4826.01 5990.82 85.09 18.00  21.80 2635.88
   11:33:27.184.30-Jan-2021 4826.01 5992.34 85.09 18.00  22.00 2635.88
   11:33:27.384.30-Jan-2021 4826.01 5992.34 85.09 18.00  22.20 2635.88
   11:33:27.585.30-Jan-2021 4826.01 5997.03 85.09 18.00  22.40 2635.88
