~Version Information
 VERS.                  2.0:   CWLS log ASCII Standard -VERSION 2.0
 WRAP.                   NO:   One line per depth step
~Well Information Block
#MNEM.UNIT     VALUE/NAME     DESCRIPTION
#---------     -----------    ---------------------------
 STRT.S             01:54:12 30-Jan-21: START TIME 01:54:12 30-Jan-21
 STOP.S             02:00:42 30-Jan-21: STOP TIME  02:00:42 30-Jan-21
 STEP.S                   0.00: STEP TIME
 NULL.                 -999.25: NULL VALUE
 DFWT.                        :  DIST FWL TEXT
 DFST.                        :  DIST FSL TEXT
 DMF .             Drill Floor:  DRILL MEAS FROM
 STIM.      00.00.00 25-Sep-20:  START TIME
 DATE.      16.12.48 31-Jan-21:  END TIME
 SPUD.               20-Sep-20:  SPUD DATE
 NREF.                    Grid:  NORTH REFERENCE
 HPTY.       Minimum Curvature:  HOLE POS TYPE
 DMOD.             Drill Model:  DRILL MOD DESC
 SVYD.                  Survey:  SURVEY DESC
 ILTD.               Lithology:  INTERP LTH DESC
 FTOP.          Formation Tops:  FORM TOPS DESC
 RIG .              East Azeri:  RIG NAME
 PDAT.          Mean Sea Level:  PERMANENT DATUM
 FLD .                     ACG:  FIELD NAME
 SON .        AZ-XX-0906591820:  JOB NUMBER
 CTRY.              Azerbaijan:  COUNTRY NAME
 WELL.                     D37:  WELL NAME
 SRVC.     Turan Drilling & Engineering:  CONTRACTOR
 COMP.     BP Exploration (Caspian Sea) ltd.:  COMPANY
 WTYP.                Deviated:  WELL TYPE
 MDS .        Operator Entered:  MAG DATA SOURCE
 UWI .                     N/A:  UNIQUE WELL IDENTIFIER
 API .                     N/A:  API NUMBER
 BASE.              Azerbaijan:  LOGGING EQUIPMENT BASE LOCATION
 REGN.                   EESSA:  REGION
 PROV.                    Baku:  PROVINCE
 STAT.                    Baku:  STATE NAME
 MWDS.                    Baku:  MWD SHOP
 JOBN.        AZ-XX-0906591820:  JOB TICKET NUMB
 DOE .                     N/A:  DOE NUMBER
 DCON.         Sperry Drilling:  DIRECTNL CONTR
 UNIT.                     N/A:  LOGGING EQUIPMENT ID
 CNTY.                        :  COUNTY
 LOC .                        :  LOCATION
 LMF .             Drill Floor:  LOG MEASURED FROM
 TVDS.m                  43.60:  TVDSS CORRECTN
 LATI.deg                40.02:  LATITUDE
 LONG.deg                51.45:  LONGITUDE
 WHNS.m                  11.04:  WELL HEAD N/S
 WHEW.m                 -12.38:  WELL HEAD E/W
 UTMX.m              538763.98:  UTM X
 UTMY.m             4431880.20:  UTM Y
 DFWL.m                   0.00:  DISTANCE FWL
 DFSL.m                   0.00:  DISTANCE FSL
 SDEP.m                 300.00:  START DEPTH
 TDD .m                4900.01:  TOTAL DEPTH (DRILLER)
 VSDR.deg               185.64:  VERT SEC DIRECT
 GVFD.g                   1.00:  GRAVITY FIELD
 MFLD.nT              50301.00:  MAGNETIC FIELD
 MDIP.deg                59.46:  MAGNETIC DIP
 MDEC.deg                 6.43:  MAGNETIC DECL
 GRDC.deg                 0.29:  GRID CORRECTION
 AZTC.deg                 6.14:  AZM TOTAL CORR
 EPD .m                   0.00:  ELEVATION
 EGL .m                   0.00:  GROUND ELEVATION
 WDMS.m                 151.80:  WD ELEV
 APD .m                  43.60:  DEPTH ABOVE PD
 DEP .m                 571.69:  DEPTH
 AGAP.m                  43.60:  AIR GAP
 VSEW.m                 -12.38:  VERT SEC E/W
 VSNS.m                  11.04:  VERT SEC N/S
 EKB .m                  43.60:  KB ELEVATION
 EDF .m                  43.60:  DF ELEVATION
 TDL .m                 412.00:  TOTAL DEPTH (LOGGER)
 VSC .                       0:  VS TO CLOSURE
 MAGU.                 1849300:  MAGUTM CHECKSUM
~Parameter Information Block
#MNEM.UNIT       Value        Description
#---------     -----------    ---------------------------
 AV  .mps                 2.21:  Ann Velocity 
 AVMX.mps                 2.53:  Max Ann Veloc 
 AZIF.deg               144.83:  Azm, Final 
 BHAT.        Rotary Steerable:  BHA Type 
 BROT.°/30m              -0.52:  Build Rotating 
 BS  .in                  6.50:  Bit Size 
 BTPL.psig              209.00:  Bit Press Loss 
 CABU.                      No:  Customer Abuse 
 CGEO.        Ali Isfandiyarov:  Customer Geo 
 COMM.                     d!e:  Run Comments 1 
 TCS .hr                 61.31:  Time Ciculation Ended 
 CV  .mps                 4.66:  Crit Velocity 
 CVMX.mps                 5.02:  Max Crit Veloc 
 DD1 .          Fariz Nahmatov:  Direct Drillr 1 
 DD2 .            Musa Ahmadov:  Direct Drillr 2 
 DDSV.               Geo-Pilot:  DD Service 
 DEFF.%                 100.00:  % Det Eff 
 DLRX.°/30m               1.44:  Dogleg Rot Max 
 DLSO.°/30m               0.83:  Dogleg Oriented 
 DLSX.°/30m               1.44:  Dogleg Str Max 
 DRET.      08.30.00 30-Jan-21:  Drill End Time 
 DRST.      21.15.00 27-Jan-21:  Drill Start Tim 
 DTIM.hr                 37.28:  Time Drilling 
 EDEP.m                4867.01:  End Depth 
 ENG1.          Rasim Hashimov:  Engineer 1 
 ENG2.         Almaz Almadatov:  Engineer 2 
 ENG3.        Tamerlan Ahmadov:  Engineer 3 
 ETIM.      22.41.04 31-Jan-21:  End Time 
 FLOI.gpm               400.00:  Flow In 
 FLON.gpm               300.00:  Flow In Min 
 FLOS.cptm                0.00:  Fluid Loss 
 FLOX.gpm               400.00:  Flow In Max 
 HFLO.                      No:  High Flow 
 HPRE.                      No:  High Pressure 
 HTEM.                      No:  High Temp 
 HYDO.m                   1.80:  Hydro Offset 
 IFIN.deg                65.63:  Inc, Final 
 IMAX.deg                66.77:  Inc Max 
 IMIN.deg                65.61:  Inc Min 
 IMND.m                4612.67:  Inc Min Depth 
 IMXD.m                4811.63:  Inc Max Depth 
 JARR.                      No:  Jarring 
 LETM.      08.30.00 30-Jan-21:  Log End Time 
 LOST.hr                     0:  Lost Rig Time 
 LSTM.      21.15.00 27-Jan-21:  Log Start Time 
 MDCL.ppm             41000.00:  Mud Chlorides 
 MDES.     Inversion Oil/Synthetic:  Mud Desc 
 DFD .sg                  1.40:  Mud Density 
 MDMN.sg                  1.40:  Dens Mud Min 
 MDMX.sg                  1.40:  Dens Mud Max 
 MOIL.                      53:  Run Mud Oil % 
 MOWR.                   66:34:  Run Mud OWR 
 MSND.                     0.2:  Run Mud Sand % 
 MSOL.                    17.9:  Run Mud Solids% 
 DFV .spqt               77.00:  Mud Viscosity 
 MWOD.in                  4.75:  MWD Tool OD 
 MWSI.                      No:  Serv Intrp, MWD 
 OTIM.hr                110.38:  Time Operating 
 PCON.           Look Like New:  Pad Condition 
 PMAX.psia             5300.00:  Press Op, Max 
 PV  .cP                 57.00:  Mud PV 
 RUN .                    1200:  Run Number 
 ROPA.m/hr               13.00:  ROP Avg 
 ROPN.m/hr                9.00:  ROP Min 
 ROPX.m/hr               15.00:  ROP Max 
 RPMA.rpm               120.00:  RPM Surface Avg 
 RPMN.rpm               100.00:  RPM Surface Min 
 RPMX.rpm               135.00:  RPM Surface Max 
 RRUN.                    1200:  Rig Run Number 
 RTIM.hr                  2.65:  Time Reaming 
 SAZI.deg               145.04:  Azm, Start 
 SDEP.m                4455.01:  Start Depth 
 SIDD.                      No:  Serv Intrp, DD 
 SINC.deg                65.83:  Inc, Start 
 SPPA.psig             5037.00:  SPP Avg 
 SPPN.psig             4430.00:  SPP Min 
 SPPX.psig             5300.00:  SPP Max 
 STIM.      22.41.04 26-Jan-21:  Start Time 
 SVCS.                 DD, MWD:  Services 
 SVER.                    9.20:  Sperry Version 
 TDAT.m                 412.00:  Tot Depth Attmp 
 TDDF.                      No:  Trip for DD 
 TDLG.m                 412.00:  Tot Depth Loggd 
 TFF .                      No:  Trip for Fail 
 TQAA.f-kp               15.00:  Torque Abs Avg 
 TQAN.f-kp               12.00:  Torque Abs Min 
 TQAX.f-kp               17.00:  Torque Abs Max 
 TRRT.°/30m               1.18:  Turn Rotating 
 MRT .                     ADR:  Maximum Recorded Temperature 
 TTMX.degC               88.24:  Max Tool Temp 
 VS01.                90619458:  Virtual Str1 SN 
 VS02.                90519326:  Virtual Str2 SN 
 VS03.                90522176:  Virtual Str3 SN 
 VS04.                90512683:  Virtual Str4 SN 
 WBMN.klb                 1.00:  WOB Min 
 WITN.           Murad Giluyev:  Customer Rep 
 WITN.     Kamran Kemberlinski:  Customer Rep 2 
 WOBA.klb                 5.00:  WOB Avg 
 WOBX.klb                 9.00:  WOB Max 
 YP  .lhf2               41.00:  Yield Point 
~Curve Information Block
#MNEM.UNIT                 API CODE     Curve Description
#---------               -----------    ---------------------------
 TIME.HHMMSS            00 000 000 000:  GT Time & Date
 GTDEPTH.m              00 000 000 000:  GT Depth
 GTPQH.psia             00 000 000 000:  GT HR Quartz Pressure
 GTTQ.degC              00 000 000 000:  GT Quartz Temperature
 GTTN.NONE              00 000 000 000:  GT Test Number
 GTET.sec               00 000 000 000:  GT Elapsed Test Time
 GTTVD.m                00 000 000 000:  GT True Vertical Depth
#Other Information
#
#WARRANTY: Halliburton will use its best efforts to furnish customers with 
#accurate information and interpretations that are part of, and incident to, the services 
#provided.  However, Halliburton cannot and does not warrant the accuracy 
#or correctness of such information and interpretations.  Under no circumstances should any 
#such information or interpretation be relied upon as the sole basis for any drilling, 
#completion, production, or financial decision or any procedure involving any risk to the 
#safety of any drilling venture, drilling rig or its crew or any other third party.  The 
#Customer has full responsibility for all drilling, completion and production operation.  
#Halliburton makes no representations or warranties, either expressed or 
#implied, including, but not limited to, the implied warranties of merchantability or fitness 
#for a particular purpose, with respect to the services rendered.  In no event will 
#Halliburton be liable for failure to obtain any particular results or for 
#any damages, including, but not limited to, indirect, special or consequential damages, 
#resulting from the use of any information or interpretation provided by Halliburton.
#
~A           TIME           GTDEPTH  GTPQH  GTTQ  GTTN   GTET   GTTVD  
# ...
   01:57:36.365.30-Jan-2021 4790.01 5733.50 80.52 16.00 203.44 2621.59
   01:57:36.565.30-Jan-2021 4790.01 5741.59 80.52 16.00 203.64 2621.59
   01:57:36.765.30-Jan-2021 4790.01 5741.22 80.52 16.00 203.84 2621.59
   01:57:36.966.30-Jan-2021 4790.01 5740.63 80.52 16.00 204.04 2621.59
   01:57:37.166.30-Jan-2021 4790.01 5740.63 80.52 16.00 204.24 2621.59
   01:57:37.366.30-Jan-2021 4790.01 5739.88 80.52 16.00 204.44 2621.59
   01:57:37.566.30-Jan-2021 4790.01 5739.84 80.52 16.00 204.64 2621.59
   01:57:37.766.30-Jan-2021 4790.01 5741.41 80.52 16.00 204.84 2621.59
   01:57:37.966.30-Jan-2021 4790.01 5740.30 80.52 16.00 205.04 2621.59
   01:57:38.166.30-Jan-2021 4790.01 5740.30 80.52 16.00 205.24 2621.59
   01:57:38.366.30-Jan-2021 4790.01 5740.13 80.52 16.00 205.44 2621.59
   01:57:38.566.30-Jan-2021 4790.01 5740.76 80.52 16.00 205.64 2621.59
   01:57:38.766.30-Jan-2021 4790.01 5740.59 80.52 16.00 205.84 2621.59
   01:57:38.966.30-Jan-2021 4790.01 5740.26 80.52 16.00 206.04 2621.59
   01:57:39.166.30-Jan-2021 4790.01 5740.26 80.52 16.00 206.24 2621.59
   01:57:39.366.30-Jan-2021 4790.01 5740.11 80.52 16.00 206.44 2621.59
   01:57:39.566.30-Jan-2021 4790.01 5740.42 80.52 16.00 206.64 2621.59
   01:57:39.766.30-Jan-2021 4790.01 5734.01 80.52 16.00 206.84 2621.59
   01:57:39.966.30-Jan-2021 4790.01 5741.56 80.52 16.00 207.04 2621.59
   01:57:40.166.30-Jan-2021 4790.01 5741.56 80.52 16.00 207.24 2621.59
   01:57:40.366.30-Jan-2021 4790.01 5740.48 80.52 16.00 207.44 2621.59
   01:57:40.566.30-Jan-2021 4790.01 5730.84 80.52 16.00 207.64 2621.59
   01:57:40.766.30-Jan-2021 4790.01 5741.36 80.52 16.00 207.84 2621.59
   01:57:40.966.30-Jan-2021 4790.01 5740.25 80.52 16.00 208.04 2621.59
   01:57:41.166.30-Jan-2021 4790.01 5740.25 80.52 16.00 208.24 2621.59
   01:57:41.366.30-Jan-2021 4790.01 5738.93 80.52 16.00 208.44 2621.59
   01:57:41.566.30-Jan-2021 4790.01 5731.33 80.52 16.00 208.64 2621.59
   01:57:41.766.30-Jan-2021 4790.01 5741.09 80.52 16.00 208.84 2621.59
   01:57:41.966.30-Jan-2021 4790.01 5742.15 80.52 16.00 209.04 2621.59
   01:57:42.167.30-Jan-2021 4790.01 5742.15 80.52 16.00 209.24 2621.59
   01:57:42.367.30-Jan-2021 4790.01 5737.68 80.52 16.00 209.44 2621.59
   01:57:42.567.30-Jan-2021 4790.01 5738.49 80.52 16.00 209.64 2621.59
   01:57:42.767.30-Jan-2021 4790.01 5733.72 80.52 16.00 209.84 2621.59
   01:57:42.967.30-Jan-2021 4790.01 5743.69 80.52 16.00 210.04 2621.59
   01:57:43.167.30-Jan-2021 4790.01 5743.69 80.52 16.00 210.24 2621.59
   01:57:43.367.30-Jan-2021 4790.01 5739.19 80.52 16.00 210.44 2621.59
   01:57:43.567.30-Jan-2021 4790.01 5736.67 80.52 16.00 210.64 2621.59
   01:57:43.767.30-Jan-2021 4790.01 5737.84 80.52 16.00 210.84 2621.59
   01:57:43.967.30-Jan-2021 4790.01 5740.66 80.52 16.00 211.04 2621.59
   01:57:44.167.30-Jan-2021 4790.01 5740.66 80.52 16.00 211.24 2621.59
   01:57:44.367.30-Jan-2021 4790.01 5741.28 80.51 16.00 211.44 2621.59
   01:57:44.567.30-Jan-2021 4790.01 5736.16 80.51 16.00 211.64 2621.59
   01:57:44.767.30-Jan-2021 4790.01 5740.52 80.51 16.00 211.84 2621.59
   01:57:44.967.30-Jan-2021 4790.01 5742.07 80.51 16.00 212.04 2621.59
   01:57:45.167.30-Jan-2021 4790.01 5742.07 80.51 16.00 212.24 2621.59
   01:57:45.367.30-Jan-2021 4790.01 5739.12 80.51 16.00 212.44 2621.59
   01:57:45.567.30-Jan-2021 4790.01 5740.15 80.51 16.00 212.64 2621.59
   01:57:45.767.30-Jan-2021 4790.01 5740.30 80.51 16.00 212.84 2621.59
   01:57:45.967.30-Jan-2021 4790.01 5741.42 80.51 16.00 213.04 2621.59
   01:57:46.167.30-Jan-2021 4790.01 5741.42 80.51 16.00 213.24 2621.59
   01:57:46.367.30-Jan-2021 4790.01 5740.17 80.51 16.00 213.44 2621.59
   01:57:46.567.30-Jan-2021 4790.01 5739.92 80.51 16.00 213.64 2621.59
   01:57:46.767.30-Jan-2021 4790.01 5740.95 80.51 16.00 213.84 2621.59
   01:57:46.967.30-Jan-2021 4790.01 5740.68 80.51 16.00 214.04 2621.59
   01:57:47.167.30-Jan-2021 4790.01 5740.68 80.51 16.00 214.24 2621.59
   01:57:47.368.30-Jan-2021 4790.01 5741.57 80.51 16.00 214.44 2621.59
   01:57:47.568.30-Jan-2021 4790.01 5740.96 80.51 16.00 214.64 2621.59
   01:57:47.768.30-Jan-2021 4790.01 5740.36 80.51 16.00 214.84 2621.59
   01:57:47.968.30-Jan-2021 4790.01 5739.34 80.51 16.00 215.04 2621.59
   01:57:48.168.30-Jan-2021 4790.01 5739.34 80.51 16.00 215.24 2621.59
   01:57:48.368.30-Jan-2021 4790.01 5740.20 80.51 16.00 215.44 2621.59
   01:57:48.568.30-Jan-2021 4790.01 5741.30 80.51 16.00 215.64 2621.59
   01:57:48.768.30-Jan-2021 4790.01 5740.91 80.51 16.00 215.84 2621.59
   01:57:48.968.30-Jan-2021 4790.01 5738.82 80.51 16.00 216.04 2621.59
   01:57:49.168.30-Jan-2021 4790.01 5738.82 80.51 16.00 216.24 2621.59
   01:57:49.368.30-Jan-2021 4790.01 5739.96 80.51 16.00 216.44 2621.59
   01:57:49.568.30-Jan-2021 4790.01 5740.51 80.51 16.00 216.64 2621.59
   01:57:49.768.30-Jan-2021 4790.01 5740.16 80.51 16.00 216.84 2621.59
   01:57:49.968.30-Jan-2021 4790.01 5740.12 80.51 16.00 217.04 2621.59
   01:57:50.168.30-Jan-2021 4790.01 5740.12 80.51 16.00 217.24 2621.59
   01:57:50.368.30-Jan-2021 4790.01 5740.71 80.51 16.00 217.44 2621.59
   01:57:50.568.30-Jan-2021 4790.01 5734.34 80.51 16.00 217.64 2621.59
   01:57:50.768.30-Jan-2021 4790.01 5741.95 80.51 16.00 217.84 2621.59
   01:57:50.968.30-Jan-2021 4790.01 5741.32 80.51 16.00 218.04 2621.59
   01:57:51.168.30-Jan-2021 4790.01 5741.32 80.51 16.00 218.24 2621.59
   01:57:51.368.30-Jan-2021 4790.01 5737.54 80.51 16.00 218.44 2621.59
   01:57:51.568.30-Jan-2021 4790.01 5736.77 80.51 16.00 218.64 2621.59
   01:57:51.768.30-Jan-2021 4790.01 5739.52 80.51 16.00 218.84 2621.59
   01:57:51.968.30-Jan-2021 4790.01 5741.02 80.51 16.00 219.04 2621.59
   01:57:52.168.30-Jan-2021 4790.01 5741.02 80.51 16.00 219.24 2621.59
   01:57:52.368.30-Jan-2021 4790.01 5734.54 80.51 16.00 219.44 2621.59
   01:57:52.569.30-Jan-2021 4790.01 5738.23 80.51 16.00 219.64 2621.59
   01:57:52.769.30-Jan-2021 4790.01 5741.30 80.51 16.00 219.84 2621.59
   01:57:52.969.30-Jan-2021 4790.01 5742.27 80.51 16.00 220.04 2621.59
   01:57:53.169.30-Jan-2021 4790.01 5742.27 80.51 16.00 220.24 2621.59
   01:57:53.369.30-Jan-2021 4790.01 5737.73 80.51 16.00 220.44 2621.59
   01:57:53.569.30-Jan-2021 4790.01 5738.50 80.51 16.00 220.64 2621.59
   01:57:53.769.30-Jan-2021 4790.01 5740.16 80.51 16.00 220.84 2621.59
   01:57:53.969.30-Jan-2021 4790.01 5742.21 80.51 16.00 221.04 2621.59
   01:57:54.169.30-Jan-2021 4790.01 5742.21 80.51 16.00 221.24 2621.59
   01:57:54.369.30-Jan-2021 4790.01 5741.21 80.51 16.00 221.44 2621.59
   01:57:54.569.30-Jan-2021 4790.01 5732.73 80.51 16.00 221.64 2621.59
   01:57:54.769.30-Jan-2021 4790.01 5741.65 80.51 16.00 221.84 2621.59
   01:57:54.969.30-Jan-2021 4790.01 5742.05 80.51 16.00 222.04 2621.59
   01:57:55.169.30-Jan-2021 4790.01 5742.05 80.51 16.00 222.24 2621.59
   01:57:55.369.30-Jan-2021 4790.01 5735.37 80.51 16.00 222.44 2621.59
   01:57:55.569.30-Jan-2021 4790.01 5740.48 80.51 16.00 222.64 2621.59
   01:57:55.769.30-Jan-2021 4790.01 5741.68 80.51 16.00 222.84 2621.59
   01:57:55.969.30-Jan-2021 4790.01 5742.77 80.51 16.00 223.04 2621.59
   01:57:56.169.30-Jan-2021 4790.01 5742.77 80.51 16.00 223.24 2621.59
   01:57:56.369.30-Jan-2021 4790.01 5740.40 80.51 16.00 223.44 2621.59
   01:57:56.569.30-Jan-2021 4790.01 5741.15 80.51 16.00 223.64 2621.59
   01:57:56.769.30-Jan-2021 4790.01 5741.31 80.51 16.00 223.84 2621.59
   01:57:56.969.30-Jan-2021 4790.01 5741.40 80.51 16.00 224.04 2621.59
   01:57:57.169.30-Jan-2021 4790.01 5741.40 80.51 16.00 224.24 2621.59
   01:57:57.369.30-Jan-2021 4790.01 5740.25 80.51 16.00 224.44 2621.59
   01:57:57.569.30-Jan-2021 4790.01 5740.25 80.51 16.00 224.64 2621.59
   01:57:57.770.30-Jan-2021 4790.01 5740.82 80.51 16.00 224.84 2621.59
   01:57:57.970.30-Jan-2021 4790.01 5738.03 80.51 16.00 225.04 2621.59
   01:57:58.170.30-Jan-2021 4790.01 5738.03 80.51 16.00 225.24 2621.59
   01:57:58.370.30-Jan-2021 4790.01 5739.48 80.51 16.00 225.44 2621.59
   01:57:58.570.30-Jan-2021 4790.01 5739.96 80.51 16.00 225.64 2621.59
   01:57:58.770.30-Jan-2021 4790.01 5740.74 80.51 16.00 225.84 2621.59
