~Version Information
 VERS.                  2.0:   CWLS log ASCII Standard -VERSION 2.0
 WRAP.                   NO:   One line per depth step
~Well Information Block
#MNEM.UNIT     VALUE/NAME     DESCRIPTION
#---------     -----------    ---------------------------
 STRT.S             14:24:44 28-Jan-21: START TIME 14:24:44 28-Jan-21
 STOP.S             14:31:13 28-Jan-21: STOP TIME  14:31:13 28-Jan-21
 STEP.S                   0.00: STEP TIME
 NULL.                 -999.25: NULL VALUE
 DFWT.                        :  DIST FWL TEXT
 DFST.                        :  DIST FSL TEXT
 DMF .             Drill Floor:  DRILL MEAS FROM
 STIM.      00.00.00 25-Sep-20:  START TIME
 DATE.      16.12.48 31-Jan-21:  END TIME
 SPUD.               20-Sep-20:  SPUD DATE
 NREF.                    Grid:  NORTH REFERENCE
 HPTY.       Minimum Curvature:  HOLE POS TYPE
 DMOD.             Drill Model:  DRILL MOD DESC
 SVYD.                  Survey:  SURVEY DESC
 ILTD.               Lithology:  INTERP LTH DESC
 FTOP.          Formation Tops:  FORM TOPS DESC
 RIG .              East Azeri:  RIG NAME
 PDAT.          Mean Sea Level:  PERMANENT DATUM
 FLD .                     ACG:  FIELD NAME
 SON .        AZ-XX-0906591820:  JOB NUMBER
 CTRY.              Azerbaijan:  COUNTRY NAME
 WELL.                     D37:  WELL NAME
 SRVC.     Turan Drilling & Engineering:  CONTRACTOR
 COMP.     BP Exploration (Caspian Sea) ltd.:  COMPANY
 WTYP.                Deviated:  WELL TYPE
 MDS .        Operator Entered:  MAG DATA SOURCE
 UWI .                     N/A:  UNIQUE WELL IDENTIFIER
 API .                     N/A:  API NUMBER
 BASE.              Azerbaijan:  LOGGING EQUIPMENT BASE LOCATION
 REGN.                   EESSA:  REGION
 PROV.                    Baku:  PROVINCE
 STAT.                    Baku:  STATE NAME
 MWDS.                    Baku:  MWD SHOP
 JOBN.        AZ-XX-0906591820:  JOB TICKET NUMB
 DOE .                     N/A:  DOE NUMBER
 DCON.         Sperry Drilling:  DIRECTNL CONTR
 UNIT.                     N/A:  LOGGING EQUIPMENT ID
 CNTY.                        :  COUNTY
 LOC .                        :  LOCATION
 LMF .             Drill Floor:  LOG MEASURED FROM
 TVDS.m                  43.60:  TVDSS CORRECTN
 LATI.deg                40.02:  LATITUDE
 LONG.deg                51.45:  LONGITUDE
 WHNS.m                  11.04:  WELL HEAD N/S
 WHEW.m                 -12.38:  WELL HEAD E/W
 UTMX.m              538763.98:  UTM X
 UTMY.m             4431880.20:  UTM Y
 DFWL.m                   0.00:  DISTANCE FWL
 DFSL.m                   0.00:  DISTANCE FSL
 SDEP.m                 300.00:  START DEPTH
 TDD .m                4900.01:  TOTAL DEPTH (DRILLER)
 VSDR.deg               185.64:  VERT SEC DIRECT
 GVFD.g                   1.00:  GRAVITY FIELD
 MFLD.nT              50301.00:  MAGNETIC FIELD
 MDIP.deg                59.46:  MAGNETIC DIP
 MDEC.deg                 6.43:  MAGNETIC DECL
 GRDC.deg                 0.29:  GRID CORRECTION
 AZTC.deg                 6.14:  AZM TOTAL CORR
 EPD .m                   0.00:  ELEVATION
 EGL .m                   0.00:  GROUND ELEVATION
 WDMS.m                 151.80:  WD ELEV
 APD .m                  43.60:  DEPTH ABOVE PD
 DEP .m                 571.69:  DEPTH
 AGAP.m                  43.60:  AIR GAP
 VSEW.m                 -12.38:  VERT SEC E/W
 VSNS.m                  11.04:  VERT SEC N/S
 EKB .m                  43.60:  KB ELEVATION
 EDF .m                  43.60:  DF ELEVATION
 TDL .m                 412.00:  TOTAL DEPTH (LOGGER)
 VSC .                       0:  VS TO CLOSURE
 MAGU.                 1849300:  MAGUTM CHECKSUM
~Parameter Information Block
#MNEM.UNIT       Value        Description
#---------     -----------    ---------------------------
 AV  .mps                 2.21:  Ann Velocity 
 AVMX.mps                 2.53:  Max Ann Veloc 
 AZIF.deg               144.83:  Azm, Final 
 BHAT.        Rotary Steerable:  BHA Type 
 BROT.°/30m              -0.52:  Build Rotating 
 BS  .in                  6.50:  Bit Size 
 BTPL.psig              209.00:  Bit Press Loss 
 CABU.                      No:  Customer Abuse 
 CGEO.        Ali Isfandiyarov:  Customer Geo 
 COMM.                     Âh:  Run Comments 1 
 TCS .hr                 61.31:  Time Ciculation Ended 
 CV  .mps                 4.66:  Crit Velocity 
 CVMX.mps                 5.02:  Max Crit Veloc 
 DD1 .          Fariz Nahmatov:  Direct Drillr 1 
 DD2 .            Musa Ahmadov:  Direct Drillr 2 
 DDSV.               Geo-Pilot:  DD Service 
 DEFF.%                 100.00:  % Det Eff 
 DLRX.°/30m               1.44:  Dogleg Rot Max 
 DLSO.°/30m               0.83:  Dogleg Oriented 
 DLSX.°/30m               1.44:  Dogleg Str Max 
 DRET.      08.30.00 30-Jan-21:  Drill End Time 
 DRST.      21.15.00 27-Jan-21:  Drill Start Tim 
 DTIM.hr                 37.28:  Time Drilling 
 EDEP.m                4867.01:  End Depth 
 ENG1.          Rasim Hashimov:  Engineer 1 
 ENG2.         Almaz Almadatov:  Engineer 2 
 ENG3.        Tamerlan Ahmadov:  Engineer 3 
 ETIM.      22.41.04 31-Jan-21:  End Time 
 FLOI.gpm               400.00:  Flow In 
 FLON.gpm               300.00:  Flow In Min 
 FLOS.cptm                0.00:  Fluid Loss 
 FLOX.gpm               400.00:  Flow In Max 
 HFLO.                      No:  High Flow 
 HPRE.                      No:  High Pressure 
 HTEM.                      No:  High Temp 
 HYDO.m                   1.80:  Hydro Offset 
 IFIN.deg                65.63:  Inc, Final 
 IMAX.deg                66.77:  Inc Max 
 IMIN.deg                65.61:  Inc Min 
 IMND.m                4612.67:  Inc Min Depth 
 IMXD.m                4811.63:  Inc Max Depth 
 JARR.                      No:  Jarring 
 LETM.      08.30.00 30-Jan-21:  Log End Time 
 LOST.hr                     0:  Lost Rig Time 
 LSTM.      21.15.00 27-Jan-21:  Log Start Time 
 MDCL.ppm             41000.00:  Mud Chlorides 
 MDES.     Inversion Oil/Synthetic:  Mud Desc 
 DFD .sg                  1.40:  Mud Density 
 MDMN.sg                  1.40:  Dens Mud Min 
 MDMX.sg                  1.40:  Dens Mud Max 
 MOIL.                      53:  Run Mud Oil % 
 MOWR.                   66:34:  Run Mud OWR 
 MSND.                     0.2:  Run Mud Sand % 
 MSOL.                    17.9:  Run Mud Solids% 
 DFV .spqt               77.00:  Mud Viscosity 
 MWOD.in                  4.75:  MWD Tool OD 
 MWSI.                      No:  Serv Intrp, MWD 
 OTIM.hr                110.38:  Time Operating 
 PCON.           Look Like New:  Pad Condition 
 PMAX.psia             5300.00:  Press Op, Max 
 PV  .cP                 57.00:  Mud PV 
 RUN .                    1200:  Run Number 
 ROPA.m/hr               13.00:  ROP Avg 
 ROPN.m/hr                9.00:  ROP Min 
 ROPX.m/hr               15.00:  ROP Max 
 RPMA.rpm               120.00:  RPM Surface Avg 
 RPMN.rpm               100.00:  RPM Surface Min 
 RPMX.rpm               135.00:  RPM Surface Max 
 RRUN.                    1200:  Rig Run Number 
 RTIM.hr                  2.65:  Time Reaming 
 SAZI.deg               145.04:  Azm, Start 
 SDEP.m                4455.01:  Start Depth 
 SIDD.                      No:  Serv Intrp, DD 
 SINC.deg                65.83:  Inc, Start 
 SPPA.psig             5037.00:  SPP Avg 
 SPPN.psig             4430.00:  SPP Min 
 SPPX.psig             5300.00:  SPP Max 
 STIM.      22.41.04 26-Jan-21:  Start Time 
 SVCS.                 DD, MWD:  Services 
 SVER.                    9.20:  Sperry Version 
 TDAT.m                 412.00:  Tot Depth Attmp 
 TDDF.                      No:  Trip for DD 
 TDLG.m                 412.00:  Tot Depth Loggd 
 TFF .                      No:  Trip for Fail 
 TQAA.f-kp               15.00:  Torque Abs Avg 
 TQAN.f-kp               12.00:  Torque Abs Min 
 TQAX.f-kp               17.00:  Torque Abs Max 
 TRRT.°/30m               1.18:  Turn Rotating 
 MRT .                     ADR:  Maximum Recorded Temperature 
 TTMX.degC               88.24:  Max Tool Temp 
 VS01.                90619458:  Virtual Str1 SN 
 VS02.                90519326:  Virtual Str2 SN 
 VS03.                90522176:  Virtual Str3 SN 
 VS04.                90512683:  Virtual Str4 SN 
 WBMN.klb                 1.00:  WOB Min 
 WITN.           Murad Giluyev:  Customer Rep 
 WITN.     Kamran Kemberlinski:  Customer Rep 2 
 WOBA.klb                 5.00:  WOB Avg 
 WOBX.klb                 9.00:  WOB Max 
 YP  .lhf2               41.00:  Yield Point 
~Curve Information Block
#MNEM.UNIT                 API CODE     Curve Description
#---------               -----------    ---------------------------
 TIME.HHMMSS            00 000 000 000:  GT Time & Date
 GTDEPTH.m              00 000 000 000:  GT Depth
 GTPQH.psia             00 000 000 000:  GT HR Quartz Pressure
 GTTQ.degC              00 000 000 000:  GT Quartz Temperature
 GTTN.NONE              00 000 000 000:  GT Test Number
 GTET.sec               00 000 000 000:  GT Elapsed Test Time
 GTTVD.m                00 000 000 000:  GT True Vertical Depth
#Other Information
#
#WARRANTY: Halliburton will use its best efforts to furnish customers with 
#accurate information and interpretations that are part of, and incident to, the services 
#provided.  However, Halliburton cannot and does not warrant the accuracy 
#or correctness of such information and interpretations.  Under no circumstances should any 
#such information or interpretation be relied upon as the sole basis for any drilling, 
#completion, production, or financial decision or any procedure involving any risk to the 
#safety of any drilling venture, drilling rig or its crew or any other third party.  The 
#Customer has full responsibility for all drilling, completion and production operation.  
#Halliburton makes no representations or warranties, either expressed or 
#implied, including, but not limited to, the implied warranties of merchantability or fitness 
#for a particular purpose, with respect to the services rendered.  In no event will 
#Halliburton be liable for failure to obtain any particular results or for 
#any damages, including, but not limited to, indirect, special or consequential damages, 
#resulting from the use of any information or interpretation provided by Halliburton.
#
~A           TIME           GTDEPTH  GTPQH  GTTQ  GTTN  GTET   GTTVD  
# ...
   14:26:16.062.28-Jan-2021 4530.01 3137.78 71.30 4.00  92.02 2516.71
   14:26:16.262.28-Jan-2021 4530.01 3137.78 71.30 4.00  92.22 2516.71
   14:26:16.462.28-Jan-2021 4530.01 3137.79 71.30 4.00  92.42 2516.71
   14:26:16.662.28-Jan-2021 4530.01 3137.77 71.29 4.00  92.62 2516.71
   14:26:16.862.28-Jan-2021 4530.01 3137.80 71.29 4.00  92.82 2516.71
   14:26:17.062.28-Jan-2021 4530.01 3137.77 71.29 4.00  93.02 2516.71
   14:26:17.262.28-Jan-2021 4530.01 3137.77 71.29 4.00  93.22 2516.71
   14:26:17.462.28-Jan-2021 4530.01 3137.78 71.29 4.00  93.42 2516.71
   14:26:17.662.28-Jan-2021 4530.01 3137.78 71.29 4.00  93.62 2516.71
   14:26:17.862.28-Jan-2021 4530.01 3137.79 71.29 4.00  93.82 2516.71
   14:26:18.062.28-Jan-2021 4530.01 3137.78 71.29 4.00  94.02 2516.71
   14:26:18.262.28-Jan-2021 4530.01 3137.78 71.29 4.00  94.22 2516.71
   14:26:18.462.28-Jan-2021 4530.01 3137.78 71.29 4.00  94.42 2516.71
   14:26:18.662.28-Jan-2021 4530.01 3137.75 71.29 4.00  94.62 2516.71
   14:26:18.862.28-Jan-2021 4530.01 3137.77 71.29 4.00  94.82 2516.71
   14:26:19.062.28-Jan-2021 4530.01 3137.77 71.29 4.00  95.02 2516.71
   14:26:19.262.28-Jan-2021 4530.01 3137.77 71.29 4.00  95.22 2516.71
   14:26:19.462.28-Jan-2021 4530.01 3137.79 71.29 4.00  95.42 2516.71
   14:26:19.663.28-Jan-2021 4530.01 3137.76 71.29 4.00  95.62 2516.71
   14:26:19.863.28-Jan-2021 4530.01 3137.77 71.29 4.00  95.82 2516.71
   14:26:20.063.28-Jan-2021 4530.01 3137.77 71.29 4.00  96.02 2516.71
   14:26:20.263.28-Jan-2021 4530.01 3137.77 71.29 4.00  96.22 2516.71
   14:26:20.463.28-Jan-2021 4530.01 3137.76 71.29 4.00  96.42 2516.71
   14:26:20.663.28-Jan-2021 4530.01 3137.78 71.29 4.00  96.62 2516.71
   14:26:20.863.28-Jan-2021 4530.01 3137.77 71.29 4.00  96.82 2516.71
   14:26:21.063.28-Jan-2021 4530.01 3137.78 71.29 4.00  97.02 2516.71
   14:26:21.263.28-Jan-2021 4530.01 3137.78 71.29 4.00  97.22 2516.71
   14:26:21.463.28-Jan-2021 4530.01 3137.77 71.29 4.00  97.42 2516.71
   14:26:21.663.28-Jan-2021 4530.01 3137.77 71.29 4.00  97.62 2516.71
   14:26:21.863.28-Jan-2021 4530.01 3137.74 71.29 4.00  97.82 2516.71
   14:26:22.063.28-Jan-2021 4530.01 3137.76 71.29 4.00  98.02 2516.71
   14:26:22.263.28-Jan-2021 4530.01 3137.76 71.29 4.00  98.22 2516.71
   14:26:22.463.28-Jan-2021 4530.01 3137.77 71.29 4.00  98.42 2516.71
   14:26:22.663.28-Jan-2021 4530.01 3137.77 71.29 4.00  98.62 2516.71
   14:26:22.863.28-Jan-2021 4530.01 3137.74 71.29 4.00  98.82 2516.71
   14:26:23.063.28-Jan-2021 4530.01 3137.73 71.29 4.00  99.02 2516.71
   14:26:23.263.28-Jan-2021 4530.01 3137.73 71.29 4.00  99.22 2516.71
   14:26:23.463.28-Jan-2021 4530.01 3137.68 71.29 4.00  99.42 2516.71
   14:26:23.663.28-Jan-2021 4530.01 3137.78 71.29 4.00  99.62 2516.71
   14:26:23.863.28-Jan-2021 4530.01 3137.76 71.29 4.00  99.82 2516.71
   14:26:24.063.28-Jan-2021 4530.01 3137.74 71.29 4.00 100.02 2516.71
   14:26:24.263.28-Jan-2021 4530.01 3137.74 71.29 4.00 100.22 2516.71
   14:26:24.464.28-Jan-2021 4530.01 3137.76 71.29 4.00 100.42 2516.71
   14:26:24.664.28-Jan-2021 4530.01 3137.71 71.29 4.00 100.62 2516.71
   14:26:24.864.28-Jan-2021 4530.01 3137.75 71.29 4.00 100.82 2516.71
   14:26:25.064.28-Jan-2021 4530.01 3137.75 71.29 4.00 101.02 2516.71
   14:26:25.264.28-Jan-2021 4530.01 3137.75 71.29 4.00 101.22 2516.71
   14:26:25.464.28-Jan-2021 4530.01 3137.76 71.29 4.00 101.42 2516.71
   14:26:25.664.28-Jan-2021 4530.01 3137.75 71.29 4.00 101.62 2516.71
   14:26:25.864.28-Jan-2021 4530.01 3137.76 71.29 4.00 101.82 2516.71
   14:26:26.064.28-Jan-2021 4530.01 3137.71 71.29 4.00 102.02 2516.71
   14:26:26.264.28-Jan-2021 4530.01 3137.71 71.29 4.00 102.22 2516.71
   14:26:26.464.28-Jan-2021 4530.01 3137.74 71.29 4.00 102.42 2516.71
   14:26:26.664.28-Jan-2021 4530.01 3137.75 71.29 4.00 102.62 2516.71
   14:26:26.864.28-Jan-2021 4530.01 3137.74 71.29 4.00 102.82 2516.71
   14:26:27.064.28-Jan-2021 4530.01 3137.76 71.29 4.00 103.02 2516.71
   14:26:27.264.28-Jan-2021 4530.01 3137.76 71.29 4.00 103.22 2516.71
   14:26:27.464.28-Jan-2021 4530.01 3137.75 71.28 4.00 103.42 2516.71
   14:26:27.664.28-Jan-2021 4530.01 3137.75 71.28 4.00 103.62 2516.71
   14:26:27.864.28-Jan-2021 4530.01 3137.75 71.28 4.00 103.82 2516.71
   14:26:28.064.28-Jan-2021 4530.01 3137.75 71.28 4.00 104.02 2516.71
   14:26:28.264.28-Jan-2021 4530.01 3137.75 71.28 4.00 104.22 2516.71
   14:26:28.464.28-Jan-2021 4530.01 3137.75 71.28 4.00 104.42 2516.71
   14:26:28.664.28-Jan-2021 4530.01 3137.75 71.28 4.00 104.62 2516.71
   14:26:28.864.28-Jan-2021 4530.01 3137.75 71.28 4.00 104.82 2516.71
   14:26:29.064.28-Jan-2021 4530.01 3137.75 71.28 4.00 105.02 2516.71
   14:26:29.265.28-Jan-2021 4530.01 3137.75 71.28 4.00 105.22 2516.71
   14:26:29.465.28-Jan-2021 4530.01 3137.75 71.28 4.00 105.42 2516.71
   14:26:29.665.28-Jan-2021 4530.01 3137.70 71.28 4.00 105.62 2516.71
   14:26:29.865.28-Jan-2021 4530.01 3137.73 71.28 4.00 105.82 2516.71
   14:26:30.065.28-Jan-2021 4530.01 3137.74 71.28 4.00 106.02 2516.71
   14:26:30.265.28-Jan-2021 4530.01 3137.74 71.28 4.00 106.22 2516.71
   14:26:30.465.28-Jan-2021 4530.01 3137.74 71.28 4.00 106.42 2516.71
   14:26:30.665.28-Jan-2021 4530.01 3137.74 71.28 4.00 106.62 2516.71
   14:26:30.865.28-Jan-2021 4530.01 3137.74 71.28 4.00 106.82 2516.71
   14:26:31.065.28-Jan-2021 4530.01 3137.73 71.28 4.00 107.02 2516.71
   14:26:31.265.28-Jan-2021 4530.01 3137.73 71.28 4.00 107.22 2516.71
   14:26:31.465.28-Jan-2021 4530.01 3137.74 71.28 4.00 107.42 2516.71
   14:26:31.665.28-Jan-2021 4530.01 3137.74 71.28 4.00 107.62 2516.71
   14:26:31.865.28-Jan-2021 4530.01 3137.74 71.28 4.00 107.82 2516.71
   14:26:32.065.28-Jan-2021 4530.01 3137.74 71.28 4.00 108.02 2516.71
   14:26:32.265.28-Jan-2021 4530.01 3137.74 71.28 4.00 108.22 2516.71
   14:26:32.465.28-Jan-2021 4530.01 3137.73 71.28 4.00 108.42 2516.71
   14:26:32.665.28-Jan-2021 4530.01 3137.75 71.28 4.00 108.62 2516.71
   14:26:32.865.28-Jan-2021 4530.01 3137.69 71.28 4.00 108.82 2516.71
   14:26:33.065.28-Jan-2021 4530.01 3137.73 71.28 4.00 109.02 2516.71
   14:26:33.265.28-Jan-2021 4530.01 3137.73 71.28 4.00 109.22 2516.71
   14:26:33.465.28-Jan-2021 4530.01 3137.72 71.28 4.00 109.42 2516.71
   14:26:33.665.28-Jan-2021 4530.01 3137.65 71.28 4.00 109.62 2516.71
   14:26:33.865.28-Jan-2021 4530.01 3137.75 71.28 4.00 109.82 2516.71
   14:26:34.066.28-Jan-2021 4530.01 3137.73 71.28 4.00 110.02 2516.71
   14:26:34.266.28-Jan-2021 4530.01 3137.73 71.28 4.00 110.22 2516.71
   14:26:34.466.28-Jan-2021 4530.01 3137.70 71.28 4.00 110.42 2516.71
   14:26:34.666.28-Jan-2021 4530.01 3137.69 71.28 4.00 110.62 2516.71
   14:26:34.866.28-Jan-2021 4530.01 3137.71 71.28 4.00 110.82 2516.71
   14:26:35.066.28-Jan-2021 4530.01 3137.72 71.28 4.00 111.02 2516.71
   14:26:35.266.28-Jan-2021 4530.01 3137.72 71.28 4.00 111.22 2516.71
   14:26:35.466.28-Jan-2021 4530.01 3137.67 71.28 4.00 111.42 2516.71
   14:26:35.666.28-Jan-2021 4530.01 3137.71 71.28 4.00 111.62 2516.71
   14:26:35.866.28-Jan-2021 4530.01 3137.70 71.28 4.00 111.82 2516.71
   14:26:36.066.28-Jan-2021 4530.01 3137.70 71.28 4.00 112.02 2516.71
   14:26:36.266.28-Jan-2021 4530.01 3137.70 71.28 4.00 112.22 2516.71
   14:26:36.466.28-Jan-2021 4530.01 3137.71 71.28 4.00 112.42 2516.71
   14:26:36.666.28-Jan-2021 4530.01 3137.70 71.28 4.00 112.62 2516.71
   14:26:36.866.28-Jan-2021 4530.01 3137.69 71.28 4.00 112.82 2516.71
   14:26:37.066.28-Jan-2021 4530.01 3137.70 71.28 4.00 113.02 2516.71
   14:26:37.266.28-Jan-2021 4530.01 3137.70 71.28 4.00 113.22 2516.71
   14:26:37.466.28-Jan-2021 4530.01 3137.70 71.28 4.00 113.42 2516.71
   14:26:37.666.28-Jan-2021 4530.01 3137.72 71.28 4.00 113.62 2516.71
   14:26:37.866.28-Jan-2021 4530.01 3137.69 71.28 4.00 113.82 2516.71
   14:26:38.066.28-Jan-2021 4530.01 3137.71 71.28 4.00 114.02 2516.71
   14:26:38.266.28-Jan-2021 4530.01 3137.71 71.28 4.00 114.22 2516.71
   14:26:38.466.28-Jan-2021 4530.01 3137.70 71.28 4.00 114.42 2516.71
   14:26:38.666.28-Jan-2021 4530.01 3137.71 71.28 4.00 114.62 2516.71
   14:26:38.867.28-Jan-2021 4530.01 3137.70 71.27 4.00 114.82 2516.71
