~Version Information
 VERS.                  2.0:   CWLS log ASCII Standard -VERSION 2.0
 WRAP.                   NO:   One line per depth step
~Well Information Block
#MNEM.UNIT     VALUE/NAME     DESCRIPTION
#---------     -----------    ---------------------------
 STRT.S             18:28:03 29-Jan-21: START TIME 18:28:03 29-Jan-21
 STOP.S             18:34:33 29-Jan-21: STOP TIME  18:34:33 29-Jan-21
 STEP.S                   0.00: STEP TIME
 NULL.                 -999.25: NULL VALUE
 DFWT.                        :  DIST FWL TEXT
 DFST.                        :  DIST FSL TEXT
 DMF .             Drill Floor:  DRILL MEAS FROM
 STIM.      00.00.00 25-Sep-20:  START TIME
 DATE.      16.12.48 31-Jan-21:  END TIME
 SPUD.               20-Sep-20:  SPUD DATE
 NREF.                    Grid:  NORTH REFERENCE
 HPTY.       Minimum Curvature:  HOLE POS TYPE
 DMOD.             Drill Model:  DRILL MOD DESC
 SVYD.                  Survey:  SURVEY DESC
 ILTD.               Lithology:  INTERP LTH DESC
 FTOP.          Formation Tops:  FORM TOPS DESC
 RIG .              East Azeri:  RIG NAME
 PDAT.          Mean Sea Level:  PERMANENT DATUM
 FLD .                     ACG:  FIELD NAME
 SON .        AZ-XX-0906591820:  JOB NUMBER
 CTRY.              Azerbaijan:  COUNTRY NAME
 WELL.                     D37:  WELL NAME
 SRVC.     Turan Drilling & Engineering:  CONTRACTOR
 COMP.     BP Exploration (Caspian Sea) ltd.:  COMPANY
 WTYP.                Deviated:  WELL TYPE
 MDS .        Operator Entered:  MAG DATA SOURCE
 UWI .                     N/A:  UNIQUE WELL IDENTIFIER
 API .                     N/A:  API NUMBER
 BASE.              Azerbaijan:  LOGGING EQUIPMENT BASE LOCATION
 REGN.                   EESSA:  REGION
 PROV.                    Baku:  PROVINCE
 STAT.                    Baku:  STATE NAME
 MWDS.                    Baku:  MWD SHOP
 JOBN.        AZ-XX-0906591820:  JOB TICKET NUMB
 DOE .                     N/A:  DOE NUMBER
 DCON.         Sperry Drilling:  DIRECTNL CONTR
 UNIT.                     N/A:  LOGGING EQUIPMENT ID
 CNTY.                        :  COUNTY
 LOC .                        :  LOCATION
 LMF .             Drill Floor:  LOG MEASURED FROM
 TVDS.m                  43.60:  TVDSS CORRECTN
 LATI.deg                40.02:  LATITUDE
 LONG.deg                51.45:  LONGITUDE
 WHNS.m                  11.04:  WELL HEAD N/S
 WHEW.m                 -12.38:  WELL HEAD E/W
 UTMX.m              538763.98:  UTM X
 UTMY.m             4431880.20:  UTM Y
 DFWL.m                   0.00:  DISTANCE FWL
 DFSL.m                   0.00:  DISTANCE FSL
 SDEP.m                 300.00:  START DEPTH
 TDD .m                4900.01:  TOTAL DEPTH (DRILLER)
 VSDR.deg               185.64:  VERT SEC DIRECT
 GVFD.g                   1.00:  GRAVITY FIELD
 MFLD.nT              50301.00:  MAGNETIC FIELD
 MDIP.deg                59.46:  MAGNETIC DIP
 MDEC.deg                 6.43:  MAGNETIC DECL
 GRDC.deg                 0.29:  GRID CORRECTION
 AZTC.deg                 6.14:  AZM TOTAL CORR
 EPD .m                   0.00:  ELEVATION
 EGL .m                   0.00:  GROUND ELEVATION
 WDMS.m                 151.80:  WD ELEV
 APD .m                  43.60:  DEPTH ABOVE PD
 DEP .m                 571.69:  DEPTH
 AGAP.m                  43.60:  AIR GAP
 VSEW.m                 -12.38:  VERT SEC E/W
 VSNS.m                  11.04:  VERT SEC N/S
 EKB .m                  43.60:  KB ELEVATION
 EDF .m                  43.60:  DF ELEVATION
 TDL .m                 412.00:  TOTAL DEPTH (LOGGER)
 VSC .                       0:  VS TO CLOSURE
 MAGU.                 1849300:  MAGUTM CHECKSUM
~Parameter Information Block
#MNEM.UNIT       Value        Description
#---------     -----------    ---------------------------
 AV  .mps                 2.21:  Ann Velocity 
 AVMX.mps                 2.53:  Max Ann Veloc 
 AZIF.deg               144.83:  Azm, Final 
 BHAT.        Rotary Steerable:  BHA Type 
 BROT.°/30m              -0.52:  Build Rotating 
 BS  .in                  6.50:  Bit Size 
 BTPL.psig              209.00:  Bit Press Loss 
 CABU.                      No:  Customer Abuse 
 CGEO.        Ali Isfandiyarov:  Customer Geo 
 COMM.                     tðz:  Run Comments 1 
 TCS .hr                 61.31:  Time Ciculation Ended 
 CV  .mps                 4.66:  Crit Velocity 
 CVMX.mps                 5.02:  Max Crit Veloc 
 DD1 .          Fariz Nahmatov:  Direct Drillr 1 
 DD2 .            Musa Ahmadov:  Direct Drillr 2 
 DDSV.               Geo-Pilot:  DD Service 
 DEFF.%                 100.00:  % Det Eff 
 DLRX.°/30m               1.44:  Dogleg Rot Max 
 DLSO.°/30m               0.83:  Dogleg Oriented 
 DLSX.°/30m               1.44:  Dogleg Str Max 
 DRET.      08.30.00 30-Jan-21:  Drill End Time 
 DRST.      21.15.00 27-Jan-21:  Drill Start Tim 
 DTIM.hr                 37.28:  Time Drilling 
 EDEP.m                4867.01:  End Depth 
 ENG1.          Rasim Hashimov:  Engineer 1 
 ENG2.         Almaz Almadatov:  Engineer 2 
 ENG3.        Tamerlan Ahmadov:  Engineer 3 
 ETIM.      22.41.04 31-Jan-21:  End Time 
 FLOI.gpm               400.00:  Flow In 
 FLON.gpm               300.00:  Flow In Min 
 FLOS.cptm                0.00:  Fluid Loss 
 FLOX.gpm               400.00:  Flow In Max 
 HFLO.                      No:  High Flow 
 HPRE.                      No:  High Pressure 
 HTEM.                      No:  High Temp 
 HYDO.m                   1.80:  Hydro Offset 
 IFIN.deg                65.63:  Inc, Final 
 IMAX.deg                66.77:  Inc Max 
 IMIN.deg                65.61:  Inc Min 
 IMND.m                4612.67:  Inc Min Depth 
 IMXD.m                4811.63:  Inc Max Depth 
 JARR.                      No:  Jarring 
 LETM.      08.30.00 30-Jan-21:  Log End Time 
 LOST.hr                     0:  Lost Rig Time 
 LSTM.      21.15.00 27-Jan-21:  Log Start Time 
 MDCL.ppm             41000.00:  Mud Chlorides 
 MDES.     Inversion Oil/Synthetic:  Mud Desc 
 DFD .sg                  1.40:  Mud Density 
 MDMN.sg                  1.40:  Dens Mud Min 
 MDMX.sg                  1.40:  Dens Mud Max 
 MOIL.                      53:  Run Mud Oil % 
 MOWR.                   66:34:  Run Mud OWR 
 MSND.                     0.2:  Run Mud Sand % 
 MSOL.                    17.9:  Run Mud Solids% 
 DFV .spqt               77.00:  Mud Viscosity 
 MWOD.in                  4.75:  MWD Tool OD 
 MWSI.                      No:  Serv Intrp, MWD 
 OTIM.hr                110.38:  Time Operating 
 PCON.           Look Like New:  Pad Condition 
 PMAX.psia             5300.00:  Press Op, Max 
 PV  .cP                 57.00:  Mud PV 
 RUN .                    1200:  Run Number 
 ROPA.m/hr               13.00:  ROP Avg 
 ROPN.m/hr                9.00:  ROP Min 
 ROPX.m/hr               15.00:  ROP Max 
 RPMA.rpm               120.00:  RPM Surface Avg 
 RPMN.rpm               100.00:  RPM Surface Min 
 RPMX.rpm               135.00:  RPM Surface Max 
 RRUN.                    1200:  Rig Run Number 
 RTIM.hr                  2.65:  Time Reaming 
 SAZI.deg               145.04:  Azm, Start 
 SDEP.m                4455.01:  Start Depth 
 SIDD.                      No:  Serv Intrp, DD 
 SINC.deg                65.83:  Inc, Start 
 SPPA.psig             5037.00:  SPP Avg 
 SPPN.psig             4430.00:  SPP Min 
 SPPX.psig             5300.00:  SPP Max 
 STIM.      22.41.04 26-Jan-21:  Start Time 
 SVCS.                 DD, MWD:  Services 
 SVER.                    9.20:  Sperry Version 
 TDAT.m                 412.00:  Tot Depth Attmp 
 TDDF.                      No:  Trip for DD 
 TDLG.m                 412.00:  Tot Depth Loggd 
 TFF .                      No:  Trip for Fail 
 TQAA.f-kp               15.00:  Torque Abs Avg 
 TQAN.f-kp               12.00:  Torque Abs Min 
 TQAX.f-kp               17.00:  Torque Abs Max 
 TRRT.°/30m               1.18:  Turn Rotating 
 MRT .                     ADR:  Maximum Recorded Temperature 
 TTMX.degC               88.24:  Max Tool Temp 
 VS01.                90619458:  Virtual Str1 SN 
 VS02.                90519326:  Virtual Str2 SN 
 VS03.                90522176:  Virtual Str3 SN 
 VS04.                90512683:  Virtual Str4 SN 
 WBMN.klb                 1.00:  WOB Min 
 WITN.           Murad Giluyev:  Customer Rep 
 WITN.     Kamran Kemberlinski:  Customer Rep 2 
 WOBA.klb                 5.00:  WOB Avg 
 WOBX.klb                 9.00:  WOB Max 
 YP  .lhf2               41.00:  Yield Point 
~Curve Information Block
#MNEM.UNIT                 API CODE     Curve Description
#---------               -----------    ---------------------------
 TIME.HHMMSS            00 000 000 000:  GT Time & Date
 GTDEPTH.m              00 000 000 000:  GT Depth
 GTPQH.psia             00 000 000 000:  GT HR Quartz Pressure
 GTTQ.degC              00 000 000 000:  GT Quartz Temperature
 GTTN.NONE              00 000 000 000:  GT Test Number
 GTET.sec               00 000 000 000:  GT Elapsed Test Time
 GTTVD.m                00 000 000 000:  GT True Vertical Depth
#Other Information
#
#WARRANTY: Halliburton will use its best efforts to furnish customers with 
#accurate information and interpretations that are part of, and incident to, the services 
#provided.  However, Halliburton cannot and does not warrant the accuracy 
#or correctness of such information and interpretations.  Under no circumstances should any 
#such information or interpretation be relied upon as the sole basis for any drilling, 
#completion, production, or financial decision or any procedure involving any risk to the 
#safety of any drilling venture, drilling rig or its crew or any other third party.  The 
#Customer has full responsibility for all drilling, completion and production operation.  
#Halliburton makes no representations or warranties, either expressed or 
#implied, including, but not limited to, the implied warranties of merchantability or fitness 
#for a particular purpose, with respect to the services rendered.  In no event will 
#Halliburton be liable for failure to obtain any particular results or for 
#any damages, including, but not limited to, indirect, special or consequential damages, 
#resulting from the use of any information or interpretation provided by Halliburton.
#
~A           TIME           GTDEPTH  GTPQH  GTTQ  GTTN   GTET   GTTVD  
# ...
   18:31:49.660.29-Jan-2021 4752.01 3125.31 82.58 12.00 226.03 2606.49
   18:31:49.860.29-Jan-2021 4752.01 3125.31 82.58 12.00 226.23 2606.49
   18:31:50.060.29-Jan-2021 4752.01 3125.27 82.58 12.00 226.43 2606.49
   18:31:50.260.29-Jan-2021 4752.01 3125.30 82.58 12.00 226.63 2606.49
   18:31:50.460.29-Jan-2021 4752.01 3125.29 82.58 12.00 226.83 2606.49
   18:31:50.660.29-Jan-2021 4752.01 3125.29 82.58 12.00 227.03 2606.49
   18:31:50.860.29-Jan-2021 4752.01 3125.29 82.58 12.00 227.23 2606.49
   18:31:51.060.29-Jan-2021 4752.01 3125.28 82.58 12.00 227.43 2606.49
   18:31:51.260.29-Jan-2021 4752.01 3125.27 82.58 12.00 227.63 2606.49
   18:31:51.460.29-Jan-2021 4752.01 3125.29 82.57 12.00 227.83 2606.49
   18:31:51.660.29-Jan-2021 4752.01 3125.27 82.57 12.00 228.03 2606.49
   18:31:51.860.29-Jan-2021 4752.01 3125.27 82.57 12.00 228.23 2606.49
   18:31:52.060.29-Jan-2021 4752.01 3125.27 82.57 12.00 228.43 2606.49
   18:31:52.260.29-Jan-2021 4752.01 3125.27 82.57 12.00 228.63 2606.49
   18:31:52.460.29-Jan-2021 4752.01 3125.28 82.57 12.00 228.83 2606.49
   18:31:52.660.29-Jan-2021 4752.01 3125.27 82.57 12.00 229.03 2606.49
   18:31:52.860.29-Jan-2021 4752.01 3125.27 82.57 12.00 229.23 2606.49
   18:31:53.060.29-Jan-2021 4752.01 3125.30 82.57 12.00 229.43 2606.49
   18:31:53.260.29-Jan-2021 4752.01 3125.29 82.57 12.00 229.63 2606.49
   18:31:53.461.29-Jan-2021 4752.01 3125.29 82.57 12.00 229.83 2606.49
   18:31:53.661.29-Jan-2021 4752.01 3125.27 82.57 12.00 230.03 2606.49
   18:31:53.861.29-Jan-2021 4752.01 3125.27 82.57 12.00 230.23 2606.49
   18:31:54.061.29-Jan-2021 4752.01 3125.28 82.57 12.00 230.43 2606.49
   18:31:54.261.29-Jan-2021 4752.01 3125.29 82.57 12.00 230.63 2606.49
   18:31:54.461.29-Jan-2021 4752.01 3125.26 82.56 12.00 230.83 2606.49
   18:31:54.661.29-Jan-2021 4752.01 3125.28 82.56 12.00 231.03 2606.49
   18:31:54.861.29-Jan-2021 4752.01 3125.28 82.56 12.00 231.23 2606.49
   18:31:55.061.29-Jan-2021 4752.01 3125.28 82.56 12.00 231.43 2606.49
   18:31:55.261.29-Jan-2021 4752.01 3125.27 82.56 12.00 231.63 2606.49
   18:31:55.461.29-Jan-2021 4752.01 3125.27 82.56 12.00 231.83 2606.49
   18:31:55.661.29-Jan-2021 4752.01 3125.28 82.56 12.00 232.03 2606.49
   18:31:55.861.29-Jan-2021 4752.01 3125.28 82.56 12.00 232.23 2606.49
   18:31:56.061.29-Jan-2021 4752.01 3125.27 82.56 12.00 232.43 2606.49
   18:31:56.261.29-Jan-2021 4752.01 3125.29 82.56 12.00 232.63 2606.49
   18:31:56.461.29-Jan-2021 4752.01 3125.30 82.56 12.00 232.83 2606.49
   18:31:56.661.29-Jan-2021 4752.01 3125.30 82.56 12.00 233.03 2606.49
   18:31:56.861.29-Jan-2021 4752.01 3125.30 82.56 12.00 233.23 2606.49
   18:31:57.061.29-Jan-2021 4752.01 3125.28 82.56 12.00 233.43 2606.49
   18:31:57.261.29-Jan-2021 4752.01 3125.31 82.56 12.00 233.63 2606.49
   18:31:57.461.29-Jan-2021 4752.01 3125.29 82.55 12.00 233.83 2606.49
   18:31:57.661.29-Jan-2021 4752.01 3125.27 82.55 12.00 234.03 2606.49
   18:31:57.861.29-Jan-2021 4752.01 3125.27 82.55 12.00 234.23 2606.49
   18:31:58.061.29-Jan-2021 4752.01 3125.33 82.55 12.00 234.43 2606.49
   18:31:58.261.29-Jan-2021 4752.01 3125.31 82.55 12.00 234.63 2606.49
   18:31:58.461.29-Jan-2021 4752.01 3125.28 82.55 12.00 234.83 2606.49
   18:31:58.661.29-Jan-2021 4752.01 3125.26 82.55 12.00 235.03 2606.49
   18:31:58.861.29-Jan-2021 4752.01 3125.26 82.55 12.00 235.23 2606.49
   18:31:59.061.29-Jan-2021 4752.01 3125.29 82.55 12.00 235.43 2606.49
   18:31:59.261.29-Jan-2021 4752.01 3125.30 82.55 12.00 235.63 2606.49
   18:31:59.461.29-Jan-2021 4752.01 3125.28 82.55 12.00 235.83 2606.49
   18:31:59.661.29-Jan-2021 4752.01 3125.25 82.55 12.00 236.03 2606.49
   18:31:59.861.29-Jan-2021 4752.01 3125.25 82.55 12.00 236.23 2606.49
   18:32:00.061.29-Jan-2021 4752.01 3125.29 82.55 12.00 236.43 2606.49
   18:32:00.261.29-Jan-2021 4752.01 3125.30 82.55 12.00 236.63 2606.49
   18:32:00.461.29-Jan-2021 4752.01 3125.26 82.54 12.00 236.83 2606.49
   18:32:00.661.29-Jan-2021 4752.01 3125.29 82.54 12.00 237.03 2606.49
   18:32:00.861.29-Jan-2021 4752.01 3125.29 82.54 12.00 237.23 2606.49
   18:32:01.061.29-Jan-2021 4752.01 3125.28 82.54 12.00 237.43 2606.49
   18:32:01.261.29-Jan-2021 4752.01 3125.26 82.54 12.00 237.63 2606.49
   18:32:01.461.29-Jan-2021 4752.01 3125.27 82.54 12.00 237.83 2606.49
   18:32:01.661.29-Jan-2021 4752.01 3125.26 82.54 12.00 238.03 2606.49
   18:32:01.862.29-Jan-2021 4752.01 3125.26 82.54 12.00 238.23 2606.49
   18:32:02.062.29-Jan-2021 4752.01 3125.26 82.54 12.00 238.43 2606.49
   18:32:02.262.29-Jan-2021 4752.01 3125.26 82.54 12.00 238.63 2606.49
   18:32:02.462.29-Jan-2021 4752.01 3125.27 82.54 12.00 238.83 2606.49
   18:32:02.662.29-Jan-2021 4752.01 3125.26 82.54 12.00 239.03 2606.49
   18:32:02.862.29-Jan-2021 4752.01 3125.26 82.54 12.00 239.23 2606.49
   18:32:03.062.29-Jan-2021 4752.01 3125.26 82.54 12.00 239.43 2606.49
   18:32:03.262.29-Jan-2021 4752.01 3125.26 82.54 12.00 239.63 2606.49
   18:32:03.462.29-Jan-2021 4752.01 3125.23 82.53 12.00 239.83 2606.49
   18:32:03.662.29-Jan-2021 4752.01 3118.02 82.53 12.00 240.03 2606.49
   18:32:03.862.29-Jan-2021 4752.01 3118.02 82.53 12.00 240.23 2606.49
   18:32:04.062.29-Jan-2021 4752.01 3111.26 82.53 12.00 240.43 2606.49
   18:32:04.262.29-Jan-2021 4752.01 3111.24 82.53 12.00 240.63 2606.49
   18:32:04.462.29-Jan-2021 4752.01 3111.18 82.53 12.00 240.83 2606.49
   18:32:04.662.29-Jan-2021 4752.01 3111.18 82.53 12.00 241.03 2606.49
   18:32:04.862.29-Jan-2021 4752.01 3111.18 82.53 12.00 241.23 2606.49
   18:32:05.062.29-Jan-2021 4752.01 3111.31 82.53 12.00 241.43 2606.49
   18:32:05.262.29-Jan-2021 4752.01 3111.24 82.53 12.00 241.63 2606.49
   18:32:05.462.29-Jan-2021 4752.01 3111.23 82.53 12.00 241.83 2606.49
   18:32:05.662.29-Jan-2021 4752.01 3111.26 82.53 12.00 242.03 2606.49
   18:32:05.862.29-Jan-2021 4752.01 3111.26 82.53 12.00 242.23 2606.49
   18:32:06.062.29-Jan-2021 4752.01 3111.18 82.53 12.00 242.43 2606.49
   18:32:06.262.29-Jan-2021 4752.01 3111.29 82.53 12.00 242.63 2606.49
   18:32:06.462.29-Jan-2021 4752.01 3111.15 82.52 12.00 242.83 2606.49
   18:32:06.662.29-Jan-2021 4752.01 3111.23 82.52 12.00 243.03 2606.49
   18:32:06.862.29-Jan-2021 4752.01 3111.23 82.52 12.00 243.23 2606.49
   18:32:07.062.29-Jan-2021 4752.01 3111.17 82.52 12.00 243.43 2606.49
   18:32:07.262.29-Jan-2021 4752.01 3111.08 82.52 12.00 243.63 2606.49
   18:32:07.462.29-Jan-2021 4752.01 3111.11 82.52 12.00 243.83 2606.49
   18:32:07.662.29-Jan-2021 4752.01 3111.45 82.52 12.00 244.03 2606.49
   18:32:07.862.29-Jan-2021 4752.01 3111.45 82.52 12.00 244.23 2606.49
   18:32:08.062.29-Jan-2021 4752.01 3111.21 82.52 12.00 244.43 2606.49
   18:32:08.262.29-Jan-2021 4752.01 3111.14 82.52 12.00 244.63 2606.49
   18:32:08.462.29-Jan-2021 4752.01 3111.43 82.52 12.00 244.83 2606.49
   18:32:08.662.29-Jan-2021 4752.01 3111.38 82.52 12.00 245.03 2606.49
   18:32:08.862.29-Jan-2021 4752.01 3111.38 82.52 12.00 245.23 2606.49
   18:32:09.062.29-Jan-2021 4752.01 3111.05 82.52 12.00 245.43 2606.49
   18:32:09.262.29-Jan-2021 4752.01 3111.33 82.52 12.00 245.63 2606.49
   18:32:09.462.29-Jan-2021 4752.01 3111.23 82.51 12.00 245.83 2606.49
   18:32:09.662.29-Jan-2021 4752.01 3111.49 82.51 12.00 246.03 2606.49
   18:32:09.862.29-Jan-2021 4752.01 3111.49 82.51 12.00 246.23 2606.49
   18:32:10.062.29-Jan-2021 4752.01 3111.13 82.51 12.00 246.43 2606.49
   18:32:10.262.29-Jan-2021 4752.01 3111.32 82.51 12.00 246.63 2606.49
   18:32:10.463.29-Jan-2021 4752.01 3111.46 82.51 12.00 246.83 2606.49
   18:32:10.663.29-Jan-2021 4752.01 3111.30 82.51 12.00 247.03 2606.49
   18:32:10.863.29-Jan-2021 4752.01 3111.30 82.51 12.00 247.23 2606.49
   18:32:11.063.29-Jan-2021 4752.01 3111.41 82.51 12.00 247.43 2606.49
   18:32:11.263.29-Jan-2021 4752.01 3111.38 82.51 12.00 247.63 2606.49
   18:32:11.463.29-Jan-2021 4752.01 3111.32 82.51 12.00 247.83 2606.49
   18:32:11.663.29-Jan-2021 4752.01 3111.22 82.51 12.00 248.03 2606.49
   18:32:11.863.29-Jan-2021 4752.01 3111.22 82.51 12.00 248.23 2606.49
   18:32:12.063.29-Jan-2021 4752.01 3111.26 82.51 12.00 248.43 2606.49
