~Version Information
 VERS.                  2.0:   CWLS log ASCII Standard -VERSION 2.0
 WRAP.                   NO:   One line per depth step
~Well Information Block
#MNEM.UNIT     VALUE/NAME     DESCRIPTION
#---------     -----------    ---------------------------
 STRT.S             02:56:18 28-Jan-21: START TIME 02:56:18 28-Jan-21
 STOP.S             03:02:54 28-Jan-21: STOP TIME  03:02:54 28-Jan-21
 STEP.S                   0.00: STEP TIME
 NULL.                 -999.25: NULL VALUE
 DFWT.                        :  DIST FWL TEXT
 DFST.                        :  DIST FSL TEXT
 DMF .             Drill Floor:  DRILL MEAS FROM
 STIM.      00.00.00 25-Sep-20:  START TIME
 DATE.      16.12.48 31-Jan-21:  END TIME
 SPUD.               20-Sep-20:  SPUD DATE
 NREF.                    Grid:  NORTH REFERENCE
 HPTY.       Minimum Curvature:  HOLE POS TYPE
 DMOD.             Drill Model:  DRILL MOD DESC
 SVYD.                  Survey:  SURVEY DESC
 ILTD.               Lithology:  INTERP LTH DESC
 FTOP.          Formation Tops:  FORM TOPS DESC
 RIG .              East Azeri:  RIG NAME
 PDAT.          Mean Sea Level:  PERMANENT DATUM
 FLD .                     ACG:  FIELD NAME
 SON .        AZ-XX-0906591820:  JOB NUMBER
 CTRY.              Azerbaijan:  COUNTRY NAME
 WELL.                     D37:  WELL NAME
 SRVC.     Turan Drilling & Engineering:  CONTRACTOR
 COMP.     BP Exploration (Caspian Sea) ltd.:  COMPANY
 WTYP.                Deviated:  WELL TYPE
 MDS .        Operator Entered:  MAG DATA SOURCE
 UWI .                     N/A:  UNIQUE WELL IDENTIFIER
 API .                     N/A:  API NUMBER
 BASE.              Azerbaijan:  LOGGING EQUIPMENT BASE LOCATION
 REGN.                   EESSA:  REGION
 PROV.                    Baku:  PROVINCE
 STAT.                    Baku:  STATE NAME
 MWDS.                    Baku:  MWD SHOP
 JOBN.        AZ-XX-0906591820:  JOB TICKET NUMB
 DOE .                     N/A:  DOE NUMBER
 DCON.         Sperry Drilling:  DIRECTNL CONTR
 UNIT.                     N/A:  LOGGING EQUIPMENT ID
 CNTY.                        :  COUNTY
 LOC .                        :  LOCATION
 LMF .             Drill Floor:  LOG MEASURED FROM
 TVDS.m                  43.60:  TVDSS CORRECTN
 LATI.deg                40.02:  LATITUDE
 LONG.deg                51.45:  LONGITUDE
 WHNS.m                  11.04:  WELL HEAD N/S
 WHEW.m                 -12.38:  WELL HEAD E/W
 UTMX.m              538763.98:  UTM X
 UTMY.m             4431880.20:  UTM Y
 DFWL.m                   0.00:  DISTANCE FWL
 DFSL.m                   0.00:  DISTANCE FSL
 SDEP.m                 300.00:  START DEPTH
 TDD .m                4900.01:  TOTAL DEPTH (DRILLER)
 VSDR.deg               185.64:  VERT SEC DIRECT
 GVFD.g                   1.00:  GRAVITY FIELD
 MFLD.nT              50301.00:  MAGNETIC FIELD
 MDIP.deg                59.46:  MAGNETIC DIP
 MDEC.deg                 6.43:  MAGNETIC DECL
 GRDC.deg                 0.29:  GRID CORRECTION
 AZTC.deg                 6.14:  AZM TOTAL CORR
 EPD .m                   0.00:  ELEVATION
 EGL .m                   0.00:  GROUND ELEVATION
 WDMS.m                 151.80:  WD ELEV
 APD .m                  43.60:  DEPTH ABOVE PD
 DEP .m                 571.69:  DEPTH
 AGAP.m                  43.60:  AIR GAP
 VSEW.m                 -12.38:  VERT SEC E/W
 VSNS.m                  11.04:  VERT SEC N/S
 EKB .m                  43.60:  KB ELEVATION
 EDF .m                  43.60:  DF ELEVATION
 TDL .m                 412.00:  TOTAL DEPTH (LOGGER)
 VSC .                       0:  VS TO CLOSURE
 MAGU.                 1849300:  MAGUTM CHECKSUM
~Parameter Information Block
#MNEM.UNIT       Value        Description
#---------     -----------    ---------------------------
 AV  .mps                 2.21:  Ann Velocity 
 AVMX.mps                 2.53:  Max Ann Veloc 
 AZIF.deg               144.83:  Azm, Final 
 BHAT.        Rotary Steerable:  BHA Type 
 BROT.°/30m              -0.52:  Build Rotating 
 BS  .in                  6.50:  Bit Size 
 BTPL.psig              209.00:  Bit Press Loss 
 CABU.                      No:  Customer Abuse 
 CGEO.        Ali Isfandiyarov:  Customer Geo 
 COMM.                     ì¡€:  Run Comments 1 
 TCS .hr                 61.31:  Time Ciculation Ended 
 CV  .mps                 4.66:  Crit Velocity 
 CVMX.mps                 5.02:  Max Crit Veloc 
 DD1 .          Fariz Nahmatov:  Direct Drillr 1 
 DD2 .            Musa Ahmadov:  Direct Drillr 2 
 DDSV.               Geo-Pilot:  DD Service 
 DEFF.%                 100.00:  % Det Eff 
 DLRX.°/30m               1.44:  Dogleg Rot Max 
 DLSO.°/30m               0.83:  Dogleg Oriented 
 DLSX.°/30m               1.44:  Dogleg Str Max 
 DRET.      08.30.00 30-Jan-21:  Drill End Time 
 DRST.      21.15.00 27-Jan-21:  Drill Start Tim 
 DTIM.hr                 37.28:  Time Drilling 
 EDEP.m                4867.01:  End Depth 
 ENG1.          Rasim Hashimov:  Engineer 1 
 ENG2.         Almaz Almadatov:  Engineer 2 
 ENG3.        Tamerlan Ahmadov:  Engineer 3 
 ETIM.      22.41.04 31-Jan-21:  End Time 
 FLOI.gpm               400.00:  Flow In 
 FLON.gpm               300.00:  Flow In Min 
 FLOS.cptm                0.00:  Fluid Loss 
 FLOX.gpm               400.00:  Flow In Max 
 HFLO.                      No:  High Flow 
 HPRE.                      No:  High Pressure 
 HTEM.                      No:  High Temp 
 HYDO.m                   1.80:  Hydro Offset 
 IFIN.deg                65.63:  Inc, Final 
 IMAX.deg                66.77:  Inc Max 
 IMIN.deg                65.61:  Inc Min 
 IMND.m                4612.67:  Inc Min Depth 
 IMXD.m                4811.63:  Inc Max Depth 
 JARR.                      No:  Jarring 
 LETM.      08.30.00 30-Jan-21:  Log End Time 
 LOST.hr                     0:  Lost Rig Time 
 LSTM.      21.15.00 27-Jan-21:  Log Start Time 
 MDCL.ppm             41000.00:  Mud Chlorides 
 MDES.     Inversion Oil/Synthetic:  Mud Desc 
 DFD .sg                  1.40:  Mud Density 
 MDMN.sg                  1.40:  Dens Mud Min 
 MDMX.sg                  1.40:  Dens Mud Max 
 MOIL.                      53:  Run Mud Oil % 
 MOWR.                   66:34:  Run Mud OWR 
 MSND.                     0.2:  Run Mud Sand % 
 MSOL.                    17.9:  Run Mud Solids% 
 DFV .spqt               77.00:  Mud Viscosity 
 MWOD.in                  4.75:  MWD Tool OD 
 MWSI.                      No:  Serv Intrp, MWD 
 OTIM.hr                110.38:  Time Operating 
 PCON.           Look Like New:  Pad Condition 
 PMAX.psia             5300.00:  Press Op, Max 
 PV  .cP                 57.00:  Mud PV 
 RUN .                    1200:  Run Number 
 ROPA.m/hr               13.00:  ROP Avg 
 ROPN.m/hr                9.00:  ROP Min 
 ROPX.m/hr               15.00:  ROP Max 
 RPMA.rpm               120.00:  RPM Surface Avg 
 RPMN.rpm               100.00:  RPM Surface Min 
 RPMX.rpm               135.00:  RPM Surface Max 
 RRUN.                    1200:  Rig Run Number 
 RTIM.hr                  2.65:  Time Reaming 
 SAZI.deg               145.04:  Azm, Start 
 SDEP.m                4455.01:  Start Depth 
 SIDD.                      No:  Serv Intrp, DD 
 SINC.deg                65.83:  Inc, Start 
 SPPA.psig             5037.00:  SPP Avg 
 SPPN.psig             4430.00:  SPP Min 
 SPPX.psig             5300.00:  SPP Max 
 STIM.      22.41.04 26-Jan-21:  Start Time 
 SVCS.                 DD, MWD:  Services 
 SVER.                    9.20:  Sperry Version 
 TDAT.m                 412.00:  Tot Depth Attmp 
 TDDF.                      No:  Trip for DD 
 TDLG.m                 412.00:  Tot Depth Loggd 
 TFF .                      No:  Trip for Fail 
 TQAA.f-kp               15.00:  Torque Abs Avg 
 TQAN.f-kp               12.00:  Torque Abs Min 
 TQAX.f-kp               17.00:  Torque Abs Max 
 TRRT.°/30m               1.18:  Turn Rotating 
 MRT .                     ADR:  Maximum Recorded Temperature 
 TTMX.degC               88.24:  Max Tool Temp 
 VS01.                90619458:  Virtual Str1 SN 
 VS02.                90519326:  Virtual Str2 SN 
 VS03.                90522176:  Virtual Str3 SN 
 VS04.                90512683:  Virtual Str4 SN 
 WBMN.klb                 1.00:  WOB Min 
 WITN.           Murad Giluyev:  Customer Rep 
 WITN.     Kamran Kemberlinski:  Customer Rep 2 
 WOBA.klb                 5.00:  WOB Avg 
 WOBX.klb                 9.00:  WOB Max 
 YP  .lhf2               41.00:  Yield Point 
~Curve Information Block
#MNEM.UNIT                 API CODE     Curve Description
#---------               -----------    ---------------------------
 TIME.HHMMSS            00 000 000 000:  GT Time & Date
 GTDEPTH.m              00 000 000 000:  GT Depth
 GTPQH.psia             00 000 000 000:  GT HR Quartz Pressure
 GTTQ.degC              00 000 000 000:  GT Quartz Temperature
 GTTN.NONE              00 000 000 000:  GT Test Number
 GTET.sec               00 000 000 000:  GT Elapsed Test Time
 GTTVD.m                00 000 000 000:  GT True Vertical Depth
#Other Information
#
#WARRANTY: Halliburton will use its best efforts to furnish customers with 
#accurate information and interpretations that are part of, and incident to, the services 
#provided.  However, Halliburton cannot and does not warrant the accuracy 
#or correctness of such information and interpretations.  Under no circumstances should any 
#such information or interpretation be relied upon as the sole basis for any drilling, 
#completion, production, or financial decision or any procedure involving any risk to the 
#safety of any drilling venture, drilling rig or its crew or any other third party.  The 
#Customer has full responsibility for all drilling, completion and production operation.  
#Halliburton makes no representations or warranties, either expressed or 
#implied, including, but not limited to, the implied warranties of merchantability or fitness 
#for a particular purpose, with respect to the services rendered.  In no event will 
#Halliburton be liable for failure to obtain any particular results or for 
#any damages, including, but not limited to, indirect, special or consequential damages, 
#resulting from the use of any information or interpretation provided by Halliburton.
#
~A           TIME           GTDEPTH  GTPQH  GTTQ  GTTN  GTET   GTTVD  
# ...
   02:57:27.000.28-Jan-2021 4452.31 5407.10 59.29 2.00  69.00 2484.76
   02:57:27.200.28-Jan-2021 4452.31 5407.10 59.29 2.00  69.20 2484.76
   02:57:27.400.28-Jan-2021 4452.31 5405.10 59.29 2.00  69.40 2484.76
   02:57:27.600.28-Jan-2021 4452.31 5403.43 59.29 2.00  69.60 2484.76
   02:57:27.800.28-Jan-2021 4452.31 5404.36 59.29 2.00  69.80 2484.76
   02:57:28.000.28-Jan-2021 4452.31 5404.38 59.29 2.00  70.00 2484.76
   02:57:28.200.28-Jan-2021 4452.31 5404.38 59.29 2.00  70.20 2484.76
   02:57:28.400.28-Jan-2021 4452.31 5405.22 59.29 2.00  70.40 2484.76
   02:57:28.600.28-Jan-2021 4452.31 5404.13 59.29 2.00  70.60 2484.76
   02:57:28.800.28-Jan-2021 4452.31 5404.85 59.29 2.00  70.80 2484.76
   02:57:29.000.28-Jan-2021 4452.31 5404.65 59.29 2.00  71.00 2484.76
   02:57:29.200.28-Jan-2021 4452.31 5404.65 59.29 2.00  71.20 2484.76
   02:57:29.400.28-Jan-2021 4452.31 5404.29 59.29 2.00  71.40 2484.76
   02:57:29.600.28-Jan-2021 4452.31 5403.81 59.29 2.00  71.60 2484.76
   02:57:29.800.28-Jan-2021 4452.31 5396.94 59.29 2.00  71.80 2484.76
   02:57:30.000.28-Jan-2021 4452.31 5403.22 59.29 2.00  72.00 2484.76
   02:57:30.200.28-Jan-2021 4452.31 5403.22 59.29 2.00  72.20 2484.76
   02:57:30.400.28-Jan-2021 4452.31 5406.58 59.29 2.00  72.40 2484.76
   02:57:30.600.28-Jan-2021 4452.31 5406.23 59.29 2.00  72.60 2484.76
   02:57:30.800.28-Jan-2021 4452.31 5404.19 59.29 2.00  72.80 2484.76
   02:57:31.000.28-Jan-2021 4452.31 5404.68 59.29 2.00  73.00 2484.76
   02:57:31.200.28-Jan-2021 4452.31 5404.68 59.29 2.00  73.20 2484.76
   02:57:31.400.28-Jan-2021 4452.31 5404.57 59.29 2.00  73.40 2484.76
   02:57:31.600.28-Jan-2021 4452.31 5404.66 59.29 2.00  73.60 2484.76
   02:57:31.800.28-Jan-2021 4452.31 5404.13 59.29 2.00  73.80 2484.76
   02:57:32.000.28-Jan-2021 4452.31 5405.22 59.29 2.00  74.00 2484.76
   02:57:32.200.28-Jan-2021 4452.31 5405.22 59.29 2.00  74.20 2484.76
   02:57:32.400.28-Jan-2021 4452.31 5404.97 59.29 2.00  74.40 2484.76
   02:57:32.600.28-Jan-2021 4452.31 5404.84 59.29 2.00  74.60 2484.76
   02:57:32.800.28-Jan-2021 4452.31 5403.70 59.29 2.00  74.80 2484.76
   02:57:33.000.28-Jan-2021 4452.31 5405.34 59.29 2.00  75.00 2484.76
   02:57:33.200.28-Jan-2021 4452.31 5405.34 59.29 2.00  75.20 2484.76
   02:57:33.400.28-Jan-2021 4452.31 5398.93 59.29 2.00  75.40 2484.76
   02:57:33.600.28-Jan-2021 4452.31 5405.25 59.29 2.00  75.60 2484.76
   02:57:33.800.28-Jan-2021 4452.31 5404.82 59.29 2.00  75.80 2484.76
   02:57:34.000.28-Jan-2021 4452.31 5407.26 59.28 2.00  76.00 2484.76
   02:57:34.200.28-Jan-2021 4452.31 5407.26 59.28 2.00  76.20 2484.76
   02:57:34.400.28-Jan-2021 4452.31 5404.67 59.28 2.00  76.40 2484.76
   02:57:34.600.28-Jan-2021 4452.31 5405.77 59.28 2.00  76.60 2484.76
   02:57:34.800.28-Jan-2021 4452.31 5407.18 59.28 2.00  76.80 2484.76
   02:57:35.000.28-Jan-2021 4452.31 5397.08 59.28 2.00  77.00 2484.76
   02:57:35.200.28-Jan-2021 4452.31 5397.08 59.28 2.00  77.20 2484.76
   02:57:35.400.28-Jan-2021 4452.31 5404.55 59.28 2.00  77.40 2484.76
   02:57:35.600.28-Jan-2021 4452.31 5408.38 59.28 2.00  77.60 2484.76
   02:57:35.800.28-Jan-2021 4452.31 5406.04 59.28 2.00  77.80 2484.76
   02:57:36.000.28-Jan-2021 4452.31 5396.67 59.28 2.00  78.00 2484.76
   02:57:36.200.28-Jan-2021 4452.31 5396.67 59.28 2.00  78.20 2484.76
   02:57:36.400.28-Jan-2021 4452.31 5403.27 59.28 2.00  78.40 2484.76
   02:57:36.600.28-Jan-2021 4452.31 5408.36 59.28 2.00  78.60 2484.76
   02:57:36.800.28-Jan-2021 4452.31 5404.96 59.28 2.00  78.80 2484.76
   02:57:37.000.28-Jan-2021 4452.31 5397.14 59.28 2.00  79.00 2484.76
   02:57:37.200.28-Jan-2021 4452.31 5397.14 59.28 2.00  79.20 2484.76
   02:57:37.400.28-Jan-2021 4452.31 5402.98 59.28 2.00  79.40 2484.76
   02:57:37.600.28-Jan-2021 4452.31 5406.82 59.28 2.00  79.60 2484.76
   02:57:37.800.28-Jan-2021 4452.31 5406.44 59.28 2.00  79.80 2484.76
   02:57:38.000.28-Jan-2021 4452.31 5404.69 59.28 2.00  80.00 2484.76
   02:57:38.200.28-Jan-2021 4452.31 5404.69 59.28 2.00  80.20 2484.76
   02:57:38.400.28-Jan-2021 4452.31 5403.69 59.28 2.00  80.40 2484.76
   02:57:38.600.28-Jan-2021 4452.31 5404.70 59.28 2.00  80.60 2484.76
   02:57:38.800.28-Jan-2021 4452.31 5404.75 59.28 2.00  80.80 2484.76
   02:57:39.000.28-Jan-2021 4452.31 5405.01 59.28 2.00  81.00 2484.76
   02:57:39.200.28-Jan-2021 4452.31 5405.01 59.28 2.00  81.20 2484.76
   02:57:39.400.28-Jan-2021 4452.31 5404.39 59.28 2.00  81.40 2484.76
   02:57:39.600.28-Jan-2021 4452.31 5405.32 59.28 2.00  81.60 2484.76
   02:57:39.800.28-Jan-2021 4452.31 5404.63 59.28 2.00  81.80 2484.76
   02:57:40.000.28-Jan-2021 4452.31 5403.90 59.28 2.00  82.00 2484.76
   02:57:40.200.28-Jan-2021 4452.31 5403.90 59.28 2.00  82.20 2484.76
   02:57:40.400.28-Jan-2021 4452.31 5404.10 59.28 2.00  82.40 2484.76
   02:57:40.600.28-Jan-2021 4452.31 5396.39 59.28 2.00  82.60 2484.76
   02:57:40.800.28-Jan-2021 4452.31 5404.44 59.28 2.00  82.80 2484.76
   02:57:41.000.28-Jan-2021 4452.31 5404.00 59.28 2.00  83.00 2484.76
   02:57:41.200.28-Jan-2021 4452.31 5404.00 59.28 2.00  83.20 2484.76
   02:57:41.400.28-Jan-2021 4452.31 5405.24 59.28 2.00  83.40 2484.76
   02:57:41.600.28-Jan-2021 4452.31 5404.49 59.28 2.00  83.60 2484.76
   02:57:41.800.28-Jan-2021 4452.31 5404.58 59.28 2.00  83.80 2484.76
   02:57:42.000.28-Jan-2021 4452.31 5404.02 59.28 2.00  84.00 2484.76
   02:57:42.200.28-Jan-2021 4452.31 5404.02 59.28 2.00  84.20 2484.76
   02:57:42.400.28-Jan-2021 4452.31 5405.20 59.28 2.00  84.40 2484.76
   02:57:42.600.28-Jan-2021 4452.31 5404.88 59.28 2.00  84.60 2484.76
   02:57:42.800.28-Jan-2021 4452.31 5405.55 59.28 2.00  84.80 2484.76
   02:57:43.000.28-Jan-2021 4452.31 5405.07 59.28 2.00  85.00 2484.76
   02:57:43.200.28-Jan-2021 4452.31 5405.07 59.28 2.00  85.20 2484.76
   02:57:43.400.28-Jan-2021 4452.31 5404.77 59.28 2.00  85.40 2484.76
   02:57:43.600.28-Jan-2021 4452.31 5404.24 59.28 2.00  85.60 2484.76
   02:57:43.800.28-Jan-2021 4452.31 5405.66 59.28 2.00  85.80 2484.76
   02:57:44.000.28-Jan-2021 4452.31 5397.38 59.28 2.00  86.00 2484.76
   02:57:44.200.28-Jan-2021 4452.31 5397.38 59.28 2.00  86.20 2484.76
   02:57:44.400.28-Jan-2021 4452.31 5405.28 59.28 2.00  86.40 2484.76
   02:57:44.600.28-Jan-2021 4452.31 5406.81 59.28 2.00  86.60 2484.76
   02:57:44.800.28-Jan-2021 4452.31 5399.54 59.28 2.00  86.80 2484.76
   02:57:45.000.28-Jan-2021 4452.31 5404.47 59.28 2.00  87.00 2484.76
   02:57:45.200.28-Jan-2021 4452.31 5404.47 59.28 2.00  87.20 2484.76
   02:57:45.400.28-Jan-2021 4452.31 5407.83 59.28 2.00  87.40 2484.76
   02:57:45.600.28-Jan-2021 4452.31 5398.69 59.28 2.00  87.60 2484.76
   02:57:45.800.28-Jan-2021 4452.31 5404.76 59.28 2.00  87.80 2484.76
   02:57:46.000.28-Jan-2021 4452.31 5404.92 59.27 2.00  88.00 2484.76
   02:57:46.200.28-Jan-2021 4452.31 5404.92 59.27 2.00  88.20 2484.76
   02:57:46.400.28-Jan-2021 4452.31 5408.27 59.27 2.00  88.40 2484.76
   02:57:46.600.28-Jan-2021 4452.31 5402.89 59.27 2.00  88.60 2484.76
   02:57:46.800.28-Jan-2021 4452.31 5398.92 59.27 2.00  88.80 2484.76
   02:57:47.000.28-Jan-2021 4452.31 5404.07 59.27 2.00  89.00 2484.76
   02:57:47.200.28-Jan-2021 4452.31 5404.07 59.27 2.00  89.20 2484.76
   02:57:47.400.28-Jan-2021 4452.31 5408.08 59.27 2.00  89.40 2484.76
   02:57:47.600.28-Jan-2021 4452.31 5404.84 59.27 2.00  89.60 2484.76
   02:57:47.800.28-Jan-2021 4452.31 5402.62 59.27 2.00  89.80 2484.76
   02:57:48.000.28-Jan-2021 4452.31 5397.64 59.27 2.00  90.00 2484.76
   02:57:48.200.28-Jan-2021 4452.31 5397.64 59.27 2.00  90.20 2484.76
   02:57:48.400.28-Jan-2021 4452.31 5406.48 59.27 2.00  90.40 2484.76
   02:57:48.600.28-Jan-2021 4452.31 5407.32 59.27 2.00  90.60 2484.76
   02:57:48.800.28-Jan-2021 4452.31 5405.71 59.27 2.00  90.80 2484.76
   02:57:49.000.28-Jan-2021 4452.31 5405.09 59.27 2.00  91.00 2484.76
   02:57:49.200.28-Jan-2021 4452.31 5405.09 59.27 2.00  91.20 2484.76
   02:57:49.400.28-Jan-2021 4452.31 5405.40 59.27 2.00  91.40 2484.76
   02:57:49.600.28-Jan-2021 4452.31 5405.03 59.27 2.00  91.60 2484.76
   02:57:49.800.28-Jan-2021 4452.31 5405.31 59.27 2.00  91.80 2484.76
