~Version Information
 VERS.                  2.0:   CWLS log ASCII Standard -VERSION 2.0
 WRAP.                   NO:   One line per depth step
~Well Information Block
#MNEM.UNIT     VALUE/NAME     DESCRIPTION
#---------     -----------    ---------------------------
 STRT.S             00:06:31 30-Jan-21: START TIME 00:06:31 30-Jan-21
 STOP.S             00:13:00 30-Jan-21: STOP TIME  00:13:00 30-Jan-21
 STEP.S                   0.00: STEP TIME
 NULL.                 -999.25: NULL VALUE
 DFWT.                        :  DIST FWL TEXT
 DFST.                        :  DIST FSL TEXT
 DMF .             Drill Floor:  DRILL MEAS FROM
 STIM.      00.00.00 25-Sep-20:  START TIME
 DATE.      16.12.48 31-Jan-21:  END TIME
 SPUD.               20-Sep-20:  SPUD DATE
 NREF.                    Grid:  NORTH REFERENCE
 HPTY.       Minimum Curvature:  HOLE POS TYPE
 DMOD.             Drill Model:  DRILL MOD DESC
 SVYD.                  Survey:  SURVEY DESC
 ILTD.               Lithology:  INTERP LTH DESC
 FTOP.          Formation Tops:  FORM TOPS DESC
 RIG .              East Azeri:  RIG NAME
 PDAT.          Mean Sea Level:  PERMANENT DATUM
 FLD .                     ACG:  FIELD NAME
 SON .        AZ-XX-0906591820:  JOB NUMBER
 CTRY.              Azerbaijan:  COUNTRY NAME
 WELL.                     D37:  WELL NAME
 SRVC.     Turan Drilling & Engineering:  CONTRACTOR
 COMP.     BP Exploration (Caspian Sea) ltd.:  COMPANY
 WTYP.                Deviated:  WELL TYPE
 MDS .        Operator Entered:  MAG DATA SOURCE
 UWI .                     N/A:  UNIQUE WELL IDENTIFIER
 API .                     N/A:  API NUMBER
 BASE.              Azerbaijan:  LOGGING EQUIPMENT BASE LOCATION
 REGN.                   EESSA:  REGION
 PROV.                    Baku:  PROVINCE
 STAT.                    Baku:  STATE NAME
 MWDS.                    Baku:  MWD SHOP
 JOBN.        AZ-XX-0906591820:  JOB TICKET NUMB
 DOE .                     N/A:  DOE NUMBER
 DCON.         Sperry Drilling:  DIRECTNL CONTR
 UNIT.                     N/A:  LOGGING EQUIPMENT ID
 CNTY.                        :  COUNTY
 LOC .                        :  LOCATION
 LMF .             Drill Floor:  LOG MEASURED FROM
 TVDS.m                  43.60:  TVDSS CORRECTN
 LATI.deg                40.02:  LATITUDE
 LONG.deg                51.45:  LONGITUDE
 WHNS.m                  11.04:  WELL HEAD N/S
 WHEW.m                 -12.38:  WELL HEAD E/W
 UTMX.m              538763.98:  UTM X
 UTMY.m             4431880.20:  UTM Y
 DFWL.m                   0.00:  DISTANCE FWL
 DFSL.m                   0.00:  DISTANCE FSL
 SDEP.m                 300.00:  START DEPTH
 TDD .m                4900.01:  TOTAL DEPTH (DRILLER)
 VSDR.deg               185.64:  VERT SEC DIRECT
 GVFD.g                   1.00:  GRAVITY FIELD
 MFLD.nT              50301.00:  MAGNETIC FIELD
 MDIP.deg                59.46:  MAGNETIC DIP
 MDEC.deg                 6.43:  MAGNETIC DECL
 GRDC.deg                 0.29:  GRID CORRECTION
 AZTC.deg                 6.14:  AZM TOTAL CORR
 EPD .m                   0.00:  ELEVATION
 EGL .m                   0.00:  GROUND ELEVATION
 WDMS.m                 151.80:  WD ELEV
 APD .m                  43.60:  DEPTH ABOVE PD
 DEP .m                 571.69:  DEPTH
 AGAP.m                  43.60:  AIR GAP
 VSEW.m                 -12.38:  VERT SEC E/W
 VSNS.m                  11.04:  VERT SEC N/S
 EKB .m                  43.60:  KB ELEVATION
 EDF .m                  43.60:  DF ELEVATION
 TDL .m                 412.00:  TOTAL DEPTH (LOGGER)
 VSC .                       0:  VS TO CLOSURE
 MAGU.                 1849300:  MAGUTM CHECKSUM
~Parameter Information Block
#MNEM.UNIT       Value        Description
#---------     -----------    ---------------------------
 AV  .mps                 2.21:  Ann Velocity 
 AVMX.mps                 2.53:  Max Ann Veloc 
 AZIF.deg               144.83:  Azm, Final 
 BHAT.        Rotary Steerable:  BHA Type 
 BROT.°/30m              -0.52:  Build Rotating 
 BS  .in                  6.50:  Bit Size 
 BTPL.psig              209.00:  Bit Press Loss 
 CABU.                      No:  Customer Abuse 
 CGEO.        Ali Isfandiyarov:  Customer Geo 
 COMM.                     Új:  Run Comments 1 
 TCS .hr                 61.31:  Time Ciculation Ended 
 CV  .mps                 4.66:  Crit Velocity 
 CVMX.mps                 5.02:  Max Crit Veloc 
 DD1 .          Fariz Nahmatov:  Direct Drillr 1 
 DD2 .            Musa Ahmadov:  Direct Drillr 2 
 DDSV.               Geo-Pilot:  DD Service 
 DEFF.%                 100.00:  % Det Eff 
 DLRX.°/30m               1.44:  Dogleg Rot Max 
 DLSO.°/30m               0.83:  Dogleg Oriented 
 DLSX.°/30m               1.44:  Dogleg Str Max 
 DRET.      08.30.00 30-Jan-21:  Drill End Time 
 DRST.      21.15.00 27-Jan-21:  Drill Start Tim 
 DTIM.hr                 37.28:  Time Drilling 
 EDEP.m                4867.01:  End Depth 
 ENG1.          Rasim Hashimov:  Engineer 1 
 ENG2.         Almaz Almadatov:  Engineer 2 
 ENG3.        Tamerlan Ahmadov:  Engineer 3 
 ETIM.      22.41.04 31-Jan-21:  End Time 
 FLOI.gpm               400.00:  Flow In 
 FLON.gpm               300.00:  Flow In Min 
 FLOS.cptm                0.00:  Fluid Loss 
 FLOX.gpm               400.00:  Flow In Max 
 HFLO.                      No:  High Flow 
 HPRE.                      No:  High Pressure 
 HTEM.                      No:  High Temp 
 HYDO.m                   1.80:  Hydro Offset 
 IFIN.deg                65.63:  Inc, Final 
 IMAX.deg                66.77:  Inc Max 
 IMIN.deg                65.61:  Inc Min 
 IMND.m                4612.67:  Inc Min Depth 
 IMXD.m                4811.63:  Inc Max Depth 
 JARR.                      No:  Jarring 
 LETM.      08.30.00 30-Jan-21:  Log End Time 
 LOST.hr                     0:  Lost Rig Time 
 LSTM.      21.15.00 27-Jan-21:  Log Start Time 
 MDCL.ppm             41000.00:  Mud Chlorides 
 MDES.     Inversion Oil/Synthetic:  Mud Desc 
 DFD .sg                  1.40:  Mud Density 
 MDMN.sg                  1.40:  Dens Mud Min 
 MDMX.sg                  1.40:  Dens Mud Max 
 MOIL.                      53:  Run Mud Oil % 
 MOWR.                   66:34:  Run Mud OWR 
 MSND.                     0.2:  Run Mud Sand % 
 MSOL.                    17.9:  Run Mud Solids% 
 DFV .spqt               77.00:  Mud Viscosity 
 MWOD.in                  4.75:  MWD Tool OD 
 MWSI.                      No:  Serv Intrp, MWD 
 OTIM.hr                110.38:  Time Operating 
 PCON.           Look Like New:  Pad Condition 
 PMAX.psia             5300.00:  Press Op, Max 
 PV  .cP                 57.00:  Mud PV 
 RUN .                    1200:  Run Number 
 ROPA.m/hr               13.00:  ROP Avg 
 ROPN.m/hr                9.00:  ROP Min 
 ROPX.m/hr               15.00:  ROP Max 
 RPMA.rpm               120.00:  RPM Surface Avg 
 RPMN.rpm               100.00:  RPM Surface Min 
 RPMX.rpm               135.00:  RPM Surface Max 
 RRUN.                    1200:  Rig Run Number 
 RTIM.hr                  2.65:  Time Reaming 
 SAZI.deg               145.04:  Azm, Start 
 SDEP.m                4455.01:  Start Depth 
 SIDD.                      No:  Serv Intrp, DD 
 SINC.deg                65.83:  Inc, Start 
 SPPA.psig             5037.00:  SPP Avg 
 SPPN.psig             4430.00:  SPP Min 
 SPPX.psig             5300.00:  SPP Max 
 STIM.      22.41.04 26-Jan-21:  Start Time 
 SVCS.                 DD, MWD:  Services 
 SVER.                    9.20:  Sperry Version 
 TDAT.m                 412.00:  Tot Depth Attmp 
 TDDF.                      No:  Trip for DD 
 TDLG.m                 412.00:  Tot Depth Loggd 
 TFF .                      No:  Trip for Fail 
 TQAA.f-kp               15.00:  Torque Abs Avg 
 TQAN.f-kp               12.00:  Torque Abs Min 
 TQAX.f-kp               17.00:  Torque Abs Max 
 TRRT.°/30m               1.18:  Turn Rotating 
 MRT .                     ADR:  Maximum Recorded Temperature 
 TTMX.degC               88.24:  Max Tool Temp 
 VS01.                90619458:  Virtual Str1 SN 
 VS02.                90519326:  Virtual Str2 SN 
 VS03.                90522176:  Virtual Str3 SN 
 VS04.                90512683:  Virtual Str4 SN 
 WBMN.klb                 1.00:  WOB Min 
 WITN.           Murad Giluyev:  Customer Rep 
 WITN.     Kamran Kemberlinski:  Customer Rep 2 
 WOBA.klb                 5.00:  WOB Avg 
 WOBX.klb                 9.00:  WOB Max 
 YP  .lhf2               41.00:  Yield Point 
~Curve Information Block
#MNEM.UNIT                 API CODE     Curve Description
#---------               -----------    ---------------------------
 TIME.HHMMSS            00 000 000 000:  GT Time & Date
 GTDEPTH.m              00 000 000 000:  GT Depth
 GTPQH.psia             00 000 000 000:  GT HR Quartz Pressure
 GTTQ.degC              00 000 000 000:  GT Quartz Temperature
 GTTN.NONE              00 000 000 000:  GT Test Number
 GTET.sec               00 000 000 000:  GT Elapsed Test Time
 GTTVD.m                00 000 000 000:  GT True Vertical Depth
#Other Information
#
#WARRANTY: Halliburton will use its best efforts to furnish customers with 
#accurate information and interpretations that are part of, and incident to, the services 
#provided.  However, Halliburton cannot and does not warrant the accuracy 
#or correctness of such information and interpretations.  Under no circumstances should any 
#such information or interpretation be relied upon as the sole basis for any drilling, 
#completion, production, or financial decision or any procedure involving any risk to the 
#safety of any drilling venture, drilling rig or its crew or any other third party.  The 
#Customer has full responsibility for all drilling, completion and production operation.  
#Halliburton makes no representations or warranties, either expressed or 
#implied, including, but not limited to, the implied warranties of merchantability or fitness 
#for a particular purpose, with respect to the services rendered.  In no event will 
#Halliburton be liable for failure to obtain any particular results or for 
#any damages, including, but not limited to, indirect, special or consequential damages, 
#resulting from the use of any information or interpretation provided by Halliburton.
#
~A           TIME           GTDEPTH  GTPQH  GTTQ  GTTN   GTET   GTTVD  
# ...
   00:10:17.726.30-Jan-2021 4782.01 3137.84 81.38 14.00 226.04 2618.40
   00:10:17.926.30-Jan-2021 4782.01 3137.84 81.38 14.00 226.24 2618.40
   00:10:18.126.30-Jan-2021 4782.01 3137.85 81.38 14.00 226.44 2618.40
   00:10:18.326.30-Jan-2021 4782.01 3137.86 81.38 14.00 226.64 2618.40
   00:10:18.526.30-Jan-2021 4782.01 3137.80 81.37 14.00 226.84 2618.40
   00:10:18.726.30-Jan-2021 4782.01 3137.90 81.37 14.00 227.04 2618.40
   00:10:18.926.30-Jan-2021 4782.01 3137.90 81.37 14.00 227.24 2618.40
   00:10:19.126.30-Jan-2021 4782.01 3137.87 81.37 14.00 227.44 2618.40
   00:10:19.326.30-Jan-2021 4782.01 3137.75 81.37 14.00 227.64 2618.40
   00:10:19.526.30-Jan-2021 4782.01 3137.94 81.37 14.00 227.84 2618.40
   00:10:19.726.30-Jan-2021 4782.01 3137.87 81.37 14.00 228.04 2618.40
   00:10:19.926.30-Jan-2021 4782.01 3137.87 81.37 14.00 228.24 2618.40
   00:10:20.126.30-Jan-2021 4782.01 3137.84 81.37 14.00 228.44 2618.40
   00:10:20.326.30-Jan-2021 4782.01 3137.86 81.37 14.00 228.64 2618.40
   00:10:20.526.30-Jan-2021 4782.01 3137.86 81.37 14.00 228.84 2618.40
   00:10:20.726.30-Jan-2021 4782.01 3137.87 81.37 14.00 229.04 2618.40
   00:10:20.927.30-Jan-2021 4782.01 3137.87 81.37 14.00 229.24 2618.40
   00:10:21.127.30-Jan-2021 4782.01 3137.83 81.37 14.00 229.44 2618.40
   00:10:21.327.30-Jan-2021 4782.01 3137.89 81.37 14.00 229.64 2618.40
   00:10:21.527.30-Jan-2021 4782.01 3137.86 81.37 14.00 229.84 2618.40
   00:10:21.727.30-Jan-2021 4782.01 3137.84 81.37 14.00 230.04 2618.40
   00:10:21.927.30-Jan-2021 4782.01 3137.84 81.37 14.00 230.24 2618.40
   00:10:22.127.30-Jan-2021 4782.01 3137.86 81.37 14.00 230.44 2618.40
   00:10:22.327.30-Jan-2021 4782.01 3137.85 81.37 14.00 230.64 2618.40
   00:10:22.527.30-Jan-2021 4782.01 3137.84 81.37 14.00 230.84 2618.40
   00:10:22.727.30-Jan-2021 4782.01 3137.88 81.37 14.00 231.04 2618.40
   00:10:22.927.30-Jan-2021 4782.01 3137.88 81.37 14.00 231.24 2618.40
   00:10:23.127.30-Jan-2021 4782.01 3137.84 81.37 14.00 231.44 2618.40
   00:10:23.327.30-Jan-2021 4782.01 3137.85 81.37 14.00 231.64 2618.40
   00:10:23.527.30-Jan-2021 4782.01 3137.85 81.37 14.00 231.84 2618.40
   00:10:23.727.30-Jan-2021 4782.01 3137.85 81.37 14.00 232.04 2618.40
   00:10:23.927.30-Jan-2021 4782.01 3137.85 81.37 14.00 232.24 2618.40
   00:10:24.127.30-Jan-2021 4782.01 3137.85 81.37 14.00 232.44 2618.40
   00:10:24.327.30-Jan-2021 4782.01 3137.85 81.36 14.00 232.64 2618.40
   00:10:24.527.30-Jan-2021 4782.01 3137.84 81.36 14.00 232.84 2618.40
   00:10:24.727.30-Jan-2021 4782.01 3137.86 81.36 14.00 233.04 2618.40
   00:10:24.927.30-Jan-2021 4782.01 3137.86 81.36 14.00 233.24 2618.40
   00:10:25.127.30-Jan-2021 4782.01 3137.86 81.36 14.00 233.44 2618.40
   00:10:25.327.30-Jan-2021 4782.01 3137.84 81.36 14.00 233.64 2618.40
   00:10:25.527.30-Jan-2021 4782.01 3137.85 81.36 14.00 233.85 2618.40
   00:10:25.727.30-Jan-2021 4782.01 3137.84 81.36 14.00 234.05 2618.40
   00:10:25.927.30-Jan-2021 4782.01 3137.84 81.36 14.00 234.25 2618.40
   00:10:26.128.30-Jan-2021 4782.01 3137.82 81.36 14.00 234.45 2618.40
   00:10:26.328.30-Jan-2021 4782.01 3137.88 81.36 14.00 234.65 2618.40
   00:10:26.528.30-Jan-2021 4782.01 3137.84 81.36 14.00 234.85 2618.40
   00:10:26.728.30-Jan-2021 4782.01 3137.84 81.36 14.00 235.05 2618.40
   00:10:26.928.30-Jan-2021 4782.01 3137.84 81.36 14.00 235.25 2618.40
   00:10:27.128.30-Jan-2021 4782.01 3137.85 81.36 14.00 235.45 2618.40
   00:10:27.328.30-Jan-2021 4782.01 3137.84 81.36 14.00 235.65 2618.40
   00:10:27.528.30-Jan-2021 4782.01 3137.85 81.36 14.00 235.85 2618.40
   00:10:27.728.30-Jan-2021 4782.01 3137.85 81.36 14.00 236.05 2618.40
   00:10:27.928.30-Jan-2021 4782.01 3137.85 81.36 14.00 236.25 2618.40
   00:10:28.128.30-Jan-2021 4782.01 3137.84 81.36 14.00 236.45 2618.40
   00:10:28.328.30-Jan-2021 4782.01 3137.83 81.36 14.00 236.65 2618.40
   00:10:28.528.30-Jan-2021 4782.01 3137.85 81.36 14.00 236.85 2618.40
   00:10:28.728.30-Jan-2021 4782.01 3137.83 81.36 14.00 237.05 2618.40
   00:10:28.928.30-Jan-2021 4782.01 3137.83 81.36 14.00 237.25 2618.40
   00:10:29.128.30-Jan-2021 4782.01 3137.84 81.36 14.00 237.45 2618.40
   00:10:29.328.30-Jan-2021 4782.01 3137.81 81.36 14.00 237.65 2618.40
   00:10:29.528.30-Jan-2021 4782.01 3137.87 81.36 14.00 237.85 2618.40
   00:10:29.728.30-Jan-2021 4782.01 3137.84 81.36 14.00 238.05 2618.40
   00:10:29.928.30-Jan-2021 4782.01 3137.84 81.36 14.00 238.25 2618.40
   00:10:30.128.30-Jan-2021 4782.01 3137.83 81.36 14.00 238.45 2618.40
   00:10:30.328.30-Jan-2021 4782.01 3137.86 81.35 14.00 238.65 2618.40
   00:10:30.528.30-Jan-2021 4782.01 3137.63 81.35 14.00 238.85 2618.40
   00:10:30.728.30-Jan-2021 4782.01 3121.47 81.35 14.00 239.05 2618.40
   00:10:30.928.30-Jan-2021 4782.01 3121.47 81.35 14.00 239.25 2618.40
   00:10:31.128.30-Jan-2021 4782.01 3120.19 81.35 14.00 239.45 2618.40
   00:10:31.329.30-Jan-2021 4782.01 3120.07 81.35 14.00 239.65 2618.40
   00:10:31.529.30-Jan-2021 4782.01 3120.21 81.35 14.00 239.85 2618.40
   00:10:31.729.30-Jan-2021 4782.01 3119.84 81.35 14.00 240.05 2618.40
   00:10:31.929.30-Jan-2021 4782.01 3119.84 81.35 14.00 240.25 2618.40
   00:10:32.129.30-Jan-2021 4782.01 3119.67 81.35 14.00 240.45 2618.40
   00:10:32.329.30-Jan-2021 4782.01 3120.29 81.35 14.00 240.65 2618.40
   00:10:32.529.30-Jan-2021 4782.01 3120.05 81.35 14.00 240.85 2618.40
   00:10:32.729.30-Jan-2021 4782.01 3119.95 81.35 14.00 241.05 2618.40
   00:10:32.929.30-Jan-2021 4782.01 3119.95 81.35 14.00 241.25 2618.40
   00:10:33.129.30-Jan-2021 4782.01 3119.96 81.35 14.00 241.45 2618.40
   00:10:33.329.30-Jan-2021 4782.01 3119.96 81.35 14.00 241.65 2618.40
   00:10:33.529.30-Jan-2021 4782.01 3119.60 81.35 14.00 241.85 2618.40
   00:10:33.729.30-Jan-2021 4782.01 3120.12 81.35 14.00 242.05 2618.40
   00:10:33.929.30-Jan-2021 4782.01 3120.12 81.35 14.00 242.25 2618.40
   00:10:34.129.30-Jan-2021 4782.01 3119.93 81.35 14.00 242.45 2618.40
   00:10:34.329.30-Jan-2021 4782.01 3119.86 81.35 14.00 242.65 2618.40
   00:10:34.529.30-Jan-2021 4782.01 3120.03 81.35 14.00 242.85 2618.40
   00:10:34.729.30-Jan-2021 4782.01 3119.79 81.35 14.00 243.05 2618.40
   00:10:34.929.30-Jan-2021 4782.01 3119.79 81.35 14.00 243.25 2618.40
   00:10:35.129.30-Jan-2021 4782.01 3119.88 81.35 14.00 243.45 2618.40
   00:10:35.329.30-Jan-2021 4782.01 3119.87 81.35 14.00 243.65 2618.40
   00:10:35.529.30-Jan-2021 4782.01 3119.90 81.35 14.00 243.85 2618.40
   00:10:35.729.30-Jan-2021 4782.01 3119.80 81.35 14.00 244.05 2618.40
   00:10:35.929.30-Jan-2021 4782.01 3119.80 81.35 14.00 244.25 2618.40
   00:10:36.129.30-Jan-2021 4782.01 3119.99 81.35 14.00 244.45 2618.40
   00:10:36.329.30-Jan-2021 4782.01 3119.90 81.34 14.00 244.65 2618.40
   00:10:36.530.30-Jan-2021 4782.01 3119.95 81.34 14.00 244.85 2618.40
   00:10:36.730.30-Jan-2021 4782.01 3120.01 81.34 14.00 245.05 2618.40
   00:10:36.930.30-Jan-2021 4782.01 3120.01 81.34 14.00 245.25 2618.40
   00:10:37.130.30-Jan-2021 4782.01 3119.44 81.34 14.00 245.45 2618.40
   00:10:37.330.30-Jan-2021 4782.01 3120.15 81.34 14.00 245.65 2618.40
   00:10:37.530.30-Jan-2021 4782.01 3119.94 81.34 14.00 245.85 2618.40
   00:10:37.730.30-Jan-2021 4782.01 3120.01 81.34 14.00 246.05 2618.40
   00:10:37.930.30-Jan-2021 4782.01 3120.01 81.34 14.00 246.25 2618.40
   00:10:38.130.30-Jan-2021 4782.01 3119.93 81.34 14.00 246.45 2618.40
   00:10:38.330.30-Jan-2021 4782.01 3119.85 81.34 14.00 246.65 2618.40
   00:10:38.530.30-Jan-2021 4782.01 3119.93 81.34 14.00 246.85 2618.40
   00:10:38.730.30-Jan-2021 4782.01 3119.84 81.34 14.00 247.05 2618.40
   00:10:38.930.30-Jan-2021 4782.01 3119.84 81.34 14.00 247.25 2618.40
   00:10:39.130.30-Jan-2021 4782.01 3119.84 81.34 14.00 247.45 2618.40
   00:10:39.330.30-Jan-2021 4782.01 3119.73 81.34 14.00 247.65 2618.40
   00:10:39.530.30-Jan-2021 4782.01 3119.80 81.34 14.00 247.85 2618.40
   00:10:39.730.30-Jan-2021 4782.01 3119.96 81.34 14.00 248.05 2618.40
   00:10:39.930.30-Jan-2021 4782.01 3119.96 81.34 14.00 248.25 2618.40
   00:10:40.130.30-Jan-2021 4782.01 3119.87 81.34 14.00 248.45 2618.40
