~Version Information
 VERS.                  2.0:   CWLS log ASCII Standard -VERSION 2.0
 WRAP.                   NO:   One line per depth step
~Well Information Block
#MNEM.UNIT     VALUE/NAME     DESCRIPTION
#---------     -----------    ---------------------------
 STRT.S             08:50:58 29-Jan-21: START TIME 08:50:58 29-Jan-21
 STOP.S             08:57:28 29-Jan-21: STOP TIME  08:57:28 29-Jan-21
 STEP.S                   0.00: STEP TIME
 NULL.                 -999.25: NULL VALUE
 DFWT.                        :  DIST FWL TEXT
 DFST.                        :  DIST FSL TEXT
 DMF .             Drill Floor:  DRILL MEAS FROM
 STIM.      00.00.00 25-Sep-20:  START TIME
 DATE.      16.12.48 31-Jan-21:  END TIME
 SPUD.               20-Sep-20:  SPUD DATE
 NREF.                    Grid:  NORTH REFERENCE
 HPTY.       Minimum Curvature:  HOLE POS TYPE
 DMOD.             Drill Model:  DRILL MOD DESC
 SVYD.                  Survey:  SURVEY DESC
 ILTD.               Lithology:  INTERP LTH DESC
 FTOP.          Formation Tops:  FORM TOPS DESC
 RIG .              East Azeri:  RIG NAME
 PDAT.          Mean Sea Level:  PERMANENT DATUM
 FLD .                     ACG:  FIELD NAME
 SON .        AZ-XX-0906591820:  JOB NUMBER
 CTRY.              Azerbaijan:  COUNTRY NAME
 WELL.                     D37:  WELL NAME
 SRVC.     Turan Drilling & Engineering:  CONTRACTOR
 COMP.     BP Exploration (Caspian Sea) ltd.:  COMPANY
 WTYP.                Deviated:  WELL TYPE
 MDS .        Operator Entered:  MAG DATA SOURCE
 UWI .                     N/A:  UNIQUE WELL IDENTIFIER
 API .                     N/A:  API NUMBER
 BASE.              Azerbaijan:  LOGGING EQUIPMENT BASE LOCATION
 REGN.                   EESSA:  REGION
 PROV.                    Baku:  PROVINCE
 STAT.                    Baku:  STATE NAME
 MWDS.                    Baku:  MWD SHOP
 JOBN.        AZ-XX-0906591820:  JOB TICKET NUMB
 DOE .                     N/A:  DOE NUMBER
 DCON.         Sperry Drilling:  DIRECTNL CONTR
 UNIT.                     N/A:  LOGGING EQUIPMENT ID
 CNTY.                        :  COUNTY
 LOC .                        :  LOCATION
 LMF .             Drill Floor:  LOG MEASURED FROM
 TVDS.m                  43.60:  TVDSS CORRECTN
 LATI.deg                40.02:  LATITUDE
 LONG.deg                51.45:  LONGITUDE
 WHNS.m                  11.04:  WELL HEAD N/S
 WHEW.m                 -12.38:  WELL HEAD E/W
 UTMX.m              538763.98:  UTM X
 UTMY.m             4431880.20:  UTM Y
 DFWL.m                   0.00:  DISTANCE FWL
 DFSL.m                   0.00:  DISTANCE FSL
 SDEP.m                 300.00:  START DEPTH
 TDD .m                4900.01:  TOTAL DEPTH (DRILLER)
 VSDR.deg               185.64:  VERT SEC DIRECT
 GVFD.g                   1.00:  GRAVITY FIELD
 MFLD.nT              50301.00:  MAGNETIC FIELD
 MDIP.deg                59.46:  MAGNETIC DIP
 MDEC.deg                 6.43:  MAGNETIC DECL
 GRDC.deg                 0.29:  GRID CORRECTION
 AZTC.deg                 6.14:  AZM TOTAL CORR
 EPD .m                   0.00:  ELEVATION
 EGL .m                   0.00:  GROUND ELEVATION
 WDMS.m                 151.80:  WD ELEV
 APD .m                  43.60:  DEPTH ABOVE PD
 DEP .m                 571.69:  DEPTH
 AGAP.m                  43.60:  AIR GAP
 VSEW.m                 -12.38:  VERT SEC E/W
 VSNS.m                  11.04:  VERT SEC N/S
 EKB .m                  43.60:  KB ELEVATION
 EDF .m                  43.60:  DF ELEVATION
 TDL .m                 412.00:  TOTAL DEPTH (LOGGER)
 VSC .                       0:  VS TO CLOSURE
 MAGU.                 1849300:  MAGUTM CHECKSUM
~Parameter Information Block
#MNEM.UNIT       Value        Description
#---------     -----------    ---------------------------
 AV  .mps                 2.21:  Ann Velocity 
 AVMX.mps                 2.53:  Max Ann Veloc 
 AZIF.deg               144.83:  Azm, Final 
 BHAT.        Rotary Steerable:  BHA Type 
 BROT.°/30m              -0.52:  Build Rotating 
 BS  .in                  6.50:  Bit Size 
 BTPL.psig              209.00:  Bit Press Loss 
 CABU.                      No:  Customer Abuse 
 CGEO.        Ali Isfandiyarov:  Customer Geo 
 COMM.                     Ä	‡:  Run Comments 1 
 TCS .hr                 61.31:  Time Ciculation Ended 
 CV  .mps                 4.66:  Crit Velocity 
 CVMX.mps                 5.02:  Max Crit Veloc 
 DD1 .          Fariz Nahmatov:  Direct Drillr 1 
 DD2 .            Musa Ahmadov:  Direct Drillr 2 
 DDSV.               Geo-Pilot:  DD Service 
 DEFF.%                 100.00:  % Det Eff 
 DLRX.°/30m               1.44:  Dogleg Rot Max 
 DLSO.°/30m               0.83:  Dogleg Oriented 
 DLSX.°/30m               1.44:  Dogleg Str Max 
 DRET.      08.30.00 30-Jan-21:  Drill End Time 
 DRST.      21.15.00 27-Jan-21:  Drill Start Tim 
 DTIM.hr                 37.28:  Time Drilling 
 EDEP.m                4867.01:  End Depth 
 ENG1.          Rasim Hashimov:  Engineer 1 
 ENG2.         Almaz Almadatov:  Engineer 2 
 ENG3.        Tamerlan Ahmadov:  Engineer 3 
 ETIM.      22.41.04 31-Jan-21:  End Time 
 FLOI.gpm               400.00:  Flow In 
 FLON.gpm               300.00:  Flow In Min 
 FLOS.cptm                0.00:  Fluid Loss 
 FLOX.gpm               400.00:  Flow In Max 
 HFLO.                      No:  High Flow 
 HPRE.                      No:  High Pressure 
 HTEM.                      No:  High Temp 
 HYDO.m                   1.80:  Hydro Offset 
 IFIN.deg                65.63:  Inc, Final 
 IMAX.deg                66.77:  Inc Max 
 IMIN.deg                65.61:  Inc Min 
 IMND.m                4612.67:  Inc Min Depth 
 IMXD.m                4811.63:  Inc Max Depth 
 JARR.                      No:  Jarring 
 LETM.      08.30.00 30-Jan-21:  Log End Time 
 LOST.hr                     0:  Lost Rig Time 
 LSTM.      21.15.00 27-Jan-21:  Log Start Time 
 MDCL.ppm             41000.00:  Mud Chlorides 
 MDES.     Inversion Oil/Synthetic:  Mud Desc 
 DFD .sg                  1.40:  Mud Density 
 MDMN.sg                  1.40:  Dens Mud Min 
 MDMX.sg                  1.40:  Dens Mud Max 
 MOIL.                      53:  Run Mud Oil % 
 MOWR.                   66:34:  Run Mud OWR 
 MSND.                     0.2:  Run Mud Sand % 
 MSOL.                    17.9:  Run Mud Solids% 
 DFV .spqt               77.00:  Mud Viscosity 
 MWOD.in                  4.75:  MWD Tool OD 
 MWSI.                      No:  Serv Intrp, MWD 
 OTIM.hr                110.38:  Time Operating 
 PCON.           Look Like New:  Pad Condition 
 PMAX.psia             5300.00:  Press Op, Max 
 PV  .cP                 57.00:  Mud PV 
 RUN .                    1200:  Run Number 
 ROPA.m/hr               13.00:  ROP Avg 
 ROPN.m/hr                9.00:  ROP Min 
 ROPX.m/hr               15.00:  ROP Max 
 RPMA.rpm               120.00:  RPM Surface Avg 
 RPMN.rpm               100.00:  RPM Surface Min 
 RPMX.rpm               135.00:  RPM Surface Max 
 RRUN.                    1200:  Rig Run Number 
 RTIM.hr                  2.65:  Time Reaming 
 SAZI.deg               145.04:  Azm, Start 
 SDEP.m                4455.01:  Start Depth 
 SIDD.                      No:  Serv Intrp, DD 
 SINC.deg                65.83:  Inc, Start 
 SPPA.psig             5037.00:  SPP Avg 
 SPPN.psig             4430.00:  SPP Min 
 SPPX.psig             5300.00:  SPP Max 
 STIM.      22.41.04 26-Jan-21:  Start Time 
 SVCS.                 DD, MWD:  Services 
 SVER.                    9.20:  Sperry Version 
 TDAT.m                 412.00:  Tot Depth Attmp 
 TDDF.                      No:  Trip for DD 
 TDLG.m                 412.00:  Tot Depth Loggd 
 TFF .                      No:  Trip for Fail 
 TQAA.f-kp               15.00:  Torque Abs Avg 
 TQAN.f-kp               12.00:  Torque Abs Min 
 TQAX.f-kp               17.00:  Torque Abs Max 
 TRRT.°/30m               1.18:  Turn Rotating 
 MRT .                     ADR:  Maximum Recorded Temperature 
 TTMX.degC               88.24:  Max Tool Temp 
 VS01.                90619458:  Virtual Str1 SN 
 VS02.                90519326:  Virtual Str2 SN 
 VS03.                90522176:  Virtual Str3 SN 
 VS04.                90512683:  Virtual Str4 SN 
 WBMN.klb                 1.00:  WOB Min 
 WITN.           Murad Giluyev:  Customer Rep 
 WITN.     Kamran Kemberlinski:  Customer Rep 2 
 WOBA.klb                 5.00:  WOB Avg 
 WOBX.klb                 9.00:  WOB Max 
 YP  .lhf2               41.00:  Yield Point 
~Curve Information Block
#MNEM.UNIT                 API CODE     Curve Description
#---------               -----------    ---------------------------
 TIME.HHMMSS            00 000 000 000:  GT Time & Date
 GTDEPTH.m              00 000 000 000:  GT Depth
 GTPQH.psia             00 000 000 000:  GT HR Quartz Pressure
 GTTQ.degC              00 000 000 000:  GT Quartz Temperature
 GTTN.NONE              00 000 000 000:  GT Test Number
 GTET.sec               00 000 000 000:  GT Elapsed Test Time
 GTTVD.m                00 000 000 000:  GT True Vertical Depth
#Other Information
#
#WARRANTY: Halliburton will use its best efforts to furnish customers with 
#accurate information and interpretations that are part of, and incident to, the services 
#provided.  However, Halliburton cannot and does not warrant the accuracy 
#or correctness of such information and interpretations.  Under no circumstances should any 
#such information or interpretation be relied upon as the sole basis for any drilling, 
#completion, production, or financial decision or any procedure involving any risk to the 
#safety of any drilling venture, drilling rig or its crew or any other third party.  The 
#Customer has full responsibility for all drilling, completion and production operation.  
#Halliburton makes no representations or warranties, either expressed or 
#implied, including, but not limited to, the implied warranties of merchantability or fitness 
#for a particular purpose, with respect to the services rendered.  In no event will 
#Halliburton be liable for failure to obtain any particular results or for 
#any damages, including, but not limited to, indirect, special or consequential damages, 
#resulting from the use of any information or interpretation provided by Halliburton.
#
~A           TIME           GTDEPTH  GTPQH  GTTQ  GTTN  GTET   GTTVD  
# ...
   08:53:39.709.29-Jan-2021 4683.51 3065.15 80.92 9.00 161.03 2579.09
   08:53:39.909.29-Jan-2021 4683.51 3065.15 80.92 9.00 161.23 2579.09
   08:53:40.109.29-Jan-2021 4683.51 3065.19 80.92 9.00 161.43 2579.09
   08:53:40.309.29-Jan-2021 4683.51 3065.18 80.92 9.00 161.63 2579.09
   08:53:40.509.29-Jan-2021 4683.51 3065.19 80.92 9.00 161.83 2579.09
   08:53:40.709.29-Jan-2021 4683.51 3065.19 80.92 9.00 162.03 2579.09
   08:53:40.909.29-Jan-2021 4683.51 3065.19 80.92 9.00 162.23 2579.09
   08:53:41.109.29-Jan-2021 4683.51 3065.19 80.92 9.00 162.43 2579.09
   08:53:41.309.29-Jan-2021 4683.51 3065.19 80.92 9.00 162.63 2579.09
   08:53:41.509.29-Jan-2021 4683.51 3065.19 80.92 9.00 162.83 2579.09
   08:53:41.709.29-Jan-2021 4683.51 3065.18 80.92 9.00 163.03 2579.09
   08:53:41.909.29-Jan-2021 4683.51 3065.18 80.92 9.00 163.23 2579.09
   08:53:42.109.29-Jan-2021 4683.51 3065.19 80.92 9.00 163.43 2579.09
   08:53:42.309.29-Jan-2021 4683.51 3065.19 80.91 9.00 163.63 2579.09
   08:53:42.510.29-Jan-2021 4683.51 3065.19 80.91 9.00 163.83 2579.09
   08:53:42.710.29-Jan-2021 4683.51 3065.18 80.91 9.00 164.03 2579.09
   08:53:42.910.29-Jan-2021 4683.51 3065.18 80.91 9.00 164.23 2579.09
   08:53:43.110.29-Jan-2021 4683.51 3065.19 80.91 9.00 164.43 2579.09
   08:53:43.310.29-Jan-2021 4683.51 3065.14 80.91 9.00 164.63 2579.09
   08:53:43.510.29-Jan-2021 4683.51 3065.21 80.91 9.00 164.83 2579.09
   08:53:43.710.29-Jan-2021 4683.51 3065.19 80.91 9.00 165.03 2579.09
   08:53:43.910.29-Jan-2021 4683.51 3065.19 80.91 9.00 165.23 2579.09
   08:53:44.110.29-Jan-2021 4683.51 3065.18 80.91 9.00 165.43 2579.09
   08:53:44.310.29-Jan-2021 4683.51 3065.17 80.91 9.00 165.63 2579.09
   08:53:44.510.29-Jan-2021 4683.51 3065.18 80.91 9.00 165.83 2579.09
   08:53:44.710.29-Jan-2021 4683.51 3065.16 80.91 9.00 166.04 2579.09
   08:53:44.910.29-Jan-2021 4683.51 3065.16 80.91 9.00 166.24 2579.09
   08:53:45.110.29-Jan-2021 4683.51 3065.20 80.91 9.00 166.44 2579.09
   08:53:45.310.29-Jan-2021 4683.51 3065.16 80.90 9.00 166.64 2579.09
   08:53:45.510.29-Jan-2021 4683.51 3065.18 80.90 9.00 166.84 2579.09
   08:53:45.710.29-Jan-2021 4683.51 3065.18 80.90 9.00 167.04 2579.09
   08:53:45.910.29-Jan-2021 4683.51 3065.18 80.90 9.00 167.24 2579.09
   08:53:46.110.29-Jan-2021 4683.51 3065.16 80.90 9.00 167.44 2579.09
   08:53:46.310.29-Jan-2021 4683.51 3065.18 80.90 9.00 167.64 2579.09
   08:53:46.510.29-Jan-2021 4683.51 3065.17 80.90 9.00 167.84 2579.09
   08:53:46.710.29-Jan-2021 4683.51 3065.17 80.90 9.00 168.04 2579.09
   08:53:46.910.29-Jan-2021 4683.51 3065.17 80.90 9.00 168.24 2579.09
   08:53:47.110.29-Jan-2021 4683.51 3065.17 80.90 9.00 168.44 2579.09
   08:53:47.311.29-Jan-2021 4683.51 3065.16 80.90 9.00 168.64 2579.09
   08:53:47.511.29-Jan-2021 4683.51 3065.16 80.90 9.00 168.84 2579.09
   08:53:47.711.29-Jan-2021 4683.51 3065.16 80.90 9.00 169.04 2579.09
   08:53:47.911.29-Jan-2021 4683.51 3065.16 80.90 9.00 169.24 2579.09
   08:53:48.111.29-Jan-2021 4683.51 3065.15 80.90 9.00 169.44 2579.09
   08:53:48.311.29-Jan-2021 4683.51 3065.12 80.89 9.00 169.64 2579.09
   08:53:48.511.29-Jan-2021 4683.51 3065.21 80.89 9.00 169.84 2579.09
   08:53:48.711.29-Jan-2021 4683.51 3065.18 80.89 9.00 170.04 2579.09
   08:53:48.911.29-Jan-2021 4683.51 3065.18 80.89 9.00 170.24 2579.09
   08:53:49.111.29-Jan-2021 4683.51 3065.17 80.89 9.00 170.44 2579.09
   08:53:49.311.29-Jan-2021 4683.51 3065.18 80.89 9.00 170.64 2579.09
   08:53:49.511.29-Jan-2021 4683.51 3065.16 80.89 9.00 170.84 2579.09
   08:53:49.711.29-Jan-2021 4683.51 3065.17 80.89 9.00 171.04 2579.09
   08:53:49.911.29-Jan-2021 4683.51 3065.17 80.89 9.00 171.24 2579.09
   08:53:50.111.29-Jan-2021 4683.51 3065.17 80.89 9.00 171.44 2579.09
   08:53:50.311.29-Jan-2021 4683.51 3065.15 80.89 9.00 171.64 2579.09
   08:53:50.511.29-Jan-2021 4683.51 3065.16 80.89 9.00 171.84 2579.09
   08:53:50.711.29-Jan-2021 4683.51 3065.16 80.89 9.00 172.04 2579.09
   08:53:50.911.29-Jan-2021 4683.51 3065.16 80.89 9.00 172.24 2579.09
   08:53:51.111.29-Jan-2021 4683.51 3065.14 80.88 9.00 172.44 2579.09
   08:53:51.311.29-Jan-2021 4683.51 3065.15 80.88 9.00 172.64 2579.09
   08:53:51.511.29-Jan-2021 4683.51 3065.14 80.88 9.00 172.84 2579.09
   08:53:51.711.29-Jan-2021 4683.51 3065.18 80.88 9.00 173.04 2579.09
   08:53:51.911.29-Jan-2021 4683.51 3065.18 80.88 9.00 173.24 2579.09
   08:53:52.112.29-Jan-2021 4683.51 3065.14 80.88 9.00 173.44 2579.09
   08:53:52.312.29-Jan-2021 4683.51 3065.11 80.88 9.00 173.64 2579.09
   08:53:52.512.29-Jan-2021 4683.51 3065.20 80.88 9.00 173.84 2579.09
   08:53:52.712.29-Jan-2021 4683.51 3065.18 80.88 9.00 174.04 2579.09
   08:53:52.912.29-Jan-2021 4683.51 3065.18 80.88 9.00 174.24 2579.09
   08:53:53.112.29-Jan-2021 4683.51 3065.18 80.88 9.00 174.44 2579.09
   08:53:53.312.29-Jan-2021 4683.51 3065.16 80.88 9.00 174.64 2579.09
   08:53:53.512.29-Jan-2021 4683.51 3065.17 80.88 9.00 174.84 2579.09
   08:53:53.712.29-Jan-2021 4683.51 3065.10 80.88 9.00 175.04 2579.09
   08:53:53.912.29-Jan-2021 4683.51 3065.10 80.88 9.00 175.24 2579.09
   08:53:54.112.29-Jan-2021 4683.51 3065.18 80.87 9.00 175.44 2579.09
   08:53:54.312.29-Jan-2021 4683.51 3065.13 80.87 9.00 175.64 2579.09
   08:53:54.512.29-Jan-2021 4683.51 3065.16 80.87 9.00 175.84 2579.09
   08:53:54.712.29-Jan-2021 4683.51 3065.16 80.87 9.00 176.04 2579.09
   08:53:54.912.29-Jan-2021 4683.51 3065.16 80.87 9.00 176.24 2579.09
   08:53:55.112.29-Jan-2021 4683.51 3065.13 80.87 9.00 176.44 2579.09
   08:53:55.312.29-Jan-2021 4683.51 3065.17 80.87 9.00 176.64 2579.09
   08:53:55.512.29-Jan-2021 4683.51 3065.16 80.87 9.00 176.84 2579.09
   08:53:55.712.29-Jan-2021 4683.51 3065.13 80.87 9.00 177.04 2579.09
   08:53:55.912.29-Jan-2021 4683.51 3065.13 80.87 9.00 177.24 2579.09
   08:53:56.112.29-Jan-2021 4683.51 3065.16 80.87 9.00 177.44 2579.09
   08:53:56.312.29-Jan-2021 4683.51 3065.11 80.87 9.00 177.64 2579.09
   08:53:56.512.29-Jan-2021 4683.51 3065.18 80.87 9.00 177.84 2579.09
   08:53:56.713.29-Jan-2021 4683.51 3065.15 80.87 9.00 178.04 2579.09
   08:53:56.913.29-Jan-2021 4683.51 3065.15 80.87 9.00 178.24 2579.09
   08:53:57.113.29-Jan-2021 4683.51 3065.16 80.86 9.00 178.44 2579.09
   08:53:57.313.29-Jan-2021 4683.51 3065.15 80.86 9.00 178.64 2579.09
   08:53:57.513.29-Jan-2021 4683.51 3065.14 80.86 9.00 178.84 2579.09
   08:53:57.713.29-Jan-2021 4683.51 3065.15 80.86 9.00 179.04 2579.09
   08:53:57.913.29-Jan-2021 4683.51 3065.15 80.86 9.00 179.24 2579.09
   08:53:58.113.29-Jan-2021 4683.51 3065.14 80.86 9.00 179.44 2579.09
   08:53:58.313.29-Jan-2021 4683.51 3065.14 80.86 9.00 179.64 2579.09
   08:53:58.513.29-Jan-2021 4683.51 3065.14 80.86 9.00 179.84 2579.09
   08:53:58.713.29-Jan-2021 4683.51 3065.14 80.86 9.00 180.04 2579.09
   08:53:58.913.29-Jan-2021 4683.51 3065.14 80.86 9.00 180.24 2579.09
   08:53:59.113.29-Jan-2021 4683.51 3065.13 80.86 9.00 180.44 2579.09
   08:53:59.313.29-Jan-2021 4683.51 3065.13 80.86 9.00 180.64 2579.09
   08:53:59.513.29-Jan-2021 4683.51 3065.13 80.86 9.00 180.84 2579.09
   08:53:59.713.29-Jan-2021 4683.51 3065.13 80.86 9.00 181.04 2579.09
   08:53:59.913.29-Jan-2021 4683.51 3065.13 80.86 9.00 181.24 2579.09
   08:54:00.113.29-Jan-2021 4683.51 3065.14 80.85 9.00 181.44 2579.09
   08:54:00.313.29-Jan-2021 4683.51 3065.16 80.85 9.00 181.64 2579.09
   08:54:00.513.29-Jan-2021 4683.51 3065.13 80.85 9.00 181.84 2579.09
   08:54:00.713.29-Jan-2021 4683.51 3065.15 80.85 9.00 182.04 2579.09
   08:54:00.913.29-Jan-2021 4683.51 3065.15 80.85 9.00 182.24 2579.09
   08:54:01.113.29-Jan-2021 4683.51 3065.15 80.85 9.00 182.44 2579.09
   08:54:01.313.29-Jan-2021 4683.51 3065.13 80.85 9.00 182.64 2579.09
   08:54:01.514.29-Jan-2021 4683.51 3065.13 80.85 9.00 182.84 2579.09
   08:54:01.714.29-Jan-2021 4683.51 3065.14 80.85 9.00 183.04 2579.09
   08:54:01.914.29-Jan-2021 4683.51 3065.14 80.85 9.00 183.24 2579.09
   08:54:02.114.29-Jan-2021 4683.51 3065.13 80.85 9.00 183.44 2579.09
   08:54:02.314.29-Jan-2021 4683.51 3065.13 80.85 9.00 183.64 2579.09
   08:54:02.514.29-Jan-2021 4683.51 3065.14 80.85 9.00 183.84 2579.09
