~Version Information
 VERS.                  2.0:   CWLS log ASCII Standard -VERSION 2.0
 WRAP.                   NO:   One line per depth step
~Well Information Block
#MNEM.UNIT     VALUE/NAME     DESCRIPTION
#---------     -----------    ---------------------------
 STRT.S             05:51:52 30-Jan-21: START TIME 05:51:52 30-Jan-21
 STOP.S             05:58:20 30-Jan-21: STOP TIME  05:58:20 30-Jan-21
 STEP.S                   0.00: STEP TIME
 NULL.                 -999.25: NULL VALUE
 DFWT.                        :  DIST FWL TEXT
 DFST.                        :  DIST FSL TEXT
 DMF .             Drill Floor:  DRILL MEAS FROM
 STIM.      00.00.00 25-Sep-20:  START TIME
 DATE.      16.12.48 31-Jan-21:  END TIME
 SPUD.               20-Sep-20:  SPUD DATE
 NREF.                    Grid:  NORTH REFERENCE
 HPTY.       Minimum Curvature:  HOLE POS TYPE
 DMOD.             Drill Model:  DRILL MOD DESC
 SVYD.                  Survey:  SURVEY DESC
 ILTD.               Lithology:  INTERP LTH DESC
 FTOP.          Formation Tops:  FORM TOPS DESC
 RIG .              East Azeri:  RIG NAME
 PDAT.          Mean Sea Level:  PERMANENT DATUM
 FLD .                     ACG:  FIELD NAME
 SON .        AZ-XX-0906591820:  JOB NUMBER
 CTRY.              Azerbaijan:  COUNTRY NAME
 WELL.                     D37:  WELL NAME
 SRVC.     Turan Drilling & Engineering:  CONTRACTOR
 COMP.     BP Exploration (Caspian Sea) ltd.:  COMPANY
 WTYP.                Deviated:  WELL TYPE
 MDS .        Operator Entered:  MAG DATA SOURCE
 UWI .                     N/A:  UNIQUE WELL IDENTIFIER
 API .                     N/A:  API NUMBER
 BASE.              Azerbaijan:  LOGGING EQUIPMENT BASE LOCATION
 REGN.                   EESSA:  REGION
 PROV.                    Baku:  PROVINCE
 STAT.                    Baku:  STATE NAME
 MWDS.                    Baku:  MWD SHOP
 JOBN.        AZ-XX-0906591820:  JOB TICKET NUMB
 DOE .                     N/A:  DOE NUMBER
 DCON.         Sperry Drilling:  DIRECTNL CONTR
 UNIT.                     N/A:  LOGGING EQUIPMENT ID
 CNTY.                        :  COUNTY
 LOC .                        :  LOCATION
 LMF .             Drill Floor:  LOG MEASURED FROM
 TVDS.m                  43.60:  TVDSS CORRECTN
 LATI.deg                40.02:  LATITUDE
 LONG.deg                51.45:  LONGITUDE
 WHNS.m                  11.04:  WELL HEAD N/S
 WHEW.m                 -12.38:  WELL HEAD E/W
 UTMX.m              538763.98:  UTM X
 UTMY.m             4431880.20:  UTM Y
 DFWL.m                   0.00:  DISTANCE FWL
 DFSL.m                   0.00:  DISTANCE FSL
 SDEP.m                 300.00:  START DEPTH
 TDD .m                4900.01:  TOTAL DEPTH (DRILLER)
 VSDR.deg               185.64:  VERT SEC DIRECT
 GVFD.g                   1.00:  GRAVITY FIELD
 MFLD.nT              50301.00:  MAGNETIC FIELD
 MDIP.deg                59.46:  MAGNETIC DIP
 MDEC.deg                 6.43:  MAGNETIC DECL
 GRDC.deg                 0.29:  GRID CORRECTION
 AZTC.deg                 6.14:  AZM TOTAL CORR
 EPD .m                   0.00:  ELEVATION
 EGL .m                   0.00:  GROUND ELEVATION
 WDMS.m                 151.80:  WD ELEV
 APD .m                  43.60:  DEPTH ABOVE PD
 DEP .m                 571.69:  DEPTH
 AGAP.m                  43.60:  AIR GAP
 VSEW.m                 -12.38:  VERT SEC E/W
 VSNS.m                  11.04:  VERT SEC N/S
 EKB .m                  43.60:  KB ELEVATION
 EDF .m                  43.60:  DF ELEVATION
 TDL .m                 412.00:  TOTAL DEPTH (LOGGER)
 VSC .                       0:  VS TO CLOSURE
 MAGU.                 1849300:  MAGUTM CHECKSUM
~Parameter Information Block
#MNEM.UNIT       Value        Description
#---------     -----------    ---------------------------
 AV  .mps                 2.21:  Ann Velocity 
 AVMX.mps                 2.53:  Max Ann Veloc 
 AZIF.deg               144.83:  Azm, Final 
 BHAT.        Rotary Steerable:  BHA Type 
 BROT.°/30m              -0.52:  Build Rotating 
 BS  .in                  6.50:  Bit Size 
 BTPL.psig              209.00:  Bit Press Loss 
 CABU.                      No:  Customer Abuse 
 CGEO.        Ali Isfandiyarov:  Customer Geo 
 COMM.                     ü:x:  Run Comments 1 
 TCS .hr                 61.31:  Time Ciculation Ended 
 CV  .mps                 4.66:  Crit Velocity 
 CVMX.mps                 5.02:  Max Crit Veloc 
 DD1 .          Fariz Nahmatov:  Direct Drillr 1 
 DD2 .            Musa Ahmadov:  Direct Drillr 2 
 DDSV.               Geo-Pilot:  DD Service 
 DEFF.%                 100.00:  % Det Eff 
 DLRX.°/30m               1.44:  Dogleg Rot Max 
 DLSO.°/30m               0.83:  Dogleg Oriented 
 DLSX.°/30m               1.44:  Dogleg Str Max 
 DRET.      08.30.00 30-Jan-21:  Drill End Time 
 DRST.      21.15.00 27-Jan-21:  Drill Start Tim 
 DTIM.hr                 37.28:  Time Drilling 
 EDEP.m                4867.01:  End Depth 
 ENG1.          Rasim Hashimov:  Engineer 1 
 ENG2.         Almaz Almadatov:  Engineer 2 
 ENG3.        Tamerlan Ahmadov:  Engineer 3 
 ETIM.      22.41.04 31-Jan-21:  End Time 
 FLOI.gpm               400.00:  Flow In 
 FLON.gpm               300.00:  Flow In Min 
 FLOS.cptm                0.00:  Fluid Loss 
 FLOX.gpm               400.00:  Flow In Max 
 HFLO.                      No:  High Flow 
 HPRE.                      No:  High Pressure 
 HTEM.                      No:  High Temp 
 HYDO.m                   1.80:  Hydro Offset 
 IFIN.deg                65.63:  Inc, Final 
 IMAX.deg                66.77:  Inc Max 
 IMIN.deg                65.61:  Inc Min 
 IMND.m                4612.67:  Inc Min Depth 
 IMXD.m                4811.63:  Inc Max Depth 
 JARR.                      No:  Jarring 
 LETM.      08.30.00 30-Jan-21:  Log End Time 
 LOST.hr                     0:  Lost Rig Time 
 LSTM.      21.15.00 27-Jan-21:  Log Start Time 
 MDCL.ppm             41000.00:  Mud Chlorides 
 MDES.     Inversion Oil/Synthetic:  Mud Desc 
 DFD .sg                  1.40:  Mud Density 
 MDMN.sg                  1.40:  Dens Mud Min 
 MDMX.sg                  1.40:  Dens Mud Max 
 MOIL.                      53:  Run Mud Oil % 
 MOWR.                   66:34:  Run Mud OWR 
 MSND.                     0.2:  Run Mud Sand % 
 MSOL.                    17.9:  Run Mud Solids% 
 DFV .spqt               77.00:  Mud Viscosity 
 MWOD.in                  4.75:  MWD Tool OD 
 MWSI.                      No:  Serv Intrp, MWD 
 OTIM.hr                110.38:  Time Operating 
 PCON.           Look Like New:  Pad Condition 
 PMAX.psia             5300.00:  Press Op, Max 
 PV  .cP                 57.00:  Mud PV 
 RUN .                    1200:  Run Number 
 ROPA.m/hr               13.00:  ROP Avg 
 ROPN.m/hr                9.00:  ROP Min 
 ROPX.m/hr               15.00:  ROP Max 
 RPMA.rpm               120.00:  RPM Surface Avg 
 RPMN.rpm               100.00:  RPM Surface Min 
 RPMX.rpm               135.00:  RPM Surface Max 
 RRUN.                    1200:  Rig Run Number 
 RTIM.hr                  2.65:  Time Reaming 
 SAZI.deg               145.04:  Azm, Start 
 SDEP.m                4455.01:  Start Depth 
 SIDD.                      No:  Serv Intrp, DD 
 SINC.deg                65.83:  Inc, Start 
 SPPA.psig             5037.00:  SPP Avg 
 SPPN.psig             4430.00:  SPP Min 
 SPPX.psig             5300.00:  SPP Max 
 STIM.      22.41.04 26-Jan-21:  Start Time 
 SVCS.                 DD, MWD:  Services 
 SVER.                    9.20:  Sperry Version 
 TDAT.m                 412.00:  Tot Depth Attmp 
 TDDF.                      No:  Trip for DD 
 TDLG.m                 412.00:  Tot Depth Loggd 
 TFF .                      No:  Trip for Fail 
 TQAA.f-kp               15.00:  Torque Abs Avg 
 TQAN.f-kp               12.00:  Torque Abs Min 
 TQAX.f-kp               17.00:  Torque Abs Max 
 TRRT.°/30m               1.18:  Turn Rotating 
 MRT .                     ADR:  Maximum Recorded Temperature 
 TTMX.degC               88.24:  Max Tool Temp 
 VS01.                90619458:  Virtual Str1 SN 
 VS02.                90519326:  Virtual Str2 SN 
 VS03.                90522176:  Virtual Str3 SN 
 VS04.                90512683:  Virtual Str4 SN 
 WBMN.klb                 1.00:  WOB Min 
 WITN.           Murad Giluyev:  Customer Rep 
 WITN.     Kamran Kemberlinski:  Customer Rep 2 
 WOBA.klb                 5.00:  WOB Avg 
 WOBX.klb                 9.00:  WOB Max 
 YP  .lhf2               41.00:  Yield Point 
~Curve Information Block
#MNEM.UNIT                 API CODE     Curve Description
#---------               -----------    ---------------------------
 TIME.HHMMSS            00 000 000 000:  GT Time & Date
 GTDEPTH.m              00 000 000 000:  GT Depth
 GTPQH.psia             00 000 000 000:  GT HR Quartz Pressure
 GTTQ.degC              00 000 000 000:  GT Quartz Temperature
 GTTN.NONE              00 000 000 000:  GT Test Number
 GTET.sec               00 000 000 000:  GT Elapsed Test Time
 GTTVD.m                00 000 000 000:  GT True Vertical Depth
#Other Information
#
#WARRANTY: Halliburton will use its best efforts to furnish customers with 
#accurate information and interpretations that are part of, and incident to, the services 
#provided.  However, Halliburton cannot and does not warrant the accuracy 
#or correctness of such information and interpretations.  Under no circumstances should any 
#such information or interpretation be relied upon as the sole basis for any drilling, 
#completion, production, or financial decision or any procedure involving any risk to the 
#safety of any drilling venture, drilling rig or its crew or any other third party.  The 
#Customer has full responsibility for all drilling, completion and production operation.  
#Halliburton makes no representations or warranties, either expressed or 
#implied, including, but not limited to, the implied warranties of merchantability or fitness 
#for a particular purpose, with respect to the services rendered.  In no event will 
#Halliburton be liable for failure to obtain any particular results or for 
#any damages, including, but not limited to, indirect, special or consequential damages, 
#resulting from the use of any information or interpretation provided by Halliburton.
#
~A           TIME           GTDEPTH  GTPQH  GTTQ  GTTN   GTET   GTTVD  
# ...
   05:52:14.742.30-Jan-2021 4813.01 5971.05 84.57 17.00  22.60 2630.70
   05:52:14.942.30-Jan-2021 4813.01 5971.92 84.57 17.00  22.80 2630.70
   05:52:15.142.30-Jan-2021 4813.01 5972.58 84.57 17.00  23.00 2630.70
   05:52:15.342.30-Jan-2021 4813.01 5972.58 84.57 17.00  23.20 2630.70
   05:52:15.543.30-Jan-2021 4813.01 5972.17 84.57 17.00  23.40 2630.70
   05:52:15.743.30-Jan-2021 4813.01 5973.63 84.57 17.00  23.60 2630.70
   05:52:15.943.30-Jan-2021 4813.01 5973.83 84.56 17.00  23.80 2630.70
   05:52:16.143.30-Jan-2021 4813.01 5974.39 84.56 17.00  24.00 2630.70
   05:52:16.343.30-Jan-2021 4813.01 5974.39 84.56 17.00  24.20 2630.70
   05:52:16.543.30-Jan-2021 4813.01 5973.94 84.56 17.00  24.40 2630.70
   05:52:16.743.30-Jan-2021 4813.01 5973.93 84.56 17.00  24.60 2630.70
   05:52:16.943.30-Jan-2021 4813.01 5974.39 84.56 17.00  24.80 2630.70
   05:52:17.143.30-Jan-2021 4813.01 5973.61 84.56 17.00  25.00 2630.70
   05:52:17.343.30-Jan-2021 4813.01 5973.61 84.56 17.00  25.20 2630.70
   05:52:17.543.30-Jan-2021 4813.01 5659.70 84.56 17.00  25.40 2630.70
   05:52:17.743.30-Jan-2021 4813.01 5330.75 84.56 17.00  25.60 2630.70
   05:52:17.943.30-Jan-2021 4813.01 4722.27 84.56 17.00  25.80 2630.70
   05:52:18.143.30-Jan-2021 4813.01 3879.81 84.56 17.00  26.00 2630.70
   05:52:18.343.30-Jan-2021 4813.01 3879.81 84.56 17.00  26.20 2630.70
   05:52:18.543.30-Jan-2021 4813.01 3130.28 84.56 17.00  26.40 2630.70
   05:52:18.743.30-Jan-2021 4813.01 3133.08 84.55 17.00  26.60 2630.70
   05:52:18.943.30-Jan-2021 4813.01 3133.37 84.55 17.00  26.80 2630.70
   05:52:19.143.30-Jan-2021 4813.01 3133.83 84.55 17.00  27.00 2630.70
   05:52:19.343.30-Jan-2021 4813.01 3133.83 84.55 17.00  27.20 2630.70
   05:52:19.543.30-Jan-2021 4813.01 3133.82 84.55 17.00  27.40 2630.70
   05:52:19.743.30-Jan-2021 4813.01 3133.89 84.55 17.00  27.60 2630.70
   05:52:19.943.30-Jan-2021 4813.01 3133.53 84.55 17.00  27.80 2630.70
   05:52:20.143.30-Jan-2021 4813.01 3133.60 84.55 17.00  28.00 2630.70
   05:52:20.343.30-Jan-2021 4813.01 3133.60 84.55 17.00  28.20 2630.70
   05:52:20.543.30-Jan-2021 4813.01 3134.23 84.55 17.00  28.40 2630.70
   05:52:20.743.30-Jan-2021 4813.01 3136.31 84.55 17.00  28.60 2630.70
   05:52:20.943.30-Jan-2021 4813.01 3136.25 84.55 17.00  28.80 2630.70
   05:52:21.143.30-Jan-2021 4813.01 3135.30 84.54 17.00  29.00 2630.70
   05:52:21.343.30-Jan-2021 4813.01 3135.30 84.54 17.00  29.20 2630.70
   05:52:21.543.30-Jan-2021 4813.01 3135.05 84.54 17.00  29.40 2630.70
   05:52:21.743.30-Jan-2021 4813.01 3135.16 84.54 17.00  29.60 2630.70
   05:52:21.943.30-Jan-2021 4813.01 3135.02 84.54 17.00  29.80 2630.70
   05:52:22.143.30-Jan-2021 4813.01 3134.67 84.54 17.00  30.00 2630.70
   05:52:22.343.30-Jan-2021 4813.01 3134.67 84.54 17.00  30.20 2630.70
   05:52:22.543.30-Jan-2021 4813.01 3134.66 84.54 17.00  30.40 2630.70
   05:52:22.743.30-Jan-2021 4813.01 3134.65 84.54 17.00  30.60 2630.70
   05:52:22.943.30-Jan-2021 4813.01 3134.64 84.53 17.00  30.80 2630.70
   05:52:23.144.30-Jan-2021 4813.01 3134.62 84.53 17.00  31.00 2630.70
   05:52:23.344.30-Jan-2021 4813.01 3134.62 84.53 17.00  31.20 2630.70
   05:52:23.544.30-Jan-2021 4813.01 3134.52 84.53 17.00  31.40 2630.70
   05:52:23.744.30-Jan-2021 4813.01 3134.47 84.53 17.00  31.60 2630.70
   05:52:23.944.30-Jan-2021 4813.01 3134.28 84.53 17.00  31.80 2630.70
   05:52:24.144.30-Jan-2021 4813.01 3134.47 84.53 17.00  32.00 2630.70
   05:52:24.344.30-Jan-2021 4813.01 3134.47 84.53 17.00  32.20 2630.70
   05:52:24.544.30-Jan-2021 4813.01 3134.43 84.53 17.00  32.40 2630.70
   05:52:24.744.30-Jan-2021 4813.01 3134.25 84.53 17.00  32.60 2630.70
   05:52:24.944.30-Jan-2021 4813.01 3134.39 84.52 17.00  32.80 2630.70
   05:52:25.144.30-Jan-2021 4813.01 3134.29 84.52 17.00  33.00 2630.70
   05:52:25.344.30-Jan-2021 4813.01 3134.29 84.52 17.00  33.20 2630.70
   05:52:25.544.30-Jan-2021 4813.01 3134.31 84.52 17.00  33.40 2630.70
   05:52:25.744.30-Jan-2021 4813.01 3134.43 84.52 17.00  33.60 2630.70
   05:52:25.944.30-Jan-2021 4813.01 3134.36 84.52 17.00  33.80 2630.70
   05:52:26.144.30-Jan-2021 4813.01 3134.29 84.52 17.00  34.00 2630.70
   05:52:26.344.30-Jan-2021 4813.01 3134.29 84.52 17.00  34.20 2630.70
   05:52:26.544.30-Jan-2021 4813.01 3134.24 84.52 17.00  34.40 2630.70
   05:52:26.744.30-Jan-2021 4813.01 3134.44 84.51 17.00  34.60 2630.70
   05:52:26.944.30-Jan-2021 4813.01 3134.43 84.51 17.00  34.80 2630.70
   05:52:27.144.30-Jan-2021 4813.01 3134.25 84.51 17.00  35.00 2630.70
   05:52:27.344.30-Jan-2021 4813.01 3134.25 84.51 17.00  35.20 2630.70
   05:52:27.544.30-Jan-2021 4813.01 3148.76 84.51 17.00  35.40 2630.70
   05:52:27.744.30-Jan-2021 4813.01 3148.82 84.51 17.00  35.60 2630.70
   05:52:27.944.30-Jan-2021 4813.01 3148.87 84.51 17.00  35.80 2630.70
   05:52:28.144.30-Jan-2021 4813.01 3148.86 84.51 17.00  36.00 2630.70
   05:52:28.344.30-Jan-2021 4813.01 3148.86 84.51 17.00  36.20 2630.70
   05:52:28.544.30-Jan-2021 4813.01 3148.86 84.50 17.00  36.40 2630.70
   05:52:28.744.30-Jan-2021 4813.01 3148.98 84.50 17.00  36.60 2630.70
   05:52:28.944.30-Jan-2021 4813.01 3148.95 84.50 17.00  36.80 2630.70
   05:52:29.144.30-Jan-2021 4813.01 3148.96 84.50 17.00  37.00 2630.70
   05:52:29.344.30-Jan-2021 4813.01 3148.96 84.50 17.00  37.20 2630.70
   05:52:29.544.30-Jan-2021 4813.01 3148.99 84.50 17.00  37.40 2630.70
   05:52:29.744.30-Jan-2021 4813.01 3149.02 84.50 17.00  37.60 2630.70
   05:52:29.944.30-Jan-2021 4813.01 3149.02 84.50 17.00  37.80 2630.70
   05:52:30.144.30-Jan-2021 4813.01 3149.02 84.50 17.00  38.00 2630.70
   05:52:30.344.30-Jan-2021 4813.01 3149.02 84.50 17.00  38.21 2630.70
   05:52:30.544.30-Jan-2021 4813.01 3149.06 84.49 17.00  38.41 2630.70
   05:52:30.745.30-Jan-2021 4813.01 3149.06 84.49 17.00  38.61 2630.70
   05:52:30.945.30-Jan-2021 4813.01 3149.09 84.49 17.00  38.81 2630.70
   05:52:31.145.30-Jan-2021 4813.01 3149.07 84.49 17.00  39.01 2630.70
   05:52:31.345.30-Jan-2021 4813.01 3149.07 84.49 17.00  39.21 2630.70
   05:52:31.545.30-Jan-2021 4813.01 3149.10 84.49 17.00  39.41 2630.70
   05:52:31.745.30-Jan-2021 4813.01 3149.13 84.49 17.00  39.61 2630.70
   05:52:31.945.30-Jan-2021 4813.01 3149.13 84.49 17.00  39.81 2630.70
   05:52:32.145.30-Jan-2021 4813.01 3149.12 84.49 17.00  40.01 2630.70
   05:52:32.345.30-Jan-2021 4813.01 3149.12 84.49 17.00  40.21 2630.70
   05:52:32.545.30-Jan-2021 4813.01 3149.15 84.48 17.00  40.41 2630.70
   05:52:32.745.30-Jan-2021 4813.01 3149.16 84.48 17.00  40.61 2630.70
   05:52:32.945.30-Jan-2021 4813.01 3149.16 84.48 17.00  40.81 2630.70
   05:52:33.145.30-Jan-2021 4813.01 3149.17 84.48 17.00  41.01 2630.70
   05:52:33.345.30-Jan-2021 4813.01 3149.17 84.48 17.00  41.21 2630.70
   05:52:33.545.30-Jan-2021 4813.01 3149.19 84.48 17.00  41.41 2630.70
   05:52:33.745.30-Jan-2021 4813.01 3149.18 84.48 17.00  41.61 2630.70
   05:52:33.945.30-Jan-2021 4813.01 3149.22 84.48 17.00  41.81 2630.70
   05:52:34.145.30-Jan-2021 4813.01 3149.20 84.48 17.00  42.01 2630.70
   05:52:34.345.30-Jan-2021 4813.01 3149.20 84.48 17.00  42.21 2630.70
   05:52:34.545.30-Jan-2021 4813.01 3149.22 84.47 17.00  42.41 2630.70
   05:52:34.745.30-Jan-2021 4813.01 3149.24 84.47 17.00  42.61 2630.70
   05:52:34.945.30-Jan-2021 4813.01 3149.25 84.47 17.00  42.81 2630.70
   05:52:35.145.30-Jan-2021 4813.01 3149.25 84.47 17.00  43.01 2630.70
   05:52:35.345.30-Jan-2021 4813.01 3149.25 84.47 17.00  43.21 2630.70
   05:52:35.545.30-Jan-2021 4813.01 3149.26 84.47 17.00  43.41 2630.70
   05:52:35.745.30-Jan-2021 4813.01 3149.28 84.47 17.00  43.61 2630.70
   05:52:35.945.30-Jan-2021 4813.01 3149.27 84.47 17.00  43.81 2630.70
   05:52:36.145.30-Jan-2021 4813.01 3149.29 84.47 17.00  44.01 2630.70
   05:52:36.345.30-Jan-2021 4813.01 3149.29 84.47 17.00  44.21 2630.70
   05:52:36.545.30-Jan-2021 4813.01 3149.26 84.47 17.00  44.41 2630.70
   05:52:36.745.30-Jan-2021 4813.01 3149.33 84.47 17.00  44.61 2630.70
   05:52:36.945.30-Jan-2021 4813.01 3149.31 84.46 17.00  44.81 2630.70
   05:52:37.145.30-Jan-2021 4813.01 3149.31 84.46 17.00  45.01 2630.70
