~Version Information
 VERS.                  2.0:   CWLS log ASCII Standard -VERSION 2.0
 WRAP.                   NO:   One line per depth step
~Well Information Block
#MNEM.UNIT     VALUE/NAME     DESCRIPTION
#---------     -----------    ---------------------------
 STRT.S             08:50:58 29-Jan-21: START TIME 08:50:58 29-Jan-21
 STOP.S             08:57:28 29-Jan-21: STOP TIME  08:57:28 29-Jan-21
 STEP.S                   0.00: STEP TIME
 NULL.                 -999.25: NULL VALUE
 DFWT.                        :  DIST FWL TEXT
 DFST.                        :  DIST FSL TEXT
 DMF .             Drill Floor:  DRILL MEAS FROM
 STIM.      00.00.00 25-Sep-20:  START TIME
 DATE.      16.12.48 31-Jan-21:  END TIME
 SPUD.               20-Sep-20:  SPUD DATE
 NREF.                    Grid:  NORTH REFERENCE
 HPTY.       Minimum Curvature:  HOLE POS TYPE
 DMOD.             Drill Model:  DRILL MOD DESC
 SVYD.                  Survey:  SURVEY DESC
 ILTD.               Lithology:  INTERP LTH DESC
 FTOP.          Formation Tops:  FORM TOPS DESC
 RIG .              East Azeri:  RIG NAME
 PDAT.          Mean Sea Level:  PERMANENT DATUM
 FLD .                     ACG:  FIELD NAME
 SON .        AZ-XX-0906591820:  JOB NUMBER
 CTRY.              Azerbaijan:  COUNTRY NAME
 WELL.                     D37:  WELL NAME
 SRVC.     Turan Drilling & Engineering:  CONTRACTOR
 COMP.     BP Exploration (Caspian Sea) ltd.:  COMPANY
 WTYP.                Deviated:  WELL TYPE
 MDS .        Operator Entered:  MAG DATA SOURCE
 UWI .                     N/A:  UNIQUE WELL IDENTIFIER
 API .                     N/A:  API NUMBER
 BASE.              Azerbaijan:  LOGGING EQUIPMENT BASE LOCATION
 REGN.                   EESSA:  REGION
 PROV.                    Baku:  PROVINCE
 STAT.                    Baku:  STATE NAME
 MWDS.                    Baku:  MWD SHOP
 JOBN.        AZ-XX-0906591820:  JOB TICKET NUMB
 DOE .                     N/A:  DOE NUMBER
 DCON.         Sperry Drilling:  DIRECTNL CONTR
 UNIT.                     N/A:  LOGGING EQUIPMENT ID
 CNTY.                        :  COUNTY
 LOC .                        :  LOCATION
 LMF .             Drill Floor:  LOG MEASURED FROM
 TVDS.m                  43.60:  TVDSS CORRECTN
 LATI.deg                40.02:  LATITUDE
 LONG.deg                51.45:  LONGITUDE
 WHNS.m                  11.04:  WELL HEAD N/S
 WHEW.m                 -12.38:  WELL HEAD E/W
 UTMX.m              538763.98:  UTM X
 UTMY.m             4431880.20:  UTM Y
 DFWL.m                   0.00:  DISTANCE FWL
 DFSL.m                   0.00:  DISTANCE FSL
 SDEP.m                 300.00:  START DEPTH
 TDD .m                4900.01:  TOTAL DEPTH (DRILLER)
 VSDR.deg               185.64:  VERT SEC DIRECT
 GVFD.g                   1.00:  GRAVITY FIELD
 MFLD.nT              50301.00:  MAGNETIC FIELD
 MDIP.deg                59.46:  MAGNETIC DIP
 MDEC.deg                 6.43:  MAGNETIC DECL
 GRDC.deg                 0.29:  GRID CORRECTION
 AZTC.deg                 6.14:  AZM TOTAL CORR
 EPD .m                   0.00:  ELEVATION
 EGL .m                   0.00:  GROUND ELEVATION
 WDMS.m                 151.80:  WD ELEV
 APD .m                  43.60:  DEPTH ABOVE PD
 DEP .m                 571.69:  DEPTH
 AGAP.m                  43.60:  AIR GAP
 VSEW.m                 -12.38:  VERT SEC E/W
 VSNS.m                  11.04:  VERT SEC N/S
 EKB .m                  43.60:  KB ELEVATION
 EDF .m                  43.60:  DF ELEVATION
 TDL .m                 412.00:  TOTAL DEPTH (LOGGER)
 VSC .                       0:  VS TO CLOSURE
 MAGU.                 1849300:  MAGUTM CHECKSUM
~Parameter Information Block
#MNEM.UNIT       Value        Description
#---------     -----------    ---------------------------
 AV  .mps                 2.21:  Ann Velocity 
 AVMX.mps                 2.53:  Max Ann Veloc 
 AZIF.deg               144.83:  Azm, Final 
 BHAT.        Rotary Steerable:  BHA Type 
 BROT.°/30m              -0.52:  Build Rotating 
 BS  .in                  6.50:  Bit Size 
 BTPL.psig              209.00:  Bit Press Loss 
 CABU.                      No:  Customer Abuse 
 CGEO.        Ali Isfandiyarov:  Customer Geo 
 COMM.                     Ä	‡:  Run Comments 1 
 TCS .hr                 61.31:  Time Ciculation Ended 
 CV  .mps                 4.66:  Crit Velocity 
 CVMX.mps                 5.02:  Max Crit Veloc 
 DD1 .          Fariz Nahmatov:  Direct Drillr 1 
 DD2 .            Musa Ahmadov:  Direct Drillr 2 
 DDSV.               Geo-Pilot:  DD Service 
 DEFF.%                 100.00:  % Det Eff 
 DLRX.°/30m               1.44:  Dogleg Rot Max 
 DLSO.°/30m               0.83:  Dogleg Oriented 
 DLSX.°/30m               1.44:  Dogleg Str Max 
 DRET.      08.30.00 30-Jan-21:  Drill End Time 
 DRST.      21.15.00 27-Jan-21:  Drill Start Tim 
 DTIM.hr                 37.28:  Time Drilling 
 EDEP.m                4867.01:  End Depth 
 ENG1.          Rasim Hashimov:  Engineer 1 
 ENG2.         Almaz Almadatov:  Engineer 2 
 ENG3.        Tamerlan Ahmadov:  Engineer 3 
 ETIM.      22.41.04 31-Jan-21:  End Time 
 FLOI.gpm               400.00:  Flow In 
 FLON.gpm               300.00:  Flow In Min 
 FLOS.cptm                0.00:  Fluid Loss 
 FLOX.gpm               400.00:  Flow In Max 
 HFLO.                      No:  High Flow 
 HPRE.                      No:  High Pressure 
 HTEM.                      No:  High Temp 
 HYDO.m                   1.80:  Hydro Offset 
 IFIN.deg                65.63:  Inc, Final 
 IMAX.deg                66.77:  Inc Max 
 IMIN.deg                65.61:  Inc Min 
 IMND.m                4612.67:  Inc Min Depth 
 IMXD.m                4811.63:  Inc Max Depth 
 JARR.                      No:  Jarring 
 LETM.      08.30.00 30-Jan-21:  Log End Time 
 LOST.hr                     0:  Lost Rig Time 
 LSTM.      21.15.00 27-Jan-21:  Log Start Time 
 MDCL.ppm             41000.00:  Mud Chlorides 
 MDES.     Inversion Oil/Synthetic:  Mud Desc 
 DFD .sg                  1.40:  Mud Density 
 MDMN.sg                  1.40:  Dens Mud Min 
 MDMX.sg                  1.40:  Dens Mud Max 
 MOIL.                      53:  Run Mud Oil % 
 MOWR.                   66:34:  Run Mud OWR 
 MSND.                     0.2:  Run Mud Sand % 
 MSOL.                    17.9:  Run Mud Solids% 
 DFV .spqt               77.00:  Mud Viscosity 
 MWOD.in                  4.75:  MWD Tool OD 
 MWSI.                      No:  Serv Intrp, MWD 
 OTIM.hr                110.38:  Time Operating 
 PCON.           Look Like New:  Pad Condition 
 PMAX.psia             5300.00:  Press Op, Max 
 PV  .cP                 57.00:  Mud PV 
 RUN .                    1200:  Run Number 
 ROPA.m/hr               13.00:  ROP Avg 
 ROPN.m/hr                9.00:  ROP Min 
 ROPX.m/hr               15.00:  ROP Max 
 RPMA.rpm               120.00:  RPM Surface Avg 
 RPMN.rpm               100.00:  RPM Surface Min 
 RPMX.rpm               135.00:  RPM Surface Max 
 RRUN.                    1200:  Rig Run Number 
 RTIM.hr                  2.65:  Time Reaming 
 SAZI.deg               145.04:  Azm, Start 
 SDEP.m                4455.01:  Start Depth 
 SIDD.                      No:  Serv Intrp, DD 
 SINC.deg                65.83:  Inc, Start 
 SPPA.psig             5037.00:  SPP Avg 
 SPPN.psig             4430.00:  SPP Min 
 SPPX.psig             5300.00:  SPP Max 
 STIM.      22.41.04 26-Jan-21:  Start Time 
 SVCS.                 DD, MWD:  Services 
 SVER.                    9.20:  Sperry Version 
 TDAT.m                 412.00:  Tot Depth Attmp 
 TDDF.                      No:  Trip for DD 
 TDLG.m                 412.00:  Tot Depth Loggd 
 TFF .                      No:  Trip for Fail 
 TQAA.f-kp               15.00:  Torque Abs Avg 
 TQAN.f-kp               12.00:  Torque Abs Min 
 TQAX.f-kp               17.00:  Torque Abs Max 
 TRRT.°/30m               1.18:  Turn Rotating 
 MRT .                     ADR:  Maximum Recorded Temperature 
 TTMX.degC               88.24:  Max Tool Temp 
 VS01.                90619458:  Virtual Str1 SN 
 VS02.                90519326:  Virtual Str2 SN 
 VS03.                90522176:  Virtual Str3 SN 
 VS04.                90512683:  Virtual Str4 SN 
 WBMN.klb                 1.00:  WOB Min 
 WITN.           Murad Giluyev:  Customer Rep 
 WITN.     Kamran Kemberlinski:  Customer Rep 2 
 WOBA.klb                 5.00:  WOB Avg 
 WOBX.klb                 9.00:  WOB Max 
 YP  .lhf2               41.00:  Yield Point 
~Curve Information Block
#MNEM.UNIT                 API CODE     Curve Description
#---------               -----------    ---------------------------
 TIME.HHMMSS            00 000 000 000:  GT Time & Date
 GTDEPTH.m              00 000 000 000:  GT Depth
 GTPQH.psia             00 000 000 000:  GT HR Quartz Pressure
 GTTQ.degC              00 000 000 000:  GT Quartz Temperature
 GTTN.NONE              00 000 000 000:  GT Test Number
 GTET.sec               00 000 000 000:  GT Elapsed Test Time
 GTTVD.m                00 000 000 000:  GT True Vertical Depth
#Other Information
#
#WARRANTY: Halliburton will use its best efforts to furnish customers with 
#accurate information and interpretations that are part of, and incident to, the services 
#provided.  However, Halliburton cannot and does not warrant the accuracy 
#or correctness of such information and interpretations.  Under no circumstances should any 
#such information or interpretation be relied upon as the sole basis for any drilling, 
#completion, production, or financial decision or any procedure involving any risk to the 
#safety of any drilling venture, drilling rig or its crew or any other third party.  The 
#Customer has full responsibility for all drilling, completion and production operation.  
#Halliburton makes no representations or warranties, either expressed or 
#implied, including, but not limited to, the implied warranties of merchantability or fitness 
#for a particular purpose, with respect to the services rendered.  In no event will 
#Halliburton be liable for failure to obtain any particular results or for 
#any damages, including, but not limited to, indirect, special or consequential damages, 
#resulting from the use of any information or interpretation provided by Halliburton.
#
~A           TIME           GTDEPTH  GTPQH  GTTQ  GTTN  GTET   GTTVD  
# ...
   08:51:21.680.29-Jan-2021 4683.51 6050.58 81.48 9.00  23.00 2579.09
   08:51:21.880.29-Jan-2021 4683.51 6050.58 81.48 9.00  23.20 2579.09
   08:51:22.080.29-Jan-2021 4683.51 6049.51 81.47 9.00  23.40 2579.09
   08:51:22.280.29-Jan-2021 4683.51 6049.67 81.47 9.00  23.60 2579.09
   08:51:22.480.29-Jan-2021 4683.51 6048.12 81.47 9.00  23.81 2579.09
   08:51:22.680.29-Jan-2021 4683.51 6047.76 81.47 9.00  24.01 2579.09
   08:51:22.880.29-Jan-2021 4683.51 6047.76 81.47 9.00  24.21 2579.09
   08:51:23.080.29-Jan-2021 4683.51 6046.74 81.47 9.00  24.41 2579.09
   08:51:23.280.29-Jan-2021 4683.51 6046.77 81.47 9.00  24.61 2579.09
   08:51:23.480.29-Jan-2021 4683.51 6046.66 81.47 9.00  24.81 2579.09
   08:51:23.680.29-Jan-2021 4683.51 6045.91 81.47 9.00  25.01 2579.09
   08:51:23.880.29-Jan-2021 4683.51 6045.91 81.47 9.00  25.21 2579.09
   08:51:24.080.29-Jan-2021 4683.51 6045.85 81.47 9.00  25.41 2579.09
   08:51:24.280.29-Jan-2021 4683.51 6045.62 81.47 9.00  25.61 2579.09
   08:51:24.480.29-Jan-2021 4683.51 6017.68 81.47 9.00  25.81 2579.09
   08:51:24.680.29-Jan-2021 4683.51 5534.04 81.46 9.00  26.01 2579.09
   08:51:24.881.29-Jan-2021 4683.51 5534.04 81.46 9.00  26.21 2579.09
   08:51:25.081.29-Jan-2021 4683.51 4337.73 81.46 9.00  26.41 2579.09
   08:51:25.281.29-Jan-2021 4683.51 3489.52 81.46 9.00  26.61 2579.09
   08:51:25.481.29-Jan-2021 4683.51 3064.11 81.46 9.00  26.81 2579.09
   08:51:25.681.29-Jan-2021 4683.51 3066.65 81.46 9.00  27.01 2579.09
   08:51:25.881.29-Jan-2021 4683.51 3066.65 81.46 9.00  27.21 2579.09
   08:51:26.081.29-Jan-2021 4683.51 3066.62 81.46 9.00  27.41 2579.09
   08:51:26.281.29-Jan-2021 4683.51 3064.71 81.46 9.00  27.61 2579.09
   08:51:26.481.29-Jan-2021 4683.51 3061.97 81.46 9.00  27.81 2579.09
   08:51:26.681.29-Jan-2021 4683.51 3059.35 81.46 9.00  28.01 2579.09
   08:51:26.881.29-Jan-2021 4683.51 3059.35 81.46 9.00  28.21 2579.09
   08:51:27.081.29-Jan-2021 4683.51 3053.71 81.45 9.00  28.41 2579.09
   08:51:27.281.29-Jan-2021 4683.51 3051.66 81.45 9.00  28.61 2579.09
   08:51:27.481.29-Jan-2021 4683.51 3050.77 81.45 9.00  28.81 2579.09
   08:51:27.681.29-Jan-2021 4683.51 3050.29 81.45 9.00  29.01 2579.09
   08:51:27.881.29-Jan-2021 4683.51 3050.29 81.45 9.00  29.21 2579.09
   08:51:28.081.29-Jan-2021 4683.51 3049.34 81.45 9.00  29.41 2579.09
   08:51:28.281.29-Jan-2021 4683.51 3049.01 81.45 9.00  29.61 2579.09
   08:51:28.481.29-Jan-2021 4683.51 3048.72 81.45 9.00  29.81 2579.09
   08:51:28.681.29-Jan-2021 4683.51 3049.01 81.45 9.00  30.01 2579.09
   08:51:28.881.29-Jan-2021 4683.51 3049.01 81.45 9.00  30.21 2579.09
   08:51:29.081.29-Jan-2021 4683.51 3048.84 81.44 9.00  30.41 2579.09
   08:51:29.281.29-Jan-2021 4683.51 3048.63 81.44 9.00  30.61 2579.09
   08:51:29.481.29-Jan-2021 4683.51 3048.75 81.44 9.00  30.81 2579.09
   08:51:29.682.29-Jan-2021 4683.51 3048.63 81.44 9.00  31.01 2579.09
   08:51:29.882.29-Jan-2021 4683.51 3048.63 81.44 9.00  31.21 2579.09
   08:51:30.082.29-Jan-2021 4683.51 3048.26 81.44 9.00  31.41 2579.09
   08:51:30.282.29-Jan-2021 4683.51 3048.38 81.44 9.00  31.61 2579.09
   08:51:30.482.29-Jan-2021 4683.51 3048.34 81.44 9.00  31.81 2579.09
   08:51:30.682.29-Jan-2021 4683.51 3048.06 81.43 9.00  32.01 2579.09
   08:51:30.882.29-Jan-2021 4683.51 3048.06 81.43 9.00  32.21 2579.09
   08:51:31.082.29-Jan-2021 4683.51 3048.26 81.43 9.00  32.41 2579.09
   08:51:31.282.29-Jan-2021 4683.51 3048.37 81.43 9.00  32.61 2579.09
   08:51:31.482.29-Jan-2021 4683.51 3048.32 81.43 9.00  32.81 2579.09
   08:51:31.682.29-Jan-2021 4683.51 3048.34 81.43 9.00  33.01 2579.09
   08:51:31.882.29-Jan-2021 4683.51 3048.34 81.43 9.00  33.21 2579.09
   08:51:32.082.29-Jan-2021 4683.51 3048.29 81.43 9.00  33.41 2579.09
   08:51:32.282.29-Jan-2021 4683.51 3048.50 81.43 9.00  33.61 2579.09
   08:51:32.482.29-Jan-2021 4683.51 3048.49 81.42 9.00  33.81 2579.09
   08:51:32.682.29-Jan-2021 4683.51 3048.42 81.42 9.00  34.01 2579.09
   08:51:32.882.29-Jan-2021 4683.51 3048.42 81.42 9.00  34.21 2579.09
   08:51:33.082.29-Jan-2021 4683.51 3048.55 81.42 9.00  34.41 2579.09
   08:51:33.282.29-Jan-2021 4683.51 3048.68 81.42 9.00  34.61 2579.09
   08:51:33.482.29-Jan-2021 4683.51 3048.70 81.42 9.00  34.81 2579.09
   08:51:33.682.29-Jan-2021 4683.51 3048.71 81.42 9.00  35.01 2579.09
   08:51:33.882.29-Jan-2021 4683.51 3048.71 81.42 9.00  35.21 2579.09
   08:51:34.082.29-Jan-2021 4683.51 3049.56 81.41 9.00  35.41 2579.09
   08:51:34.282.29-Jan-2021 4683.51 3049.02 81.41 9.00  35.61 2579.09
   08:51:34.483.29-Jan-2021 4683.51 3049.17 81.41 9.00  35.81 2579.09
   08:51:34.683.29-Jan-2021 4683.51 3060.03 81.41 9.00  36.01 2579.09
   08:51:34.883.29-Jan-2021 4683.51 3060.03 81.41 9.00  36.21 2579.09
   08:51:35.083.29-Jan-2021 4683.51 3064.65 81.41 9.00  36.41 2579.09
   08:51:35.283.29-Jan-2021 4683.51 3064.77 81.41 9.00  36.61 2579.09
   08:51:35.483.29-Jan-2021 4683.51 3064.83 81.41 9.00  36.81 2579.09
   08:51:35.683.29-Jan-2021 4683.51 3064.86 81.40 9.00  37.01 2579.09
   08:51:35.883.29-Jan-2021 4683.51 3064.86 81.40 9.00  37.21 2579.09
   08:51:36.083.29-Jan-2021 4683.51 3064.96 81.40 9.00  37.41 2579.09
   08:51:36.283.29-Jan-2021 4683.51 3064.99 81.40 9.00  37.61 2579.09
   08:51:36.483.29-Jan-2021 4683.51 3064.96 81.40 9.00  37.81 2579.09
   08:51:36.683.29-Jan-2021 4683.51 3065.07 81.40 9.00  38.01 2579.09
   08:51:36.883.29-Jan-2021 4683.51 3065.07 81.40 9.00  38.21 2579.09
   08:51:37.083.29-Jan-2021 4683.51 3065.05 81.40 9.00  38.41 2579.09
   08:51:37.283.29-Jan-2021 4683.51 3065.12 81.40 9.00  38.61 2579.09
   08:51:37.483.29-Jan-2021 4683.51 3065.12 81.39 9.00  38.81 2579.09
   08:51:37.683.29-Jan-2021 4683.51 3065.14 81.39 9.00  39.01 2579.09
   08:51:37.883.29-Jan-2021 4683.51 3065.14 81.39 9.00  39.21 2579.09
   08:51:38.083.29-Jan-2021 4683.51 3065.17 81.39 9.00  39.41 2579.09
   08:51:38.283.29-Jan-2021 4683.51 3065.19 81.39 9.00  39.61 2579.09
   08:51:38.483.29-Jan-2021 4683.51 3065.20 81.39 9.00  39.81 2579.09
   08:51:38.683.29-Jan-2021 4683.51 3065.21 81.39 9.00  40.01 2579.09
   08:51:38.883.29-Jan-2021 4683.51 3065.21 81.39 9.00  40.21 2579.09
   08:51:39.083.29-Jan-2021 4683.51 3065.24 81.39 9.00  40.41 2579.09
   08:51:39.284.29-Jan-2021 4683.51 3065.25 81.38 9.00  40.61 2579.09
   08:51:39.484.29-Jan-2021 4683.51 3065.26 81.38 9.00  40.81 2579.09
   08:51:39.684.29-Jan-2021 4683.51 3065.27 81.38 9.00  41.01 2579.09
   08:51:39.884.29-Jan-2021 4683.51 3065.27 81.38 9.00  41.21 2579.09
   08:51:40.084.29-Jan-2021 4683.51 3065.27 81.38 9.00  41.41 2579.09
   08:51:40.284.29-Jan-2021 4683.51 3065.32 81.38 9.00  41.61 2579.09
   08:51:40.484.29-Jan-2021 4683.51 3065.33 81.38 9.00  41.81 2579.09
   08:51:40.684.29-Jan-2021 4683.51 3065.31 81.38 9.00  42.01 2579.09
   08:51:40.884.29-Jan-2021 4683.51 3065.31 81.38 9.00  42.21 2579.09
   08:51:41.084.29-Jan-2021 4683.51 3065.35 81.38 9.00  42.41 2579.09
   08:51:41.284.29-Jan-2021 4683.51 3065.35 81.37 9.00  42.61 2579.09
   08:51:41.484.29-Jan-2021 4683.51 3065.36 81.37 9.00  42.81 2579.09
   08:51:41.684.29-Jan-2021 4683.51 3065.38 81.37 9.00  43.01 2579.09
   08:51:41.884.29-Jan-2021 4683.51 3065.38 81.37 9.00  43.21 2579.09
   08:51:42.084.29-Jan-2021 4683.51 3065.39 81.37 9.00  43.41 2579.09
   08:51:42.284.29-Jan-2021 4683.51 3065.40 81.37 9.00  43.61 2579.09
   08:51:42.484.29-Jan-2021 4683.51 3065.40 81.37 9.00  43.81 2579.09
   08:51:42.684.29-Jan-2021 4683.51 3065.41 81.37 9.00  44.01 2579.09
   08:51:42.884.29-Jan-2021 4683.51 3065.41 81.37 9.00  44.21 2579.09
   08:51:43.084.29-Jan-2021 4683.51 3065.42 81.36 9.00  44.41 2579.09
   08:51:43.284.29-Jan-2021 4683.51 3065.43 81.36 9.00  44.61 2579.09
   08:51:43.484.29-Jan-2021 4683.51 3065.44 81.36 9.00  44.81 2579.09
   08:51:43.684.29-Jan-2021 4683.51 3065.44 81.36 9.00  45.01 2579.09
   08:51:43.885.29-Jan-2021 4683.51 3065.44 81.36 9.00  45.21 2579.09
   08:51:44.085.29-Jan-2021 4683.51 3065.45 81.36 9.00  45.41 2579.09
   08:51:44.285.29-Jan-2021 4683.51 3065.46 81.36 9.00  45.61 2579.09
   08:51:44.485.29-Jan-2021 4683.51 3065.48 81.36 9.00  45.81 2579.09
