~Version Information
 VERS.                  2.0:   CWLS log ASCII Standard -VERSION 2.0
 WRAP.                   NO:   One line per depth step
~Well Information Block
#MNEM.UNIT     VALUE/NAME     DESCRIPTION
#---------     -----------    ---------------------------
 STRT.S             01:29:12 30-Jan-21: START TIME 01:29:12 30-Jan-21
 STOP.S             01:35:33 30-Jan-21: STOP TIME  01:35:33 30-Jan-21
 STEP.S                   0.00: STEP TIME
 NULL.                 -999.25: NULL VALUE
 DFWT.                        :  DIST FWL TEXT
 DFST.                        :  DIST FSL TEXT
 DMF .             Drill Floor:  DRILL MEAS FROM
 STIM.      00.00.00 25-Sep-20:  START TIME
 DATE.      16.12.48 31-Jan-21:  END TIME
 SPUD.               20-Sep-20:  SPUD DATE
 NREF.                    Grid:  NORTH REFERENCE
 HPTY.       Minimum Curvature:  HOLE POS TYPE
 DMOD.             Drill Model:  DRILL MOD DESC
 SVYD.                  Survey:  SURVEY DESC
 ILTD.               Lithology:  INTERP LTH DESC
 FTOP.          Formation Tops:  FORM TOPS DESC
 RIG .              East Azeri:  RIG NAME
 PDAT.          Mean Sea Level:  PERMANENT DATUM
 FLD .                     ACG:  FIELD NAME
 SON .        AZ-XX-0906591820:  JOB NUMBER
 CTRY.              Azerbaijan:  COUNTRY NAME
 WELL.                     D37:  WELL NAME
 SRVC.     Turan Drilling & Engineering:  CONTRACTOR
 COMP.     BP Exploration (Caspian Sea) ltd.:  COMPANY
 WTYP.                Deviated:  WELL TYPE
 MDS .        Operator Entered:  MAG DATA SOURCE
 UWI .                     N/A:  UNIQUE WELL IDENTIFIER
 API .                     N/A:  API NUMBER
 BASE.              Azerbaijan:  LOGGING EQUIPMENT BASE LOCATION
 REGN.                   EESSA:  REGION
 PROV.                    Baku:  PROVINCE
 STAT.                    Baku:  STATE NAME
 MWDS.                    Baku:  MWD SHOP
 JOBN.        AZ-XX-0906591820:  JOB TICKET NUMB
 DOE .                     N/A:  DOE NUMBER
 DCON.         Sperry Drilling:  DIRECTNL CONTR
 UNIT.                     N/A:  LOGGING EQUIPMENT ID
 CNTY.                        :  COUNTY
 LOC .                        :  LOCATION
 LMF .             Drill Floor:  LOG MEASURED FROM
 TVDS.m                  43.60:  TVDSS CORRECTN
 LATI.deg                40.02:  LATITUDE
 LONG.deg                51.45:  LONGITUDE
 WHNS.m                  11.04:  WELL HEAD N/S
 WHEW.m                 -12.38:  WELL HEAD E/W
 UTMX.m              538763.98:  UTM X
 UTMY.m             4431880.20:  UTM Y
 DFWL.m                   0.00:  DISTANCE FWL
 DFSL.m                   0.00:  DISTANCE FSL
 SDEP.m                 300.00:  START DEPTH
 TDD .m                4900.01:  TOTAL DEPTH (DRILLER)
 VSDR.deg               185.64:  VERT SEC DIRECT
 GVFD.g                   1.00:  GRAVITY FIELD
 MFLD.nT              50301.00:  MAGNETIC FIELD
 MDIP.deg                59.46:  MAGNETIC DIP
 MDEC.deg                 6.43:  MAGNETIC DECL
 GRDC.deg                 0.29:  GRID CORRECTION
 AZTC.deg                 6.14:  AZM TOTAL CORR
 EPD .m                   0.00:  ELEVATION
 EGL .m                   0.00:  GROUND ELEVATION
 WDMS.m                 151.80:  WD ELEV
 APD .m                  43.60:  DEPTH ABOVE PD
 DEP .m                 571.69:  DEPTH
 AGAP.m                  43.60:  AIR GAP
 VSEW.m                 -12.38:  VERT SEC E/W
 VSNS.m                  11.04:  VERT SEC N/S
 EKB .m                  43.60:  KB ELEVATION
 EDF .m                  43.60:  DF ELEVATION
 TDL .m                 412.00:  TOTAL DEPTH (LOGGER)
 VSC .                       0:  VS TO CLOSURE
 MAGU.                 1849300:  MAGUTM CHECKSUM
~Parameter Information Block
#MNEM.UNIT       Value        Description
#---------     -----------    ---------------------------
 AV  .mps                 2.21:  Ann Velocity 
 AVMX.mps                 2.53:  Max Ann Veloc 
 AZIF.deg               144.83:  Azm, Final 
 BHAT.        Rotary Steerable:  BHA Type 
 BROT.°/30m              -0.52:  Build Rotating 
 BS  .in                  6.50:  Bit Size 
 BTPL.psig              209.00:  Bit Press Loss 
 CABU.                      No:  Customer Abuse 
 CGEO.        Ali Isfandiyarov:  Customer Geo 
 COMM.                     5j:  Run Comments 1 
 TCS .hr                 61.31:  Time Ciculation Ended 
 CV  .mps                 4.66:  Crit Velocity 
 CVMX.mps                 5.02:  Max Crit Veloc 
 DD1 .          Fariz Nahmatov:  Direct Drillr 1 
 DD2 .            Musa Ahmadov:  Direct Drillr 2 
 DDSV.               Geo-Pilot:  DD Service 
 DEFF.%                 100.00:  % Det Eff 
 DLRX.°/30m               1.44:  Dogleg Rot Max 
 DLSO.°/30m               0.83:  Dogleg Oriented 
 DLSX.°/30m               1.44:  Dogleg Str Max 
 DRET.      08.30.00 30-Jan-21:  Drill End Time 
 DRST.      21.15.00 27-Jan-21:  Drill Start Tim 
 DTIM.hr                 37.28:  Time Drilling 
 EDEP.m                4867.01:  End Depth 
 ENG1.          Rasim Hashimov:  Engineer 1 
 ENG2.         Almaz Almadatov:  Engineer 2 
 ENG3.        Tamerlan Ahmadov:  Engineer 3 
 ETIM.      22.41.04 31-Jan-21:  End Time 
 FLOI.gpm               400.00:  Flow In 
 FLON.gpm               300.00:  Flow In Min 
 FLOS.cptm                0.00:  Fluid Loss 
 FLOX.gpm               400.00:  Flow In Max 
 HFLO.                      No:  High Flow 
 HPRE.                      No:  High Pressure 
 HTEM.                      No:  High Temp 
 HYDO.m                   1.80:  Hydro Offset 
 IFIN.deg                65.63:  Inc, Final 
 IMAX.deg                66.77:  Inc Max 
 IMIN.deg                65.61:  Inc Min 
 IMND.m                4612.67:  Inc Min Depth 
 IMXD.m                4811.63:  Inc Max Depth 
 JARR.                      No:  Jarring 
 LETM.      08.30.00 30-Jan-21:  Log End Time 
 LOST.hr                     0:  Lost Rig Time 
 LSTM.      21.15.00 27-Jan-21:  Log Start Time 
 MDCL.ppm             41000.00:  Mud Chlorides 
 MDES.     Inversion Oil/Synthetic:  Mud Desc 
 DFD .sg                  1.40:  Mud Density 
 MDMN.sg                  1.40:  Dens Mud Min 
 MDMX.sg                  1.40:  Dens Mud Max 
 MOIL.                      53:  Run Mud Oil % 
 MOWR.                   66:34:  Run Mud OWR 
 MSND.                     0.2:  Run Mud Sand % 
 MSOL.                    17.9:  Run Mud Solids% 
 DFV .spqt               77.00:  Mud Viscosity 
 MWOD.in                  4.75:  MWD Tool OD 
 MWSI.                      No:  Serv Intrp, MWD 
 OTIM.hr                110.38:  Time Operating 
 PCON.           Look Like New:  Pad Condition 
 PMAX.psia             5300.00:  Press Op, Max 
 PV  .cP                 57.00:  Mud PV 
 RUN .                    1200:  Run Number 
 ROPA.m/hr               13.00:  ROP Avg 
 ROPN.m/hr                9.00:  ROP Min 
 ROPX.m/hr               15.00:  ROP Max 
 RPMA.rpm               120.00:  RPM Surface Avg 
 RPMN.rpm               100.00:  RPM Surface Min 
 RPMX.rpm               135.00:  RPM Surface Max 
 RRUN.                    1200:  Rig Run Number 
 RTIM.hr                  2.65:  Time Reaming 
 SAZI.deg               145.04:  Azm, Start 
 SDEP.m                4455.01:  Start Depth 
 SIDD.                      No:  Serv Intrp, DD 
 SINC.deg                65.83:  Inc, Start 
 SPPA.psig             5037.00:  SPP Avg 
 SPPN.psig             4430.00:  SPP Min 
 SPPX.psig             5300.00:  SPP Max 
 STIM.      22.41.04 26-Jan-21:  Start Time 
 SVCS.                 DD, MWD:  Services 
 SVER.                    9.20:  Sperry Version 
 TDAT.m                 412.00:  Tot Depth Attmp 
 TDDF.                      No:  Trip for DD 
 TDLG.m                 412.00:  Tot Depth Loggd 
 TFF .                      No:  Trip for Fail 
 TQAA.f-kp               15.00:  Torque Abs Avg 
 TQAN.f-kp               12.00:  Torque Abs Min 
 TQAX.f-kp               17.00:  Torque Abs Max 
 TRRT.°/30m               1.18:  Turn Rotating 
 MRT .                     ADR:  Maximum Recorded Temperature 
 TTMX.degC               88.24:  Max Tool Temp 
 VS01.                90619458:  Virtual Str1 SN 
 VS02.                90519326:  Virtual Str2 SN 
 VS03.                90522176:  Virtual Str3 SN 
 VS04.                90512683:  Virtual Str4 SN 
 WBMN.klb                 1.00:  WOB Min 
 WITN.           Murad Giluyev:  Customer Rep 
 WITN.     Kamran Kemberlinski:  Customer Rep 2 
 WOBA.klb                 5.00:  WOB Avg 
 WOBX.klb                 9.00:  WOB Max 
 YP  .lhf2               41.00:  Yield Point 
~Curve Information Block
#MNEM.UNIT                 API CODE     Curve Description
#---------               -----------    ---------------------------
 TIME.HHMMSS            00 000 000 000:  GT Time & Date
 GTDEPTH.m              00 000 000 000:  GT Depth
 GTPQH.psia             00 000 000 000:  GT HR Quartz Pressure
 GTTQ.degC              00 000 000 000:  GT Quartz Temperature
 GTTN.NONE              00 000 000 000:  GT Test Number
 GTET.sec               00 000 000 000:  GT Elapsed Test Time
 GTTVD.m                00 000 000 000:  GT True Vertical Depth
#Other Information
#
#WARRANTY: Halliburton will use its best efforts to furnish customers with 
#accurate information and interpretations that are part of, and incident to, the services 
#provided.  However, Halliburton cannot and does not warrant the accuracy 
#or correctness of such information and interpretations.  Under no circumstances should any 
#such information or interpretation be relied upon as the sole basis for any drilling, 
#completion, production, or financial decision or any procedure involving any risk to the 
#safety of any drilling venture, drilling rig or its crew or any other third party.  The 
#Customer has full responsibility for all drilling, completion and production operation.  
#Halliburton makes no representations or warranties, either expressed or 
#implied, including, but not limited to, the implied warranties of merchantability or fitness 
#for a particular purpose, with respect to the services rendered.  In no event will 
#Halliburton be liable for failure to obtain any particular results or for 
#any damages, including, but not limited to, indirect, special or consequential damages, 
#resulting from the use of any information or interpretation provided by Halliburton.
#
~A           TIME           GTDEPTH  GTPQH  GTTQ  GTTN   GTET   GTTVD  
# ...
   01:31:50.868.30-Jan-2021 4789.01   34.16 81.99 15.00 158.23 2621.19
   01:31:51.068.30-Jan-2021 4789.01   34.20 81.99 15.00 158.43 2621.19
   01:31:51.268.30-Jan-2021 4789.01   34.21 81.99 15.00 158.63 2621.19
   01:31:51.468.30-Jan-2021 4789.01   34.23 81.99 15.00 158.83 2621.19
   01:31:51.668.30-Jan-2021 4789.01   34.23 81.99 15.00 159.03 2621.19
   01:31:51.868.30-Jan-2021 4789.01   34.23 81.99 15.00 159.23 2621.19
   01:31:52.068.30-Jan-2021 4789.01   34.26 81.99 15.00 159.43 2621.19
   01:31:52.268.30-Jan-2021 4789.01   34.28 81.99 15.00 159.63 2621.19
   01:31:52.468.30-Jan-2021 4789.01   34.30 81.98 15.00 159.83 2621.19
   01:31:52.668.30-Jan-2021 4789.01   34.31 81.98 15.00 160.03 2621.19
   01:31:52.868.30-Jan-2021 4789.01   34.31 81.98 15.00 160.23 2621.19
   01:31:53.068.30-Jan-2021 4789.01   34.34 81.98 15.00 160.43 2621.19
   01:31:53.268.30-Jan-2021 4789.01   34.36 81.98 15.00 160.63 2621.19
   01:31:53.468.30-Jan-2021 4789.01   34.37 81.98 15.00 160.83 2621.19
   01:31:53.668.30-Jan-2021 4789.01   34.38 81.98 15.00 161.03 2621.19
   01:31:53.868.30-Jan-2021 4789.01   34.38 81.98 15.00 161.23 2621.19
   01:31:54.068.30-Jan-2021 4789.01   34.42 81.98 15.00 161.43 2621.19
   01:31:54.269.30-Jan-2021 4789.01   34.43 81.98 15.00 161.63 2621.19
   01:31:54.469.30-Jan-2021 4789.01   34.45 81.98 15.00 161.83 2621.19
   01:31:54.669.30-Jan-2021 4789.01   34.46 81.98 15.00 162.03 2621.19
   01:31:54.869.30-Jan-2021 4789.01   34.46 81.98 15.00 162.23 2621.19
   01:31:55.069.30-Jan-2021 4789.01   34.50 81.98 15.00 162.43 2621.19
   01:31:55.269.30-Jan-2021 4789.01   34.51 81.98 15.00 162.63 2621.19
   01:31:55.469.30-Jan-2021 4789.01   34.53 81.98 15.00 162.83 2621.19
   01:31:55.669.30-Jan-2021 4789.01   34.54 81.98 15.00 163.03 2621.19
   01:31:55.869.30-Jan-2021 4789.01   34.54 81.98 15.00 163.23 2621.19
   01:31:56.069.30-Jan-2021 4789.01   34.57 81.98 15.00 163.43 2621.19
   01:31:56.269.30-Jan-2021 4789.01   34.59 81.98 15.00 163.63 2621.19
   01:31:56.469.30-Jan-2021 4789.01   34.60 81.98 15.00 163.83 2621.19
   01:31:56.669.30-Jan-2021 4789.01   34.62 81.98 15.00 164.03 2621.19
   01:31:56.869.30-Jan-2021 4789.01   34.62 81.98 15.00 164.23 2621.19
   01:31:57.069.30-Jan-2021 4789.01   34.65 81.97 15.00 164.43 2621.19
   01:31:57.269.30-Jan-2021 4789.01   34.66 81.97 15.00 164.63 2621.19
   01:31:57.469.30-Jan-2021 4789.01   34.68 81.97 15.00 164.83 2621.19
   01:31:57.669.30-Jan-2021 4789.01   34.69 81.97 15.00 165.03 2621.19
   01:31:57.869.30-Jan-2021 4789.01   34.69 81.97 15.00 165.23 2621.19
   01:31:58.069.30-Jan-2021 4789.01   34.72 81.97 15.00 165.43 2621.19
   01:31:58.269.30-Jan-2021 4789.01   34.73 81.97 15.00 165.63 2621.19
   01:31:58.469.30-Jan-2021 4789.01   34.74 81.97 15.00 165.83 2621.19
   01:31:58.669.30-Jan-2021 4789.01   34.77 81.97 15.00 166.03 2621.19
   01:31:58.869.30-Jan-2021 4789.01   34.77 81.97 15.00 166.23 2621.19
   01:31:59.069.30-Jan-2021 4789.01   34.77 81.97 15.00 166.43 2621.19
   01:31:59.269.30-Jan-2021 4789.01   34.80 81.97 15.00 166.63 2621.19
   01:31:59.470.30-Jan-2021 4789.01   34.81 81.97 15.00 166.83 2621.19
   01:31:59.670.30-Jan-2021 4789.01   34.83 81.97 15.00 167.03 2621.19
   01:31:59.870.30-Jan-2021 4789.01   34.83 81.97 15.00 167.23 2621.19
   01:32:00.070.30-Jan-2021 4789.01   34.85 81.97 15.00 167.43 2621.19
   01:32:00.270.30-Jan-2021 4789.01   34.87 81.97 15.00 167.63 2621.19
   01:32:00.470.30-Jan-2021 4789.01   34.88 81.97 15.00 167.83 2621.19
   01:32:00.670.30-Jan-2021 4789.01   34.89 81.97 15.00 168.03 2621.19
   01:32:00.870.30-Jan-2021 4789.01   34.89 81.97 15.00 168.23 2621.19
   01:32:01.070.30-Jan-2021 4789.01   34.92 81.97 15.00 168.43 2621.19
   01:32:01.270.30-Jan-2021 4789.01   34.93 81.96 15.00 168.63 2621.19
   01:32:01.470.30-Jan-2021 4789.01   34.94 81.96 15.00 168.83 2621.19
   01:32:01.670.30-Jan-2021 4789.01   34.95 81.96 15.00 169.03 2621.19
   01:32:01.870.30-Jan-2021 4789.01   34.95 81.96 15.00 169.23 2621.19
   01:32:02.070.30-Jan-2021 4789.01   34.98 81.96 15.00 169.43 2621.19
   01:32:02.270.30-Jan-2021 4789.01   34.99 81.96 15.00 169.63 2621.19
   01:32:02.470.30-Jan-2021 4789.01   35.00 81.96 15.00 169.83 2621.19
   01:32:02.670.30-Jan-2021 4789.01   35.02 81.96 15.00 170.03 2621.19
   01:32:02.870.30-Jan-2021 4789.01   35.02 81.96 15.00 170.23 2621.19
   01:32:03.070.30-Jan-2021 4789.01   35.04 81.96 15.00 170.43 2621.19
   01:32:03.270.30-Jan-2021 4789.01   35.05 81.96 15.00 170.63 2621.19
   01:32:03.470.30-Jan-2021 4789.01   35.06 81.96 15.00 170.83 2621.19
   01:32:03.670.30-Jan-2021 4789.01   35.07 81.96 15.00 171.03 2621.19
   01:32:03.870.30-Jan-2021 4789.01   35.07 81.96 15.00 171.23 2621.19
   01:32:04.070.30-Jan-2021 4789.01   35.09 81.96 15.00 171.43 2621.19
   01:32:04.270.30-Jan-2021 4789.01   35.11 81.96 15.00 171.63 2621.19
   01:32:04.470.30-Jan-2021 4789.01   35.12 81.96 15.00 171.83 2621.19
   01:32:04.671.30-Jan-2021 4789.01   35.13 81.96 15.00 172.03 2621.19
   01:32:04.871.30-Jan-2021 4789.01   35.13 81.96 15.00 172.23 2621.19
   01:32:05.071.30-Jan-2021 4789.01   35.15 81.96 15.00 172.43 2621.19
   01:32:05.271.30-Jan-2021 4789.01   35.16 81.96 15.00 172.63 2621.19
   01:32:05.471.30-Jan-2021 4789.01   35.17 81.96 15.00 172.83 2621.19
   01:32:05.671.30-Jan-2021 4789.01   35.19 81.96 15.00 173.03 2621.19
   01:32:05.871.30-Jan-2021 4789.01   35.19 81.96 15.00 173.23 2621.19
   01:32:06.071.30-Jan-2021 4789.01   35.21 81.95 15.00 173.43 2621.19
   01:32:06.271.30-Jan-2021 4789.01   35.21 81.95 15.00 173.63 2621.19
   01:32:06.471.30-Jan-2021 4789.01   35.23 81.95 15.00 173.83 2621.19
   01:32:06.671.30-Jan-2021 4789.01   35.24 81.95 15.00 174.03 2621.19
   01:32:06.871.30-Jan-2021 4789.01   35.24 81.95 15.00 174.23 2621.19
   01:32:07.071.30-Jan-2021 4789.01   35.26 81.95 15.00 174.43 2621.19
   01:32:07.271.30-Jan-2021 4789.01   35.27 81.95 15.00 174.63 2621.19
   01:32:07.471.30-Jan-2021 4789.01   35.28 81.95 15.00 174.83 2621.19
   01:32:07.671.30-Jan-2021 4789.01   35.29 81.95 15.00 175.03 2621.19
   01:32:07.871.30-Jan-2021 4789.01   35.29 81.95 15.00 175.23 2621.19
   01:32:08.071.30-Jan-2021 4789.01   35.31 81.95 15.00 175.43 2621.19
   01:32:08.271.30-Jan-2021 4789.01   35.33 81.95 15.00 175.63 2621.19
   01:32:08.471.30-Jan-2021 4789.01   35.32 81.95 15.00 175.83 2621.19
   01:32:08.671.30-Jan-2021 4789.01   35.35 81.95 15.00 176.03 2621.19
   01:32:08.871.30-Jan-2021 4789.01   35.35 81.95 15.00 176.23 2621.19
   01:32:09.071.30-Jan-2021 4789.01   35.36 81.95 15.00 176.43 2621.19
   01:32:09.271.30-Jan-2021 4789.01   35.37 81.95 15.00 176.63 2621.19
   01:32:09.471.30-Jan-2021 4789.01   35.38 81.95 15.00 176.83 2621.19
   01:32:09.671.30-Jan-2021 4789.01   35.39 81.95 15.00 177.03 2621.19
   01:32:09.872.30-Jan-2021 4789.01   35.39 81.95 15.00 177.23 2621.19
   01:32:10.072.30-Jan-2021 4789.01   35.41 81.95 15.00 177.43 2621.19
   01:32:10.272.30-Jan-2021 4789.01   35.42 81.95 15.00 177.63 2621.19
   01:32:10.472.30-Jan-2021 4789.01   35.43 81.94 15.00 177.83 2621.19
   01:32:10.672.30-Jan-2021 4789.01   35.44 81.94 15.00 178.03 2621.19
   01:32:10.872.30-Jan-2021 4789.01   35.44 81.94 15.00 178.23 2621.19
   01:32:11.072.30-Jan-2021 4789.01   35.46 81.94 15.00 178.43 2621.19
   01:32:11.272.30-Jan-2021 4789.01   35.47 81.94 15.00 178.63 2621.19
   01:32:11.472.30-Jan-2021 4789.01   35.48 81.94 15.00 178.83 2621.19
   01:32:11.672.30-Jan-2021 4789.01   35.49 81.94 15.00 179.03 2621.19
   01:32:11.872.30-Jan-2021 4789.01   35.49 81.94 15.00 179.23 2621.19
   01:32:12.072.30-Jan-2021 4789.01   35.51 81.94 15.00 179.43 2621.19
   01:32:12.272.30-Jan-2021 4789.01   35.52 81.94 15.00 179.63 2621.19
   01:32:12.472.30-Jan-2021 4789.01   35.52 81.94 15.00 179.83 2621.19
   01:32:12.672.30-Jan-2021 4789.01   35.53 81.94 15.00 180.03 2621.19
   01:32:12.872.30-Jan-2021 4789.01   35.53 81.94 15.00 180.23 2621.19
   01:32:13.072.30-Jan-2021 4789.01   35.56 81.94 15.00 180.43 2621.19
   01:32:13.272.30-Jan-2021 4789.01   35.56 81.94 15.00 180.63 2621.19
