~Version Information
 VERS.                  2.0:   CWLS log ASCII Standard -VERSION 2.0
 WRAP.                   NO:   One line per depth step
~Well Information Block
#MNEM.UNIT     VALUE/NAME     DESCRIPTION
#---------     -----------    ---------------------------
 STRT.S             18:28:03 29-Jan-21: START TIME 18:28:03 29-Jan-21
 STOP.S             18:34:33 29-Jan-21: STOP TIME  18:34:33 29-Jan-21
 STEP.S                   0.00: STEP TIME
 NULL.                 -999.25: NULL VALUE
 DFWT.                        :  DIST FWL TEXT
 DFST.                        :  DIST FSL TEXT
 DMF .             Drill Floor:  DRILL MEAS FROM
 STIM.      00.00.00 25-Sep-20:  START TIME
 DATE.      16.12.48 31-Jan-21:  END TIME
 SPUD.               20-Sep-20:  SPUD DATE
 NREF.                    Grid:  NORTH REFERENCE
 HPTY.       Minimum Curvature:  HOLE POS TYPE
 DMOD.             Drill Model:  DRILL MOD DESC
 SVYD.                  Survey:  SURVEY DESC
 ILTD.               Lithology:  INTERP LTH DESC
 FTOP.          Formation Tops:  FORM TOPS DESC
 RIG .              East Azeri:  RIG NAME
 PDAT.          Mean Sea Level:  PERMANENT DATUM
 FLD .                     ACG:  FIELD NAME
 SON .        AZ-XX-0906591820:  JOB NUMBER
 CTRY.              Azerbaijan:  COUNTRY NAME
 WELL.                     D37:  WELL NAME
 SRVC.     Turan Drilling & Engineering:  CONTRACTOR
 COMP.     BP Exploration (Caspian Sea) ltd.:  COMPANY
 WTYP.                Deviated:  WELL TYPE
 MDS .        Operator Entered:  MAG DATA SOURCE
 UWI .                     N/A:  UNIQUE WELL IDENTIFIER
 API .                     N/A:  API NUMBER
 BASE.              Azerbaijan:  LOGGING EQUIPMENT BASE LOCATION
 REGN.                   EESSA:  REGION
 PROV.                    Baku:  PROVINCE
 STAT.                    Baku:  STATE NAME
 MWDS.                    Baku:  MWD SHOP
 JOBN.        AZ-XX-0906591820:  JOB TICKET NUMB
 DOE .                     N/A:  DOE NUMBER
 DCON.         Sperry Drilling:  DIRECTNL CONTR
 UNIT.                     N/A:  LOGGING EQUIPMENT ID
 CNTY.                        :  COUNTY
 LOC .                        :  LOCATION
 LMF .             Drill Floor:  LOG MEASURED FROM
 TVDS.m                  43.60:  TVDSS CORRECTN
 LATI.deg                40.02:  LATITUDE
 LONG.deg                51.45:  LONGITUDE
 WHNS.m                  11.04:  WELL HEAD N/S
 WHEW.m                 -12.38:  WELL HEAD E/W
 UTMX.m              538763.98:  UTM X
 UTMY.m             4431880.20:  UTM Y
 DFWL.m                   0.00:  DISTANCE FWL
 DFSL.m                   0.00:  DISTANCE FSL
 SDEP.m                 300.00:  START DEPTH
 TDD .m                4900.01:  TOTAL DEPTH (DRILLER)
 VSDR.deg               185.64:  VERT SEC DIRECT
 GVFD.g                   1.00:  GRAVITY FIELD
 MFLD.nT              50301.00:  MAGNETIC FIELD
 MDIP.deg                59.46:  MAGNETIC DIP
 MDEC.deg                 6.43:  MAGNETIC DECL
 GRDC.deg                 0.29:  GRID CORRECTION
 AZTC.deg                 6.14:  AZM TOTAL CORR
 EPD .m                   0.00:  ELEVATION
 EGL .m                   0.00:  GROUND ELEVATION
 WDMS.m                 151.80:  WD ELEV
 APD .m                  43.60:  DEPTH ABOVE PD
 DEP .m                 571.69:  DEPTH
 AGAP.m                  43.60:  AIR GAP
 VSEW.m                 -12.38:  VERT SEC E/W
 VSNS.m                  11.04:  VERT SEC N/S
 EKB .m                  43.60:  KB ELEVATION
 EDF .m                  43.60:  DF ELEVATION
 TDL .m                 412.00:  TOTAL DEPTH (LOGGER)
 VSC .                       0:  VS TO CLOSURE
 MAGU.                 1849300:  MAGUTM CHECKSUM
~Parameter Information Block
#MNEM.UNIT       Value        Description
#---------     -----------    ---------------------------
 AV  .mps                 2.21:  Ann Velocity 
 AVMX.mps                 2.53:  Max Ann Veloc 
 AZIF.deg               144.83:  Azm, Final 
 BHAT.        Rotary Steerable:  BHA Type 
 BROT.°/30m              -0.52:  Build Rotating 
 BS  .in                  6.50:  Bit Size 
 BTPL.psig              209.00:  Bit Press Loss 
 CABU.                      No:  Customer Abuse 
 CGEO.        Ali Isfandiyarov:  Customer Geo 
 COMM.                     tðz:  Run Comments 1 
 TCS .hr                 61.31:  Time Ciculation Ended 
 CV  .mps                 4.66:  Crit Velocity 
 CVMX.mps                 5.02:  Max Crit Veloc 
 DD1 .          Fariz Nahmatov:  Direct Drillr 1 
 DD2 .            Musa Ahmadov:  Direct Drillr 2 
 DDSV.               Geo-Pilot:  DD Service 
 DEFF.%                 100.00:  % Det Eff 
 DLRX.°/30m               1.44:  Dogleg Rot Max 
 DLSO.°/30m               0.83:  Dogleg Oriented 
 DLSX.°/30m               1.44:  Dogleg Str Max 
 DRET.      08.30.00 30-Jan-21:  Drill End Time 
 DRST.      21.15.00 27-Jan-21:  Drill Start Tim 
 DTIM.hr                 37.28:  Time Drilling 
 EDEP.m                4867.01:  End Depth 
 ENG1.          Rasim Hashimov:  Engineer 1 
 ENG2.         Almaz Almadatov:  Engineer 2 
 ENG3.        Tamerlan Ahmadov:  Engineer 3 
 ETIM.      22.41.04 31-Jan-21:  End Time 
 FLOI.gpm               400.00:  Flow In 
 FLON.gpm               300.00:  Flow In Min 
 FLOS.cptm                0.00:  Fluid Loss 
 FLOX.gpm               400.00:  Flow In Max 
 HFLO.                      No:  High Flow 
 HPRE.                      No:  High Pressure 
 HTEM.                      No:  High Temp 
 HYDO.m                   1.80:  Hydro Offset 
 IFIN.deg                65.63:  Inc, Final 
 IMAX.deg                66.77:  Inc Max 
 IMIN.deg                65.61:  Inc Min 
 IMND.m                4612.67:  Inc Min Depth 
 IMXD.m                4811.63:  Inc Max Depth 
 JARR.                      No:  Jarring 
 LETM.      08.30.00 30-Jan-21:  Log End Time 
 LOST.hr                     0:  Lost Rig Time 
 LSTM.      21.15.00 27-Jan-21:  Log Start Time 
 MDCL.ppm             41000.00:  Mud Chlorides 
 MDES.     Inversion Oil/Synthetic:  Mud Desc 
 DFD .sg                  1.40:  Mud Density 
 MDMN.sg                  1.40:  Dens Mud Min 
 MDMX.sg                  1.40:  Dens Mud Max 
 MOIL.                      53:  Run Mud Oil % 
 MOWR.                   66:34:  Run Mud OWR 
 MSND.                     0.2:  Run Mud Sand % 
 MSOL.                    17.9:  Run Mud Solids% 
 DFV .spqt               77.00:  Mud Viscosity 
 MWOD.in                  4.75:  MWD Tool OD 
 MWSI.                      No:  Serv Intrp, MWD 
 OTIM.hr                110.38:  Time Operating 
 PCON.           Look Like New:  Pad Condition 
 PMAX.psia             5300.00:  Press Op, Max 
 PV  .cP                 57.00:  Mud PV 
 RUN .                    1200:  Run Number 
 ROPA.m/hr               13.00:  ROP Avg 
 ROPN.m/hr                9.00:  ROP Min 
 ROPX.m/hr               15.00:  ROP Max 
 RPMA.rpm               120.00:  RPM Surface Avg 
 RPMN.rpm               100.00:  RPM Surface Min 
 RPMX.rpm               135.00:  RPM Surface Max 
 RRUN.                    1200:  Rig Run Number 
 RTIM.hr                  2.65:  Time Reaming 
 SAZI.deg               145.04:  Azm, Start 
 SDEP.m                4455.01:  Start Depth 
 SIDD.                      No:  Serv Intrp, DD 
 SINC.deg                65.83:  Inc, Start 
 SPPA.psig             5037.00:  SPP Avg 
 SPPN.psig             4430.00:  SPP Min 
 SPPX.psig             5300.00:  SPP Max 
 STIM.      22.41.04 26-Jan-21:  Start Time 
 SVCS.                 DD, MWD:  Services 
 SVER.                    9.20:  Sperry Version 
 TDAT.m                 412.00:  Tot Depth Attmp 
 TDDF.                      No:  Trip for DD 
 TDLG.m                 412.00:  Tot Depth Loggd 
 TFF .                      No:  Trip for Fail 
 TQAA.f-kp               15.00:  Torque Abs Avg 
 TQAN.f-kp               12.00:  Torque Abs Min 
 TQAX.f-kp               17.00:  Torque Abs Max 
 TRRT.°/30m               1.18:  Turn Rotating 
 MRT .                     ADR:  Maximum Recorded Temperature 
 TTMX.degC               88.24:  Max Tool Temp 
 VS01.                90619458:  Virtual Str1 SN 
 VS02.                90519326:  Virtual Str2 SN 
 VS03.                90522176:  Virtual Str3 SN 
 VS04.                90512683:  Virtual Str4 SN 
 WBMN.klb                 1.00:  WOB Min 
 WITN.           Murad Giluyev:  Customer Rep 
 WITN.     Kamran Kemberlinski:  Customer Rep 2 
 WOBA.klb                 5.00:  WOB Avg 
 WOBX.klb                 9.00:  WOB Max 
 YP  .lhf2               41.00:  Yield Point 
~Curve Information Block
#MNEM.UNIT                 API CODE     Curve Description
#---------               -----------    ---------------------------
 TIME.HHMMSS            00 000 000 000:  GT Time & Date
 GTDEPTH.m              00 000 000 000:  GT Depth
 GTPQH.psia             00 000 000 000:  GT HR Quartz Pressure
 GTTQ.degC              00 000 000 000:  GT Quartz Temperature
 GTTN.NONE              00 000 000 000:  GT Test Number
 GTET.sec               00 000 000 000:  GT Elapsed Test Time
 GTTVD.m                00 000 000 000:  GT True Vertical Depth
#Other Information
#
#WARRANTY: Halliburton will use its best efforts to furnish customers with 
#accurate information and interpretations that are part of, and incident to, the services 
#provided.  However, Halliburton cannot and does not warrant the accuracy 
#or correctness of such information and interpretations.  Under no circumstances should any 
#such information or interpretation be relied upon as the sole basis for any drilling, 
#completion, production, or financial decision or any procedure involving any risk to the 
#safety of any drilling venture, drilling rig or its crew or any other third party.  The 
#Customer has full responsibility for all drilling, completion and production operation.  
#Halliburton makes no representations or warranties, either expressed or 
#implied, including, but not limited to, the implied warranties of merchantability or fitness 
#for a particular purpose, with respect to the services rendered.  In no event will 
#Halliburton be liable for failure to obtain any particular results or for 
#any damages, including, but not limited to, indirect, special or consequential damages, 
#resulting from the use of any information or interpretation provided by Halliburton.
#
~A           TIME           GTDEPTH  GTPQH  GTTQ  GTTN   GTET   GTTVD  
# ...
   18:29:56.647.29-Jan-2021 4752.01 3125.64 82.99 12.00 113.01 2606.49
   18:29:56.847.29-Jan-2021 4752.01 3125.64 82.99 12.00 113.21 2606.49
   18:29:57.047.29-Jan-2021 4752.01 3125.63 82.99 12.00 113.41 2606.49
   18:29:57.247.29-Jan-2021 4752.01 3125.62 82.99 12.00 113.61 2606.49
   18:29:57.447.29-Jan-2021 4752.01 3125.62 82.99 12.00 113.81 2606.49
   18:29:57.647.29-Jan-2021 4752.01 3125.63 82.98 12.00 114.01 2606.49
   18:29:57.847.29-Jan-2021 4752.01 3125.63 82.98 12.00 114.21 2606.49
   18:29:58.047.29-Jan-2021 4752.01 3125.59 82.98 12.00 114.41 2606.49
   18:29:58.247.29-Jan-2021 4752.01 3125.65 82.98 12.00 114.61 2606.49
   18:29:58.447.29-Jan-2021 4752.01 3125.64 82.98 12.00 114.81 2606.49
   18:29:58.647.29-Jan-2021 4752.01 3125.63 82.98 12.00 115.01 2606.49
   18:29:58.847.29-Jan-2021 4752.01 3125.63 82.98 12.00 115.21 2606.49
   18:29:59.047.29-Jan-2021 4752.01 3125.63 82.98 12.00 115.41 2606.49
   18:29:59.247.29-Jan-2021 4752.01 3125.62 82.98 12.00 115.61 2606.49
   18:29:59.447.29-Jan-2021 4752.01 3125.63 82.98 12.00 115.81 2606.49
   18:29:59.647.29-Jan-2021 4752.01 3125.60 82.98 12.00 116.01 2606.49
   18:29:59.847.29-Jan-2021 4752.01 3125.60 82.98 12.00 116.21 2606.49
   18:30:00.047.29-Jan-2021 4752.01 3125.61 82.98 12.00 116.41 2606.49
   18:30:00.247.29-Jan-2021 4752.01 3125.61 82.97 12.00 116.61 2606.49
   18:30:00.447.29-Jan-2021 4752.01 3125.60 82.97 12.00 116.81 2606.49
   18:30:00.647.29-Jan-2021 4752.01 3125.60 82.97 12.00 117.01 2606.49
   18:30:00.847.29-Jan-2021 4752.01 3125.60 82.97 12.00 117.21 2606.49
   18:30:01.047.29-Jan-2021 4752.01 3125.61 82.97 12.00 117.41 2606.49
   18:30:01.247.29-Jan-2021 4752.01 3125.56 82.97 12.00 117.61 2606.49
   18:30:01.447.29-Jan-2021 4752.01 3125.63 82.97 12.00 117.81 2606.49
   18:30:01.647.29-Jan-2021 4752.01 3125.60 82.97 12.00 118.01 2606.49
   18:30:01.847.29-Jan-2021 4752.01 3125.60 82.97 12.00 118.21 2606.49
   18:30:02.047.29-Jan-2021 4752.01 3125.58 82.97 12.00 118.41 2606.49
   18:30:02.247.29-Jan-2021 4752.01 3125.61 82.97 12.00 118.61 2606.49
   18:30:02.447.29-Jan-2021 4752.01 3125.60 82.97 12.00 118.81 2606.49
   18:30:02.647.29-Jan-2021 4752.01 3125.61 82.97 12.00 119.01 2606.49
   18:30:02.847.29-Jan-2021 4752.01 3125.61 82.97 12.00 119.21 2606.49
   18:30:03.047.29-Jan-2021 4752.01 3125.55 82.96 12.00 119.41 2606.49
   18:30:03.247.29-Jan-2021 4752.01 3125.63 82.96 12.00 119.61 2606.49
   18:30:03.448.29-Jan-2021 4752.01 3125.61 82.96 12.00 119.81 2606.49
   18:30:03.648.29-Jan-2021 4752.01 3125.59 82.96 12.00 120.01 2606.49
   18:30:03.848.29-Jan-2021 4752.01 3125.59 82.96 12.00 120.21 2606.49
   18:30:04.048.29-Jan-2021 4752.01 3125.57 82.96 12.00 120.41 2606.49
   18:30:04.248.29-Jan-2021 4752.01 3125.61 82.96 12.00 120.61 2606.49
   18:30:04.448.29-Jan-2021 4752.01 3125.60 82.96 12.00 120.81 2606.49
   18:30:04.648.29-Jan-2021 4752.01 3125.58 82.96 12.00 121.01 2606.49
   18:30:04.848.29-Jan-2021 4752.01 3125.58 82.96 12.00 121.21 2606.49
   18:30:05.048.29-Jan-2021 4752.01 3125.62 82.96 12.00 121.41 2606.49
   18:30:05.248.29-Jan-2021 4752.01 3125.59 82.96 12.00 121.61 2606.49
   18:30:05.448.29-Jan-2021 4752.01 3125.59 82.95 12.00 121.81 2606.49
   18:30:05.648.29-Jan-2021 4752.01 3125.55 82.95 12.00 122.01 2606.49
   18:30:05.848.29-Jan-2021 4752.01 3125.55 82.95 12.00 122.21 2606.49
   18:30:06.048.29-Jan-2021 4752.01 3125.58 82.95 12.00 122.41 2606.49
   18:30:06.248.29-Jan-2021 4752.01 3125.57 82.95 12.00 122.61 2606.49
   18:30:06.448.29-Jan-2021 4752.01 3125.57 82.95 12.00 122.81 2606.49
   18:30:06.648.29-Jan-2021 4752.01 3125.57 82.95 12.00 123.01 2606.49
   18:30:06.848.29-Jan-2021 4752.01 3125.57 82.95 12.00 123.21 2606.49
   18:30:07.048.29-Jan-2021 4752.01 3125.57 82.95 12.00 123.41 2606.49
   18:30:07.248.29-Jan-2021 4752.01 3125.55 82.95 12.00 123.61 2606.49
   18:30:07.448.29-Jan-2021 4752.01 3125.56 82.95 12.00 123.81 2606.49
   18:30:07.648.29-Jan-2021 4752.01 3125.56 82.95 12.00 124.01 2606.49
   18:30:07.848.29-Jan-2021 4752.01 3125.56 82.95 12.00 124.21 2606.49
   18:30:08.048.29-Jan-2021 4752.01 3125.55 82.94 12.00 124.41 2606.49
   18:30:08.248.29-Jan-2021 4752.01 3125.55 82.94 12.00 124.61 2606.49
   18:30:08.448.29-Jan-2021 4752.01 3125.52 82.94 12.00 124.81 2606.49
   18:30:08.648.29-Jan-2021 4752.01 3125.59 82.94 12.00 125.01 2606.49
   18:30:08.848.29-Jan-2021 4752.01 3125.59 82.94 12.00 125.21 2606.49
   18:30:09.048.29-Jan-2021 4752.01 3125.57 82.94 12.00 125.41 2606.49
   18:30:09.248.29-Jan-2021 4752.01 3125.54 82.94 12.00 125.61 2606.49
   18:30:09.448.29-Jan-2021 4752.01 3125.57 82.94 12.00 125.81 2606.49
   18:30:09.648.29-Jan-2021 4752.01 3125.55 82.94 12.00 126.01 2606.49
   18:30:09.848.29-Jan-2021 4752.01 3125.55 82.94 12.00 126.21 2606.49
   18:30:10.048.29-Jan-2021 4752.01 3125.54 82.94 12.00 126.41 2606.49
   18:30:10.248.29-Jan-2021 4752.01 3125.55 82.94 12.00 126.61 2606.49
   18:30:10.448.29-Jan-2021 4752.01 3125.55 82.94 12.00 126.81 2606.49
   18:30:10.648.29-Jan-2021 4752.01 3125.54 82.94 12.00 127.02 2606.49
   18:30:10.848.29-Jan-2021 4752.01 3125.54 82.94 12.00 127.22 2606.49
   18:30:11.048.29-Jan-2021 4752.01 3125.54 82.93 12.00 127.42 2606.49
   18:30:11.248.29-Jan-2021 4752.01 3125.54 82.93 12.00 127.62 2606.49
   18:30:11.448.29-Jan-2021 4752.01 3125.54 82.93 12.00 127.82 2606.49
   18:30:11.648.29-Jan-2021 4752.01 3125.50 82.93 12.00 128.02 2606.49
   18:30:11.849.29-Jan-2021 4752.01 3125.50 82.93 12.00 128.22 2606.49
   18:30:12.049.29-Jan-2021 4752.01 3125.56 82.93 12.00 128.42 2606.49
   18:30:12.249.29-Jan-2021 4752.01 3125.55 82.93 12.00 128.62 2606.49
   18:30:12.449.29-Jan-2021 4752.01 3125.52 82.93 12.00 128.82 2606.49
   18:30:12.649.29-Jan-2021 4752.01 3125.55 82.93 12.00 129.02 2606.49
   18:30:12.849.29-Jan-2021 4752.01 3125.55 82.93 12.00 129.22 2606.49
   18:30:13.049.29-Jan-2021 4752.01 3125.56 82.93 12.00 129.42 2606.49
   18:30:13.249.29-Jan-2021 4752.01 3125.51 82.93 12.00 129.62 2606.49
   18:30:13.449.29-Jan-2021 4752.01 3125.50 82.92 12.00 129.82 2606.49
   18:30:13.649.29-Jan-2021 4752.01 3125.58 82.92 12.00 130.02 2606.49
   18:30:13.849.29-Jan-2021 4752.01 3125.58 82.92 12.00 130.22 2606.49
   18:30:14.049.29-Jan-2021 4752.01 3125.53 82.92 12.00 130.42 2606.49
   18:30:14.249.29-Jan-2021 4752.01 3125.52 82.92 12.00 130.62 2606.49
   18:30:14.449.29-Jan-2021 4752.01 3125.51 82.92 12.00 130.82 2606.49
   18:30:14.649.29-Jan-2021 4752.01 3125.57 82.92 12.00 131.02 2606.49
   18:30:14.849.29-Jan-2021 4752.01 3125.57 82.92 12.00 131.22 2606.49
   18:30:15.049.29-Jan-2021 4752.01 3125.53 82.92 12.00 131.42 2606.49
   18:30:15.249.29-Jan-2021 4752.01 3125.48 82.92 12.00 131.62 2606.49
   18:30:15.449.29-Jan-2021 4752.01 3125.57 82.92 12.00 131.82 2606.49
   18:30:15.649.29-Jan-2021 4752.01 3125.54 82.92 12.00 132.02 2606.49
   18:30:15.849.29-Jan-2021 4752.01 3125.54 82.92 12.00 132.22 2606.49
   18:30:16.049.29-Jan-2021 4752.01 3125.50 82.91 12.00 132.42 2606.49
   18:30:16.249.29-Jan-2021 4752.01 3125.54 82.91 12.00 132.62 2606.49
   18:30:16.449.29-Jan-2021 4752.01 3125.48 82.91 12.00 132.82 2606.49
   18:30:16.649.29-Jan-2021 4752.01 3117.52 82.91 12.00 133.02 2606.49
   18:30:16.849.29-Jan-2021 4752.01 3117.52 82.91 12.00 133.22 2606.49
   18:30:17.049.29-Jan-2021 4752.01 3111.42 82.91 12.00 133.42 2606.49
   18:30:17.249.29-Jan-2021 4752.01 3111.38 82.91 12.00 133.62 2606.49
   18:30:17.449.29-Jan-2021 4752.01 3111.30 82.91 12.00 133.82 2606.49
   18:30:17.649.29-Jan-2021 4752.01 3111.18 82.91 12.00 134.02 2606.49
   18:30:17.849.29-Jan-2021 4752.01 3111.18 82.91 12.00 134.22 2606.49
   18:30:18.049.29-Jan-2021 4752.01 3111.17 82.91 12.00 134.42 2606.49
   18:30:18.249.29-Jan-2021 4752.01 3111.29 82.91 12.00 134.62 2606.49
   18:30:18.449.29-Jan-2021 4752.01 3111.11 82.91 12.00 134.82 2606.49
   18:30:18.649.29-Jan-2021 4752.01 3111.33 82.90 12.00 135.02 2606.49
   18:30:18.849.29-Jan-2021 4752.01 3111.33 82.90 12.00 135.22 2606.49
   18:30:19.049.29-Jan-2021 4752.01 3111.40 82.90 12.00 135.42 2606.49
