~Version Information
 VERS.                  2.0:   CWLS log ASCII Standard -VERSION 2.0
 WRAP.                   NO:   One line per depth step
~Well Information Block
#MNEM.UNIT     VALUE/NAME     DESCRIPTION
#---------     -----------    ---------------------------
 STRT.S             08:50:58 29-Jan-21: START TIME 08:50:58 29-Jan-21
 STOP.S             08:57:28 29-Jan-21: STOP TIME  08:57:28 29-Jan-21
 STEP.S                   0.00: STEP TIME
 NULL.                 -999.25: NULL VALUE
 DFWT.                        :  DIST FWL TEXT
 DFST.                        :  DIST FSL TEXT
 DMF .             Drill Floor:  DRILL MEAS FROM
 STIM.      00.00.00 25-Sep-20:  START TIME
 DATE.      16.12.48 31-Jan-21:  END TIME
 SPUD.               20-Sep-20:  SPUD DATE
 NREF.                    Grid:  NORTH REFERENCE
 HPTY.       Minimum Curvature:  HOLE POS TYPE
 DMOD.             Drill Model:  DRILL MOD DESC
 SVYD.                  Survey:  SURVEY DESC
 ILTD.               Lithology:  INTERP LTH DESC
 FTOP.          Formation Tops:  FORM TOPS DESC
 RIG .              East Azeri:  RIG NAME
 PDAT.          Mean Sea Level:  PERMANENT DATUM
 FLD .                     ACG:  FIELD NAME
 SON .        AZ-XX-0906591820:  JOB NUMBER
 CTRY.              Azerbaijan:  COUNTRY NAME
 WELL.                     D37:  WELL NAME
 SRVC.     Turan Drilling & Engineering:  CONTRACTOR
 COMP.     BP Exploration (Caspian Sea) ltd.:  COMPANY
 WTYP.                Deviated:  WELL TYPE
 MDS .        Operator Entered:  MAG DATA SOURCE
 UWI .                     N/A:  UNIQUE WELL IDENTIFIER
 API .                     N/A:  API NUMBER
 BASE.              Azerbaijan:  LOGGING EQUIPMENT BASE LOCATION
 REGN.                   EESSA:  REGION
 PROV.                    Baku:  PROVINCE
 STAT.                    Baku:  STATE NAME
 MWDS.                    Baku:  MWD SHOP
 JOBN.        AZ-XX-0906591820:  JOB TICKET NUMB
 DOE .                     N/A:  DOE NUMBER
 DCON.         Sperry Drilling:  DIRECTNL CONTR
 UNIT.                     N/A:  LOGGING EQUIPMENT ID
 CNTY.                        :  COUNTY
 LOC .                        :  LOCATION
 LMF .             Drill Floor:  LOG MEASURED FROM
 TVDS.m                  43.60:  TVDSS CORRECTN
 LATI.deg                40.02:  LATITUDE
 LONG.deg                51.45:  LONGITUDE
 WHNS.m                  11.04:  WELL HEAD N/S
 WHEW.m                 -12.38:  WELL HEAD E/W
 UTMX.m              538763.98:  UTM X
 UTMY.m             4431880.20:  UTM Y
 DFWL.m                   0.00:  DISTANCE FWL
 DFSL.m                   0.00:  DISTANCE FSL
 SDEP.m                 300.00:  START DEPTH
 TDD .m                4900.01:  TOTAL DEPTH (DRILLER)
 VSDR.deg               185.64:  VERT SEC DIRECT
 GVFD.g                   1.00:  GRAVITY FIELD
 MFLD.nT              50301.00:  MAGNETIC FIELD
 MDIP.deg                59.46:  MAGNETIC DIP
 MDEC.deg                 6.43:  MAGNETIC DECL
 GRDC.deg                 0.29:  GRID CORRECTION
 AZTC.deg                 6.14:  AZM TOTAL CORR
 EPD .m                   0.00:  ELEVATION
 EGL .m                   0.00:  GROUND ELEVATION
 WDMS.m                 151.80:  WD ELEV
 APD .m                  43.60:  DEPTH ABOVE PD
 DEP .m                 571.69:  DEPTH
 AGAP.m                  43.60:  AIR GAP
 VSEW.m                 -12.38:  VERT SEC E/W
 VSNS.m                  11.04:  VERT SEC N/S
 EKB .m                  43.60:  KB ELEVATION
 EDF .m                  43.60:  DF ELEVATION
 TDL .m                 412.00:  TOTAL DEPTH (LOGGER)
 VSC .                       0:  VS TO CLOSURE
 MAGU.                 1849300:  MAGUTM CHECKSUM
~Parameter Information Block
#MNEM.UNIT       Value        Description
#---------     -----------    ---------------------------
 AV  .mps                 2.21:  Ann Velocity 
 AVMX.mps                 2.53:  Max Ann Veloc 
 AZIF.deg               144.83:  Azm, Final 
 BHAT.        Rotary Steerable:  BHA Type 
 BROT.°/30m              -0.52:  Build Rotating 
 BS  .in                  6.50:  Bit Size 
 BTPL.psig              209.00:  Bit Press Loss 
 CABU.                      No:  Customer Abuse 
 CGEO.        Ali Isfandiyarov:  Customer Geo 
 COMM.                     Ä	‡:  Run Comments 1 
 TCS .hr                 61.31:  Time Ciculation Ended 
 CV  .mps                 4.66:  Crit Velocity 
 CVMX.mps                 5.02:  Max Crit Veloc 
 DD1 .          Fariz Nahmatov:  Direct Drillr 1 
 DD2 .            Musa Ahmadov:  Direct Drillr 2 
 DDSV.               Geo-Pilot:  DD Service 
 DEFF.%                 100.00:  % Det Eff 
 DLRX.°/30m               1.44:  Dogleg Rot Max 
 DLSO.°/30m               0.83:  Dogleg Oriented 
 DLSX.°/30m               1.44:  Dogleg Str Max 
 DRET.      08.30.00 30-Jan-21:  Drill End Time 
 DRST.      21.15.00 27-Jan-21:  Drill Start Tim 
 DTIM.hr                 37.28:  Time Drilling 
 EDEP.m                4867.01:  End Depth 
 ENG1.          Rasim Hashimov:  Engineer 1 
 ENG2.         Almaz Almadatov:  Engineer 2 
 ENG3.        Tamerlan Ahmadov:  Engineer 3 
 ETIM.      22.41.04 31-Jan-21:  End Time 
 FLOI.gpm               400.00:  Flow In 
 FLON.gpm               300.00:  Flow In Min 
 FLOS.cptm                0.00:  Fluid Loss 
 FLOX.gpm               400.00:  Flow In Max 
 HFLO.                      No:  High Flow 
 HPRE.                      No:  High Pressure 
 HTEM.                      No:  High Temp 
 HYDO.m                   1.80:  Hydro Offset 
 IFIN.deg                65.63:  Inc, Final 
 IMAX.deg                66.77:  Inc Max 
 IMIN.deg                65.61:  Inc Min 
 IMND.m                4612.67:  Inc Min Depth 
 IMXD.m                4811.63:  Inc Max Depth 
 JARR.                      No:  Jarring 
 LETM.      08.30.00 30-Jan-21:  Log End Time 
 LOST.hr                     0:  Lost Rig Time 
 LSTM.      21.15.00 27-Jan-21:  Log Start Time 
 MDCL.ppm             41000.00:  Mud Chlorides 
 MDES.     Inversion Oil/Synthetic:  Mud Desc 
 DFD .sg                  1.40:  Mud Density 
 MDMN.sg                  1.40:  Dens Mud Min 
 MDMX.sg                  1.40:  Dens Mud Max 
 MOIL.                      53:  Run Mud Oil % 
 MOWR.                   66:34:  Run Mud OWR 
 MSND.                     0.2:  Run Mud Sand % 
 MSOL.                    17.9:  Run Mud Solids% 
 DFV .spqt               77.00:  Mud Viscosity 
 MWOD.in                  4.75:  MWD Tool OD 
 MWSI.                      No:  Serv Intrp, MWD 
 OTIM.hr                110.38:  Time Operating 
 PCON.           Look Like New:  Pad Condition 
 PMAX.psia             5300.00:  Press Op, Max 
 PV  .cP                 57.00:  Mud PV 
 RUN .                    1200:  Run Number 
 ROPA.m/hr               13.00:  ROP Avg 
 ROPN.m/hr                9.00:  ROP Min 
 ROPX.m/hr               15.00:  ROP Max 
 RPMA.rpm               120.00:  RPM Surface Avg 
 RPMN.rpm               100.00:  RPM Surface Min 
 RPMX.rpm               135.00:  RPM Surface Max 
 RRUN.                    1200:  Rig Run Number 
 RTIM.hr                  2.65:  Time Reaming 
 SAZI.deg               145.04:  Azm, Start 
 SDEP.m                4455.01:  Start Depth 
 SIDD.                      No:  Serv Intrp, DD 
 SINC.deg                65.83:  Inc, Start 
 SPPA.psig             5037.00:  SPP Avg 
 SPPN.psig             4430.00:  SPP Min 
 SPPX.psig             5300.00:  SPP Max 
 STIM.      22.41.04 26-Jan-21:  Start Time 
 SVCS.                 DD, MWD:  Services 
 SVER.                    9.20:  Sperry Version 
 TDAT.m                 412.00:  Tot Depth Attmp 
 TDDF.                      No:  Trip for DD 
 TDLG.m                 412.00:  Tot Depth Loggd 
 TFF .                      No:  Trip for Fail 
 TQAA.f-kp               15.00:  Torque Abs Avg 
 TQAN.f-kp               12.00:  Torque Abs Min 
 TQAX.f-kp               17.00:  Torque Abs Max 
 TRRT.°/30m               1.18:  Turn Rotating 
 MRT .                     ADR:  Maximum Recorded Temperature 
 TTMX.degC               88.24:  Max Tool Temp 
 VS01.                90619458:  Virtual Str1 SN 
 VS02.                90519326:  Virtual Str2 SN 
 VS03.                90522176:  Virtual Str3 SN 
 VS04.                90512683:  Virtual Str4 SN 
 WBMN.klb                 1.00:  WOB Min 
 WITN.           Murad Giluyev:  Customer Rep 
 WITN.     Kamran Kemberlinski:  Customer Rep 2 
 WOBA.klb                 5.00:  WOB Avg 
 WOBX.klb                 9.00:  WOB Max 
 YP  .lhf2               41.00:  Yield Point 
~Curve Information Block
#MNEM.UNIT                 API CODE     Curve Description
#---------               -----------    ---------------------------
 TIME.HHMMSS            00 000 000 000:  GT Time & Date
 GTDEPTH.m              00 000 000 000:  GT Depth
 GTPQH.psia             00 000 000 000:  GT HR Quartz Pressure
 GTTQ.degC              00 000 000 000:  GT Quartz Temperature
 GTTN.NONE              00 000 000 000:  GT Test Number
 GTET.sec               00 000 000 000:  GT Elapsed Test Time
 GTTVD.m                00 000 000 000:  GT True Vertical Depth
#Other Information
#
#WARRANTY: Halliburton will use its best efforts to furnish customers with 
#accurate information and interpretations that are part of, and incident to, the services 
#provided.  However, Halliburton cannot and does not warrant the accuracy 
#or correctness of such information and interpretations.  Under no circumstances should any 
#such information or interpretation be relied upon as the sole basis for any drilling, 
#completion, production, or financial decision or any procedure involving any risk to the 
#safety of any drilling venture, drilling rig or its crew or any other third party.  The 
#Customer has full responsibility for all drilling, completion and production operation.  
#Halliburton makes no representations or warranties, either expressed or 
#implied, including, but not limited to, the implied warranties of merchantability or fitness 
#for a particular purpose, with respect to the services rendered.  In no event will 
#Halliburton be liable for failure to obtain any particular results or for 
#any damages, including, but not limited to, indirect, special or consequential damages, 
#resulting from the use of any information or interpretation provided by Halliburton.
#
~A           TIME           GTDEPTH  GTPQH  GTTQ  GTTN  GTET   GTTVD  
# ...
   08:52:07.690.29-Jan-2021 4683.51 3065.71 81.26 9.00  69.01 2579.09
   08:52:07.890.29-Jan-2021 4683.51 3065.71 81.26 9.00  69.21 2579.09
   08:52:08.090.29-Jan-2021 4683.51 3065.69 81.26 9.00  69.41 2579.09
   08:52:08.290.29-Jan-2021 4683.51 3065.72 81.26 9.00  69.61 2579.09
   08:52:08.490.29-Jan-2021 4683.51 3065.71 81.26 9.00  69.81 2579.09
   08:52:08.690.29-Jan-2021 4683.51 3065.72 81.26 9.00  70.01 2579.09
   08:52:08.890.29-Jan-2021 4683.51 3065.72 81.26 9.00  70.21 2579.09
   08:52:09.090.29-Jan-2021 4683.51 3065.72 81.25 9.00  70.41 2579.09
   08:52:09.290.29-Jan-2021 4683.51 3065.69 81.25 9.00  70.61 2579.09
   08:52:09.490.29-Jan-2021 4683.51 3065.69 81.25 9.00  70.81 2579.09
   08:52:09.690.29-Jan-2021 4683.51 3065.71 81.25 9.00  71.01 2579.09
   08:52:09.890.29-Jan-2021 4683.51 3065.71 81.25 9.00  71.22 2579.09
   08:52:10.090.29-Jan-2021 4683.51 3065.71 81.25 9.00  71.42 2579.09
   08:52:10.290.29-Jan-2021 4683.51 3065.65 81.25 9.00  71.62 2579.09
   08:52:10.490.29-Jan-2021 4683.51 3065.73 81.25 9.00  71.82 2579.09
   08:52:10.690.29-Jan-2021 4683.51 3065.70 81.25 9.00  72.02 2579.09
   08:52:10.890.29-Jan-2021 4683.51 3065.70 81.25 9.00  72.22 2579.09
   08:52:11.090.29-Jan-2021 4683.51 3065.70 81.25 9.00  72.42 2579.09
   08:52:11.290.29-Jan-2021 4683.51 3065.71 81.25 9.00  72.62 2579.09
   08:52:11.490.29-Jan-2021 4683.51 3065.69 81.25 9.00  72.82 2579.09
   08:52:11.690.29-Jan-2021 4683.51 3065.69 81.24 9.00  73.02 2579.09
   08:52:11.890.29-Jan-2021 4683.51 3065.69 81.24 9.00  73.22 2579.09
   08:52:12.090.29-Jan-2021 4683.51 3065.71 81.24 9.00  73.42 2579.09
   08:52:12.290.29-Jan-2021 4683.51 3065.68 81.24 9.00  73.62 2579.09
   08:52:12.491.29-Jan-2021 4683.51 3065.70 81.24 9.00  73.82 2579.09
   08:52:12.691.29-Jan-2021 4683.51 3065.71 81.24 9.00  74.02 2579.09
   08:52:12.891.29-Jan-2021 4683.51 3065.71 81.24 9.00  74.22 2579.09
   08:52:13.091.29-Jan-2021 4683.51 3065.69 81.24 9.00  74.42 2579.09
   08:52:13.291.29-Jan-2021 4683.51 3065.70 81.24 9.00  74.62 2579.09
   08:52:13.491.29-Jan-2021 4683.51 3065.70 81.24 9.00  74.82 2579.09
   08:52:13.691.29-Jan-2021 4683.51 3065.69 81.24 9.00  75.02 2579.09
   08:52:13.891.29-Jan-2021 4683.51 3065.69 81.24 9.00  75.22 2579.09
   08:52:14.091.29-Jan-2021 4683.51 3065.69 81.24 9.00  75.42 2579.09
   08:52:14.291.29-Jan-2021 4683.51 3065.69 81.23 9.00  75.62 2579.09
   08:52:14.491.29-Jan-2021 4683.51 3065.69 81.23 9.00  75.82 2579.09
   08:52:14.691.29-Jan-2021 4683.51 3065.69 81.23 9.00  76.02 2579.09
   08:52:14.891.29-Jan-2021 4683.51 3065.69 81.23 9.00  76.22 2579.09
   08:52:15.091.29-Jan-2021 4683.51 3065.69 81.23 9.00  76.42 2579.09
   08:52:15.291.29-Jan-2021 4683.51 3065.65 81.23 9.00  76.62 2579.09
   08:52:15.491.29-Jan-2021 4683.51 3065.69 81.23 9.00  76.82 2579.09
   08:52:15.691.29-Jan-2021 4683.51 3065.69 81.23 9.00  77.02 2579.09
   08:52:15.891.29-Jan-2021 4683.51 3065.69 81.23 9.00  77.22 2579.09
   08:52:16.091.29-Jan-2021 4683.51 3065.69 81.23 9.00  77.42 2579.09
   08:52:16.291.29-Jan-2021 4683.51 3065.69 81.23 9.00  77.62 2579.09
   08:52:16.491.29-Jan-2021 4683.51 3065.69 81.23 9.00  77.82 2579.09
   08:52:16.691.29-Jan-2021 4683.51 3065.69 81.22 9.00  78.02 2579.09
   08:52:16.891.29-Jan-2021 4683.51 3065.69 81.22 9.00  78.22 2579.09
   08:52:17.092.29-Jan-2021 4683.51 3065.68 81.22 9.00  78.42 2579.09
   08:52:17.292.29-Jan-2021 4683.51 3065.68 81.22 9.00  78.62 2579.09
   08:52:17.492.29-Jan-2021 4683.51 3065.67 81.22 9.00  78.82 2579.09
   08:52:17.692.29-Jan-2021 4683.51 3065.69 81.22 9.00  79.02 2579.09
   08:52:17.892.29-Jan-2021 4683.51 3065.69 81.22 9.00  79.22 2579.09
   08:52:18.092.29-Jan-2021 4683.51 3065.68 81.22 9.00  79.42 2579.09
   08:52:18.292.29-Jan-2021 4683.51 3065.67 81.22 9.00  79.62 2579.09
   08:52:18.492.29-Jan-2021 4683.51 3065.66 81.22 9.00  79.82 2579.09
   08:52:18.692.29-Jan-2021 4683.51 3065.66 81.22 9.00  80.02 2579.09
   08:52:18.892.29-Jan-2021 4683.51 3065.66 81.22 9.00  80.22 2579.09
   08:52:19.092.29-Jan-2021 4683.51 3065.65 81.22 9.00  80.42 2579.09
   08:52:19.292.29-Jan-2021 4683.51 3065.64 81.21 9.00  80.62 2579.09
   08:52:19.492.29-Jan-2021 4683.51 3065.68 81.21 9.00  80.82 2579.09
   08:52:19.692.29-Jan-2021 4683.51 3065.67 81.21 9.00  81.02 2579.09
   08:52:19.892.29-Jan-2021 4683.51 3065.67 81.21 9.00  81.22 2579.09
   08:52:20.092.29-Jan-2021 4683.51 3065.68 81.21 9.00  81.42 2579.09
   08:52:20.292.29-Jan-2021 4683.51 3065.68 81.21 9.00  81.62 2579.09
   08:52:20.492.29-Jan-2021 4683.51 3065.67 81.21 9.00  81.82 2579.09
   08:52:20.692.29-Jan-2021 4683.51 3065.62 81.21 9.00  82.02 2579.09
   08:52:20.892.29-Jan-2021 4683.51 3065.62 81.21 9.00  82.22 2579.09
   08:52:21.092.29-Jan-2021 4683.51 3065.67 81.21 9.00  82.42 2579.09
   08:52:21.292.29-Jan-2021 4683.51 3065.62 81.21 9.00  82.62 2579.09
   08:52:21.492.29-Jan-2021 4683.51 3065.66 81.21 9.00  82.82 2579.09
   08:52:21.692.29-Jan-2021 4683.51 3065.66 81.21 9.00  83.02 2579.09
   08:52:21.893.29-Jan-2021 4683.51 3065.66 81.21 9.00  83.22 2579.09
   08:52:22.093.29-Jan-2021 4683.51 3065.64 81.20 9.00  83.42 2579.09
   08:52:22.293.29-Jan-2021 4683.51 3065.66 81.20 9.00  83.62 2579.09
   08:52:22.493.29-Jan-2021 4683.51 3065.66 81.20 9.00  83.82 2579.09
   08:52:22.693.29-Jan-2021 4683.51 3065.64 81.20 9.00  84.02 2579.09
   08:52:22.893.29-Jan-2021 4683.51 3065.64 81.20 9.00  84.22 2579.09
   08:52:23.093.29-Jan-2021 4683.51 3065.65 81.20 9.00  84.42 2579.09
   08:52:23.293.29-Jan-2021 4683.51 3065.59 81.20 9.00  84.62 2579.09
   08:52:23.493.29-Jan-2021 4683.51 3065.67 81.20 9.00  84.82 2579.09
   08:52:23.693.29-Jan-2021 4683.51 3065.67 81.20 9.00  85.02 2579.09
   08:52:23.893.29-Jan-2021 4683.51 3065.67 81.20 9.00  85.22 2579.09
   08:52:24.093.29-Jan-2021 4683.51 3065.65 81.20 9.00  85.42 2579.09
   08:52:24.293.29-Jan-2021 4683.51 3065.64 81.20 9.00  85.62 2579.09
   08:52:24.493.29-Jan-2021 4683.51 3065.65 81.20 9.00  85.82 2579.09
   08:52:24.693.29-Jan-2021 4683.51 3065.64 81.19 9.00  86.02 2579.09
   08:52:24.893.29-Jan-2021 4683.51 3065.64 81.19 9.00  86.22 2579.09
   08:52:25.093.29-Jan-2021 4683.51 3065.64 81.19 9.00  86.42 2579.09
   08:52:25.293.29-Jan-2021 4683.51 3065.64 81.19 9.00  86.62 2579.09
   08:52:25.493.29-Jan-2021 4683.51 3065.63 81.19 9.00  86.82 2579.09
   08:52:25.693.29-Jan-2021 4683.51 3065.64 81.19 9.00  87.02 2579.09
   08:52:25.893.29-Jan-2021 4683.51 3065.64 81.19 9.00  87.22 2579.09
   08:52:26.093.29-Jan-2021 4683.51 3065.63 81.19 9.00  87.42 2579.09
   08:52:26.293.29-Jan-2021 4683.51 3065.63 81.19 9.00  87.62 2579.09
   08:52:26.493.29-Jan-2021 4683.51 3065.63 81.19 9.00  87.82 2579.09
   08:52:26.694.29-Jan-2021 4683.51 3065.63 81.19 9.00  88.02 2579.09
   08:52:26.894.29-Jan-2021 4683.51 3065.63 81.19 9.00  88.22 2579.09
   08:52:27.094.29-Jan-2021 4683.51 3065.64 81.19 9.00  88.42 2579.09
   08:52:27.294.29-Jan-2021 4683.51 3065.62 81.18 9.00  88.62 2579.09
   08:52:27.494.29-Jan-2021 4683.51 3065.61 81.18 9.00  88.82 2579.09
   08:52:27.694.29-Jan-2021 4683.51 3065.63 81.18 9.00  89.02 2579.09
   08:52:27.894.29-Jan-2021 4683.51 3065.63 81.18 9.00  89.22 2579.09
   08:52:28.094.29-Jan-2021 4683.51 3065.62 81.18 9.00  89.42 2579.09
   08:52:28.294.29-Jan-2021 4683.51 3065.63 81.18 9.00  89.62 2579.09
   08:52:28.494.29-Jan-2021 4683.51 3065.61 81.18 9.00  89.82 2579.09
   08:52:28.694.29-Jan-2021 4683.51 3065.62 81.18 9.00  90.02 2579.09
   08:52:28.894.29-Jan-2021 4683.51 3065.62 81.18 9.00  90.22 2579.09
   08:52:29.094.29-Jan-2021 4683.51 3065.60 81.18 9.00  90.42 2579.09
   08:52:29.294.29-Jan-2021 4683.51 3065.61 81.18 9.00  90.62 2579.09
   08:52:29.494.29-Jan-2021 4683.51 3065.61 81.18 9.00  90.82 2579.09
   08:52:29.694.29-Jan-2021 4683.51 3065.61 81.18 9.00  91.02 2579.09
   08:52:29.894.29-Jan-2021 4683.51 3065.61 81.18 9.00  91.22 2579.09
   08:52:30.094.29-Jan-2021 4683.51 3065.56 81.17 9.00  91.42 2579.09
   08:52:30.294.29-Jan-2021 4683.51 3065.64 81.17 9.00  91.62 2579.09
   08:52:30.494.29-Jan-2021 4683.51 3065.61 81.17 9.00  91.82 2579.09
