~Version Information
 VERS.                  2.0:   CWLS log ASCII Standard -VERSION 2.0
 WRAP.                   NO:   One line per depth step
~Well Information Block
#MNEM.UNIT     VALUE/NAME     DESCRIPTION
#---------     -----------    ---------------------------
 STRT.S             08:50:58 29-Jan-21: START TIME 08:50:58 29-Jan-21
 STOP.S             08:57:28 29-Jan-21: STOP TIME  08:57:28 29-Jan-21
 STEP.S                   0.00: STEP TIME
 NULL.                 -999.25: NULL VALUE
 DFWT.                        :  DIST FWL TEXT
 DFST.                        :  DIST FSL TEXT
 DMF .             Drill Floor:  DRILL MEAS FROM
 STIM.      00.00.00 25-Sep-20:  START TIME
 DATE.      16.12.48 31-Jan-21:  END TIME
 SPUD.               20-Sep-20:  SPUD DATE
 NREF.                    Grid:  NORTH REFERENCE
 HPTY.       Minimum Curvature:  HOLE POS TYPE
 DMOD.             Drill Model:  DRILL MOD DESC
 SVYD.                  Survey:  SURVEY DESC
 ILTD.               Lithology:  INTERP LTH DESC
 FTOP.          Formation Tops:  FORM TOPS DESC
 RIG .              East Azeri:  RIG NAME
 PDAT.          Mean Sea Level:  PERMANENT DATUM
 FLD .                     ACG:  FIELD NAME
 SON .        AZ-XX-0906591820:  JOB NUMBER
 CTRY.              Azerbaijan:  COUNTRY NAME
 WELL.                     D37:  WELL NAME
 SRVC.     Turan Drilling & Engineering:  CONTRACTOR
 COMP.     BP Exploration (Caspian Sea) ltd.:  COMPANY
 WTYP.                Deviated:  WELL TYPE
 MDS .        Operator Entered:  MAG DATA SOURCE
 UWI .                     N/A:  UNIQUE WELL IDENTIFIER
 API .                     N/A:  API NUMBER
 BASE.              Azerbaijan:  LOGGING EQUIPMENT BASE LOCATION
 REGN.                   EESSA:  REGION
 PROV.                    Baku:  PROVINCE
 STAT.                    Baku:  STATE NAME
 MWDS.                    Baku:  MWD SHOP
 JOBN.        AZ-XX-0906591820:  JOB TICKET NUMB
 DOE .                     N/A:  DOE NUMBER
 DCON.         Sperry Drilling:  DIRECTNL CONTR
 UNIT.                     N/A:  LOGGING EQUIPMENT ID
 CNTY.                        :  COUNTY
 LOC .                        :  LOCATION
 LMF .             Drill Floor:  LOG MEASURED FROM
 TVDS.m                  43.60:  TVDSS CORRECTN
 LATI.deg                40.02:  LATITUDE
 LONG.deg                51.45:  LONGITUDE
 WHNS.m                  11.04:  WELL HEAD N/S
 WHEW.m                 -12.38:  WELL HEAD E/W
 UTMX.m              538763.98:  UTM X
 UTMY.m             4431880.20:  UTM Y
 DFWL.m                   0.00:  DISTANCE FWL
 DFSL.m                   0.00:  DISTANCE FSL
 SDEP.m                 300.00:  START DEPTH
 TDD .m                4900.01:  TOTAL DEPTH (DRILLER)
 VSDR.deg               185.64:  VERT SEC DIRECT
 GVFD.g                   1.00:  GRAVITY FIELD
 MFLD.nT              50301.00:  MAGNETIC FIELD
 MDIP.deg                59.46:  MAGNETIC DIP
 MDEC.deg                 6.43:  MAGNETIC DECL
 GRDC.deg                 0.29:  GRID CORRECTION
 AZTC.deg                 6.14:  AZM TOTAL CORR
 EPD .m                   0.00:  ELEVATION
 EGL .m                   0.00:  GROUND ELEVATION
 WDMS.m                 151.80:  WD ELEV
 APD .m                  43.60:  DEPTH ABOVE PD
 DEP .m                 571.69:  DEPTH
 AGAP.m                  43.60:  AIR GAP
 VSEW.m                 -12.38:  VERT SEC E/W
 VSNS.m                  11.04:  VERT SEC N/S
 EKB .m                  43.60:  KB ELEVATION
 EDF .m                  43.60:  DF ELEVATION
 TDL .m                 412.00:  TOTAL DEPTH (LOGGER)
 VSC .                       0:  VS TO CLOSURE
 MAGU.                 1849300:  MAGUTM CHECKSUM
~Parameter Information Block
#MNEM.UNIT       Value        Description
#---------     -----------    ---------------------------
 AV  .mps                 2.21:  Ann Velocity 
 AVMX.mps                 2.53:  Max Ann Veloc 
 AZIF.deg               144.83:  Azm, Final 
 BHAT.        Rotary Steerable:  BHA Type 
 BROT.°/30m              -0.52:  Build Rotating 
 BS  .in                  6.50:  Bit Size 
 BTPL.psig              209.00:  Bit Press Loss 
 CABU.                      No:  Customer Abuse 
 CGEO.        Ali Isfandiyarov:  Customer Geo 
 COMM.                     Ä	‡:  Run Comments 1 
 TCS .hr                 61.31:  Time Ciculation Ended 
 CV  .mps                 4.66:  Crit Velocity 
 CVMX.mps                 5.02:  Max Crit Veloc 
 DD1 .          Fariz Nahmatov:  Direct Drillr 1 
 DD2 .            Musa Ahmadov:  Direct Drillr 2 
 DDSV.               Geo-Pilot:  DD Service 
 DEFF.%                 100.00:  % Det Eff 
 DLRX.°/30m               1.44:  Dogleg Rot Max 
 DLSO.°/30m               0.83:  Dogleg Oriented 
 DLSX.°/30m               1.44:  Dogleg Str Max 
 DRET.      08.30.00 30-Jan-21:  Drill End Time 
 DRST.      21.15.00 27-Jan-21:  Drill Start Tim 
 DTIM.hr                 37.28:  Time Drilling 
 EDEP.m                4867.01:  End Depth 
 ENG1.          Rasim Hashimov:  Engineer 1 
 ENG2.         Almaz Almadatov:  Engineer 2 
 ENG3.        Tamerlan Ahmadov:  Engineer 3 
 ETIM.      22.41.04 31-Jan-21:  End Time 
 FLOI.gpm               400.00:  Flow In 
 FLON.gpm               300.00:  Flow In Min 
 FLOS.cptm                0.00:  Fluid Loss 
 FLOX.gpm               400.00:  Flow In Max 
 HFLO.                      No:  High Flow 
 HPRE.                      No:  High Pressure 
 HTEM.                      No:  High Temp 
 HYDO.m                   1.80:  Hydro Offset 
 IFIN.deg                65.63:  Inc, Final 
 IMAX.deg                66.77:  Inc Max 
 IMIN.deg                65.61:  Inc Min 
 IMND.m                4612.67:  Inc Min Depth 
 IMXD.m                4811.63:  Inc Max Depth 
 JARR.                      No:  Jarring 
 LETM.      08.30.00 30-Jan-21:  Log End Time 
 LOST.hr                     0:  Lost Rig Time 
 LSTM.      21.15.00 27-Jan-21:  Log Start Time 
 MDCL.ppm             41000.00:  Mud Chlorides 
 MDES.     Inversion Oil/Synthetic:  Mud Desc 
 DFD .sg                  1.40:  Mud Density 
 MDMN.sg                  1.40:  Dens Mud Min 
 MDMX.sg                  1.40:  Dens Mud Max 
 MOIL.                      53:  Run Mud Oil % 
 MOWR.                   66:34:  Run Mud OWR 
 MSND.                     0.2:  Run Mud Sand % 
 MSOL.                    17.9:  Run Mud Solids% 
 DFV .spqt               77.00:  Mud Viscosity 
 MWOD.in                  4.75:  MWD Tool OD 
 MWSI.                      No:  Serv Intrp, MWD 
 OTIM.hr                110.38:  Time Operating 
 PCON.           Look Like New:  Pad Condition 
 PMAX.psia             5300.00:  Press Op, Max 
 PV  .cP                 57.00:  Mud PV 
 RUN .                    1200:  Run Number 
 ROPA.m/hr               13.00:  ROP Avg 
 ROPN.m/hr                9.00:  ROP Min 
 ROPX.m/hr               15.00:  ROP Max 
 RPMA.rpm               120.00:  RPM Surface Avg 
 RPMN.rpm               100.00:  RPM Surface Min 
 RPMX.rpm               135.00:  RPM Surface Max 
 RRUN.                    1200:  Rig Run Number 
 RTIM.hr                  2.65:  Time Reaming 
 SAZI.deg               145.04:  Azm, Start 
 SDEP.m                4455.01:  Start Depth 
 SIDD.                      No:  Serv Intrp, DD 
 SINC.deg                65.83:  Inc, Start 
 SPPA.psig             5037.00:  SPP Avg 
 SPPN.psig             4430.00:  SPP Min 
 SPPX.psig             5300.00:  SPP Max 
 STIM.      22.41.04 26-Jan-21:  Start Time 
 SVCS.                 DD, MWD:  Services 
 SVER.                    9.20:  Sperry Version 
 TDAT.m                 412.00:  Tot Depth Attmp 
 TDDF.                      No:  Trip for DD 
 TDLG.m                 412.00:  Tot Depth Loggd 
 TFF .                      No:  Trip for Fail 
 TQAA.f-kp               15.00:  Torque Abs Avg 
 TQAN.f-kp               12.00:  Torque Abs Min 
 TQAX.f-kp               17.00:  Torque Abs Max 
 TRRT.°/30m               1.18:  Turn Rotating 
 MRT .                     ADR:  Maximum Recorded Temperature 
 TTMX.degC               88.24:  Max Tool Temp 
 VS01.                90619458:  Virtual Str1 SN 
 VS02.                90519326:  Virtual Str2 SN 
 VS03.                90522176:  Virtual Str3 SN 
 VS04.                90512683:  Virtual Str4 SN 
 WBMN.klb                 1.00:  WOB Min 
 WITN.           Murad Giluyev:  Customer Rep 
 WITN.     Kamran Kemberlinski:  Customer Rep 2 
 WOBA.klb                 5.00:  WOB Avg 
 WOBX.klb                 9.00:  WOB Max 
 YP  .lhf2               41.00:  Yield Point 
~Curve Information Block
#MNEM.UNIT                 API CODE     Curve Description
#---------               -----------    ---------------------------
 TIME.HHMMSS            00 000 000 000:  GT Time & Date
 GTDEPTH.m              00 000 000 000:  GT Depth
 GTPQH.psia             00 000 000 000:  GT HR Quartz Pressure
 GTTQ.degC              00 000 000 000:  GT Quartz Temperature
 GTTN.NONE              00 000 000 000:  GT Test Number
 GTET.sec               00 000 000 000:  GT Elapsed Test Time
 GTTVD.m                00 000 000 000:  GT True Vertical Depth
#Other Information
#
#WARRANTY: Halliburton will use its best efforts to furnish customers with 
#accurate information and interpretations that are part of, and incident to, the services 
#provided.  However, Halliburton cannot and does not warrant the accuracy 
#or correctness of such information and interpretations.  Under no circumstances should any 
#such information or interpretation be relied upon as the sole basis for any drilling, 
#completion, production, or financial decision or any procedure involving any risk to the 
#safety of any drilling venture, drilling rig or its crew or any other third party.  The 
#Customer has full responsibility for all drilling, completion and production operation.  
#Halliburton makes no representations or warranties, either expressed or 
#implied, including, but not limited to, the implied warranties of merchantability or fitness 
#for a particular purpose, with respect to the services rendered.  In no event will 
#Halliburton be liable for failure to obtain any particular results or for 
#any damages, including, but not limited to, indirect, special or consequential damages, 
#resulting from the use of any information or interpretation provided by Halliburton.
#
~A           TIME           GTDEPTH  GTPQH  GTTQ  GTTN  GTET   GTTVD  
# ...
   08:54:25.719.29-Jan-2021 4683.51 3065.09 80.77 9.00 207.04 2579.09
   08:54:25.919.29-Jan-2021 4683.51 3065.09 80.77 9.00 207.24 2579.09
   08:54:26.119.29-Jan-2021 4683.51 3065.08 80.77 9.00 207.44 2579.09
   08:54:26.319.29-Jan-2021 4683.51 3065.08 80.77 9.00 207.64 2579.09
   08:54:26.519.29-Jan-2021 4683.51 3065.05 80.77 9.00 207.84 2579.09
   08:54:26.719.29-Jan-2021 4683.51 3065.13 80.77 9.00 208.04 2579.09
   08:54:26.919.29-Jan-2021 4683.51 3065.13 80.77 9.00 208.24 2579.09
   08:54:27.119.29-Jan-2021 4683.51 3065.07 80.76 9.00 208.44 2579.09
   08:54:27.319.29-Jan-2021 4683.51 3065.09 80.76 9.00 208.64 2579.09
   08:54:27.519.29-Jan-2021 4683.51 3065.10 80.76 9.00 208.84 2579.09
   08:54:27.719.29-Jan-2021 4683.51 3065.10 80.76 9.00 209.04 2579.09
   08:54:27.919.29-Jan-2021 4683.51 3065.10 80.76 9.00 209.24 2579.09
   08:54:28.119.29-Jan-2021 4683.51 3065.09 80.76 9.00 209.44 2579.09
   08:54:28.319.29-Jan-2021 4683.51 3065.10 80.76 9.00 209.64 2579.09
   08:54:28.519.29-Jan-2021 4683.51 3065.10 80.76 9.00 209.84 2579.09
   08:54:28.719.29-Jan-2021 4683.51 3065.07 80.76 9.00 210.04 2579.09
   08:54:28.919.29-Jan-2021 4683.51 3065.07 80.76 9.00 210.24 2579.09
   08:54:29.119.29-Jan-2021 4683.51 3065.10 80.76 9.00 210.44 2579.09
   08:54:29.319.29-Jan-2021 4683.51 3065.09 80.76 9.00 210.64 2579.09
   08:54:29.519.29-Jan-2021 4683.51 3065.08 80.76 9.00 210.84 2579.09
   08:54:29.719.29-Jan-2021 4683.51 3065.09 80.76 9.00 211.04 2579.09
   08:54:29.920.29-Jan-2021 4683.51 3065.09 80.76 9.00 211.24 2579.09
   08:54:30.120.29-Jan-2021 4683.51 3065.04 80.76 9.00 211.44 2579.09
   08:54:30.320.29-Jan-2021 4683.51 3065.12 80.75 9.00 211.64 2579.09
   08:54:30.520.29-Jan-2021 4683.51 3065.10 80.75 9.00 211.84 2579.09
   08:54:30.720.29-Jan-2021 4683.51 3065.06 80.75 9.00 212.04 2579.09
   08:54:30.920.29-Jan-2021 4683.51 3065.06 80.75 9.00 212.24 2579.09
   08:54:31.120.29-Jan-2021 4683.51 3065.09 80.75 9.00 212.44 2579.09
   08:54:31.320.29-Jan-2021 4683.51 3065.09 80.75 9.00 212.64 2579.09
   08:54:31.520.29-Jan-2021 4683.51 3065.07 80.75 9.00 212.84 2579.09
   08:54:31.720.29-Jan-2021 4683.51 3065.09 80.75 9.00 213.04 2579.09
   08:54:31.920.29-Jan-2021 4683.51 3065.09 80.75 9.00 213.24 2579.09
   08:54:32.120.29-Jan-2021 4683.51 3065.06 80.75 9.00 213.44 2579.09
   08:54:32.320.29-Jan-2021 4683.51 3065.10 80.75 9.00 213.65 2579.09
   08:54:32.520.29-Jan-2021 4683.51 3065.08 80.75 9.00 213.85 2579.09
   08:54:32.720.29-Jan-2021 4683.51 3065.08 80.75 9.00 214.05 2579.09
   08:54:32.920.29-Jan-2021 4683.51 3065.08 80.75 9.00 214.25 2579.09
   08:54:33.120.29-Jan-2021 4683.51 3065.08 80.75 9.00 214.45 2579.09
   08:54:33.320.29-Jan-2021 4683.51 3065.06 80.74 9.00 214.65 2579.09
   08:54:33.520.29-Jan-2021 4683.51 3065.08 80.74 9.00 214.85 2579.09
   08:54:33.720.29-Jan-2021 4683.51 3065.06 80.74 9.00 215.05 2579.09
   08:54:33.920.29-Jan-2021 4683.51 3065.06 80.74 9.00 215.25 2579.09
   08:54:34.120.29-Jan-2021 4683.51 3065.06 80.74 9.00 215.45 2579.09
   08:54:34.320.29-Jan-2021 4683.51 3065.07 80.74 9.00 215.65 2579.09
   08:54:34.520.29-Jan-2021 4683.51 3065.07 80.74 9.00 215.85 2579.09
   08:54:34.721.29-Jan-2021 4683.51 3065.07 80.74 9.00 216.05 2579.09
   08:54:34.921.29-Jan-2021 4683.51 3065.07 80.74 9.00 216.25 2579.09
   08:54:35.121.29-Jan-2021 4683.51 3065.02 80.74 9.00 216.45 2579.09
   08:54:35.321.29-Jan-2021 4683.51 3065.12 80.74 9.00 216.65 2579.09
   08:54:35.521.29-Jan-2021 4683.51 3065.09 80.74 9.00 216.85 2579.09
   08:54:35.721.29-Jan-2021 4683.51 3065.06 80.74 9.00 217.05 2579.09
   08:54:35.921.29-Jan-2021 4683.51 3065.06 80.74 9.00 217.25 2579.09
   08:54:36.121.29-Jan-2021 4683.51 3065.08 80.74 9.00 217.45 2579.09
   08:54:36.321.29-Jan-2021 4683.51 3065.08 80.73 9.00 217.65 2579.09
   08:54:36.521.29-Jan-2021 4683.51 3065.08 80.73 9.00 217.85 2579.09
   08:54:36.721.29-Jan-2021 4683.51 3065.07 80.73 9.00 218.05 2579.09
   08:54:36.921.29-Jan-2021 4683.51 3065.07 80.73 9.00 218.25 2579.09
   08:54:37.121.29-Jan-2021 4683.51 3065.07 80.73 9.00 218.45 2579.09
   08:54:37.321.29-Jan-2021 4683.51 3065.07 80.73 9.00 218.65 2579.09
   08:54:37.521.29-Jan-2021 4683.51 3065.06 80.73 9.00 218.85 2579.09
   08:54:37.721.29-Jan-2021 4683.51 3065.07 80.73 9.00 219.05 2579.09
   08:54:37.921.29-Jan-2021 4683.51 3065.07 80.73 9.00 219.25 2579.09
   08:54:38.121.29-Jan-2021 4683.51 3065.06 80.73 9.00 219.45 2579.09
   08:54:38.321.29-Jan-2021 4683.51 3065.05 80.73 9.00 219.65 2579.09
   08:54:38.521.29-Jan-2021 4683.51 3065.09 80.73 9.00 219.85 2579.09
   08:54:38.721.29-Jan-2021 4683.51 3065.08 80.73 9.00 220.05 2579.09
   08:54:38.921.29-Jan-2021 4683.51 3065.08 80.73 9.00 220.25 2579.09
   08:54:39.121.29-Jan-2021 4683.51 3065.02 80.73 9.00 220.45 2579.09
   08:54:39.321.29-Jan-2021 4683.51 3065.13 80.73 9.00 220.65 2579.09
   08:54:39.522.29-Jan-2021 4683.51 3065.10 80.72 9.00 220.85 2579.09
   08:54:39.722.29-Jan-2021 4683.51 3065.05 80.72 9.00 221.05 2579.09
   08:54:39.922.29-Jan-2021 4683.51 3065.05 80.72 9.00 221.25 2579.09
   08:54:40.122.29-Jan-2021 4683.51 3065.07 80.72 9.00 221.45 2579.09
   08:54:40.322.29-Jan-2021 4683.51 3065.07 80.72 9.00 221.65 2579.09
   08:54:40.522.29-Jan-2021 4683.51 3065.01 80.72 9.00 221.85 2579.09
   08:54:40.722.29-Jan-2021 4683.51 3065.12 80.72 9.00 222.05 2579.09
   08:54:40.922.29-Jan-2021 4683.51 3065.12 80.72 9.00 222.25 2579.09
   08:54:41.122.29-Jan-2021 4683.51 3065.05 80.72 9.00 222.45 2579.09
   08:54:41.322.29-Jan-2021 4683.51 3065.08 80.72 9.00 222.65 2579.09
   08:54:41.522.29-Jan-2021 4683.51 3065.07 80.72 9.00 222.85 2579.09
   08:54:41.722.29-Jan-2021 4683.51 3065.07 80.72 9.00 223.05 2579.09
   08:54:41.922.29-Jan-2021 4683.51 3065.07 80.72 9.00 223.25 2579.09
   08:54:42.122.29-Jan-2021 4683.51 3065.09 80.72 9.00 223.45 2579.09
   08:54:42.322.29-Jan-2021 4683.51 3065.07 80.72 9.00 223.65 2579.09
   08:54:42.522.29-Jan-2021 4683.51 3065.05 80.71 9.00 223.85 2579.09
   08:54:42.722.29-Jan-2021 4683.51 3065.07 80.71 9.00 224.05 2579.09
   08:54:42.922.29-Jan-2021 4683.51 3065.07 80.71 9.00 224.25 2579.09
   08:54:43.122.29-Jan-2021 4683.51 3065.02 80.71 9.00 224.45 2579.09
   08:54:43.322.29-Jan-2021 4683.51 3065.11 80.71 9.00 224.65 2579.09
   08:54:43.522.29-Jan-2021 4683.51 3065.08 80.71 9.00 224.85 2579.09
   08:54:43.722.29-Jan-2021 4683.51 3065.05 80.71 9.00 225.05 2579.09
   08:54:43.922.29-Jan-2021 4683.51 3065.05 80.71 9.00 225.25 2579.09
   08:54:44.123.29-Jan-2021 4683.51 3065.07 80.71 9.00 225.45 2579.09
   08:54:44.323.29-Jan-2021 4683.51 3065.06 80.71 9.00 225.65 2579.09
   08:54:44.523.29-Jan-2021 4683.51 3065.06 80.71 9.00 225.85 2579.09
   08:54:44.723.29-Jan-2021 4683.51 3065.06 80.71 9.00 226.05 2579.09
   08:54:44.923.29-Jan-2021 4683.51 3065.06 80.71 9.00 226.25 2579.09
   08:54:45.123.29-Jan-2021 4683.51 3065.05 80.71 9.00 226.45 2579.09
   08:54:45.323.29-Jan-2021 4683.51 3065.05 80.71 9.00 226.65 2579.09
   08:54:45.523.29-Jan-2021 4683.51 3065.06 80.71 9.00 226.85 2579.09
   08:54:45.723.29-Jan-2021 4683.51 3065.05 80.70 9.00 227.05 2579.09
   08:54:45.923.29-Jan-2021 4683.51 3065.05 80.70 9.00 227.25 2579.09
   08:54:46.123.29-Jan-2021 4683.51 3065.04 80.70 9.00 227.45 2579.09
   08:54:46.323.29-Jan-2021 4683.51 3065.05 80.70 9.00 227.65 2579.09
   08:54:46.523.29-Jan-2021 4683.51 3065.05 80.70 9.00 227.85 2579.09
   08:54:46.723.29-Jan-2021 4683.51 3065.05 80.70 9.00 228.05 2579.09
   08:54:46.923.29-Jan-2021 4683.51 3065.05 80.70 9.00 228.25 2579.09
   08:54:47.123.29-Jan-2021 4683.51 3065.08 80.70 9.00 228.45 2579.09
   08:54:47.323.29-Jan-2021 4683.51 3065.06 80.70 9.00 228.65 2579.09
   08:54:47.523.29-Jan-2021 4683.51 3065.06 80.70 9.00 228.85 2579.09
   08:54:47.723.29-Jan-2021 4683.51 3065.06 80.70 9.00 229.05 2579.09
   08:54:47.923.29-Jan-2021 4683.51 3065.06 80.70 9.00 229.25 2579.09
   08:54:48.123.29-Jan-2021 4683.51 3065.05 80.70 9.00 229.45 2579.09
   08:54:48.323.29-Jan-2021 4683.51 3065.05 80.70 9.00 229.65 2579.09
   08:54:48.523.29-Jan-2021 4683.51 3065.06 80.70 9.00 229.85 2579.09
