~Version Information
 VERS.                  2.0:   CWLS log ASCII Standard -VERSION 2.0
 WRAP.                   NO:   One line per depth step
~Well Information Block
#MNEM.UNIT     VALUE/NAME     DESCRIPTION
#---------     -----------    ---------------------------
 STRT.S             01:29:12 30-Jan-21: START TIME 01:29:12 30-Jan-21
 STOP.S             01:35:33 30-Jan-21: STOP TIME  01:35:33 30-Jan-21
 STEP.S                   0.00: STEP TIME
 NULL.                 -999.25: NULL VALUE
 DFWT.                        :  DIST FWL TEXT
 DFST.                        :  DIST FSL TEXT
 DMF .             Drill Floor:  DRILL MEAS FROM
 STIM.      00.00.00 25-Sep-20:  START TIME
 DATE.      16.12.48 31-Jan-21:  END TIME
 SPUD.               20-Sep-20:  SPUD DATE
 NREF.                    Grid:  NORTH REFERENCE
 HPTY.       Minimum Curvature:  HOLE POS TYPE
 DMOD.             Drill Model:  DRILL MOD DESC
 SVYD.                  Survey:  SURVEY DESC
 ILTD.               Lithology:  INTERP LTH DESC
 FTOP.          Formation Tops:  FORM TOPS DESC
 RIG .              East Azeri:  RIG NAME
 PDAT.          Mean Sea Level:  PERMANENT DATUM
 FLD .                     ACG:  FIELD NAME
 SON .        AZ-XX-0906591820:  JOB NUMBER
 CTRY.              Azerbaijan:  COUNTRY NAME
 WELL.                     D37:  WELL NAME
 SRVC.     Turan Drilling & Engineering:  CONTRACTOR
 COMP.     BP Exploration (Caspian Sea) ltd.:  COMPANY
 WTYP.                Deviated:  WELL TYPE
 MDS .        Operator Entered:  MAG DATA SOURCE
 UWI .                     N/A:  UNIQUE WELL IDENTIFIER
 API .                     N/A:  API NUMBER
 BASE.              Azerbaijan:  LOGGING EQUIPMENT BASE LOCATION
 REGN.                   EESSA:  REGION
 PROV.                    Baku:  PROVINCE
 STAT.                    Baku:  STATE NAME
 MWDS.                    Baku:  MWD SHOP
 JOBN.        AZ-XX-0906591820:  JOB TICKET NUMB
 DOE .                     N/A:  DOE NUMBER
 DCON.         Sperry Drilling:  DIRECTNL CONTR
 UNIT.                     N/A:  LOGGING EQUIPMENT ID
 CNTY.                        :  COUNTY
 LOC .                        :  LOCATION
 LMF .             Drill Floor:  LOG MEASURED FROM
 TVDS.m                  43.60:  TVDSS CORRECTN
 LATI.deg                40.02:  LATITUDE
 LONG.deg                51.45:  LONGITUDE
 WHNS.m                  11.04:  WELL HEAD N/S
 WHEW.m                 -12.38:  WELL HEAD E/W
 UTMX.m              538763.98:  UTM X
 UTMY.m             4431880.20:  UTM Y
 DFWL.m                   0.00:  DISTANCE FWL
 DFSL.m                   0.00:  DISTANCE FSL
 SDEP.m                 300.00:  START DEPTH
 TDD .m                4900.01:  TOTAL DEPTH (DRILLER)
 VSDR.deg               185.64:  VERT SEC DIRECT
 GVFD.g                   1.00:  GRAVITY FIELD
 MFLD.nT              50301.00:  MAGNETIC FIELD
 MDIP.deg                59.46:  MAGNETIC DIP
 MDEC.deg                 6.43:  MAGNETIC DECL
 GRDC.deg                 0.29:  GRID CORRECTION
 AZTC.deg                 6.14:  AZM TOTAL CORR
 EPD .m                   0.00:  ELEVATION
 EGL .m                   0.00:  GROUND ELEVATION
 WDMS.m                 151.80:  WD ELEV
 APD .m                  43.60:  DEPTH ABOVE PD
 DEP .m                 571.69:  DEPTH
 AGAP.m                  43.60:  AIR GAP
 VSEW.m                 -12.38:  VERT SEC E/W
 VSNS.m                  11.04:  VERT SEC N/S
 EKB .m                  43.60:  KB ELEVATION
 EDF .m                  43.60:  DF ELEVATION
 TDL .m                 412.00:  TOTAL DEPTH (LOGGER)
 VSC .                       0:  VS TO CLOSURE
 MAGU.                 1849300:  MAGUTM CHECKSUM
~Parameter Information Block
#MNEM.UNIT       Value        Description
#---------     -----------    ---------------------------
 AV  .mps                 2.21:  Ann Velocity 
 AVMX.mps                 2.53:  Max Ann Veloc 
 AZIF.deg               144.83:  Azm, Final 
 BHAT.        Rotary Steerable:  BHA Type 
 BROT.°/30m              -0.52:  Build Rotating 
 BS  .in                  6.50:  Bit Size 
 BTPL.psig              209.00:  Bit Press Loss 
 CABU.                      No:  Customer Abuse 
 CGEO.        Ali Isfandiyarov:  Customer Geo 
 COMM.                     5j:  Run Comments 1 
 TCS .hr                 61.31:  Time Ciculation Ended 
 CV  .mps                 4.66:  Crit Velocity 
 CVMX.mps                 5.02:  Max Crit Veloc 
 DD1 .          Fariz Nahmatov:  Direct Drillr 1 
 DD2 .            Musa Ahmadov:  Direct Drillr 2 
 DDSV.               Geo-Pilot:  DD Service 
 DEFF.%                 100.00:  % Det Eff 
 DLRX.°/30m               1.44:  Dogleg Rot Max 
 DLSO.°/30m               0.83:  Dogleg Oriented 
 DLSX.°/30m               1.44:  Dogleg Str Max 
 DRET.      08.30.00 30-Jan-21:  Drill End Time 
 DRST.      21.15.00 27-Jan-21:  Drill Start Tim 
 DTIM.hr                 37.28:  Time Drilling 
 EDEP.m                4867.01:  End Depth 
 ENG1.          Rasim Hashimov:  Engineer 1 
 ENG2.         Almaz Almadatov:  Engineer 2 
 ENG3.        Tamerlan Ahmadov:  Engineer 3 
 ETIM.      22.41.04 31-Jan-21:  End Time 
 FLOI.gpm               400.00:  Flow In 
 FLON.gpm               300.00:  Flow In Min 
 FLOS.cptm                0.00:  Fluid Loss 
 FLOX.gpm               400.00:  Flow In Max 
 HFLO.                      No:  High Flow 
 HPRE.                      No:  High Pressure 
 HTEM.                      No:  High Temp 
 HYDO.m                   1.80:  Hydro Offset 
 IFIN.deg                65.63:  Inc, Final 
 IMAX.deg                66.77:  Inc Max 
 IMIN.deg                65.61:  Inc Min 
 IMND.m                4612.67:  Inc Min Depth 
 IMXD.m                4811.63:  Inc Max Depth 
 JARR.                      No:  Jarring 
 LETM.      08.30.00 30-Jan-21:  Log End Time 
 LOST.hr                     0:  Lost Rig Time 
 LSTM.      21.15.00 27-Jan-21:  Log Start Time 
 MDCL.ppm             41000.00:  Mud Chlorides 
 MDES.     Inversion Oil/Synthetic:  Mud Desc 
 DFD .sg                  1.40:  Mud Density 
 MDMN.sg                  1.40:  Dens Mud Min 
 MDMX.sg                  1.40:  Dens Mud Max 
 MOIL.                      53:  Run Mud Oil % 
 MOWR.                   66:34:  Run Mud OWR 
 MSND.                     0.2:  Run Mud Sand % 
 MSOL.                    17.9:  Run Mud Solids% 
 DFV .spqt               77.00:  Mud Viscosity 
 MWOD.in                  4.75:  MWD Tool OD 
 MWSI.                      No:  Serv Intrp, MWD 
 OTIM.hr                110.38:  Time Operating 
 PCON.           Look Like New:  Pad Condition 
 PMAX.psia             5300.00:  Press Op, Max 
 PV  .cP                 57.00:  Mud PV 
 RUN .                    1200:  Run Number 
 ROPA.m/hr               13.00:  ROP Avg 
 ROPN.m/hr                9.00:  ROP Min 
 ROPX.m/hr               15.00:  ROP Max 
 RPMA.rpm               120.00:  RPM Surface Avg 
 RPMN.rpm               100.00:  RPM Surface Min 
 RPMX.rpm               135.00:  RPM Surface Max 
 RRUN.                    1200:  Rig Run Number 
 RTIM.hr                  2.65:  Time Reaming 
 SAZI.deg               145.04:  Azm, Start 
 SDEP.m                4455.01:  Start Depth 
 SIDD.                      No:  Serv Intrp, DD 
 SINC.deg                65.83:  Inc, Start 
 SPPA.psig             5037.00:  SPP Avg 
 SPPN.psig             4430.00:  SPP Min 
 SPPX.psig             5300.00:  SPP Max 
 STIM.      22.41.04 26-Jan-21:  Start Time 
 SVCS.                 DD, MWD:  Services 
 SVER.                    9.20:  Sperry Version 
 TDAT.m                 412.00:  Tot Depth Attmp 
 TDDF.                      No:  Trip for DD 
 TDLG.m                 412.00:  Tot Depth Loggd 
 TFF .                      No:  Trip for Fail 
 TQAA.f-kp               15.00:  Torque Abs Avg 
 TQAN.f-kp               12.00:  Torque Abs Min 
 TQAX.f-kp               17.00:  Torque Abs Max 
 TRRT.°/30m               1.18:  Turn Rotating 
 MRT .                     ADR:  Maximum Recorded Temperature 
 TTMX.degC               88.24:  Max Tool Temp 
 VS01.                90619458:  Virtual Str1 SN 
 VS02.                90519326:  Virtual Str2 SN 
 VS03.                90522176:  Virtual Str3 SN 
 VS04.                90512683:  Virtual Str4 SN 
 WBMN.klb                 1.00:  WOB Min 
 WITN.           Murad Giluyev:  Customer Rep 
 WITN.     Kamran Kemberlinski:  Customer Rep 2 
 WOBA.klb                 5.00:  WOB Avg 
 WOBX.klb                 9.00:  WOB Max 
 YP  .lhf2               41.00:  Yield Point 
~Curve Information Block
#MNEM.UNIT                 API CODE     Curve Description
#---------               -----------    ---------------------------
 TIME.HHMMSS            00 000 000 000:  GT Time & Date
 GTDEPTH.m              00 000 000 000:  GT Depth
 GTPQH.psia             00 000 000 000:  GT HR Quartz Pressure
 GTTQ.degC              00 000 000 000:  GT Quartz Temperature
 GTTN.NONE              00 000 000 000:  GT Test Number
 GTET.sec               00 000 000 000:  GT Elapsed Test Time
 GTTVD.m                00 000 000 000:  GT True Vertical Depth
#Other Information
#
#WARRANTY: Halliburton will use its best efforts to furnish customers with 
#accurate information and interpretations that are part of, and incident to, the services 
#provided.  However, Halliburton cannot and does not warrant the accuracy 
#or correctness of such information and interpretations.  Under no circumstances should any 
#such information or interpretation be relied upon as the sole basis for any drilling, 
#completion, production, or financial decision or any procedure involving any risk to the 
#safety of any drilling venture, drilling rig or its crew or any other third party.  The 
#Customer has full responsibility for all drilling, completion and production operation.  
#Halliburton makes no representations or warranties, either expressed or 
#implied, including, but not limited to, the implied warranties of merchantability or fitness 
#for a particular purpose, with respect to the services rendered.  In no event will 
#Halliburton be liable for failure to obtain any particular results or for 
#any damages, including, but not limited to, indirect, special or consequential damages, 
#resulting from the use of any information or interpretation provided by Halliburton.
#
~A           TIME           GTDEPTH  GTPQH  GTTQ  GTTN   GTET   GTTVD  
# ...
   01:30:20.450.30-Jan-2021 4789.01   56.84 82.22 15.00  67.81 2621.19
   01:30:20.651.30-Jan-2021 4789.01   56.93 82.22 15.00  68.01 2621.19
   01:30:20.851.30-Jan-2021 4789.01   56.93 82.22 15.00  68.21 2621.19
   01:30:21.051.30-Jan-2021 4789.01   57.09 82.22 15.00  68.41 2621.19
   01:30:21.251.30-Jan-2021 4789.01   57.18 82.21 15.00  68.61 2621.19
   01:30:21.451.30-Jan-2021 4789.01   57.26 82.21 15.00  68.81 2621.19
   01:30:21.651.30-Jan-2021 4789.01   57.34 82.21 15.00  69.01 2621.19
   01:30:21.851.30-Jan-2021 4789.01   57.34 82.21 15.00  69.21 2621.19
   01:30:22.051.30-Jan-2021 4789.01   57.51 82.21 15.00  69.41 2621.19
   01:30:22.251.30-Jan-2021 4789.01   57.59 82.21 15.00  69.61 2621.19
   01:30:22.451.30-Jan-2021 4789.01   57.67 82.21 15.00  69.81 2621.19
   01:30:22.651.30-Jan-2021 4789.01   57.75 82.21 15.00  70.01 2621.19
   01:30:22.851.30-Jan-2021 4789.01   57.75 82.21 15.00  70.21 2621.19
   01:30:23.051.30-Jan-2021 4789.01   57.91 82.21 15.00  70.41 2621.19
   01:30:23.251.30-Jan-2021 4789.01   57.99 82.21 15.00  70.61 2621.19
   01:30:23.451.30-Jan-2021 4789.01   58.06 82.21 15.00  70.81 2621.19
   01:30:23.651.30-Jan-2021 4789.01   58.14 82.21 15.00  71.01 2621.19
   01:30:23.851.30-Jan-2021 4789.01   58.14 82.21 15.00  71.21 2621.19
   01:30:24.051.30-Jan-2021 4789.01   58.29 82.21 15.00  71.41 2621.19
   01:30:24.251.30-Jan-2021 4789.01   58.37 82.21 15.00  71.61 2621.19
   01:30:24.451.30-Jan-2021 4789.01   58.44 82.21 15.00  71.81 2621.19
   01:30:24.651.30-Jan-2021 4789.01   58.52 82.20 15.00  72.01 2621.19
   01:30:24.851.30-Jan-2021 4789.01   58.52 82.20 15.00  72.21 2621.19
   01:30:25.051.30-Jan-2021 4789.01   58.67 82.20 15.00  72.41 2621.19
   01:30:25.251.30-Jan-2021 4789.01   58.74 82.20 15.00  72.61 2621.19
   01:30:25.451.30-Jan-2021 4789.01   58.81 82.20 15.00  72.81 2621.19
   01:30:25.651.30-Jan-2021 4789.01   58.89 82.20 15.00  73.01 2621.19
   01:30:25.852.30-Jan-2021 4789.01   58.89 82.20 15.00  73.21 2621.19
   01:30:26.052.30-Jan-2021 4789.01   59.03 82.20 15.00  73.41 2621.19
   01:30:26.252.30-Jan-2021 4789.01   59.11 82.20 15.00  73.61 2621.19
   01:30:26.452.30-Jan-2021 4789.01   59.17 82.20 15.00  73.81 2621.19
   01:30:26.652.30-Jan-2021 4789.01   59.25 82.20 15.00  74.01 2621.19
   01:30:26.852.30-Jan-2021 4789.01   59.25 82.20 15.00  74.21 2621.19
   01:30:27.052.30-Jan-2021 4789.01   59.38 82.20 15.00  74.41 2621.19
   01:30:27.252.30-Jan-2021 4789.01   59.45 82.20 15.00  74.61 2621.19
   01:30:27.452.30-Jan-2021 4789.01   59.52 82.20 15.00  74.81 2621.19
   01:30:27.652.30-Jan-2021 4789.01   59.59 82.20 15.00  75.01 2621.19
   01:30:27.852.30-Jan-2021 4789.01   59.59 82.20 15.00  75.21 2621.19
   01:30:28.052.30-Jan-2021 4789.01   59.72 82.19 15.00  75.41 2621.19
   01:30:28.252.30-Jan-2021 4789.01   59.80 82.19 15.00  75.61 2621.19
   01:30:28.452.30-Jan-2021 4789.01   59.86 82.19 15.00  75.81 2621.19
   01:30:28.652.30-Jan-2021 4789.01   59.93 82.19 15.00  76.01 2621.19
   01:30:28.852.30-Jan-2021 4789.01   59.93 82.19 15.00  76.21 2621.19
   01:30:29.052.30-Jan-2021 4789.01   60.07 82.19 15.00  76.41 2621.19
   01:30:29.252.30-Jan-2021 4789.01   60.13 82.19 15.00  76.61 2621.19
   01:30:29.452.30-Jan-2021 4789.01   60.19 82.19 15.00  76.81 2621.19
   01:30:29.652.30-Jan-2021 4789.01   60.26 82.19 15.00  77.01 2621.19
   01:30:29.852.30-Jan-2021 4789.01   60.26 82.19 15.00  77.21 2621.19
   01:30:30.052.30-Jan-2021 4789.01   60.39 82.19 15.00  77.41 2621.19
   01:30:30.252.30-Jan-2021 4789.01   60.45 82.19 15.00  77.61 2621.19
   01:30:30.452.30-Jan-2021 4789.01   60.52 82.19 15.00  77.81 2621.19
   01:30:30.652.30-Jan-2021 4789.01   60.58 82.19 15.00  78.02 2621.19
   01:30:30.852.30-Jan-2021 4789.01   60.58 82.19 15.00  78.22 2621.19
   01:30:31.053.30-Jan-2021 4789.01   60.70 82.19 15.00  78.42 2621.19
   01:30:31.253.30-Jan-2021 4789.01   60.76 82.19 15.00  78.62 2621.19
   01:30:31.453.30-Jan-2021 4789.01   60.82 82.19 15.00  78.82 2621.19
   01:30:31.653.30-Jan-2021 4789.01   60.89 82.18 15.00  79.02 2621.19
   01:30:31.853.30-Jan-2021 4789.01   60.89 82.18 15.00  79.22 2621.19
   01:30:32.053.30-Jan-2021 4789.01   61.01 82.18 15.00  79.42 2621.19
   01:30:32.253.30-Jan-2021 4789.01   61.07 82.18 15.00  79.62 2621.19
   01:30:32.453.30-Jan-2021 4789.01   61.12 82.18 15.00  79.82 2621.19
   01:30:32.653.30-Jan-2021 4789.01   61.18 82.18 15.00  80.02 2621.19
   01:30:32.853.30-Jan-2021 4789.01   61.18 82.18 15.00  80.22 2621.19
   01:30:33.053.30-Jan-2021 4789.01   61.30 82.18 15.00  80.42 2621.19
   01:30:33.253.30-Jan-2021 4789.01   61.35 82.18 15.00  80.62 2621.19
   01:30:33.453.30-Jan-2021 4789.01   61.41 82.18 15.00  80.82 2621.19
   01:30:33.653.30-Jan-2021 4789.01   61.47 82.18 15.00  81.02 2621.19
   01:30:33.853.30-Jan-2021 4789.01   61.47 82.18 15.00  81.22 2621.19
   01:30:34.053.30-Jan-2021 4789.01   61.58 82.18 15.00  81.42 2621.19
   01:30:34.253.30-Jan-2021 4789.01   61.63 82.18 15.00  81.62 2621.19
   01:30:34.453.30-Jan-2021 4789.01   61.69 82.18 15.00  81.82 2621.19
   01:30:34.653.30-Jan-2021 4789.01   61.74 82.18 15.00  82.02 2621.19
   01:30:34.853.30-Jan-2021 4789.01   61.74 82.18 15.00  82.22 2621.19
   01:30:35.053.30-Jan-2021 4789.01   61.84 82.18 15.00  82.42 2621.19
   01:30:35.253.30-Jan-2021 4789.01   61.90 82.17 15.00  82.62 2621.19
   01:30:35.453.30-Jan-2021 4789.01   61.96 82.17 15.00  82.82 2621.19
   01:30:35.653.30-Jan-2021 4789.01   62.01 82.17 15.00  83.02 2621.19
   01:30:35.853.30-Jan-2021 4789.01   62.01 82.17 15.00  83.22 2621.19
   01:30:36.053.30-Jan-2021 4789.01   62.11 82.17 15.00  83.42 2621.19
   01:30:36.254.30-Jan-2021 4789.01   62.17 82.17 15.00  83.62 2621.19
   01:30:36.454.30-Jan-2021 4789.01   62.22 82.17 15.00  83.82 2621.19
   01:30:36.654.30-Jan-2021 4789.01   62.27 82.17 15.00  84.02 2621.19
   01:30:36.854.30-Jan-2021 4789.01   62.27 82.17 15.00  84.22 2621.19
   01:30:37.054.30-Jan-2021 4789.01   62.37 82.17 15.00  84.42 2621.19
   01:30:37.254.30-Jan-2021 4789.01   62.43 82.17 15.00  84.62 2621.19
   01:30:37.454.30-Jan-2021 4789.01   62.48 82.17 15.00  84.82 2621.19
   01:30:37.654.30-Jan-2021 4789.01   62.53 82.17 15.00  85.02 2621.19
   01:30:37.854.30-Jan-2021 4789.01   62.53 82.17 15.00  85.22 2621.19
   01:30:38.054.30-Jan-2021 4789.01   62.64 82.17 15.00  85.42 2621.19
   01:30:38.254.30-Jan-2021 4789.01   62.69 82.17 15.00  85.62 2621.19
   01:30:38.454.30-Jan-2021 4789.01   62.75 82.17 15.00  85.82 2621.19
   01:30:38.654.30-Jan-2021 4789.01   62.80 82.17 15.00  86.02 2621.19
   01:30:38.854.30-Jan-2021 4789.01   62.80 82.17 15.00  86.22 2621.19
   01:30:39.054.30-Jan-2021 4789.01   62.91 82.16 15.00  86.42 2621.19
   01:30:39.254.30-Jan-2021 4789.01   62.97 82.16 15.00  86.62 2621.19
   01:30:39.454.30-Jan-2021 4789.01   63.02 82.16 15.00  86.82 2621.19
   01:30:39.654.30-Jan-2021 4789.01   63.08 82.16 15.00  87.02 2621.19
   01:30:39.854.30-Jan-2021 4789.01   63.08 82.16 15.00  87.22 2621.19
   01:30:40.054.30-Jan-2021 4789.01   63.19 82.16 15.00  87.42 2621.19
   01:30:40.254.30-Jan-2021 4789.01   63.24 82.16 15.00  87.62 2621.19
   01:30:40.454.30-Jan-2021 4789.01   63.29 82.16 15.00  87.82 2621.19
   01:30:40.654.30-Jan-2021 4789.01   63.35 82.16 15.00  88.02 2621.19
   01:30:40.854.30-Jan-2021 4789.01   63.35 82.16 15.00  88.22 2621.19
   01:30:41.054.30-Jan-2021 4789.01   63.46 82.16 15.00  88.42 2621.19
   01:30:41.254.30-Jan-2021 4789.01   63.51 82.16 15.00  88.62 2621.19
   01:30:41.455.30-Jan-2021 4789.01   63.57 82.16 15.00  88.82 2621.19
   01:30:41.655.30-Jan-2021 4789.01   63.63 82.16 15.00  89.02 2621.19
   01:30:41.855.30-Jan-2021 4789.01   63.63 82.16 15.00  89.22 2621.19
   01:30:42.055.30-Jan-2021 4789.01   63.73 82.16 15.00  89.42 2621.19
   01:30:42.255.30-Jan-2021 4789.01   63.79 82.16 15.00  89.62 2621.19
   01:30:42.455.30-Jan-2021 4789.01   63.84 82.16 15.00  89.82 2621.19
   01:30:42.655.30-Jan-2021 4789.01   63.90 82.15 15.00  90.02 2621.19
   01:30:42.855.30-Jan-2021 4789.01   63.90 82.15 15.00  90.22 2621.19
