~Version Information
 VERS.                  2.0:   CWLS log ASCII Standard -VERSION 2.0
 WRAP.                   NO:   One line per depth step
~Well Information Block
#MNEM.UNIT     VALUE/NAME     DESCRIPTION
#---------     -----------    ---------------------------
 STRT.S             17:31:15 28-Jan-21: START TIME 17:31:15 28-Jan-21
 STOP.S             17:37:46 28-Jan-21: STOP TIME  17:37:46 28-Jan-21
 STEP.S                   0.00: STEP TIME
 NULL.                 -999.25: NULL VALUE
 DFWT.                        :  DIST FWL TEXT
 DFST.                        :  DIST FSL TEXT
 DMF .             Drill Floor:  DRILL MEAS FROM
 STIM.      00.00.00 25-Sep-20:  START TIME
 DATE.      16.12.48 31-Jan-21:  END TIME
 SPUD.               20-Sep-20:  SPUD DATE
 NREF.                    Grid:  NORTH REFERENCE
 HPTY.       Minimum Curvature:  HOLE POS TYPE
 DMOD.             Drill Model:  DRILL MOD DESC
 SVYD.                  Survey:  SURVEY DESC
 ILTD.               Lithology:  INTERP LTH DESC
 FTOP.          Formation Tops:  FORM TOPS DESC
 RIG .              East Azeri:  RIG NAME
 PDAT.          Mean Sea Level:  PERMANENT DATUM
 FLD .                     ACG:  FIELD NAME
 SON .        AZ-XX-0906591820:  JOB NUMBER
 CTRY.              Azerbaijan:  COUNTRY NAME
 WELL.                     D37:  WELL NAME
 SRVC.     Turan Drilling & Engineering:  CONTRACTOR
 COMP.     BP Exploration (Caspian Sea) ltd.:  COMPANY
 WTYP.                Deviated:  WELL TYPE
 MDS .        Operator Entered:  MAG DATA SOURCE
 UWI .                     N/A:  UNIQUE WELL IDENTIFIER
 API .                     N/A:  API NUMBER
 BASE.              Azerbaijan:  LOGGING EQUIPMENT BASE LOCATION
 REGN.                   EESSA:  REGION
 PROV.                    Baku:  PROVINCE
 STAT.                    Baku:  STATE NAME
 MWDS.                    Baku:  MWD SHOP
 JOBN.        AZ-XX-0906591820:  JOB TICKET NUMB
 DOE .                     N/A:  DOE NUMBER
 DCON.         Sperry Drilling:  DIRECTNL CONTR
 UNIT.                     N/A:  LOGGING EQUIPMENT ID
 CNTY.                        :  COUNTY
 LOC .                        :  LOCATION
 LMF .             Drill Floor:  LOG MEASURED FROM
 TVDS.m                  43.60:  TVDSS CORRECTN
 LATI.deg                40.02:  LATITUDE
 LONG.deg                51.45:  LONGITUDE
 WHNS.m                  11.04:  WELL HEAD N/S
 WHEW.m                 -12.38:  WELL HEAD E/W
 UTMX.m              538763.98:  UTM X
 UTMY.m             4431880.20:  UTM Y
 DFWL.m                   0.00:  DISTANCE FWL
 DFSL.m                   0.00:  DISTANCE FSL
 SDEP.m                 300.00:  START DEPTH
 TDD .m                4900.01:  TOTAL DEPTH (DRILLER)
 VSDR.deg               185.64:  VERT SEC DIRECT
 GVFD.g                   1.00:  GRAVITY FIELD
 MFLD.nT              50301.00:  MAGNETIC FIELD
 MDIP.deg                59.46:  MAGNETIC DIP
 MDEC.deg                 6.43:  MAGNETIC DECL
 GRDC.deg                 0.29:  GRID CORRECTION
 AZTC.deg                 6.14:  AZM TOTAL CORR
 EPD .m                   0.00:  ELEVATION
 EGL .m                   0.00:  GROUND ELEVATION
 WDMS.m                 151.80:  WD ELEV
 APD .m                  43.60:  DEPTH ABOVE PD
 DEP .m                 571.69:  DEPTH
 AGAP.m                  43.60:  AIR GAP
 VSEW.m                 -12.38:  VERT SEC E/W
 VSNS.m                  11.04:  VERT SEC N/S
 EKB .m                  43.60:  KB ELEVATION
 EDF .m                  43.60:  DF ELEVATION
 TDL .m                 412.00:  TOTAL DEPTH (LOGGER)
 VSC .                       0:  VS TO CLOSURE
 MAGU.                 1849300:  MAGUTM CHECKSUM
~Parameter Information Block
#MNEM.UNIT       Value        Description
#---------     -----------    ---------------------------
 AV  .mps                 2.21:  Ann Velocity 
 AVMX.mps                 2.53:  Max Ann Veloc 
 AZIF.deg               144.83:  Azm, Final 
 BHAT.        Rotary Steerable:  BHA Type 
 BROT.°/30m              -0.52:  Build Rotating 
 BS  .in                  6.50:  Bit Size 
 BTPL.psig              209.00:  Bit Press Loss 
 CABU.                      No:  Customer Abuse 
 CGEO.        Ali Isfandiyarov:  Customer Geo 
 COMM.                     ¼¨M:  Run Comments 1 
 TCS .hr                 61.31:  Time Ciculation Ended 
 CV  .mps                 4.66:  Crit Velocity 
 CVMX.mps                 5.02:  Max Crit Veloc 
 DD1 .          Fariz Nahmatov:  Direct Drillr 1 
 DD2 .            Musa Ahmadov:  Direct Drillr 2 
 DDSV.               Geo-Pilot:  DD Service 
 DEFF.%                 100.00:  % Det Eff 
 DLRX.°/30m               1.44:  Dogleg Rot Max 
 DLSO.°/30m               0.83:  Dogleg Oriented 
 DLSX.°/30m               1.44:  Dogleg Str Max 
 DRET.      08.30.00 30-Jan-21:  Drill End Time 
 DRST.      21.15.00 27-Jan-21:  Drill Start Tim 
 DTIM.hr                 37.28:  Time Drilling 
 EDEP.m                4867.01:  End Depth 
 ENG1.          Rasim Hashimov:  Engineer 1 
 ENG2.         Almaz Almadatov:  Engineer 2 
 ENG3.        Tamerlan Ahmadov:  Engineer 3 
 ETIM.      22.41.04 31-Jan-21:  End Time 
 FLOI.gpm               400.00:  Flow In 
 FLON.gpm               300.00:  Flow In Min 
 FLOS.cptm                0.00:  Fluid Loss 
 FLOX.gpm               400.00:  Flow In Max 
 HFLO.                      No:  High Flow 
 HPRE.                      No:  High Pressure 
 HTEM.                      No:  High Temp 
 HYDO.m                   1.80:  Hydro Offset 
 IFIN.deg                65.63:  Inc, Final 
 IMAX.deg                66.77:  Inc Max 
 IMIN.deg                65.61:  Inc Min 
 IMND.m                4612.67:  Inc Min Depth 
 IMXD.m                4811.63:  Inc Max Depth 
 JARR.                      No:  Jarring 
 LETM.      08.30.00 30-Jan-21:  Log End Time 
 LOST.hr                     0:  Lost Rig Time 
 LSTM.      21.15.00 27-Jan-21:  Log Start Time 
 MDCL.ppm             41000.00:  Mud Chlorides 
 MDES.     Inversion Oil/Synthetic:  Mud Desc 
 DFD .sg                  1.40:  Mud Density 
 MDMN.sg                  1.40:  Dens Mud Min 
 MDMX.sg                  1.40:  Dens Mud Max 
 MOIL.                      53:  Run Mud Oil % 
 MOWR.                   66:34:  Run Mud OWR 
 MSND.                     0.2:  Run Mud Sand % 
 MSOL.                    17.9:  Run Mud Solids% 
 DFV .spqt               77.00:  Mud Viscosity 
 MWOD.in                  4.75:  MWD Tool OD 
 MWSI.                      No:  Serv Intrp, MWD 
 OTIM.hr                110.38:  Time Operating 
 PCON.           Look Like New:  Pad Condition 
 PMAX.psia             5300.00:  Press Op, Max 
 PV  .cP                 57.00:  Mud PV 
 RUN .                    1200:  Run Number 
 ROPA.m/hr               13.00:  ROP Avg 
 ROPN.m/hr                9.00:  ROP Min 
 ROPX.m/hr               15.00:  ROP Max 
 RPMA.rpm               120.00:  RPM Surface Avg 
 RPMN.rpm               100.00:  RPM Surface Min 
 RPMX.rpm               135.00:  RPM Surface Max 
 RRUN.                    1200:  Rig Run Number 
 RTIM.hr                  2.65:  Time Reaming 
 SAZI.deg               145.04:  Azm, Start 
 SDEP.m                4455.01:  Start Depth 
 SIDD.                      No:  Serv Intrp, DD 
 SINC.deg                65.83:  Inc, Start 
 SPPA.psig             5037.00:  SPP Avg 
 SPPN.psig             4430.00:  SPP Min 
 SPPX.psig             5300.00:  SPP Max 
 STIM.      22.41.04 26-Jan-21:  Start Time 
 SVCS.                 DD, MWD:  Services 
 SVER.                    9.20:  Sperry Version 
 TDAT.m                 412.00:  Tot Depth Attmp 
 TDDF.                      No:  Trip for DD 
 TDLG.m                 412.00:  Tot Depth Loggd 
 TFF .                      No:  Trip for Fail 
 TQAA.f-kp               15.00:  Torque Abs Avg 
 TQAN.f-kp               12.00:  Torque Abs Min 
 TQAX.f-kp               17.00:  Torque Abs Max 
 TRRT.°/30m               1.18:  Turn Rotating 
 MRT .                     ADR:  Maximum Recorded Temperature 
 TTMX.degC               88.24:  Max Tool Temp 
 VS01.                90619458:  Virtual Str1 SN 
 VS02.                90519326:  Virtual Str2 SN 
 VS03.                90522176:  Virtual Str3 SN 
 VS04.                90512683:  Virtual Str4 SN 
 WBMN.klb                 1.00:  WOB Min 
 WITN.           Murad Giluyev:  Customer Rep 
 WITN.     Kamran Kemberlinski:  Customer Rep 2 
 WOBA.klb                 5.00:  WOB Avg 
 WOBX.klb                 9.00:  WOB Max 
 YP  .lhf2               41.00:  Yield Point 
~Curve Information Block
#MNEM.UNIT                 API CODE     Curve Description
#---------               -----------    ---------------------------
 TIME.HHMMSS            00 000 000 000:  GT Time & Date
 GTDEPTH.m              00 000 000 000:  GT Depth
 GTPQH.psia             00 000 000 000:  GT HR Quartz Pressure
 GTTQ.degC              00 000 000 000:  GT Quartz Temperature
 GTTN.NONE              00 000 000 000:  GT Test Number
 GTET.sec               00 000 000 000:  GT Elapsed Test Time
 GTTVD.m                00 000 000 000:  GT True Vertical Depth
#Other Information
#
#WARRANTY: Halliburton will use its best efforts to furnish customers with 
#accurate information and interpretations that are part of, and incident to, the services 
#provided.  However, Halliburton cannot and does not warrant the accuracy 
#or correctness of such information and interpretations.  Under no circumstances should any 
#such information or interpretation be relied upon as the sole basis for any drilling, 
#completion, production, or financial decision or any procedure involving any risk to the 
#safety of any drilling venture, drilling rig or its crew or any other third party.  The 
#Customer has full responsibility for all drilling, completion and production operation.  
#Halliburton makes no representations or warranties, either expressed or 
#implied, including, but not limited to, the implied warranties of merchantability or fitness 
#for a particular purpose, with respect to the services rendered.  In no event will 
#Halliburton be liable for failure to obtain any particular results or for 
#any damages, including, but not limited to, indirect, special or consequential damages, 
#resulting from the use of any information or interpretation provided by Halliburton.
#
~A           TIME           GTDEPTH  GTPQH  GTTQ  GTTN  GTET   GTTVD  
# ...
   17:33:56.320.28-Jan-2021 4557.01 3087.11 74.60 5.00 161.03 2527.68
   17:33:56.520.28-Jan-2021 4557.01 3087.11 74.60 5.00 161.23 2527.68
   17:33:56.720.28-Jan-2021 4557.01 3086.95 74.60 5.00 161.43 2527.68
   17:33:56.920.28-Jan-2021 4557.01 3087.23 74.60 5.00 161.63 2527.68
   17:33:57.120.28-Jan-2021 4557.01 3087.16 74.60 5.00 161.83 2527.68
   17:33:57.321.28-Jan-2021 4557.01 3087.10 74.59 5.00 162.03 2527.68
   17:33:57.521.28-Jan-2021 4557.01 3087.10 74.59 5.00 162.23 2527.68
   17:33:57.721.28-Jan-2021 4557.01 3087.13 74.59 5.00 162.43 2527.68
   17:33:57.921.28-Jan-2021 4557.01 3087.16 74.59 5.00 162.63 2527.68
   17:33:58.121.28-Jan-2021 4557.01 3087.13 74.59 5.00 162.83 2527.68
   17:33:58.321.28-Jan-2021 4557.01 3087.15 74.59 5.00 163.03 2527.68
   17:33:58.521.28-Jan-2021 4557.01 3087.15 74.59 5.00 163.23 2527.68
   17:33:58.721.28-Jan-2021 4557.01 3087.16 74.59 5.00 163.43 2527.68
   17:33:58.921.28-Jan-2021 4557.01 3087.15 74.59 5.00 163.63 2527.68
   17:33:59.121.28-Jan-2021 4557.01 3087.17 74.59 5.00 163.83 2527.68
   17:33:59.321.28-Jan-2021 4557.01 3087.16 74.59 5.00 164.03 2527.68
   17:33:59.521.28-Jan-2021 4557.01 3087.16 74.59 5.00 164.23 2527.68
   17:33:59.721.28-Jan-2021 4557.01 3087.18 74.59 5.00 164.43 2527.68
   17:33:59.921.28-Jan-2021 4557.01 3087.02 74.59 5.00 164.63 2527.68
   17:34:00.121.28-Jan-2021 4557.01 3087.30 74.59 5.00 164.83 2527.68
   17:34:00.321.28-Jan-2021 4557.01 3087.23 74.59 5.00 165.03 2527.68
   17:34:00.521.28-Jan-2021 4557.01 3087.23 74.59 5.00 165.23 2527.68
   17:34:00.721.28-Jan-2021 4557.01 3087.16 74.59 5.00 165.43 2527.68
   17:34:00.921.28-Jan-2021 4557.01 3087.28 74.59 5.00 165.63 2527.68
   17:34:01.121.28-Jan-2021 4557.01 3087.21 74.59 5.00 165.83 2527.68
   17:34:01.321.28-Jan-2021 4557.01 3087.21 74.58 5.00 166.03 2527.68
   17:34:01.521.28-Jan-2021 4557.01 3087.21 74.58 5.00 166.23 2527.68
   17:34:01.721.28-Jan-2021 4557.01 3087.26 74.58 5.00 166.43 2527.68
   17:34:01.921.28-Jan-2021 4557.01 3087.18 74.58 5.00 166.63 2527.68
   17:34:02.121.28-Jan-2021 4557.01 3087.28 74.58 5.00 166.83 2527.68
   17:34:02.322.28-Jan-2021 4557.01 3087.23 74.58 5.00 167.03 2527.68
   17:34:02.522.28-Jan-2021 4557.01 3087.23 74.58 5.00 167.23 2527.68
   17:34:02.722.28-Jan-2021 4557.01 3087.18 74.58 5.00 167.43 2527.68
   17:34:02.922.28-Jan-2021 4557.01 3087.28 74.58 5.00 167.63 2527.68
   17:34:03.122.28-Jan-2021 4557.01 3087.24 74.58 5.00 167.83 2527.68
   17:34:03.322.28-Jan-2021 4557.01 3087.16 74.58 5.00 168.03 2527.68
   17:34:03.522.28-Jan-2021 4557.01 3087.16 74.58 5.00 168.23 2527.68
   17:34:03.722.28-Jan-2021 4557.01 3087.34 74.58 5.00 168.43 2527.68
   17:34:03.922.28-Jan-2021 4557.01 3087.25 74.58 5.00 168.63 2527.68
   17:34:04.122.28-Jan-2021 4557.01 3087.29 74.58 5.00 168.83 2527.68
   17:34:04.322.28-Jan-2021 4557.01 3087.26 74.58 5.00 169.03 2527.68
   17:34:04.522.28-Jan-2021 4557.01 3087.26 74.58 5.00 169.23 2527.68
   17:34:04.722.28-Jan-2021 4557.01 3087.25 74.58 5.00 169.43 2527.68
   17:34:04.922.28-Jan-2021 4557.01 3087.27 74.58 5.00 169.63 2527.68
   17:34:05.122.28-Jan-2021 4557.01 3087.24 74.58 5.00 169.83 2527.68
   17:34:05.322.28-Jan-2021 4557.01 3087.25 74.58 5.00 170.03 2527.68
   17:34:05.522.28-Jan-2021 4557.01 3087.25 74.58 5.00 170.23 2527.68
   17:34:05.722.28-Jan-2021 4557.01 3087.25 74.57 5.00 170.43 2527.68
   17:34:05.922.28-Jan-2021 4557.01 3087.28 74.57 5.00 170.63 2527.68
   17:34:06.122.28-Jan-2021 4557.01 3087.26 74.57 5.00 170.83 2527.68
   17:34:06.322.28-Jan-2021 4557.01 3087.25 74.57 5.00 171.03 2527.68
   17:34:06.522.28-Jan-2021 4557.01 3087.25 74.57 5.00 171.23 2527.68
   17:34:06.722.28-Jan-2021 4557.01 3087.26 74.57 5.00 171.43 2527.68
   17:34:06.922.28-Jan-2021 4557.01 3087.20 74.57 5.00 171.63 2527.68
   17:34:07.122.28-Jan-2021 4557.01 3087.33 74.57 5.00 171.83 2527.68
   17:34:07.322.28-Jan-2021 4557.01 3087.24 74.57 5.00 172.03 2527.68
   17:34:07.523.28-Jan-2021 4557.01 3087.24 74.57 5.00 172.23 2527.68
   17:34:07.723.28-Jan-2021 4557.01 3087.31 74.57 5.00 172.43 2527.68
   17:34:07.923.28-Jan-2021 4557.01 3087.29 74.57 5.00 172.63 2527.68
   17:34:08.123.28-Jan-2021 4557.01 3087.30 74.57 5.00 172.83 2527.68
   17:34:08.323.28-Jan-2021 4557.01 3087.29 74.57 5.00 173.03 2527.68
   17:34:08.523.28-Jan-2021 4557.01 3087.29 74.57 5.00 173.23 2527.68
   17:34:08.723.28-Jan-2021 4557.01 3087.28 74.57 5.00 173.43 2527.68
   17:34:08.923.28-Jan-2021 4557.01 3087.29 74.57 5.00 173.63 2527.68
   17:34:09.123.28-Jan-2021 4557.01 3087.28 74.57 5.00 173.83 2527.68
   17:34:09.323.28-Jan-2021 4557.01 3087.29 74.57 5.00 174.03 2527.68
   17:34:09.523.28-Jan-2021 4557.01 3087.29 74.57 5.00 174.23 2527.68
   17:34:09.723.28-Jan-2021 4557.01 3087.28 74.56 5.00 174.43 2527.68
   17:34:09.923.28-Jan-2021 4557.01 3087.29 74.56 5.00 174.63 2527.68
   17:34:10.123.28-Jan-2021 4557.01 3087.21 74.56 5.00 174.83 2527.68
   17:34:10.323.28-Jan-2021 4557.01 3087.37 74.56 5.00 175.03 2527.68
   17:34:10.523.28-Jan-2021 4557.01 3087.37 74.56 5.00 175.23 2527.68
   17:34:10.723.28-Jan-2021 4557.01 3087.33 74.56 5.00 175.43 2527.68
   17:34:10.923.28-Jan-2021 4557.01 3087.36 74.56 5.00 175.63 2527.68
   17:34:11.123.28-Jan-2021 4557.01 3087.30 74.56 5.00 175.83 2527.68
   17:34:11.323.28-Jan-2021 4557.01 3087.27 74.56 5.00 176.03 2527.68
   17:34:11.523.28-Jan-2021 4557.01 3087.27 74.56 5.00 176.23 2527.68
   17:34:11.723.28-Jan-2021 4557.01 3087.32 74.56 5.00 176.43 2527.68
   17:34:11.923.28-Jan-2021 4557.01 3087.27 74.56 5.00 176.63 2527.68
   17:34:12.123.28-Jan-2021 4557.01 3087.31 74.56 5.00 176.83 2527.68
   17:34:12.323.28-Jan-2021 4557.01 3087.39 74.56 5.00 177.03 2527.68
   17:34:12.524.28-Jan-2021 4557.01 3087.39 74.56 5.00 177.23 2527.68
   17:34:12.724.28-Jan-2021 4557.01 3087.20 74.56 5.00 177.43 2527.68
   17:34:12.924.28-Jan-2021 4557.01 3087.42 74.56 5.00 177.63 2527.68
   17:34:13.124.28-Jan-2021 4557.01 3087.39 74.56 5.00 177.83 2527.68
   17:34:13.324.28-Jan-2021 4557.01 3087.32 74.56 5.00 178.03 2527.68
   17:34:13.524.28-Jan-2021 4557.01 3087.32 74.56 5.00 178.23 2527.68
   17:34:13.724.28-Jan-2021 4557.01 3087.21 74.56 5.00 178.44 2527.68
   17:34:13.924.28-Jan-2021 4557.01 3087.43 74.55 5.00 178.64 2527.68
   17:34:14.124.28-Jan-2021 4557.01 3087.30 74.55 5.00 178.84 2527.68
   17:34:14.324.28-Jan-2021 4557.01 3087.33 74.55 5.00 179.04 2527.68
   17:34:14.524.28-Jan-2021 4557.01 3087.33 74.55 5.00 179.24 2527.68
   17:34:14.724.28-Jan-2021 4557.01 3087.35 74.55 5.00 179.44 2527.68
   17:34:14.924.28-Jan-2021 4557.01 3087.36 74.55 5.00 179.64 2527.68
   17:34:15.124.28-Jan-2021 4557.01 3087.35 74.55 5.00 179.84 2527.68
   17:34:15.324.28-Jan-2021 4557.01 3087.35 74.55 5.00 180.04 2527.68
   17:34:15.524.28-Jan-2021 4557.01 3087.35 74.55 5.00 180.24 2527.68
   17:34:15.724.28-Jan-2021 4557.01 3087.34 74.55 5.00 180.44 2527.68
   17:34:15.924.28-Jan-2021 4557.01 3087.35 74.55 5.00 180.64 2527.68
   17:34:16.124.28-Jan-2021 4557.01 3087.34 74.55 5.00 180.84 2527.68
   17:34:16.324.28-Jan-2021 4557.01 3087.36 74.55 5.00 181.04 2527.68
   17:34:16.524.28-Jan-2021 4557.01 3087.36 74.55 5.00 181.24 2527.68
   17:34:16.724.28-Jan-2021 4557.01 3087.36 74.55 5.00 181.44 2527.68
   17:34:16.924.28-Jan-2021 4557.01 3087.35 74.55 5.00 181.64 2527.68
   17:34:17.124.28-Jan-2021 4557.01 3087.35 74.55 5.00 181.84 2527.68
   17:34:17.324.28-Jan-2021 4557.01 3087.26 74.55 5.00 182.04 2527.68
   17:34:17.524.28-Jan-2021 4557.01 3087.26 74.55 5.00 182.24 2527.68
   17:34:17.725.28-Jan-2021 4557.01 3087.30 74.55 5.00 182.44 2527.68
   17:34:17.925.28-Jan-2021 4557.01 3087.36 74.55 5.00 182.64 2527.68
   17:34:18.125.28-Jan-2021 4557.01 3087.38 74.55 5.00 182.84 2527.68
   17:34:18.325.28-Jan-2021 4557.01 3087.36 74.54 5.00 183.04 2527.68
   17:34:18.525.28-Jan-2021 4557.01 3087.36 74.54 5.00 183.24 2527.68
   17:34:18.725.28-Jan-2021 4557.01 3087.35 74.54 5.00 183.44 2527.68
   17:34:18.925.28-Jan-2021 4557.01 3087.36 74.54 5.00 183.64 2527.68
   17:34:19.125.28-Jan-2021 4557.01 3087.36 74.54 5.00 183.84 2527.68
