~Version Information
 VERS.                  2.0:   CWLS log ASCII Standard -VERSION 2.0
 WRAP.                   NO:   One line per depth step
~Well Information Block
#MNEM.UNIT     VALUE/NAME     DESCRIPTION
#---------     -----------    ---------------------------
 STRT.S             18:28:03 29-Jan-21: START TIME 18:28:03 29-Jan-21
 STOP.S             18:34:33 29-Jan-21: STOP TIME  18:34:33 29-Jan-21
 STEP.S                   0.00: STEP TIME
 NULL.                 -999.25: NULL VALUE
 DFWT.                        :  DIST FWL TEXT
 DFST.                        :  DIST FSL TEXT
 DMF .             Drill Floor:  DRILL MEAS FROM
 STIM.      00.00.00 25-Sep-20:  START TIME
 DATE.      16.12.48 31-Jan-21:  END TIME
 SPUD.               20-Sep-20:  SPUD DATE
 NREF.                    Grid:  NORTH REFERENCE
 HPTY.       Minimum Curvature:  HOLE POS TYPE
 DMOD.             Drill Model:  DRILL MOD DESC
 SVYD.                  Survey:  SURVEY DESC
 ILTD.               Lithology:  INTERP LTH DESC
 FTOP.          Formation Tops:  FORM TOPS DESC
 RIG .              East Azeri:  RIG NAME
 PDAT.          Mean Sea Level:  PERMANENT DATUM
 FLD .                     ACG:  FIELD NAME
 SON .        AZ-XX-0906591820:  JOB NUMBER
 CTRY.              Azerbaijan:  COUNTRY NAME
 WELL.                     D37:  WELL NAME
 SRVC.     Turan Drilling & Engineering:  CONTRACTOR
 COMP.     BP Exploration (Caspian Sea) ltd.:  COMPANY
 WTYP.                Deviated:  WELL TYPE
 MDS .        Operator Entered:  MAG DATA SOURCE
 UWI .                     N/A:  UNIQUE WELL IDENTIFIER
 API .                     N/A:  API NUMBER
 BASE.              Azerbaijan:  LOGGING EQUIPMENT BASE LOCATION
 REGN.                   EESSA:  REGION
 PROV.                    Baku:  PROVINCE
 STAT.                    Baku:  STATE NAME
 MWDS.                    Baku:  MWD SHOP
 JOBN.        AZ-XX-0906591820:  JOB TICKET NUMB
 DOE .                     N/A:  DOE NUMBER
 DCON.         Sperry Drilling:  DIRECTNL CONTR
 UNIT.                     N/A:  LOGGING EQUIPMENT ID
 CNTY.                        :  COUNTY
 LOC .                        :  LOCATION
 LMF .             Drill Floor:  LOG MEASURED FROM
 TVDS.m                  43.60:  TVDSS CORRECTN
 LATI.deg                40.02:  LATITUDE
 LONG.deg                51.45:  LONGITUDE
 WHNS.m                  11.04:  WELL HEAD N/S
 WHEW.m                 -12.38:  WELL HEAD E/W
 UTMX.m              538763.98:  UTM X
 UTMY.m             4431880.20:  UTM Y
 DFWL.m                   0.00:  DISTANCE FWL
 DFSL.m                   0.00:  DISTANCE FSL
 SDEP.m                 300.00:  START DEPTH
 TDD .m                4900.01:  TOTAL DEPTH (DRILLER)
 VSDR.deg               185.64:  VERT SEC DIRECT
 GVFD.g                   1.00:  GRAVITY FIELD
 MFLD.nT              50301.00:  MAGNETIC FIELD
 MDIP.deg                59.46:  MAGNETIC DIP
 MDEC.deg                 6.43:  MAGNETIC DECL
 GRDC.deg                 0.29:  GRID CORRECTION
 AZTC.deg                 6.14:  AZM TOTAL CORR
 EPD .m                   0.00:  ELEVATION
 EGL .m                   0.00:  GROUND ELEVATION
 WDMS.m                 151.80:  WD ELEV
 APD .m                  43.60:  DEPTH ABOVE PD
 DEP .m                 571.69:  DEPTH
 AGAP.m                  43.60:  AIR GAP
 VSEW.m                 -12.38:  VERT SEC E/W
 VSNS.m                  11.04:  VERT SEC N/S
 EKB .m                  43.60:  KB ELEVATION
 EDF .m                  43.60:  DF ELEVATION
 TDL .m                 412.00:  TOTAL DEPTH (LOGGER)
 VSC .                       0:  VS TO CLOSURE
 MAGU.                 1849300:  MAGUTM CHECKSUM
~Parameter Information Block
#MNEM.UNIT       Value        Description
#---------     -----------    ---------------------------
 AV  .mps                 2.21:  Ann Velocity 
 AVMX.mps                 2.53:  Max Ann Veloc 
 AZIF.deg               144.83:  Azm, Final 
 BHAT.        Rotary Steerable:  BHA Type 
 BROT.°/30m              -0.52:  Build Rotating 
 BS  .in                  6.50:  Bit Size 
 BTPL.psig              209.00:  Bit Press Loss 
 CABU.                      No:  Customer Abuse 
 CGEO.        Ali Isfandiyarov:  Customer Geo 
 COMM.                     tðz:  Run Comments 1 
 TCS .hr                 61.31:  Time Ciculation Ended 
 CV  .mps                 4.66:  Crit Velocity 
 CVMX.mps                 5.02:  Max Crit Veloc 
 DD1 .          Fariz Nahmatov:  Direct Drillr 1 
 DD2 .            Musa Ahmadov:  Direct Drillr 2 
 DDSV.               Geo-Pilot:  DD Service 
 DEFF.%                 100.00:  % Det Eff 
 DLRX.°/30m               1.44:  Dogleg Rot Max 
 DLSO.°/30m               0.83:  Dogleg Oriented 
 DLSX.°/30m               1.44:  Dogleg Str Max 
 DRET.      08.30.00 30-Jan-21:  Drill End Time 
 DRST.      21.15.00 27-Jan-21:  Drill Start Tim 
 DTIM.hr                 37.28:  Time Drilling 
 EDEP.m                4867.01:  End Depth 
 ENG1.          Rasim Hashimov:  Engineer 1 
 ENG2.         Almaz Almadatov:  Engineer 2 
 ENG3.        Tamerlan Ahmadov:  Engineer 3 
 ETIM.      22.41.04 31-Jan-21:  End Time 
 FLOI.gpm               400.00:  Flow In 
 FLON.gpm               300.00:  Flow In Min 
 FLOS.cptm                0.00:  Fluid Loss 
 FLOX.gpm               400.00:  Flow In Max 
 HFLO.                      No:  High Flow 
 HPRE.                      No:  High Pressure 
 HTEM.                      No:  High Temp 
 HYDO.m                   1.80:  Hydro Offset 
 IFIN.deg                65.63:  Inc, Final 
 IMAX.deg                66.77:  Inc Max 
 IMIN.deg                65.61:  Inc Min 
 IMND.m                4612.67:  Inc Min Depth 
 IMXD.m                4811.63:  Inc Max Depth 
 JARR.                      No:  Jarring 
 LETM.      08.30.00 30-Jan-21:  Log End Time 
 LOST.hr                     0:  Lost Rig Time 
 LSTM.      21.15.00 27-Jan-21:  Log Start Time 
 MDCL.ppm             41000.00:  Mud Chlorides 
 MDES.     Inversion Oil/Synthetic:  Mud Desc 
 DFD .sg                  1.40:  Mud Density 
 MDMN.sg                  1.40:  Dens Mud Min 
 MDMX.sg                  1.40:  Dens Mud Max 
 MOIL.                      53:  Run Mud Oil % 
 MOWR.                   66:34:  Run Mud OWR 
 MSND.                     0.2:  Run Mud Sand % 
 MSOL.                    17.9:  Run Mud Solids% 
 DFV .spqt               77.00:  Mud Viscosity 
 MWOD.in                  4.75:  MWD Tool OD 
 MWSI.                      No:  Serv Intrp, MWD 
 OTIM.hr                110.38:  Time Operating 
 PCON.           Look Like New:  Pad Condition 
 PMAX.psia             5300.00:  Press Op, Max 
 PV  .cP                 57.00:  Mud PV 
 RUN .                    1200:  Run Number 
 ROPA.m/hr               13.00:  ROP Avg 
 ROPN.m/hr                9.00:  ROP Min 
 ROPX.m/hr               15.00:  ROP Max 
 RPMA.rpm               120.00:  RPM Surface Avg 
 RPMN.rpm               100.00:  RPM Surface Min 
 RPMX.rpm               135.00:  RPM Surface Max 
 RRUN.                    1200:  Rig Run Number 
 RTIM.hr                  2.65:  Time Reaming 
 SAZI.deg               145.04:  Azm, Start 
 SDEP.m                4455.01:  Start Depth 
 SIDD.                      No:  Serv Intrp, DD 
 SINC.deg                65.83:  Inc, Start 
 SPPA.psig             5037.00:  SPP Avg 
 SPPN.psig             4430.00:  SPP Min 
 SPPX.psig             5300.00:  SPP Max 
 STIM.      22.41.04 26-Jan-21:  Start Time 
 SVCS.                 DD, MWD:  Services 
 SVER.                    9.20:  Sperry Version 
 TDAT.m                 412.00:  Tot Depth Attmp 
 TDDF.                      No:  Trip for DD 
 TDLG.m                 412.00:  Tot Depth Loggd 
 TFF .                      No:  Trip for Fail 
 TQAA.f-kp               15.00:  Torque Abs Avg 
 TQAN.f-kp               12.00:  Torque Abs Min 
 TQAX.f-kp               17.00:  Torque Abs Max 
 TRRT.°/30m               1.18:  Turn Rotating 
 MRT .                     ADR:  Maximum Recorded Temperature 
 TTMX.degC               88.24:  Max Tool Temp 
 VS01.                90619458:  Virtual Str1 SN 
 VS02.                90519326:  Virtual Str2 SN 
 VS03.                90522176:  Virtual Str3 SN 
 VS04.                90512683:  Virtual Str4 SN 
 WBMN.klb                 1.00:  WOB Min 
 WITN.           Murad Giluyev:  Customer Rep 
 WITN.     Kamran Kemberlinski:  Customer Rep 2 
 WOBA.klb                 5.00:  WOB Avg 
 WOBX.klb                 9.00:  WOB Max 
 YP  .lhf2               41.00:  Yield Point 
~Curve Information Block
#MNEM.UNIT                 API CODE     Curve Description
#---------               -----------    ---------------------------
 TIME.HHMMSS            00 000 000 000:  GT Time & Date
 GTDEPTH.m              00 000 000 000:  GT Depth
 GTPQH.psia             00 000 000 000:  GT HR Quartz Pressure
 GTTQ.degC              00 000 000 000:  GT Quartz Temperature
 GTTN.NONE              00 000 000 000:  GT Test Number
 GTET.sec               00 000 000 000:  GT Elapsed Test Time
 GTTVD.m                00 000 000 000:  GT True Vertical Depth
#Other Information
#
#WARRANTY: Halliburton will use its best efforts to furnish customers with 
#accurate information and interpretations that are part of, and incident to, the services 
#provided.  However, Halliburton cannot and does not warrant the accuracy 
#or correctness of such information and interpretations.  Under no circumstances should any 
#such information or interpretation be relied upon as the sole basis for any drilling, 
#completion, production, or financial decision or any procedure involving any risk to the 
#safety of any drilling venture, drilling rig or its crew or any other third party.  The 
#Customer has full responsibility for all drilling, completion and production operation.  
#Halliburton makes no representations or warranties, either expressed or 
#implied, including, but not limited to, the implied warranties of merchantability or fitness 
#for a particular purpose, with respect to the services rendered.  In no event will 
#Halliburton be liable for failure to obtain any particular results or for 
#any damages, including, but not limited to, indirect, special or consequential damages, 
#resulting from the use of any information or interpretation provided by Halliburton.
#
~A           TIME           GTDEPTH  GTPQH  GTTQ  GTTN   GTET   GTTVD  
   18:28:03.633.29-Jan-2021 4752.01 5695.20 83.49 12.00   0.00 2606.49
   18:28:03.833.29-Jan-2021 4752.01 5695.20 83.49 12.00   0.20 2606.49
   18:28:04.033.29-Jan-2021 4752.01 5688.07 83.48 12.00   0.40 2606.49
   18:28:04.233.29-Jan-2021 4752.01 5689.17 83.48 12.00   0.60 2606.49
   18:28:04.433.29-Jan-2021 4752.01 5692.59 83.48 12.00   0.80 2606.49
   18:28:04.633.29-Jan-2021 4752.01 5693.21 83.48 12.00   1.00 2606.49
   18:28:04.834.29-Jan-2021 4752.01 5693.21 83.48 12.00   1.20 2606.49
   18:28:05.034.29-Jan-2021 4752.01 5691.88 83.48 12.00   1.40 2606.49
   18:28:05.234.29-Jan-2021 4752.01 5692.25 83.48 12.00   1.60 2606.49
   18:28:05.434.29-Jan-2021 4752.01 5689.61 83.48 12.00   1.80 2606.49
   18:28:05.634.29-Jan-2021 4752.01 5689.70 83.48 12.00   2.00 2606.49
   18:28:05.834.29-Jan-2021 4752.01 5689.70 83.48 12.00   2.20 2606.49
   18:28:06.034.29-Jan-2021 4752.01 5695.55 83.48 12.00   2.40 2606.49
   18:28:06.234.29-Jan-2021 4752.01 5686.50 83.47 12.00   2.60 2606.49
   18:28:06.434.29-Jan-2021 4752.01 5694.54 83.47 12.00   2.80 2606.49
   18:28:06.634.29-Jan-2021 4752.01 5695.17 83.47 12.00   3.00 2606.49
   18:28:06.834.29-Jan-2021 4752.01 5695.17 83.47 12.00   3.20 2606.49
   18:28:07.034.29-Jan-2021 4752.01 5692.36 83.47 12.00   3.40 2606.49
   18:28:07.234.29-Jan-2021 4752.01 5694.79 83.47 12.00   3.60 2606.49
   18:28:07.434.29-Jan-2021 4752.01 5696.34 83.47 12.00   3.80 2606.49
   18:28:07.634.29-Jan-2021 4752.01 5696.69 83.47 12.00   4.00 2606.49
   18:28:07.834.29-Jan-2021 4752.01 5696.69 83.47 12.00   4.20 2606.49
   18:28:08.034.29-Jan-2021 4752.01 5695.09 83.47 12.00   4.40 2606.49
   18:28:08.234.29-Jan-2021 4752.01 5695.69 83.47 12.00   4.60 2606.49
   18:28:08.434.29-Jan-2021 4752.01 5695.40 83.46 12.00   4.80 2606.49
   18:28:08.634.29-Jan-2021 4752.01 5694.75 83.46 12.00   5.00 2606.49
   18:28:08.834.29-Jan-2021 4752.01 5694.75 83.46 12.00   5.20 2606.49
   18:28:09.034.29-Jan-2021 4752.01 5695.28 83.46 12.00   5.40 2606.49
   18:28:09.234.29-Jan-2021 4752.01 5695.16 83.46 12.00   5.60 2606.49
   18:28:09.434.29-Jan-2021 4752.01 5695.47 83.46 12.00   5.80 2606.49
   18:28:09.634.29-Jan-2021 4752.01 5694.62 83.46 12.00   6.00 2606.49
   18:28:09.834.29-Jan-2021 4752.01 5694.62 83.46 12.00   6.20 2606.49
   18:28:10.034.29-Jan-2021 4752.01 5694.62 83.46 12.00   6.40 2606.49
   18:28:10.234.29-Jan-2021 4752.01 5696.35 83.46 12.00   6.60 2606.49
   18:28:10.434.29-Jan-2021 4752.01 5694.22 83.46 12.00   6.80 2606.49
   18:28:10.634.29-Jan-2021 4752.01 5694.97 83.46 12.00   7.00 2606.49
   18:28:10.834.29-Jan-2021 4752.01 5694.97 83.46 12.00   7.20 2606.49
   18:28:11.034.29-Jan-2021 4752.01 5697.59 83.45 12.00   7.40 2606.49
   18:28:11.234.29-Jan-2021 4752.01 5696.33 83.45 12.00   7.60 2606.49
   18:28:11.434.29-Jan-2021 4752.01 5695.88 83.45 12.00   7.80 2606.49
   18:28:11.634.29-Jan-2021 4752.01 5696.30 83.45 12.00   8.00 2606.49
   18:28:11.834.29-Jan-2021 4752.01 5696.30 83.45 12.00   8.20 2606.49
   18:28:12.034.29-Jan-2021 4752.01 5696.12 83.45 12.00   8.40 2606.49
   18:28:12.234.29-Jan-2021 4752.01 5695.68 83.45 12.00   8.60 2606.49
   18:28:12.434.29-Jan-2021 4752.01 5695.89 83.45 12.00   8.80 2606.49
   18:28:12.634.29-Jan-2021 4752.01 5695.90 83.45 12.00   9.00 2606.49
   18:28:12.834.29-Jan-2021 4752.01 5695.90 83.45 12.00   9.20 2606.49
   18:28:13.034.29-Jan-2021 4752.01 5695.32 83.44 12.00   9.40 2606.49
   18:28:13.235.29-Jan-2021 4752.01 5695.47 83.44 12.00   9.60 2606.49
   18:28:13.435.29-Jan-2021 4752.01 5690.94 83.44 12.00   9.80 2606.49
   18:28:13.635.29-Jan-2021 4752.01 5694.79 83.44 12.00  10.00 2606.49
   18:28:13.835.29-Jan-2021 4752.01 5694.79 83.44 12.00  10.20 2606.49
   18:28:14.035.29-Jan-2021 4752.01 5696.87 83.44 12.00  10.40 2606.49
   18:28:14.235.29-Jan-2021 4752.01 5692.75 83.44 12.00  10.60 2606.49
   18:28:14.435.29-Jan-2021 4752.01 5694.82 83.44 12.00  10.80 2606.49
   18:28:14.635.29-Jan-2021 4752.01 5692.94 83.44 12.00  11.00 2606.49
   18:28:14.835.29-Jan-2021 4752.01 5692.94 83.44 12.00  11.20 2606.49
   18:28:15.035.29-Jan-2021 4752.01 5696.84 83.44 12.00  11.40 2606.49
   18:28:15.235.29-Jan-2021 4752.01 5694.60 83.44 12.00  11.60 2606.49
   18:28:15.435.29-Jan-2021 4752.01 5690.67 83.43 12.00  11.80 2606.49
   18:28:15.635.29-Jan-2021 4752.01 5698.62 83.43 12.00  12.00 2606.49
   18:28:15.835.29-Jan-2021 4752.01 5698.62 83.43 12.00  12.20 2606.49
   18:28:16.035.29-Jan-2021 4752.01 5691.82 83.43 12.00  12.40 2606.49
   18:28:16.235.29-Jan-2021 4752.01 5694.07 83.43 12.00  12.60 2606.49
   18:28:16.435.29-Jan-2021 4752.01 5697.69 83.43 12.00  12.80 2606.49
   18:28:16.635.29-Jan-2021 4752.01 5699.23 83.43 12.00  13.00 2606.49
   18:28:16.835.29-Jan-2021 4752.01 5699.23 83.43 12.00  13.20 2606.49
   18:28:17.035.29-Jan-2021 4752.01 5697.74 83.43 12.00  13.40 2606.49
   18:28:17.235.29-Jan-2021 4752.01 5697.18 83.43 12.00  13.60 2606.49
   18:28:17.435.29-Jan-2021 4752.01 5699.89 83.43 12.00  13.80 2606.49
   18:28:17.635.29-Jan-2021 4752.01 5692.78 83.42 12.00  14.00 2606.49
   18:28:17.835.29-Jan-2021 4752.01 5692.78 83.42 12.00  14.20 2606.49
   18:28:18.035.29-Jan-2021 4752.01 5696.92 83.42 12.00  14.40 2606.49
   18:28:18.235.29-Jan-2021 4752.01 5699.69 83.42 12.00  14.60 2606.49
   18:28:18.435.29-Jan-2021 4752.01 5696.43 83.42 12.00  14.80 2606.49
   18:28:18.635.29-Jan-2021 4752.01 5693.94 83.42 12.00  15.00 2606.49
   18:28:18.835.29-Jan-2021 4752.01 5693.94 83.42 12.00  15.20 2606.49
   18:28:19.035.29-Jan-2021 4752.01 5726.84 83.42 12.00  15.40 2606.49
   18:28:19.235.29-Jan-2021 4752.01 5696.01 83.42 12.00  15.60 2606.49
   18:28:19.435.29-Jan-2021 4752.01 5696.64 83.42 12.00  15.80 2606.49
   18:28:19.635.29-Jan-2021 4752.01 5698.38 83.42 12.00  16.00 2606.49
   18:28:19.835.29-Jan-2021 4752.01 5698.38 83.42 12.00  16.20 2606.49
   18:28:20.035.29-Jan-2021 4752.01 5747.76 83.41 12.00  16.40 2606.49
   18:28:20.235.29-Jan-2021 4752.01 5770.22 83.41 12.00  16.60 2606.49
   18:28:20.435.29-Jan-2021 4752.01 5790.96 83.41 12.00  16.80 2606.49
   18:28:20.635.29-Jan-2021 4752.01 5826.67 83.41 12.00  17.00 2606.49
   18:28:20.835.29-Jan-2021 4752.01 5826.67 83.41 12.00  17.20 2606.49
   18:28:21.035.29-Jan-2021 4752.01 5890.48 83.41 12.00  17.40 2606.49
   18:28:21.235.29-Jan-2021 4752.01 5922.69 83.41 12.00  17.60 2606.49
   18:28:21.435.29-Jan-2021 4752.01 5954.73 83.41 12.00  17.80 2606.49
   18:28:21.635.29-Jan-2021 4752.01 6005.41 83.41 12.00  18.00 2606.49
   18:28:21.836.29-Jan-2021 4752.01 6005.41 83.41 12.00  18.20 2606.49
   18:28:22.036.29-Jan-2021 4752.01 6104.17 83.41 12.00  18.40 2606.49
   18:28:22.236.29-Jan-2021 4752.01 6145.57 83.41 12.00  18.60 2606.49
   18:28:22.436.29-Jan-2021 4752.01 6256.12 83.40 12.00  18.80 2606.49
   18:28:22.636.29-Jan-2021 4752.01 6282.76 83.40 12.00  19.00 2606.49
   18:28:22.836.29-Jan-2021 4752.01 6282.76 83.40 12.00  19.20 2606.49
   18:28:23.036.29-Jan-2021 4752.01 6242.76 83.40 12.00  19.40 2606.49
   18:28:23.236.29-Jan-2021 4752.01 6100.88 83.40 12.00  19.60 2606.49
   18:28:23.436.29-Jan-2021 4752.01 6145.00 83.40 12.00  19.80 2606.49
   18:28:23.636.29-Jan-2021 4752.01 6173.47 83.40 12.00  20.00 2606.49
   18:28:23.836.29-Jan-2021 4752.01 6173.47 83.40 12.00  20.20 2606.49
   18:28:24.036.29-Jan-2021 4752.01 6075.55 83.40 12.00  20.40 2606.49
   18:28:24.236.29-Jan-2021 4752.01 6034.55 83.40 12.00  20.60 2606.49
   18:28:24.436.29-Jan-2021 4752.01 6074.07 83.40 12.00  20.80 2606.49
   18:28:24.636.29-Jan-2021 4752.01 6166.01 83.39 12.00  21.00 2606.49
   18:28:24.836.29-Jan-2021 4752.01 6166.01 83.39 12.00  21.20 2606.49
   18:28:25.036.29-Jan-2021 4752.01 6263.34 83.39 12.00  21.40 2606.49
   18:28:25.236.29-Jan-2021 4752.01 6278.37 83.39 12.00  21.60 2606.49
   18:28:25.436.29-Jan-2021 4752.01 5875.43 83.39 12.00  21.80 2606.49
   18:28:25.636.29-Jan-2021 4752.01 5787.02 83.39 12.00  22.00 2606.49
   18:28:25.836.29-Jan-2021 4752.01 5787.02 83.39 12.00  22.20 2606.49
   18:28:26.036.29-Jan-2021 4752.01 5789.38 83.39 12.00  22.40 2606.49
