~Version Information
 VERS.                  2.0:   CWLS log ASCII Standard -VERSION 2.0
 WRAP.                   NO:   One line per depth step
~Well Information Block
#MNEM.UNIT     VALUE/NAME     DESCRIPTION
#---------     -----------    ---------------------------
 STRT.S             18:28:03 29-Jan-21: START TIME 18:28:03 29-Jan-21
 STOP.S             18:34:33 29-Jan-21: STOP TIME  18:34:33 29-Jan-21
 STEP.S                   0.00: STEP TIME
 NULL.                 -999.25: NULL VALUE
 DFWT.                        :  DIST FWL TEXT
 DFST.                        :  DIST FSL TEXT
 DMF .             Drill Floor:  DRILL MEAS FROM
 STIM.      00.00.00 25-Sep-20:  START TIME
 DATE.      16.12.48 31-Jan-21:  END TIME
 SPUD.               20-Sep-20:  SPUD DATE
 NREF.                    Grid:  NORTH REFERENCE
 HPTY.       Minimum Curvature:  HOLE POS TYPE
 DMOD.             Drill Model:  DRILL MOD DESC
 SVYD.                  Survey:  SURVEY DESC
 ILTD.               Lithology:  INTERP LTH DESC
 FTOP.          Formation Tops:  FORM TOPS DESC
 RIG .              East Azeri:  RIG NAME
 PDAT.          Mean Sea Level:  PERMANENT DATUM
 FLD .                     ACG:  FIELD NAME
 SON .        AZ-XX-0906591820:  JOB NUMBER
 CTRY.              Azerbaijan:  COUNTRY NAME
 WELL.                     D37:  WELL NAME
 SRVC.     Turan Drilling & Engineering:  CONTRACTOR
 COMP.     BP Exploration (Caspian Sea) ltd.:  COMPANY
 WTYP.                Deviated:  WELL TYPE
 MDS .        Operator Entered:  MAG DATA SOURCE
 UWI .                     N/A:  UNIQUE WELL IDENTIFIER
 API .                     N/A:  API NUMBER
 BASE.              Azerbaijan:  LOGGING EQUIPMENT BASE LOCATION
 REGN.                   EESSA:  REGION
 PROV.                    Baku:  PROVINCE
 STAT.                    Baku:  STATE NAME
 MWDS.                    Baku:  MWD SHOP
 JOBN.        AZ-XX-0906591820:  JOB TICKET NUMB
 DOE .                     N/A:  DOE NUMBER
 DCON.         Sperry Drilling:  DIRECTNL CONTR
 UNIT.                     N/A:  LOGGING EQUIPMENT ID
 CNTY.                        :  COUNTY
 LOC .                        :  LOCATION
 LMF .             Drill Floor:  LOG MEASURED FROM
 TVDS.m                  43.60:  TVDSS CORRECTN
 LATI.deg                40.02:  LATITUDE
 LONG.deg                51.45:  LONGITUDE
 WHNS.m                  11.04:  WELL HEAD N/S
 WHEW.m                 -12.38:  WELL HEAD E/W
 UTMX.m              538763.98:  UTM X
 UTMY.m             4431880.20:  UTM Y
 DFWL.m                   0.00:  DISTANCE FWL
 DFSL.m                   0.00:  DISTANCE FSL
 SDEP.m                 300.00:  START DEPTH
 TDD .m                4900.01:  TOTAL DEPTH (DRILLER)
 VSDR.deg               185.64:  VERT SEC DIRECT
 GVFD.g                   1.00:  GRAVITY FIELD
 MFLD.nT              50301.00:  MAGNETIC FIELD
 MDIP.deg                59.46:  MAGNETIC DIP
 MDEC.deg                 6.43:  MAGNETIC DECL
 GRDC.deg                 0.29:  GRID CORRECTION
 AZTC.deg                 6.14:  AZM TOTAL CORR
 EPD .m                   0.00:  ELEVATION
 EGL .m                   0.00:  GROUND ELEVATION
 WDMS.m                 151.80:  WD ELEV
 APD .m                  43.60:  DEPTH ABOVE PD
 DEP .m                 571.69:  DEPTH
 AGAP.m                  43.60:  AIR GAP
 VSEW.m                 -12.38:  VERT SEC E/W
 VSNS.m                  11.04:  VERT SEC N/S
 EKB .m                  43.60:  KB ELEVATION
 EDF .m                  43.60:  DF ELEVATION
 TDL .m                 412.00:  TOTAL DEPTH (LOGGER)
 VSC .                       0:  VS TO CLOSURE
 MAGU.                 1849300:  MAGUTM CHECKSUM
~Parameter Information Block
#MNEM.UNIT       Value        Description
#---------     -----------    ---------------------------
 AV  .mps                 2.21:  Ann Velocity 
 AVMX.mps                 2.53:  Max Ann Veloc 
 AZIF.deg               144.83:  Azm, Final 
 BHAT.        Rotary Steerable:  BHA Type 
 BROT.°/30m              -0.52:  Build Rotating 
 BS  .in                  6.50:  Bit Size 
 BTPL.psig              209.00:  Bit Press Loss 
 CABU.                      No:  Customer Abuse 
 CGEO.        Ali Isfandiyarov:  Customer Geo 
 COMM.                     tðz:  Run Comments 1 
 TCS .hr                 61.31:  Time Ciculation Ended 
 CV  .mps                 4.66:  Crit Velocity 
 CVMX.mps                 5.02:  Max Crit Veloc 
 DD1 .          Fariz Nahmatov:  Direct Drillr 1 
 DD2 .            Musa Ahmadov:  Direct Drillr 2 
 DDSV.               Geo-Pilot:  DD Service 
 DEFF.%                 100.00:  % Det Eff 
 DLRX.°/30m               1.44:  Dogleg Rot Max 
 DLSO.°/30m               0.83:  Dogleg Oriented 
 DLSX.°/30m               1.44:  Dogleg Str Max 
 DRET.      08.30.00 30-Jan-21:  Drill End Time 
 DRST.      21.15.00 27-Jan-21:  Drill Start Tim 
 DTIM.hr                 37.28:  Time Drilling 
 EDEP.m                4867.01:  End Depth 
 ENG1.          Rasim Hashimov:  Engineer 1 
 ENG2.         Almaz Almadatov:  Engineer 2 
 ENG3.        Tamerlan Ahmadov:  Engineer 3 
 ETIM.      22.41.04 31-Jan-21:  End Time 
 FLOI.gpm               400.00:  Flow In 
 FLON.gpm               300.00:  Flow In Min 
 FLOS.cptm                0.00:  Fluid Loss 
 FLOX.gpm               400.00:  Flow In Max 
 HFLO.                      No:  High Flow 
 HPRE.                      No:  High Pressure 
 HTEM.                      No:  High Temp 
 HYDO.m                   1.80:  Hydro Offset 
 IFIN.deg                65.63:  Inc, Final 
 IMAX.deg                66.77:  Inc Max 
 IMIN.deg                65.61:  Inc Min 
 IMND.m                4612.67:  Inc Min Depth 
 IMXD.m                4811.63:  Inc Max Depth 
 JARR.                      No:  Jarring 
 LETM.      08.30.00 30-Jan-21:  Log End Time 
 LOST.hr                     0:  Lost Rig Time 
 LSTM.      21.15.00 27-Jan-21:  Log Start Time 
 MDCL.ppm             41000.00:  Mud Chlorides 
 MDES.     Inversion Oil/Synthetic:  Mud Desc 
 DFD .sg                  1.40:  Mud Density 
 MDMN.sg                  1.40:  Dens Mud Min 
 MDMX.sg                  1.40:  Dens Mud Max 
 MOIL.                      53:  Run Mud Oil % 
 MOWR.                   66:34:  Run Mud OWR 
 MSND.                     0.2:  Run Mud Sand % 
 MSOL.                    17.9:  Run Mud Solids% 
 DFV .spqt               77.00:  Mud Viscosity 
 MWOD.in                  4.75:  MWD Tool OD 
 MWSI.                      No:  Serv Intrp, MWD 
 OTIM.hr                110.38:  Time Operating 
 PCON.           Look Like New:  Pad Condition 
 PMAX.psia             5300.00:  Press Op, Max 
 PV  .cP                 57.00:  Mud PV 
 RUN .                    1200:  Run Number 
 ROPA.m/hr               13.00:  ROP Avg 
 ROPN.m/hr                9.00:  ROP Min 
 ROPX.m/hr               15.00:  ROP Max 
 RPMA.rpm               120.00:  RPM Surface Avg 
 RPMN.rpm               100.00:  RPM Surface Min 
 RPMX.rpm               135.00:  RPM Surface Max 
 RRUN.                    1200:  Rig Run Number 
 RTIM.hr                  2.65:  Time Reaming 
 SAZI.deg               145.04:  Azm, Start 
 SDEP.m                4455.01:  Start Depth 
 SIDD.                      No:  Serv Intrp, DD 
 SINC.deg                65.83:  Inc, Start 
 SPPA.psig             5037.00:  SPP Avg 
 SPPN.psig             4430.00:  SPP Min 
 SPPX.psig             5300.00:  SPP Max 
 STIM.      22.41.04 26-Jan-21:  Start Time 
 SVCS.                 DD, MWD:  Services 
 SVER.                    9.20:  Sperry Version 
 TDAT.m                 412.00:  Tot Depth Attmp 
 TDDF.                      No:  Trip for DD 
 TDLG.m                 412.00:  Tot Depth Loggd 
 TFF .                      No:  Trip for Fail 
 TQAA.f-kp               15.00:  Torque Abs Avg 
 TQAN.f-kp               12.00:  Torque Abs Min 
 TQAX.f-kp               17.00:  Torque Abs Max 
 TRRT.°/30m               1.18:  Turn Rotating 
 MRT .                     ADR:  Maximum Recorded Temperature 
 TTMX.degC               88.24:  Max Tool Temp 
 VS01.                90619458:  Virtual Str1 SN 
 VS02.                90519326:  Virtual Str2 SN 
 VS03.                90522176:  Virtual Str3 SN 
 VS04.                90512683:  Virtual Str4 SN 
 WBMN.klb                 1.00:  WOB Min 
 WITN.           Murad Giluyev:  Customer Rep 
 WITN.     Kamran Kemberlinski:  Customer Rep 2 
 WOBA.klb                 5.00:  WOB Avg 
 WOBX.klb                 9.00:  WOB Max 
 YP  .lhf2               41.00:  Yield Point 
~Curve Information Block
#MNEM.UNIT                 API CODE     Curve Description
#---------               -----------    ---------------------------
 TIME.HHMMSS            00 000 000 000:  GT Time & Date
 GTDEPTH.m              00 000 000 000:  GT Depth
 GTPQH.psia             00 000 000 000:  GT HR Quartz Pressure
 GTTQ.degC              00 000 000 000:  GT Quartz Temperature
 GTTN.NONE              00 000 000 000:  GT Test Number
 GTET.sec               00 000 000 000:  GT Elapsed Test Time
 GTTVD.m                00 000 000 000:  GT True Vertical Depth
#Other Information
#
#WARRANTY: Halliburton will use its best efforts to furnish customers with 
#accurate information and interpretations that are part of, and incident to, the services 
#provided.  However, Halliburton cannot and does not warrant the accuracy 
#or correctness of such information and interpretations.  Under no circumstances should any 
#such information or interpretation be relied upon as the sole basis for any drilling, 
#completion, production, or financial decision or any procedure involving any risk to the 
#safety of any drilling venture, drilling rig or its crew or any other third party.  The 
#Customer has full responsibility for all drilling, completion and production operation.  
#Halliburton makes no representations or warranties, either expressed or 
#implied, including, but not limited to, the implied warranties of merchantability or fitness 
#for a particular purpose, with respect to the services rendered.  In no event will 
#Halliburton be liable for failure to obtain any particular results or for 
#any damages, including, but not limited to, indirect, special or consequential damages, 
#resulting from the use of any information or interpretation provided by Halliburton.
#
~A           TIME           GTDEPTH  GTPQH  GTTQ  GTTN   GTET   GTTVD  
# ...
   18:30:19.249.29-Jan-2021 4752.01 3111.28 82.90 12.00 135.62 2606.49
   18:30:19.449.29-Jan-2021 4752.01 3111.25 82.90 12.00 135.82 2606.49
   18:30:19.649.29-Jan-2021 4752.01 3111.14 82.90 12.00 136.02 2606.49
   18:30:19.849.29-Jan-2021 4752.01 3111.14 82.90 12.00 136.22 2606.49
   18:30:20.049.29-Jan-2021 4752.01 3111.16 82.90 12.00 136.42 2606.49
   18:30:20.250.29-Jan-2021 4752.01 3111.16 82.90 12.00 136.62 2606.49
   18:30:20.450.29-Jan-2021 4752.01 3111.12 82.90 12.00 136.82 2606.49
   18:30:20.650.29-Jan-2021 4752.01 3111.23 82.90 12.00 137.02 2606.49
   18:30:20.850.29-Jan-2021 4752.01 3111.23 82.90 12.00 137.22 2606.49
   18:30:21.050.29-Jan-2021 4752.01 3111.27 82.90 12.00 137.42 2606.49
   18:30:21.250.29-Jan-2021 4752.01 3111.00 82.90 12.00 137.62 2606.49
   18:30:21.450.29-Jan-2021 4752.01 3111.31 82.89 12.00 137.82 2606.49
   18:30:21.650.29-Jan-2021 4752.01 3111.18 82.89 12.00 138.02 2606.49
   18:30:21.850.29-Jan-2021 4752.01 3111.18 82.89 12.00 138.22 2606.49
   18:30:22.050.29-Jan-2021 4752.01 3111.05 82.89 12.00 138.42 2606.49
   18:30:22.250.29-Jan-2021 4752.01 3111.32 82.89 12.00 138.62 2606.49
   18:30:22.450.29-Jan-2021 4752.01 3111.03 82.89 12.00 138.82 2606.49
   18:30:22.650.29-Jan-2021 4752.01 3111.11 82.89 12.00 139.02 2606.49
   18:30:22.850.29-Jan-2021 4752.01 3111.11 82.89 12.00 139.22 2606.49
   18:30:23.050.29-Jan-2021 4752.01 3111.28 82.89 12.00 139.42 2606.49
   18:30:23.250.29-Jan-2021 4752.01 3111.36 82.89 12.00 139.62 2606.49
   18:30:23.450.29-Jan-2021 4752.01 3111.21 82.89 12.00 139.82 2606.49
   18:30:23.650.29-Jan-2021 4752.01 3111.00 82.89 12.00 140.02 2606.49
   18:30:23.850.29-Jan-2021 4752.01 3111.00 82.89 12.00 140.22 2606.49
   18:30:24.050.29-Jan-2021 4752.01 3111.43 82.88 12.00 140.42 2606.49
   18:30:24.250.29-Jan-2021 4752.01 3111.37 82.88 12.00 140.62 2606.49
   18:30:24.450.29-Jan-2021 4752.01 3111.18 82.88 12.00 140.82 2606.49
   18:30:24.650.29-Jan-2021 4752.01 3110.99 82.88 12.00 141.02 2606.49
   18:30:24.850.29-Jan-2021 4752.01 3110.99 82.88 12.00 141.22 2606.49
   18:30:25.050.29-Jan-2021 4752.01 3111.35 82.88 12.00 141.42 2606.49
   18:30:25.250.29-Jan-2021 4752.01 3111.20 82.88 12.00 141.62 2606.49
   18:30:25.450.29-Jan-2021 4752.01 3111.12 82.88 12.00 141.82 2606.49
   18:30:25.650.29-Jan-2021 4752.01 3111.01 82.88 12.00 142.02 2606.49
   18:30:25.850.29-Jan-2021 4752.01 3111.01 82.88 12.00 142.22 2606.49
   18:30:26.050.29-Jan-2021 4752.01 3111.10 82.88 12.00 142.42 2606.49
   18:30:26.250.29-Jan-2021 4752.01 3111.12 82.88 12.00 142.62 2606.49
   18:30:26.450.29-Jan-2021 4752.01 3110.91 82.88 12.00 142.82 2606.49
   18:30:26.650.29-Jan-2021 4752.01 3111.20 82.88 12.00 143.02 2606.49
   18:30:26.850.29-Jan-2021 4752.01 3111.20 82.88 12.00 143.22 2606.49
   18:30:27.050.29-Jan-2021 4752.01 3125.30 82.87 12.00 143.42 2606.49
   18:30:27.250.29-Jan-2021 4752.01 3125.32 82.87 12.00 143.62 2606.49
   18:30:27.450.29-Jan-2021 4752.01 3125.36 82.87 12.00 143.82 2606.49
   18:30:27.650.29-Jan-2021 4752.01 3125.35 82.87 12.00 144.02 2606.49
   18:30:27.850.29-Jan-2021 4752.01 3125.35 82.87 12.00 144.22 2606.49
   18:30:28.050.29-Jan-2021 4752.01 3125.37 82.87 12.00 144.42 2606.49
   18:30:28.250.29-Jan-2021 4752.01 3125.40 82.87 12.00 144.62 2606.49
   18:30:28.450.29-Jan-2021 4752.01 3125.38 82.87 12.00 144.82 2606.49
   18:30:28.650.29-Jan-2021 4752.01 3125.40 82.87 12.00 145.02 2606.49
   18:30:28.851.29-Jan-2021 4752.01 3125.40 82.87 12.00 145.22 2606.49
   18:30:29.051.29-Jan-2021 4752.01 3125.41 82.87 12.00 145.42 2606.49
   18:30:29.251.29-Jan-2021 4752.01 3125.38 82.87 12.00 145.62 2606.49
   18:30:29.451.29-Jan-2021 4752.01 3125.46 82.86 12.00 145.82 2606.49
   18:30:29.651.29-Jan-2021 4752.01 3125.44 82.86 12.00 146.02 2606.49
   18:30:29.851.29-Jan-2021 4752.01 3125.44 82.86 12.00 146.22 2606.49
   18:30:30.051.29-Jan-2021 4752.01 3125.41 82.86 12.00 146.42 2606.49
   18:30:30.251.29-Jan-2021 4752.01 3125.44 82.86 12.00 146.62 2606.49
   18:30:30.451.29-Jan-2021 4752.01 3125.44 82.86 12.00 146.82 2606.49
   18:30:30.651.29-Jan-2021 4752.01 3125.43 82.86 12.00 147.02 2606.49
   18:30:30.851.29-Jan-2021 4752.01 3125.43 82.86 12.00 147.22 2606.49
   18:30:31.051.29-Jan-2021 4752.01 3125.44 82.86 12.00 147.42 2606.49
   18:30:31.251.29-Jan-2021 4752.01 3125.43 82.86 12.00 147.62 2606.49
   18:30:31.451.29-Jan-2021 4752.01 3125.44 82.86 12.00 147.82 2606.49
   18:30:31.651.29-Jan-2021 4752.01 3125.42 82.86 12.00 148.02 2606.49
   18:30:31.851.29-Jan-2021 4752.01 3125.42 82.86 12.00 148.22 2606.49
   18:30:32.051.29-Jan-2021 4752.01 3125.43 82.86 12.00 148.42 2606.49
   18:30:32.251.29-Jan-2021 4752.01 3125.43 82.85 12.00 148.62 2606.49
   18:30:32.451.29-Jan-2021 4752.01 3125.40 82.85 12.00 148.82 2606.49
   18:30:32.651.29-Jan-2021 4752.01 3125.47 82.85 12.00 149.02 2606.49
   18:30:32.851.29-Jan-2021 4752.01 3125.47 82.85 12.00 149.22 2606.49
   18:30:33.051.29-Jan-2021 4752.01 3125.44 82.85 12.00 149.42 2606.49
   18:30:33.251.29-Jan-2021 4752.01 3125.41 82.85 12.00 149.62 2606.49
   18:30:33.451.29-Jan-2021 4752.01 3125.47 82.85 12.00 149.82 2606.49
   18:30:33.651.29-Jan-2021 4752.01 3125.45 82.85 12.00 150.02 2606.49
   18:30:33.851.29-Jan-2021 4752.01 3125.45 82.85 12.00 150.22 2606.49
   18:30:34.051.29-Jan-2021 4752.01 3125.42 82.85 12.00 150.42 2606.49
   18:30:34.251.29-Jan-2021 4752.01 3125.41 82.85 12.00 150.62 2606.49
   18:30:34.451.29-Jan-2021 4752.01 3125.48 82.85 12.00 150.82 2606.49
   18:30:34.651.29-Jan-2021 4752.01 3125.47 82.85 12.00 151.02 2606.49
   18:30:34.851.29-Jan-2021 4752.01 3125.47 82.85 12.00 151.22 2606.49
   18:30:35.051.29-Jan-2021 4752.01 3125.42 82.84 12.00 151.42 2606.49
   18:30:35.251.29-Jan-2021 4752.01 3125.45 82.84 12.00 151.62 2606.49
   18:30:35.451.29-Jan-2021 4752.01 3125.46 82.84 12.00 151.82 2606.49
   18:30:35.651.29-Jan-2021 4752.01 3125.44 82.84 12.00 152.02 2606.49
   18:30:35.851.29-Jan-2021 4752.01 3125.44 82.84 12.00 152.22 2606.49
   18:30:36.051.29-Jan-2021 4752.01 3125.44 82.84 12.00 152.42 2606.49
   18:30:36.251.29-Jan-2021 4752.01 3125.44 82.84 12.00 152.62 2606.49
   18:30:36.451.29-Jan-2021 4752.01 3125.44 82.84 12.00 152.82 2606.49
   18:30:36.651.29-Jan-2021 4752.01 3125.42 82.84 12.00 153.02 2606.49
   18:30:36.851.29-Jan-2021 4752.01 3125.42 82.84 12.00 153.22 2606.49
   18:30:37.051.29-Jan-2021 4752.01 3125.43 82.84 12.00 153.42 2606.49
   18:30:37.252.29-Jan-2021 4752.01 3125.42 82.84 12.00 153.62 2606.49
   18:30:37.452.29-Jan-2021 4752.01 3125.43 82.84 12.00 153.82 2606.49
   18:30:37.652.29-Jan-2021 4752.01 3125.43 82.83 12.00 154.02 2606.49
   18:30:37.852.29-Jan-2021 4752.01 3125.43 82.83 12.00 154.22 2606.49
   18:30:38.052.29-Jan-2021 4752.01 3125.41 82.83 12.00 154.42 2606.49
   18:30:38.252.29-Jan-2021 4752.01 3125.42 82.83 12.00 154.62 2606.49
   18:30:38.452.29-Jan-2021 4752.01 3125.42 82.83 12.00 154.82 2606.49
   18:30:38.652.29-Jan-2021 4752.01 3125.43 82.83 12.00 155.02 2606.49
   18:30:38.852.29-Jan-2021 4752.01 3125.43 82.83 12.00 155.22 2606.49
   18:30:39.052.29-Jan-2021 4752.01 3125.42 82.83 12.00 155.42 2606.49
   18:30:39.252.29-Jan-2021 4752.01 3125.42 82.83 12.00 155.62 2606.49
   18:30:39.452.29-Jan-2021 4752.01 3125.42 82.83 12.00 155.82 2606.49
   18:30:39.652.29-Jan-2021 4752.01 3125.41 82.83 12.00 156.02 2606.49
   18:30:39.852.29-Jan-2021 4752.01 3125.41 82.83 12.00 156.22 2606.49
   18:30:40.052.29-Jan-2021 4752.01 3125.41 82.83 12.00 156.42 2606.49
   18:30:40.252.29-Jan-2021 4752.01 3125.43 82.82 12.00 156.62 2606.49
   18:30:40.452.29-Jan-2021 4752.01 3125.43 82.82 12.00 156.82 2606.49
   18:30:40.652.29-Jan-2021 4752.01 3125.43 82.82 12.00 157.02 2606.49
   18:30:40.852.29-Jan-2021 4752.01 3125.43 82.82 12.00 157.22 2606.49
   18:30:41.052.29-Jan-2021 4752.01 3125.43 82.82 12.00 157.42 2606.49
   18:30:41.252.29-Jan-2021 4752.01 3125.42 82.82 12.00 157.62 2606.49
   18:30:41.452.29-Jan-2021 4752.01 3125.43 82.82 12.00 157.82 2606.49
   18:30:41.652.29-Jan-2021 4752.01 3125.41 82.82 12.00 158.02 2606.49
