~Version Information
 VERS.                  2.0:   CWLS log ASCII Standard -VERSION 2.0
 WRAP.                   NO:   One line per depth step
~Well Information Block
#MNEM.UNIT     VALUE/NAME     DESCRIPTION
#---------     -----------    ---------------------------
 STRT.S             11:33:05 30-Jan-21: START TIME 11:33:05 30-Jan-21
 STOP.S             11:39:34 30-Jan-21: STOP TIME  11:39:34 30-Jan-21
 STEP.S                   0.00: STEP TIME
 NULL.                 -999.25: NULL VALUE
 DFWT.                        :  DIST FWL TEXT
 DFST.                        :  DIST FSL TEXT
 DMF .             Drill Floor:  DRILL MEAS FROM
 STIM.      00.00.00 25-Sep-20:  START TIME
 DATE.      16.12.48 31-Jan-21:  END TIME
 SPUD.               20-Sep-20:  SPUD DATE
 NREF.                    Grid:  NORTH REFERENCE
 HPTY.       Minimum Curvature:  HOLE POS TYPE
 DMOD.             Drill Model:  DRILL MOD DESC
 SVYD.                  Survey:  SURVEY DESC
 ILTD.               Lithology:  INTERP LTH DESC
 FTOP.          Formation Tops:  FORM TOPS DESC
 RIG .              East Azeri:  RIG NAME
 PDAT.          Mean Sea Level:  PERMANENT DATUM
 FLD .                     ACG:  FIELD NAME
 SON .        AZ-XX-0906591820:  JOB NUMBER
 CTRY.              Azerbaijan:  COUNTRY NAME
 WELL.                     D37:  WELL NAME
 SRVC.     Turan Drilling & Engineering:  CONTRACTOR
 COMP.     BP Exploration (Caspian Sea) ltd.:  COMPANY
 WTYP.                Deviated:  WELL TYPE
 MDS .        Operator Entered:  MAG DATA SOURCE
 UWI .                     N/A:  UNIQUE WELL IDENTIFIER
 API .                     N/A:  API NUMBER
 BASE.              Azerbaijan:  LOGGING EQUIPMENT BASE LOCATION
 REGN.                   EESSA:  REGION
 PROV.                    Baku:  PROVINCE
 STAT.                    Baku:  STATE NAME
 MWDS.                    Baku:  MWD SHOP
 JOBN.        AZ-XX-0906591820:  JOB TICKET NUMB
 DOE .                     N/A:  DOE NUMBER
 DCON.         Sperry Drilling:  DIRECTNL CONTR
 UNIT.                     N/A:  LOGGING EQUIPMENT ID
 CNTY.                        :  COUNTY
 LOC .                        :  LOCATION
 LMF .             Drill Floor:  LOG MEASURED FROM
 TVDS.m                  43.60:  TVDSS CORRECTN
 LATI.deg                40.02:  LATITUDE
 LONG.deg                51.45:  LONGITUDE
 WHNS.m                  11.04:  WELL HEAD N/S
 WHEW.m                 -12.38:  WELL HEAD E/W
 UTMX.m              538763.98:  UTM X
 UTMY.m             4431880.20:  UTM Y
 DFWL.m                   0.00:  DISTANCE FWL
 DFSL.m                   0.00:  DISTANCE FSL
 SDEP.m                 300.00:  START DEPTH
 TDD .m                4900.01:  TOTAL DEPTH (DRILLER)
 VSDR.deg               185.64:  VERT SEC DIRECT
 GVFD.g                   1.00:  GRAVITY FIELD
 MFLD.nT              50301.00:  MAGNETIC FIELD
 MDIP.deg                59.46:  MAGNETIC DIP
 MDEC.deg                 6.43:  MAGNETIC DECL
 GRDC.deg                 0.29:  GRID CORRECTION
 AZTC.deg                 6.14:  AZM TOTAL CORR
 EPD .m                   0.00:  ELEVATION
 EGL .m                   0.00:  GROUND ELEVATION
 WDMS.m                 151.80:  WD ELEV
 APD .m                  43.60:  DEPTH ABOVE PD
 DEP .m                 571.69:  DEPTH
 AGAP.m                  43.60:  AIR GAP
 VSEW.m                 -12.38:  VERT SEC E/W
 VSNS.m                  11.04:  VERT SEC N/S
 EKB .m                  43.60:  KB ELEVATION
 EDF .m                  43.60:  DF ELEVATION
 TDL .m                 412.00:  TOTAL DEPTH (LOGGER)
 VSC .                       0:  VS TO CLOSURE
 MAGU.                 1849300:  MAGUTM CHECKSUM
~Parameter Information Block
#MNEM.UNIT       Value        Description
#---------     -----------    ---------------------------
 AV  .mps                 2.21:  Ann Velocity 
 AVMX.mps                 2.53:  Max Ann Veloc 
 AZIF.deg               144.83:  Azm, Final 
 BHAT.        Rotary Steerable:  BHA Type 
 BROT.°/30m              -0.52:  Build Rotating 
 BS  .in                  6.50:  Bit Size 
 BTPL.psig              209.00:  Bit Press Loss 
 CABU.                      No:  Customer Abuse 
 CGEO.        Ali Isfandiyarov:  Customer Geo 
 COMM.                     <»c:  Run Comments 1 
 TCS .hr                 61.31:  Time Ciculation Ended 
 CV  .mps                 4.66:  Crit Velocity 
 CVMX.mps                 5.02:  Max Crit Veloc 
 DD1 .          Fariz Nahmatov:  Direct Drillr 1 
 DD2 .            Musa Ahmadov:  Direct Drillr 2 
 DDSV.               Geo-Pilot:  DD Service 
 DEFF.%                 100.00:  % Det Eff 
 DLRX.°/30m               1.44:  Dogleg Rot Max 
 DLSO.°/30m               0.83:  Dogleg Oriented 
 DLSX.°/30m               1.44:  Dogleg Str Max 
 DRET.      08.30.00 30-Jan-21:  Drill End Time 
 DRST.      21.15.00 27-Jan-21:  Drill Start Tim 
 DTIM.hr                 37.28:  Time Drilling 
 EDEP.m                4867.01:  End Depth 
 ENG1.          Rasim Hashimov:  Engineer 1 
 ENG2.         Almaz Almadatov:  Engineer 2 
 ENG3.        Tamerlan Ahmadov:  Engineer 3 
 ETIM.      22.41.04 31-Jan-21:  End Time 
 FLOI.gpm               400.00:  Flow In 
 FLON.gpm               300.00:  Flow In Min 
 FLOS.cptm                0.00:  Fluid Loss 
 FLOX.gpm               400.00:  Flow In Max 
 HFLO.                      No:  High Flow 
 HPRE.                      No:  High Pressure 
 HTEM.                      No:  High Temp 
 HYDO.m                   1.80:  Hydro Offset 
 IFIN.deg                65.63:  Inc, Final 
 IMAX.deg                66.77:  Inc Max 
 IMIN.deg                65.61:  Inc Min 
 IMND.m                4612.67:  Inc Min Depth 
 IMXD.m                4811.63:  Inc Max Depth 
 JARR.                      No:  Jarring 
 LETM.      08.30.00 30-Jan-21:  Log End Time 
 LOST.hr                     0:  Lost Rig Time 
 LSTM.      21.15.00 27-Jan-21:  Log Start Time 
 MDCL.ppm             41000.00:  Mud Chlorides 
 MDES.     Inversion Oil/Synthetic:  Mud Desc 
 DFD .sg                  1.40:  Mud Density 
 MDMN.sg                  1.40:  Dens Mud Min 
 MDMX.sg                  1.40:  Dens Mud Max 
 MOIL.                      53:  Run Mud Oil % 
 MOWR.                   66:34:  Run Mud OWR 
 MSND.                     0.2:  Run Mud Sand % 
 MSOL.                    17.9:  Run Mud Solids% 
 DFV .spqt               77.00:  Mud Viscosity 
 MWOD.in                  4.75:  MWD Tool OD 
 MWSI.                      No:  Serv Intrp, MWD 
 OTIM.hr                110.38:  Time Operating 
 PCON.           Look Like New:  Pad Condition 
 PMAX.psia             5300.00:  Press Op, Max 
 PV  .cP                 57.00:  Mud PV 
 RUN .                    1200:  Run Number 
 ROPA.m/hr               13.00:  ROP Avg 
 ROPN.m/hr                9.00:  ROP Min 
 ROPX.m/hr               15.00:  ROP Max 
 RPMA.rpm               120.00:  RPM Surface Avg 
 RPMN.rpm               100.00:  RPM Surface Min 
 RPMX.rpm               135.00:  RPM Surface Max 
 RRUN.                    1200:  Rig Run Number 
 RTIM.hr                  2.65:  Time Reaming 
 SAZI.deg               145.04:  Azm, Start 
 SDEP.m                4455.01:  Start Depth 
 SIDD.                      No:  Serv Intrp, DD 
 SINC.deg                65.83:  Inc, Start 
 SPPA.psig             5037.00:  SPP Avg 
 SPPN.psig             4430.00:  SPP Min 
 SPPX.psig             5300.00:  SPP Max 
 STIM.      22.41.04 26-Jan-21:  Start Time 
 SVCS.                 DD, MWD:  Services 
 SVER.                    9.20:  Sperry Version 
 TDAT.m                 412.00:  Tot Depth Attmp 
 TDDF.                      No:  Trip for DD 
 TDLG.m                 412.00:  Tot Depth Loggd 
 TFF .                      No:  Trip for Fail 
 TQAA.f-kp               15.00:  Torque Abs Avg 
 TQAN.f-kp               12.00:  Torque Abs Min 
 TQAX.f-kp               17.00:  Torque Abs Max 
 TRRT.°/30m               1.18:  Turn Rotating 
 MRT .                     ADR:  Maximum Recorded Temperature 
 TTMX.degC               88.24:  Max Tool Temp 
 VS01.                90619458:  Virtual Str1 SN 
 VS02.                90519326:  Virtual Str2 SN 
 VS03.                90522176:  Virtual Str3 SN 
 VS04.                90512683:  Virtual Str4 SN 
 WBMN.klb                 1.00:  WOB Min 
 WITN.           Murad Giluyev:  Customer Rep 
 WITN.     Kamran Kemberlinski:  Customer Rep 2 
 WOBA.klb                 5.00:  WOB Avg 
 WOBX.klb                 9.00:  WOB Max 
 YP  .lhf2               41.00:  Yield Point 
~Curve Information Block
#MNEM.UNIT                 API CODE     Curve Description
#---------               -----------    ---------------------------
 TIME.HHMMSS            00 000 000 000:  GT Time & Date
 GTDEPTH.m              00 000 000 000:  GT Depth
 GTPQH.psia             00 000 000 000:  GT HR Quartz Pressure
 GTTQ.degC              00 000 000 000:  GT Quartz Temperature
 GTTN.NONE              00 000 000 000:  GT Test Number
 GTET.sec               00 000 000 000:  GT Elapsed Test Time
 GTTVD.m                00 000 000 000:  GT True Vertical Depth
#Other Information
#
#WARRANTY: Halliburton will use its best efforts to furnish customers with 
#accurate information and interpretations that are part of, and incident to, the services 
#provided.  However, Halliburton cannot and does not warrant the accuracy 
#or correctness of such information and interpretations.  Under no circumstances should any 
#such information or interpretation be relied upon as the sole basis for any drilling, 
#completion, production, or financial decision or any procedure involving any risk to the 
#safety of any drilling venture, drilling rig or its crew or any other third party.  The 
#Customer has full responsibility for all drilling, completion and production operation.  
#Halliburton makes no representations or warranties, either expressed or 
#implied, including, but not limited to, the implied warranties of merchantability or fitness 
#for a particular purpose, with respect to the services rendered.  In no event will 
#Halliburton be liable for failure to obtain any particular results or for 
#any damages, including, but not limited to, indirect, special or consequential damages, 
#resulting from the use of any information or interpretation provided by Halliburton.
#
~A           TIME           GTDEPTH  GTPQH  GTTQ  GTTN   GTET   GTTVD  
# ...
   11:34:58.201.30-Jan-2021 4826.01 3154.55 84.74 18.00 113.02 2635.88
   11:34:58.401.30-Jan-2021 4826.01 3154.55 84.74 18.00 113.22 2635.88
   11:34:58.601.30-Jan-2021 4826.01 3154.57 84.74 18.00 113.42 2635.88
   11:34:58.801.30-Jan-2021 4826.01 3154.56 84.74 18.00 113.62 2635.88
   11:34:59.001.30-Jan-2021 4826.01 3154.56 84.74 18.00 113.82 2635.88
   11:34:59.201.30-Jan-2021 4826.01 3154.52 84.74 18.00 114.02 2635.88
   11:34:59.401.30-Jan-2021 4826.01 3154.52 84.74 18.00 114.22 2635.88
   11:34:59.601.30-Jan-2021 4826.01 3154.57 84.74 18.00 114.42 2635.88
   11:34:59.801.30-Jan-2021 4826.01 3154.56 84.74 18.00 114.62 2635.88
   11:35:00.001.30-Jan-2021 4826.01 3154.55 84.74 18.00 114.82 2635.88
   11:35:00.201.30-Jan-2021 4826.01 3154.55 84.74 18.00 115.02 2635.88
   11:35:00.401.30-Jan-2021 4826.01 3154.55 84.74 18.00 115.22 2635.88
   11:35:00.601.30-Jan-2021 4826.01 3154.56 84.73 18.00 115.42 2635.88
   11:35:00.801.30-Jan-2021 4826.01 3154.56 84.73 18.00 115.62 2635.88
   11:35:01.001.30-Jan-2021 4826.01 3154.54 84.73 18.00 115.82 2635.88
   11:35:01.201.30-Jan-2021 4826.01 3154.49 84.73 18.00 116.02 2635.88
   11:35:01.401.30-Jan-2021 4826.01 3154.49 84.73 18.00 116.22 2635.88
   11:35:01.601.30-Jan-2021 4826.01 3154.55 84.73 18.00 116.42 2635.88
   11:35:01.801.30-Jan-2021 4826.01 3154.53 84.73 18.00 116.62 2635.88
   11:35:02.001.30-Jan-2021 4826.01 3154.54 84.73 18.00 116.82 2635.88
   11:35:02.201.30-Jan-2021 4826.01 3154.53 84.73 18.00 117.02 2635.88
   11:35:02.401.30-Jan-2021 4826.01 3154.53 84.73 18.00 117.22 2635.88
   11:35:02.601.30-Jan-2021 4826.01 3154.57 84.73 18.00 117.42 2635.88
   11:35:02.801.30-Jan-2021 4826.01 3154.55 84.73 18.00 117.62 2635.88
   11:35:03.002.30-Jan-2021 4826.01 3154.53 84.73 18.00 117.82 2635.88
   11:35:03.202.30-Jan-2021 4826.01 3154.54 84.73 18.00 118.02 2635.88
   11:35:03.402.30-Jan-2021 4826.01 3154.54 84.73 18.00 118.22 2635.88
   11:35:03.602.30-Jan-2021 4826.01 3154.53 84.72 18.00 118.42 2635.88
   11:35:03.802.30-Jan-2021 4826.01 3154.54 84.72 18.00 118.62 2635.88
   11:35:04.002.30-Jan-2021 4826.01 3154.53 84.72 18.00 118.82 2635.88
   11:35:04.202.30-Jan-2021 4826.01 3154.53 84.72 18.00 119.02 2635.88
   11:35:04.402.30-Jan-2021 4826.01 3154.53 84.72 18.00 119.22 2635.88
   11:35:04.602.30-Jan-2021 4826.01 3154.53 84.72 18.00 119.42 2635.88
   11:35:04.802.30-Jan-2021 4826.01 3154.52 84.72 18.00 119.62 2635.88
   11:35:05.002.30-Jan-2021 4826.01 3154.53 84.72 18.00 119.82 2635.88
   11:35:05.202.30-Jan-2021 4826.01 3154.52 84.72 18.00 120.02 2635.88
   11:35:05.402.30-Jan-2021 4826.01 3154.52 84.72 18.00 120.22 2635.88
   11:35:05.602.30-Jan-2021 4826.01 3154.53 84.72 18.00 120.42 2635.88
   11:35:05.802.30-Jan-2021 4826.01 3154.53 84.72 18.00 120.62 2635.88
   11:35:06.002.30-Jan-2021 4826.01 3154.53 84.72 18.00 120.82 2635.88
   11:35:06.202.30-Jan-2021 4826.01 3154.52 84.72 18.00 121.02 2635.88
   11:35:06.402.30-Jan-2021 4826.01 3154.52 84.72 18.00 121.22 2635.88
   11:35:06.602.30-Jan-2021 4826.01 3154.53 84.71 18.00 121.42 2635.88
   11:35:06.802.30-Jan-2021 4826.01 3154.52 84.71 18.00 121.62 2635.88
   11:35:07.002.30-Jan-2021 4826.01 3154.52 84.71 18.00 121.82 2635.88
   11:35:07.202.30-Jan-2021 4826.01 3154.52 84.71 18.00 122.02 2635.88
   11:35:07.402.30-Jan-2021 4826.01 3154.52 84.71 18.00 122.22 2635.88
   11:35:07.602.30-Jan-2021 4826.01 3154.51 84.71 18.00 122.42 2635.88
   11:35:07.802.30-Jan-2021 4826.01 3154.51 84.71 18.00 122.62 2635.88
   11:35:08.002.30-Jan-2021 4826.01 3154.52 84.71 18.00 122.82 2635.88
   11:35:08.202.30-Jan-2021 4826.01 3154.50 84.71 18.00 123.02 2635.88
   11:35:08.402.30-Jan-2021 4826.01 3154.50 84.71 18.00 123.22 2635.88
   11:35:08.603.30-Jan-2021 4826.01 3154.49 84.71 18.00 123.42 2635.88
   11:35:08.803.30-Jan-2021 4826.01 3154.51 84.71 18.00 123.62 2635.88
   11:35:09.003.30-Jan-2021 4826.01 3154.51 84.71 18.00 123.82 2635.88
   11:35:09.203.30-Jan-2021 4826.01 3154.52 84.71 18.00 124.02 2635.88
   11:35:09.403.30-Jan-2021 4826.01 3154.52 84.71 18.00 124.22 2635.88
   11:35:09.603.30-Jan-2021 4826.01 3154.46 84.71 18.00 124.42 2635.88
   11:35:09.803.30-Jan-2021 4826.01 3154.53 84.70 18.00 124.62 2635.88
   11:35:10.003.30-Jan-2021 4826.01 3154.52 84.70 18.00 124.82 2635.88
   11:35:10.203.30-Jan-2021 4826.01 3154.49 84.70 18.00 125.02 2635.88
   11:35:10.403.30-Jan-2021 4826.01 3154.49 84.70 18.00 125.22 2635.88
   11:35:10.603.30-Jan-2021 4826.01 3154.50 84.70 18.00 125.42 2635.88
   11:35:10.803.30-Jan-2021 4826.01 3154.51 84.70 18.00 125.62 2635.88
   11:35:11.003.30-Jan-2021 4826.01 3154.51 84.70 18.00 125.82 2635.88
   11:35:11.203.30-Jan-2021 4826.01 3154.50 84.70 18.00 126.02 2635.88
   11:35:11.403.30-Jan-2021 4826.01 3154.50 84.70 18.00 126.22 2635.88
   11:35:11.603.30-Jan-2021 4826.01 3154.44 84.70 18.00 126.42 2635.88
   11:35:11.803.30-Jan-2021 4826.01 3154.56 84.70 18.00 126.62 2635.88
   11:35:12.003.30-Jan-2021 4826.01 3154.50 84.70 18.00 126.82 2635.88
   11:35:12.203.30-Jan-2021 4826.01 3154.49 84.70 18.00 127.02 2635.88
   11:35:12.403.30-Jan-2021 4826.01 3154.49 84.70 18.00 127.22 2635.88
   11:35:12.603.30-Jan-2021 4826.01 3154.49 84.70 18.00 127.42 2635.88
   11:35:12.803.30-Jan-2021 4826.01 3154.51 84.69 18.00 127.62 2635.88
   11:35:13.003.30-Jan-2021 4826.01 3154.50 84.69 18.00 127.82 2635.88
   11:35:13.203.30-Jan-2021 4826.01 3154.48 84.69 18.00 128.02 2635.88
   11:35:13.403.30-Jan-2021 4826.01 3154.48 84.69 18.00 128.22 2635.88
   11:35:13.603.30-Jan-2021 4826.01 3154.49 84.69 18.00 128.42 2635.88
   11:35:13.803.30-Jan-2021 4826.01 3154.50 84.69 18.00 128.62 2635.88
   11:35:14.003.30-Jan-2021 4826.01 3154.49 84.69 18.00 128.82 2635.88
   11:35:14.204.30-Jan-2021 4826.01 3154.48 84.69 18.00 129.02 2635.88
   11:35:14.404.30-Jan-2021 4826.01 3154.48 84.69 18.00 129.22 2635.88
   11:35:14.604.30-Jan-2021 4826.01 3154.48 84.69 18.00 129.42 2635.88
   11:35:14.804.30-Jan-2021 4826.01 3154.49 84.69 18.00 129.62 2635.88
   11:35:15.004.30-Jan-2021 4826.01 3154.47 84.69 18.00 129.82 2635.88
   11:35:15.204.30-Jan-2021 4826.01 3154.48 84.69 18.00 130.02 2635.88
   11:35:15.404.30-Jan-2021 4826.01 3154.48 84.69 18.00 130.22 2635.88
   11:35:15.604.30-Jan-2021 4826.01 3154.48 84.69 18.00 130.42 2635.88
   11:35:15.804.30-Jan-2021 4826.01 3154.46 84.69 18.00 130.62 2635.88
   11:35:16.004.30-Jan-2021 4826.01 3154.47 84.68 18.00 130.82 2635.88
   11:35:16.204.30-Jan-2021 4826.01 3154.47 84.68 18.00 131.02 2635.88
   11:35:16.404.30-Jan-2021 4826.01 3154.47 84.68 18.00 131.22 2635.88
   11:35:16.604.30-Jan-2021 4826.01 3130.54 84.68 18.00 131.42 2635.88
   11:35:16.804.30-Jan-2021 4826.01 3130.37 84.68 18.00 131.62 2635.88
   11:35:17.004.30-Jan-2021 4826.01 3130.42 84.68 18.00 131.82 2635.88
   11:35:17.204.30-Jan-2021 4826.01 3130.29 84.68 18.00 132.02 2635.88
   11:35:17.404.30-Jan-2021 4826.01 3130.29 84.68 18.00 132.22 2635.88
   11:35:17.604.30-Jan-2021 4826.01 3130.32 84.68 18.00 132.42 2635.88
   11:35:17.804.30-Jan-2021 4826.01 3130.21 84.68 18.00 132.62 2635.88
   11:35:18.004.30-Jan-2021 4826.01 3130.31 84.68 18.00 132.82 2635.88
   11:35:18.204.30-Jan-2021 4826.01 3130.13 84.68 18.00 133.02 2635.88
   11:35:18.404.30-Jan-2021 4826.01 3130.13 84.68 18.00 133.22 2635.88
   11:35:18.604.30-Jan-2021 4826.01 3130.12 84.68 18.00 133.42 2635.88
   11:35:18.804.30-Jan-2021 4826.01 3130.14 84.68 18.00 133.62 2635.88
   11:35:19.004.30-Jan-2021 4826.01 3130.13 84.68 18.00 133.82 2635.88
   11:35:19.204.30-Jan-2021 4826.01 3130.25 84.67 18.00 134.02 2635.88
   11:35:19.404.30-Jan-2021 4826.01 3130.25 84.67 18.00 134.22 2635.88
   11:35:19.604.30-Jan-2021 4826.01 3130.13 84.67 18.00 134.42 2635.88
   11:35:19.805.30-Jan-2021 4826.01 3130.29 84.67 18.00 134.62 2635.88
   11:35:20.005.30-Jan-2021 4826.01 3129.90 84.67 18.00 134.82 2635.88
   11:35:20.205.30-Jan-2021 4826.01 3130.48 84.67 18.00 135.02 2635.88
   11:35:20.405.30-Jan-2021 4826.01 3130.48 84.67 18.00 135.22 2635.88
   11:35:20.605.30-Jan-2021 4826.01 3129.92 84.67 18.00 135.42 2635.88
