~Version Information
 VERS.                  2.0:   CWLS log ASCII Standard -VERSION 2.0
 WRAP.                   NO:   One line per depth step
~Well Information Block
#MNEM.UNIT     VALUE/NAME     DESCRIPTION
#---------     -----------    ---------------------------
 STRT.S             01:29:12 30-Jan-21: START TIME 01:29:12 30-Jan-21
 STOP.S             01:35:33 30-Jan-21: STOP TIME  01:35:33 30-Jan-21
 STEP.S                   0.00: STEP TIME
 NULL.                 -999.25: NULL VALUE
 DFWT.                        :  DIST FWL TEXT
 DFST.                        :  DIST FSL TEXT
 DMF .             Drill Floor:  DRILL MEAS FROM
 STIM.      00.00.00 25-Sep-20:  START TIME
 DATE.      16.12.48 31-Jan-21:  END TIME
 SPUD.               20-Sep-20:  SPUD DATE
 NREF.                    Grid:  NORTH REFERENCE
 HPTY.       Minimum Curvature:  HOLE POS TYPE
 DMOD.             Drill Model:  DRILL MOD DESC
 SVYD.                  Survey:  SURVEY DESC
 ILTD.               Lithology:  INTERP LTH DESC
 FTOP.          Formation Tops:  FORM TOPS DESC
 RIG .              East Azeri:  RIG NAME
 PDAT.          Mean Sea Level:  PERMANENT DATUM
 FLD .                     ACG:  FIELD NAME
 SON .        AZ-XX-0906591820:  JOB NUMBER
 CTRY.              Azerbaijan:  COUNTRY NAME
 WELL.                     D37:  WELL NAME
 SRVC.     Turan Drilling & Engineering:  CONTRACTOR
 COMP.     BP Exploration (Caspian Sea) ltd.:  COMPANY
 WTYP.                Deviated:  WELL TYPE
 MDS .        Operator Entered:  MAG DATA SOURCE
 UWI .                     N/A:  UNIQUE WELL IDENTIFIER
 API .                     N/A:  API NUMBER
 BASE.              Azerbaijan:  LOGGING EQUIPMENT BASE LOCATION
 REGN.                   EESSA:  REGION
 PROV.                    Baku:  PROVINCE
 STAT.                    Baku:  STATE NAME
 MWDS.                    Baku:  MWD SHOP
 JOBN.        AZ-XX-0906591820:  JOB TICKET NUMB
 DOE .                     N/A:  DOE NUMBER
 DCON.         Sperry Drilling:  DIRECTNL CONTR
 UNIT.                     N/A:  LOGGING EQUIPMENT ID
 CNTY.                        :  COUNTY
 LOC .                        :  LOCATION
 LMF .             Drill Floor:  LOG MEASURED FROM
 TVDS.m                  43.60:  TVDSS CORRECTN
 LATI.deg                40.02:  LATITUDE
 LONG.deg                51.45:  LONGITUDE
 WHNS.m                  11.04:  WELL HEAD N/S
 WHEW.m                 -12.38:  WELL HEAD E/W
 UTMX.m              538763.98:  UTM X
 UTMY.m             4431880.20:  UTM Y
 DFWL.m                   0.00:  DISTANCE FWL
 DFSL.m                   0.00:  DISTANCE FSL
 SDEP.m                 300.00:  START DEPTH
 TDD .m                4900.01:  TOTAL DEPTH (DRILLER)
 VSDR.deg               185.64:  VERT SEC DIRECT
 GVFD.g                   1.00:  GRAVITY FIELD
 MFLD.nT              50301.00:  MAGNETIC FIELD
 MDIP.deg                59.46:  MAGNETIC DIP
 MDEC.deg                 6.43:  MAGNETIC DECL
 GRDC.deg                 0.29:  GRID CORRECTION
 AZTC.deg                 6.14:  AZM TOTAL CORR
 EPD .m                   0.00:  ELEVATION
 EGL .m                   0.00:  GROUND ELEVATION
 WDMS.m                 151.80:  WD ELEV
 APD .m                  43.60:  DEPTH ABOVE PD
 DEP .m                 571.69:  DEPTH
 AGAP.m                  43.60:  AIR GAP
 VSEW.m                 -12.38:  VERT SEC E/W
 VSNS.m                  11.04:  VERT SEC N/S
 EKB .m                  43.60:  KB ELEVATION
 EDF .m                  43.60:  DF ELEVATION
 TDL .m                 412.00:  TOTAL DEPTH (LOGGER)
 VSC .                       0:  VS TO CLOSURE
 MAGU.                 1849300:  MAGUTM CHECKSUM
~Parameter Information Block
#MNEM.UNIT       Value        Description
#---------     -----------    ---------------------------
 AV  .mps                 2.21:  Ann Velocity 
 AVMX.mps                 2.53:  Max Ann Veloc 
 AZIF.deg               144.83:  Azm, Final 
 BHAT.        Rotary Steerable:  BHA Type 
 BROT.°/30m              -0.52:  Build Rotating 
 BS  .in                  6.50:  Bit Size 
 BTPL.psig              209.00:  Bit Press Loss 
 CABU.                      No:  Customer Abuse 
 CGEO.        Ali Isfandiyarov:  Customer Geo 
 COMM.                     5j:  Run Comments 1 
 TCS .hr                 61.31:  Time Ciculation Ended 
 CV  .mps                 4.66:  Crit Velocity 
 CVMX.mps                 5.02:  Max Crit Veloc 
 DD1 .          Fariz Nahmatov:  Direct Drillr 1 
 DD2 .            Musa Ahmadov:  Direct Drillr 2 
 DDSV.               Geo-Pilot:  DD Service 
 DEFF.%                 100.00:  % Det Eff 
 DLRX.°/30m               1.44:  Dogleg Rot Max 
 DLSO.°/30m               0.83:  Dogleg Oriented 
 DLSX.°/30m               1.44:  Dogleg Str Max 
 DRET.      08.30.00 30-Jan-21:  Drill End Time 
 DRST.      21.15.00 27-Jan-21:  Drill Start Tim 
 DTIM.hr                 37.28:  Time Drilling 
 EDEP.m                4867.01:  End Depth 
 ENG1.          Rasim Hashimov:  Engineer 1 
 ENG2.         Almaz Almadatov:  Engineer 2 
 ENG3.        Tamerlan Ahmadov:  Engineer 3 
 ETIM.      22.41.04 31-Jan-21:  End Time 
 FLOI.gpm               400.00:  Flow In 
 FLON.gpm               300.00:  Flow In Min 
 FLOS.cptm                0.00:  Fluid Loss 
 FLOX.gpm               400.00:  Flow In Max 
 HFLO.                      No:  High Flow 
 HPRE.                      No:  High Pressure 
 HTEM.                      No:  High Temp 
 HYDO.m                   1.80:  Hydro Offset 
 IFIN.deg                65.63:  Inc, Final 
 IMAX.deg                66.77:  Inc Max 
 IMIN.deg                65.61:  Inc Min 
 IMND.m                4612.67:  Inc Min Depth 
 IMXD.m                4811.63:  Inc Max Depth 
 JARR.                      No:  Jarring 
 LETM.      08.30.00 30-Jan-21:  Log End Time 
 LOST.hr                     0:  Lost Rig Time 
 LSTM.      21.15.00 27-Jan-21:  Log Start Time 
 MDCL.ppm             41000.00:  Mud Chlorides 
 MDES.     Inversion Oil/Synthetic:  Mud Desc 
 DFD .sg                  1.40:  Mud Density 
 MDMN.sg                  1.40:  Dens Mud Min 
 MDMX.sg                  1.40:  Dens Mud Max 
 MOIL.                      53:  Run Mud Oil % 
 MOWR.                   66:34:  Run Mud OWR 
 MSND.                     0.2:  Run Mud Sand % 
 MSOL.                    17.9:  Run Mud Solids% 
 DFV .spqt               77.00:  Mud Viscosity 
 MWOD.in                  4.75:  MWD Tool OD 
 MWSI.                      No:  Serv Intrp, MWD 
 OTIM.hr                110.38:  Time Operating 
 PCON.           Look Like New:  Pad Condition 
 PMAX.psia             5300.00:  Press Op, Max 
 PV  .cP                 57.00:  Mud PV 
 RUN .                    1200:  Run Number 
 ROPA.m/hr               13.00:  ROP Avg 
 ROPN.m/hr                9.00:  ROP Min 
 ROPX.m/hr               15.00:  ROP Max 
 RPMA.rpm               120.00:  RPM Surface Avg 
 RPMN.rpm               100.00:  RPM Surface Min 
 RPMX.rpm               135.00:  RPM Surface Max 
 RRUN.                    1200:  Rig Run Number 
 RTIM.hr                  2.65:  Time Reaming 
 SAZI.deg               145.04:  Azm, Start 
 SDEP.m                4455.01:  Start Depth 
 SIDD.                      No:  Serv Intrp, DD 
 SINC.deg                65.83:  Inc, Start 
 SPPA.psig             5037.00:  SPP Avg 
 SPPN.psig             4430.00:  SPP Min 
 SPPX.psig             5300.00:  SPP Max 
 STIM.      22.41.04 26-Jan-21:  Start Time 
 SVCS.                 DD, MWD:  Services 
 SVER.                    9.20:  Sperry Version 
 TDAT.m                 412.00:  Tot Depth Attmp 
 TDDF.                      No:  Trip for DD 
 TDLG.m                 412.00:  Tot Depth Loggd 
 TFF .                      No:  Trip for Fail 
 TQAA.f-kp               15.00:  Torque Abs Avg 
 TQAN.f-kp               12.00:  Torque Abs Min 
 TQAX.f-kp               17.00:  Torque Abs Max 
 TRRT.°/30m               1.18:  Turn Rotating 
 MRT .                     ADR:  Maximum Recorded Temperature 
 TTMX.degC               88.24:  Max Tool Temp 
 VS01.                90619458:  Virtual Str1 SN 
 VS02.                90519326:  Virtual Str2 SN 
 VS03.                90522176:  Virtual Str3 SN 
 VS04.                90512683:  Virtual Str4 SN 
 WBMN.klb                 1.00:  WOB Min 
 WITN.           Murad Giluyev:  Customer Rep 
 WITN.     Kamran Kemberlinski:  Customer Rep 2 
 WOBA.klb                 5.00:  WOB Avg 
 WOBX.klb                 9.00:  WOB Max 
 YP  .lhf2               41.00:  Yield Point 
~Curve Information Block
#MNEM.UNIT                 API CODE     Curve Description
#---------               -----------    ---------------------------
 TIME.HHMMSS            00 000 000 000:  GT Time & Date
 GTDEPTH.m              00 000 000 000:  GT Depth
 GTPQH.psia             00 000 000 000:  GT HR Quartz Pressure
 GTTQ.degC              00 000 000 000:  GT Quartz Temperature
 GTTN.NONE              00 000 000 000:  GT Test Number
 GTET.sec               00 000 000 000:  GT Elapsed Test Time
 GTTVD.m                00 000 000 000:  GT True Vertical Depth
#Other Information
#
#WARRANTY: Halliburton will use its best efforts to furnish customers with 
#accurate information and interpretations that are part of, and incident to, the services 
#provided.  However, Halliburton cannot and does not warrant the accuracy 
#or correctness of such information and interpretations.  Under no circumstances should any 
#such information or interpretation be relied upon as the sole basis for any drilling, 
#completion, production, or financial decision or any procedure involving any risk to the 
#safety of any drilling venture, drilling rig or its crew or any other third party.  The 
#Customer has full responsibility for all drilling, completion and production operation.  
#Halliburton makes no representations or warranties, either expressed or 
#implied, including, but not limited to, the implied warranties of merchantability or fitness 
#for a particular purpose, with respect to the services rendered.  In no event will 
#Halliburton be liable for failure to obtain any particular results or for 
#any damages, including, but not limited to, indirect, special or consequential damages, 
#resulting from the use of any information or interpretation provided by Halliburton.
#
~A           TIME           GTDEPTH  GTPQH  GTTQ  GTTN   GTET   GTTVD  
# ...
   01:31:28.264.30-Jan-2021 4789.01   53.21 82.04 15.00 135.63 2621.19
   01:31:28.464.30-Jan-2021 4789.01   52.16 82.04 15.00 135.83 2621.19
   01:31:28.664.30-Jan-2021 4789.01   51.14 82.04 15.00 136.03 2621.19
   01:31:28.864.30-Jan-2021 4789.01   51.14 82.04 15.00 136.23 2621.19
   01:31:29.064.30-Jan-2021 4789.01   49.22 82.04 15.00 136.43 2621.19
   01:31:29.264.30-Jan-2021 4789.01   48.28 82.04 15.00 136.63 2621.19
   01:31:29.464.30-Jan-2021 4789.01   47.46 82.04 15.00 136.83 2621.19
   01:31:29.664.30-Jan-2021 4789.01   46.66 82.04 15.00 137.03 2621.19
   01:31:29.864.30-Jan-2021 4789.01   46.66 82.04 15.00 137.23 2621.19
   01:31:30.064.30-Jan-2021 4789.01   45.12 82.04 15.00 137.43 2621.19
   01:31:30.264.30-Jan-2021 4789.01   44.38 82.04 15.00 137.63 2621.19
   01:31:30.464.30-Jan-2021 4789.01   43.71 82.04 15.00 137.83 2621.19
   01:31:30.664.30-Jan-2021 4789.01   43.12 82.04 15.00 138.03 2621.19
   01:31:30.864.30-Jan-2021 4789.01   43.12 82.04 15.00 138.23 2621.19
   01:31:31.064.30-Jan-2021 4789.01   41.99 82.03 15.00 138.43 2621.19
   01:31:31.264.30-Jan-2021 4789.01   41.45 82.03 15.00 138.63 2621.19
   01:31:31.464.30-Jan-2021 4789.01   40.99 82.03 15.00 138.83 2621.19
   01:31:31.664.30-Jan-2021 4789.01   40.52 82.03 15.00 139.03 2621.19
   01:31:31.864.30-Jan-2021 4789.01   40.52 82.03 15.00 139.23 2621.19
   01:31:32.064.30-Jan-2021 4789.01   39.50 82.03 15.00 139.43 2621.19
   01:31:32.264.30-Jan-2021 4789.01   39.04 82.03 15.00 139.63 2621.19
   01:31:32.464.30-Jan-2021 4789.01   38.61 82.03 15.00 139.83 2621.19
   01:31:32.664.30-Jan-2021 4789.01   38.20 82.03 15.00 140.03 2621.19
   01:31:32.864.30-Jan-2021 4789.01   38.20 82.03 15.00 140.23 2621.19
   01:31:33.064.30-Jan-2021 4789.01   37.36 82.03 15.00 140.43 2621.19
   01:31:33.264.30-Jan-2021 4789.01   37.01 82.03 15.00 140.63 2621.19
   01:31:33.465.30-Jan-2021 4789.01   36.65 82.03 15.00 140.83 2621.19
   01:31:33.665.30-Jan-2021 4789.01   36.31 82.03 15.00 141.03 2621.19
   01:31:33.865.30-Jan-2021 4789.01   36.31 82.03 15.00 141.23 2621.19
   01:31:34.065.30-Jan-2021 4789.01   35.57 82.03 15.00 141.43 2621.19
   01:31:34.265.30-Jan-2021 4789.01   35.23 82.03 15.00 141.63 2621.19
   01:31:34.465.30-Jan-2021 4789.01   34.77 82.03 15.00 141.83 2621.19
   01:31:34.665.30-Jan-2021 4789.01   34.35 82.03 15.00 142.03 2621.19
   01:31:34.865.30-Jan-2021 4789.01   34.35 82.03 15.00 142.23 2621.19
   01:31:35.065.30-Jan-2021 4789.01   33.64 82.02 15.00 142.43 2621.19
   01:31:35.265.30-Jan-2021 4789.01   33.29 82.02 15.00 142.63 2621.19
   01:31:35.465.30-Jan-2021 4789.01   33.02 82.02 15.00 142.83 2621.19
   01:31:35.665.30-Jan-2021 4789.01   32.77 82.02 15.00 143.03 2621.19
   01:31:35.865.30-Jan-2021 4789.01   32.77 82.02 15.00 143.23 2621.19
   01:31:36.065.30-Jan-2021 4789.01   32.42 82.02 15.00 143.43 2621.19
   01:31:36.265.30-Jan-2021 4789.01   32.40 82.02 15.00 143.63 2621.19
   01:31:36.465.30-Jan-2021 4789.01   32.43 82.02 15.00 143.83 2621.19
   01:31:36.665.30-Jan-2021 4789.01   32.47 82.02 15.00 144.03 2621.19
   01:31:36.865.30-Jan-2021 4789.01   32.47 82.02 15.00 144.23 2621.19
   01:31:37.065.30-Jan-2021 4789.01   32.55 82.02 15.00 144.43 2621.19
   01:31:37.265.30-Jan-2021 4789.01   32.58 82.02 15.00 144.63 2621.19
   01:31:37.465.30-Jan-2021 4789.01   32.61 82.02 15.00 144.83 2621.19
   01:31:37.665.30-Jan-2021 4789.01   32.65 82.02 15.00 145.03 2621.19
   01:31:37.865.30-Jan-2021 4789.01   32.65 82.02 15.00 145.23 2621.19
   01:31:38.065.30-Jan-2021 4789.01   32.71 82.02 15.00 145.43 2621.19
   01:31:38.265.30-Jan-2021 4789.01   32.74 82.02 15.00 145.63 2621.19
   01:31:38.465.30-Jan-2021 4789.01   32.77 82.02 15.00 145.83 2621.19
   01:31:38.666.30-Jan-2021 4789.01   32.80 82.02 15.00 146.03 2621.19
   01:31:38.866.30-Jan-2021 4789.01   32.80 82.02 15.00 146.23 2621.19
   01:31:39.066.30-Jan-2021 4789.01   32.86 82.02 15.00 146.43 2621.19
   01:31:39.266.30-Jan-2021 4789.01   32.88 82.01 15.00 146.63 2621.19
   01:31:39.466.30-Jan-2021 4789.01   32.92 82.01 15.00 146.83 2621.19
   01:31:39.666.30-Jan-2021 4789.01   32.94 82.01 15.00 147.03 2621.19
   01:31:39.866.30-Jan-2021 4789.01   32.94 82.01 15.00 147.23 2621.19
   01:31:40.066.30-Jan-2021 4789.01   32.99 82.01 15.00 147.43 2621.19
   01:31:40.266.30-Jan-2021 4789.01   33.03 82.01 15.00 147.63 2621.19
   01:31:40.466.30-Jan-2021 4789.01   33.06 82.01 15.00 147.83 2621.19
   01:31:40.666.30-Jan-2021 4789.01   33.08 82.01 15.00 148.03 2621.19
   01:31:40.866.30-Jan-2021 4789.01   33.08 82.01 15.00 148.23 2621.19
   01:31:41.066.30-Jan-2021 4789.01   33.14 82.01 15.00 148.43 2621.19
   01:31:41.266.30-Jan-2021 4789.01   33.17 82.01 15.00 148.63 2621.19
   01:31:41.466.30-Jan-2021 4789.01   33.19 82.01 15.00 148.83 2621.19
   01:31:41.666.30-Jan-2021 4789.01   33.22 82.01 15.00 149.03 2621.19
   01:31:41.866.30-Jan-2021 4789.01   33.22 82.01 15.00 149.23 2621.19
   01:31:42.066.30-Jan-2021 4789.01   33.27 82.01 15.00 149.43 2621.19
   01:31:42.266.30-Jan-2021 4789.01   33.30 82.01 15.00 149.63 2621.19
   01:31:42.466.30-Jan-2021 4789.01   33.33 82.01 15.00 149.83 2621.19
   01:31:42.666.30-Jan-2021 4789.01   33.35 82.01 15.00 150.03 2621.19
   01:31:42.866.30-Jan-2021 4789.01   33.35 82.01 15.00 150.23 2621.19
   01:31:43.066.30-Jan-2021 4789.01   33.39 82.01 15.00 150.43 2621.19
   01:31:43.266.30-Jan-2021 4789.01   33.42 82.01 15.00 150.63 2621.19
   01:31:43.466.30-Jan-2021 4789.01   33.45 82.00 15.00 150.83 2621.19
   01:31:43.666.30-Jan-2021 4789.01   33.46 82.00 15.00 151.03 2621.19
   01:31:43.867.30-Jan-2021 4789.01   33.46 82.00 15.00 151.23 2621.19
   01:31:44.067.30-Jan-2021 4789.01   33.52 82.00 15.00 151.43 2621.19
   01:31:44.267.30-Jan-2021 4789.01   33.53 82.00 15.00 151.63 2621.19
   01:31:44.467.30-Jan-2021 4789.01   33.55 82.00 15.00 151.83 2621.19
   01:31:44.667.30-Jan-2021 4789.01   33.58 82.00 15.00 152.03 2621.19
   01:31:44.867.30-Jan-2021 4789.01   33.58 82.00 15.00 152.23 2621.19
   01:31:45.067.30-Jan-2021 4789.01   33.62 82.00 15.00 152.43 2621.19
   01:31:45.267.30-Jan-2021 4789.01   33.64 82.00 15.00 152.63 2621.19
   01:31:45.467.30-Jan-2021 4789.01   33.67 82.00 15.00 152.83 2621.19
   01:31:45.667.30-Jan-2021 4789.01   33.68 82.00 15.00 153.03 2621.19
   01:31:45.867.30-Jan-2021 4789.01   33.68 82.00 15.00 153.23 2621.19
   01:31:46.067.30-Jan-2021 4789.01   33.72 82.00 15.00 153.43 2621.19
   01:31:46.267.30-Jan-2021 4789.01   33.75 82.00 15.00 153.63 2621.19
   01:31:46.467.30-Jan-2021 4789.01   33.76 82.00 15.00 153.83 2621.19
   01:31:46.667.30-Jan-2021 4789.01   33.79 82.00 15.00 154.03 2621.19
   01:31:46.867.30-Jan-2021 4789.01   33.79 82.00 15.00 154.23 2621.19
   01:31:47.067.30-Jan-2021 4789.01   33.83 82.00 15.00 154.43 2621.19
   01:31:47.267.30-Jan-2021 4789.01   33.85 82.00 15.00 154.63 2621.19
   01:31:47.467.30-Jan-2021 4789.01   33.87 82.00 15.00 154.83 2621.19
   01:31:47.667.30-Jan-2021 4789.01   33.89 82.00 15.00 155.03 2621.19
   01:31:47.867.30-Jan-2021 4789.01   33.89 82.00 15.00 155.23 2621.19
   01:31:48.067.30-Jan-2021 4789.01   33.89 82.00 15.00 155.43 2621.19
   01:31:48.267.30-Jan-2021 4789.01   33.89 82.00 15.00 155.63 2621.19
   01:31:48.467.30-Jan-2021 4789.01   33.96 81.99 15.00 155.83 2621.19
   01:31:48.667.30-Jan-2021 4789.01   33.98 81.99 15.00 156.03 2621.19
   01:31:48.867.30-Jan-2021 4789.01   33.98 81.99 15.00 156.23 2621.19
   01:31:49.068.30-Jan-2021 4789.01   34.02 81.99 15.00 156.43 2621.19
   01:31:49.268.30-Jan-2021 4789.01   34.03 81.99 15.00 156.63 2621.19
   01:31:49.468.30-Jan-2021 4789.01   34.05 81.99 15.00 156.83 2621.19
   01:31:49.668.30-Jan-2021 4789.01   34.08 81.99 15.00 157.03 2621.19
   01:31:49.868.30-Jan-2021 4789.01   34.08 81.99 15.00 157.23 2621.19
   01:31:50.068.30-Jan-2021 4789.01   34.10 81.99 15.00 157.43 2621.19
   01:31:50.268.30-Jan-2021 4789.01   34.13 81.99 15.00 157.63 2621.19
   01:31:50.468.30-Jan-2021 4789.01   34.14 81.99 15.00 157.83 2621.19
   01:31:50.668.30-Jan-2021 4789.01   34.16 81.99 15.00 158.03 2621.19
