~Version Information
 VERS.                  2.0:   CWLS log ASCII Standard -VERSION 2.0
 WRAP.                   NO:   One line per depth step
~Well Information Block
#MNEM.UNIT     VALUE/NAME     DESCRIPTION
#---------     -----------    ---------------------------
 STRT.S             13:18:38 29-Jan-21: START TIME 13:18:38 29-Jan-21
 STOP.S             13:25:08 29-Jan-21: STOP TIME  13:25:08 29-Jan-21
 STEP.S                   0.00: STEP TIME
 NULL.                 -999.25: NULL VALUE
 DFWT.                        :  DIST FWL TEXT
 DFST.                        :  DIST FSL TEXT
 DMF .             Drill Floor:  DRILL MEAS FROM
 STIM.      00.00.00 25-Sep-20:  START TIME
 DATE.      16.12.48 31-Jan-21:  END TIME
 SPUD.               20-Sep-20:  SPUD DATE
 NREF.                    Grid:  NORTH REFERENCE
 HPTY.       Minimum Curvature:  HOLE POS TYPE
 DMOD.             Drill Model:  DRILL MOD DESC
 SVYD.                  Survey:  SURVEY DESC
 ILTD.               Lithology:  INTERP LTH DESC
 FTOP.          Formation Tops:  FORM TOPS DESC
 RIG .              East Azeri:  RIG NAME
 PDAT.          Mean Sea Level:  PERMANENT DATUM
 FLD .                     ACG:  FIELD NAME
 SON .        AZ-XX-0906591820:  JOB NUMBER
 CTRY.              Azerbaijan:  COUNTRY NAME
 WELL.                     D37:  WELL NAME
 SRVC.     Turan Drilling & Engineering:  CONTRACTOR
 COMP.     BP Exploration (Caspian Sea) ltd.:  COMPANY
 WTYP.                Deviated:  WELL TYPE
 MDS .        Operator Entered:  MAG DATA SOURCE
 UWI .                     N/A:  UNIQUE WELL IDENTIFIER
 API .                     N/A:  API NUMBER
 BASE.              Azerbaijan:  LOGGING EQUIPMENT BASE LOCATION
 REGN.                   EESSA:  REGION
 PROV.                    Baku:  PROVINCE
 STAT.                    Baku:  STATE NAME
 MWDS.                    Baku:  MWD SHOP
 JOBN.        AZ-XX-0906591820:  JOB TICKET NUMB
 DOE .                     N/A:  DOE NUMBER
 DCON.         Sperry Drilling:  DIRECTNL CONTR
 UNIT.                     N/A:  LOGGING EQUIPMENT ID
 CNTY.                        :  COUNTY
 LOC .                        :  LOCATION
 LMF .             Drill Floor:  LOG MEASURED FROM
 TVDS.m                  43.60:  TVDSS CORRECTN
 LATI.deg                40.02:  LATITUDE
 LONG.deg                51.45:  LONGITUDE
 WHNS.m                  11.04:  WELL HEAD N/S
 WHEW.m                 -12.38:  WELL HEAD E/W
 UTMX.m              538763.98:  UTM X
 UTMY.m             4431880.20:  UTM Y
 DFWL.m                   0.00:  DISTANCE FWL
 DFSL.m                   0.00:  DISTANCE FSL
 SDEP.m                 300.00:  START DEPTH
 TDD .m                4900.01:  TOTAL DEPTH (DRILLER)
 VSDR.deg               185.64:  VERT SEC DIRECT
 GVFD.g                   1.00:  GRAVITY FIELD
 MFLD.nT              50301.00:  MAGNETIC FIELD
 MDIP.deg                59.46:  MAGNETIC DIP
 MDEC.deg                 6.43:  MAGNETIC DECL
 GRDC.deg                 0.29:  GRID CORRECTION
 AZTC.deg                 6.14:  AZM TOTAL CORR
 EPD .m                   0.00:  ELEVATION
 EGL .m                   0.00:  GROUND ELEVATION
 WDMS.m                 151.80:  WD ELEV
 APD .m                  43.60:  DEPTH ABOVE PD
 DEP .m                 571.69:  DEPTH
 AGAP.m                  43.60:  AIR GAP
 VSEW.m                 -12.38:  VERT SEC E/W
 VSNS.m                  11.04:  VERT SEC N/S
 EKB .m                  43.60:  KB ELEVATION
 EDF .m                  43.60:  DF ELEVATION
 TDL .m                 412.00:  TOTAL DEPTH (LOGGER)
 VSC .                       0:  VS TO CLOSURE
 MAGU.                 1849300:  MAGUTM CHECKSUM
~Parameter Information Block
#MNEM.UNIT       Value        Description
#---------     -----------    ---------------------------
 AV  .mps                 2.21:  Ann Velocity 
 AVMX.mps                 2.53:  Max Ann Veloc 
 AZIF.deg               144.83:  Azm, Final 
 BHAT.        Rotary Steerable:  BHA Type 
 BROT.°/30m              -0.52:  Build Rotating 
 BS  .in                  6.50:  Bit Size 
 BTPL.psig              209.00:  Bit Press Loss 
 CABU.                      No:  Customer Abuse 
 CGEO.        Ali Isfandiyarov:  Customer Geo 
 COMM.                     lÄt:  Run Comments 1 
 TCS .hr                 61.31:  Time Ciculation Ended 
 CV  .mps                 4.66:  Crit Velocity 
 CVMX.mps                 5.02:  Max Crit Veloc 
 DD1 .          Fariz Nahmatov:  Direct Drillr 1 
 DD2 .            Musa Ahmadov:  Direct Drillr 2 
 DDSV.               Geo-Pilot:  DD Service 
 DEFF.%                 100.00:  % Det Eff 
 DLRX.°/30m               1.44:  Dogleg Rot Max 
 DLSO.°/30m               0.83:  Dogleg Oriented 
 DLSX.°/30m               1.44:  Dogleg Str Max 
 DRET.      08.30.00 30-Jan-21:  Drill End Time 
 DRST.      21.15.00 27-Jan-21:  Drill Start Tim 
 DTIM.hr                 37.28:  Time Drilling 
 EDEP.m                4867.01:  End Depth 
 ENG1.          Rasim Hashimov:  Engineer 1 
 ENG2.         Almaz Almadatov:  Engineer 2 
 ENG3.        Tamerlan Ahmadov:  Engineer 3 
 ETIM.      22.41.04 31-Jan-21:  End Time 
 FLOI.gpm               400.00:  Flow In 
 FLON.gpm               300.00:  Flow In Min 
 FLOS.cptm                0.00:  Fluid Loss 
 FLOX.gpm               400.00:  Flow In Max 
 HFLO.                      No:  High Flow 
 HPRE.                      No:  High Pressure 
 HTEM.                      No:  High Temp 
 HYDO.m                   1.80:  Hydro Offset 
 IFIN.deg                65.63:  Inc, Final 
 IMAX.deg                66.77:  Inc Max 
 IMIN.deg                65.61:  Inc Min 
 IMND.m                4612.67:  Inc Min Depth 
 IMXD.m                4811.63:  Inc Max Depth 
 JARR.                      No:  Jarring 
 LETM.      08.30.00 30-Jan-21:  Log End Time 
 LOST.hr                     0:  Lost Rig Time 
 LSTM.      21.15.00 27-Jan-21:  Log Start Time 
 MDCL.ppm             41000.00:  Mud Chlorides 
 MDES.     Inversion Oil/Synthetic:  Mud Desc 
 DFD .sg                  1.40:  Mud Density 
 MDMN.sg                  1.40:  Dens Mud Min 
 MDMX.sg                  1.40:  Dens Mud Max 
 MOIL.                      53:  Run Mud Oil % 
 MOWR.                   66:34:  Run Mud OWR 
 MSND.                     0.2:  Run Mud Sand % 
 MSOL.                    17.9:  Run Mud Solids% 
 DFV .spqt               77.00:  Mud Viscosity 
 MWOD.in                  4.75:  MWD Tool OD 
 MWSI.                      No:  Serv Intrp, MWD 
 OTIM.hr                110.38:  Time Operating 
 PCON.           Look Like New:  Pad Condition 
 PMAX.psia             5300.00:  Press Op, Max 
 PV  .cP                 57.00:  Mud PV 
 RUN .                    1200:  Run Number 
 ROPA.m/hr               13.00:  ROP Avg 
 ROPN.m/hr                9.00:  ROP Min 
 ROPX.m/hr               15.00:  ROP Max 
 RPMA.rpm               120.00:  RPM Surface Avg 
 RPMN.rpm               100.00:  RPM Surface Min 
 RPMX.rpm               135.00:  RPM Surface Max 
 RRUN.                    1200:  Rig Run Number 
 RTIM.hr                  2.65:  Time Reaming 
 SAZI.deg               145.04:  Azm, Start 
 SDEP.m                4455.01:  Start Depth 
 SIDD.                      No:  Serv Intrp, DD 
 SINC.deg                65.83:  Inc, Start 
 SPPA.psig             5037.00:  SPP Avg 
 SPPN.psig             4430.00:  SPP Min 
 SPPX.psig             5300.00:  SPP Max 
 STIM.      22.41.04 26-Jan-21:  Start Time 
 SVCS.                 DD, MWD:  Services 
 SVER.                    9.20:  Sperry Version 
 TDAT.m                 412.00:  Tot Depth Attmp 
 TDDF.                      No:  Trip for DD 
 TDLG.m                 412.00:  Tot Depth Loggd 
 TFF .                      No:  Trip for Fail 
 TQAA.f-kp               15.00:  Torque Abs Avg 
 TQAN.f-kp               12.00:  Torque Abs Min 
 TQAX.f-kp               17.00:  Torque Abs Max 
 TRRT.°/30m               1.18:  Turn Rotating 
 MRT .                     ADR:  Maximum Recorded Temperature 
 TTMX.degC               88.24:  Max Tool Temp 
 VS01.                90619458:  Virtual Str1 SN 
 VS02.                90519326:  Virtual Str2 SN 
 VS03.                90522176:  Virtual Str3 SN 
 VS04.                90512683:  Virtual Str4 SN 
 WBMN.klb                 1.00:  WOB Min 
 WITN.           Murad Giluyev:  Customer Rep 
 WITN.     Kamran Kemberlinski:  Customer Rep 2 
 WOBA.klb                 5.00:  WOB Avg 
 WOBX.klb                 9.00:  WOB Max 
 YP  .lhf2               41.00:  Yield Point 
~Curve Information Block
#MNEM.UNIT                 API CODE     Curve Description
#---------               -----------    ---------------------------
 TIME.HHMMSS            00 000 000 000:  GT Time & Date
 GTDEPTH.m              00 000 000 000:  GT Depth
 GTPQH.psia             00 000 000 000:  GT HR Quartz Pressure
 GTTQ.degC              00 000 000 000:  GT Quartz Temperature
 GTTN.NONE              00 000 000 000:  GT Test Number
 GTET.sec               00 000 000 000:  GT Elapsed Test Time
 GTTVD.m                00 000 000 000:  GT True Vertical Depth
#Other Information
#
#WARRANTY: Halliburton will use its best efforts to furnish customers with 
#accurate information and interpretations that are part of, and incident to, the services 
#provided.  However, Halliburton cannot and does not warrant the accuracy 
#or correctness of such information and interpretations.  Under no circumstances should any 
#such information or interpretation be relied upon as the sole basis for any drilling, 
#completion, production, or financial decision or any procedure involving any risk to the 
#safety of any drilling venture, drilling rig or its crew or any other third party.  The 
#Customer has full responsibility for all drilling, completion and production operation.  
#Halliburton makes no representations or warranties, either expressed or 
#implied, including, but not limited to, the implied warranties of merchantability or fitness 
#for a particular purpose, with respect to the services rendered.  In no event will 
#Halliburton be liable for failure to obtain any particular results or for 
#any damages, including, but not limited to, indirect, special or consequential damages, 
#resulting from the use of any information or interpretation provided by Halliburton.
#
~A           TIME           GTDEPTH  GTPQH  GTTQ  GTTN   GTET   GTTVD  
# ...
   13:24:40.459.29-Jan-2021 4712.01 5668.33 81.26 11.00 361.63 2590.47
   13:24:40.659.29-Jan-2021 4712.01 5670.42 81.26 11.00 361.83 2590.47
   13:24:40.859.29-Jan-2021 4712.01 5672.51 81.26 11.00 362.03 2590.47
   13:24:41.059.29-Jan-2021 4712.01 5672.51 81.26 11.00 362.23 2590.47
   13:24:41.259.29-Jan-2021 4712.01 5668.84 81.26 11.00 362.43 2590.47
   13:24:41.459.29-Jan-2021 4712.01 5670.33 81.26 11.00 362.63 2590.47
   13:24:41.659.29-Jan-2021 4712.01 5671.80 81.26 11.00 362.83 2590.47
   13:24:41.860.29-Jan-2021 4712.01 5665.85 81.26 11.00 363.03 2590.47
   13:24:42.060.29-Jan-2021 4712.01 5665.85 81.26 11.00 363.23 2590.47
   13:24:42.260.29-Jan-2021 4712.01 5670.15 81.26 11.00 363.43 2590.47
   13:24:42.460.29-Jan-2021 4712.01 5669.33 81.26 11.00 363.63 2590.47
   13:24:42.660.29-Jan-2021 4712.01 5669.85 81.26 11.00 363.83 2590.47
   13:24:42.860.29-Jan-2021 4712.01 5665.85 81.26 11.00 364.03 2590.47
   13:24:43.060.29-Jan-2021 4712.01 5665.85 81.26 11.00 364.23 2590.47
   13:24:43.260.29-Jan-2021 4712.01 5670.42 81.26 11.00 364.43 2590.47
   13:24:43.460.29-Jan-2021 4712.01 5669.28 81.26 11.00 364.63 2590.47
   13:24:43.660.29-Jan-2021 4712.01 5669.95 81.26 11.00 364.83 2590.47
   13:24:43.860.29-Jan-2021 4712.01 5670.06 81.26 11.00 365.03 2590.47
   13:24:44.060.29-Jan-2021 4712.01 5670.06 81.26 11.00 365.23 2590.47
   13:24:44.260.29-Jan-2021 4712.01 5670.01 81.26 11.00 365.43 2590.47
   13:24:44.460.29-Jan-2021 4712.01 5669.23 81.25 11.00 365.63 2590.47
   13:24:44.660.29-Jan-2021 4712.01 5669.99 81.25 11.00 365.83 2590.47
   13:24:44.860.29-Jan-2021 4712.01 5669.40 81.25 11.00 366.03 2590.47
   13:24:45.060.29-Jan-2021 4712.01 5669.40 81.25 11.00 366.23 2590.47
   13:24:45.260.29-Jan-2021 4712.01 5669.09 81.25 11.00 366.43 2590.47
   13:24:45.460.29-Jan-2021 4712.01 5669.48 81.25 11.00 366.63 2590.47
   13:24:45.660.29-Jan-2021 4712.01 5661.82 81.25 11.00 366.83 2590.47
   13:24:45.860.29-Jan-2021 4712.01 5671.53 81.25 11.00 367.03 2590.47
   13:24:46.060.29-Jan-2021 4712.01 5671.53 81.25 11.00 367.23 2590.47
   13:24:46.260.29-Jan-2021 4712.01 5667.66 81.25 11.00 367.43 2590.47
   13:24:46.460.29-Jan-2021 4712.01 5667.44 81.25 11.00 367.63 2590.47
   13:24:46.660.29-Jan-2021 4712.01 5668.39 81.25 11.00 367.83 2590.47
   13:24:46.860.29-Jan-2021 4712.01 5670.04 81.25 11.00 368.03 2590.47
   13:24:47.060.29-Jan-2021 4712.01 5670.04 81.25 11.00 368.23 2590.47
   13:24:47.260.29-Jan-2021 4712.01 5669.64 81.25 11.00 368.43 2590.47
   13:24:47.460.29-Jan-2021 4712.01 5669.26 81.25 11.00 368.63 2590.47
   13:24:47.660.29-Jan-2021 4712.01 5670.12 81.25 11.00 368.83 2590.47
   13:24:47.860.29-Jan-2021 4712.01 5669.27 81.25 11.00 369.03 2590.47
   13:24:48.060.29-Jan-2021 4712.01 5669.27 81.25 11.00 369.23 2590.47
   13:24:48.260.29-Jan-2021 4712.01 5669.27 81.25 11.00 369.43 2590.47
   13:24:48.460.29-Jan-2021 4712.01 5669.36 81.25 11.00 369.63 2590.47
   13:24:48.660.29-Jan-2021 4712.01 5669.16 81.25 11.00 369.83 2590.47
   13:24:48.860.29-Jan-2021 4712.01 5669.46 81.24 11.00 370.03 2590.47
   13:24:49.060.29-Jan-2021 4712.01 5669.46 81.24 11.00 370.23 2590.47
   13:24:49.260.29-Jan-2021 4712.01 5671.80 81.24 11.00 370.43 2590.47
   13:24:49.460.29-Jan-2021 4712.01 5669.45 81.24 11.00 370.63 2590.47
   13:24:49.660.29-Jan-2021 4712.01 5667.79 81.24 11.00 370.83 2590.47
   13:24:49.860.29-Jan-2021 4712.01 5663.83 81.24 11.00 371.03 2590.47
   13:24:50.060.29-Jan-2021 4712.01 5663.83 81.24 11.00 371.23 2590.47
   13:24:50.260.29-Jan-2021 4712.01 5670.09 81.24 11.00 371.43 2590.47
   13:24:50.460.29-Jan-2021 4712.01 5668.97 81.24 11.00 371.63 2590.47
   13:24:50.660.29-Jan-2021 4712.01 5665.62 81.24 11.00 371.83 2590.47
   13:24:50.860.29-Jan-2021 4712.01 5663.23 81.24 11.00 372.03 2590.47
   13:24:51.060.29-Jan-2021 4712.01 5663.23 81.24 11.00 372.23 2590.47
   13:24:51.260.29-Jan-2021 4712.01 5669.73 81.24 11.00 372.43 2590.47
   13:24:51.460.29-Jan-2021 4712.01 5665.60 81.24 11.00 372.63 2590.47
   13:24:51.660.29-Jan-2021 4712.01 5662.54 81.24 11.00 372.83 2590.47
   13:24:51.860.29-Jan-2021 4712.01 5673.14 81.24 11.00 373.03 2590.47
   13:24:52.060.29-Jan-2021 4712.01 5673.14 81.24 11.00 373.23 2590.47
   13:24:52.260.29-Jan-2021 4712.01 5667.26 81.24 11.00 373.43 2590.47
   13:24:52.460.29-Jan-2021 4712.01 5668.80 81.24 11.00 373.63 2590.47
   13:24:52.660.29-Jan-2021 4712.01 5670.19 81.24 11.00 373.83 2590.47
   13:24:52.860.29-Jan-2021 4712.01 5666.10 81.24 11.00 374.03 2590.47
   13:24:53.060.29-Jan-2021 4712.01 5666.10 81.24 11.00 374.23 2590.47
   13:24:53.260.29-Jan-2021 4712.01 5671.00 81.23 11.00 374.43 2590.47
   13:24:53.460.29-Jan-2021 4712.01 5665.56 81.23 11.00 374.63 2590.47
   13:24:53.660.29-Jan-2021 4712.01 5670.11 81.23 11.00 374.83 2590.47
   13:24:53.860.29-Jan-2021 4712.01 5668.99 81.23 11.00 375.03 2590.47
   13:24:54.060.29-Jan-2021 4712.01 5668.99 81.23 11.00 375.23 2590.47
   13:24:54.260.29-Jan-2021 4712.01 5669.32 81.23 11.00 375.43 2590.47
   13:24:54.460.29-Jan-2021 4712.01 5669.34 81.23 11.00 375.63 2590.47
   13:24:54.660.29-Jan-2021 4712.01 5669.92 81.23 11.00 375.83 2590.47
   13:24:54.860.29-Jan-2021 4712.01 5669.63 81.23 11.00 376.03 2590.47
   13:24:55.060.29-Jan-2021 4712.01 5669.63 81.23 11.00 376.23 2590.47
   13:24:55.260.29-Jan-2021 4712.01 5669.49 81.23 11.00 376.43 2590.47
   13:24:55.460.29-Jan-2021 4712.01 5670.13 81.23 11.00 376.63 2590.47
   13:24:55.660.29-Jan-2021 4712.01 5669.72 81.23 11.00 376.83 2590.47
   13:24:55.860.29-Jan-2021 4712.01 5669.73 81.23 11.00 377.03 2590.47
   13:24:56.061.29-Jan-2021 4712.01 5669.73 81.23 11.00 377.23 2590.47
   13:24:56.261.29-Jan-2021 4712.01 5666.30 81.23 11.00 377.43 2590.47
   13:24:56.461.29-Jan-2021 4712.01 5668.21 81.23 11.00 377.63 2590.47
   13:24:56.661.29-Jan-2021 4712.01 5669.06 81.23 11.00 377.83 2590.47
   13:24:56.861.29-Jan-2021 4712.01 5669.93 81.23 11.00 378.03 2590.47
   13:24:57.061.29-Jan-2021 4712.01 5669.93 81.23 11.00 378.23 2590.47
   13:24:57.261.29-Jan-2021 4712.01 5669.03 81.22 11.00 378.43 2590.47
   13:24:57.461.29-Jan-2021 4712.01 5670.15 81.22 11.00 378.63 2590.47
   13:24:57.661.29-Jan-2021 4712.01 5668.73 81.22 11.00 378.83 2590.47
   13:24:57.861.29-Jan-2021 4712.01 5668.68 81.22 11.00 379.03 2590.47
   13:24:58.061.29-Jan-2021 4712.01 5668.68 81.22 11.00 379.23 2590.47
   13:24:58.261.29-Jan-2021 4712.01 5669.81 81.22 11.00 379.43 2590.47
   13:24:58.461.29-Jan-2021 4712.01 5668.55 81.22 11.00 379.63 2590.47
   13:24:58.661.29-Jan-2021 4712.01 5668.55 81.22 11.00 379.83 2590.47
   13:24:58.861.29-Jan-2021 4712.01 5669.41 81.22 11.00 380.03 2590.47
   13:24:59.061.29-Jan-2021 4712.01 5669.41 81.22 11.00 380.23 2590.47
   13:24:59.261.29-Jan-2021 4712.01 5668.89 81.22 11.00 380.43 2590.47
   13:24:59.461.29-Jan-2021 4712.01 5668.80 81.22 11.00 380.63 2590.47
   13:24:59.661.29-Jan-2021 4712.01 5665.72 81.22 11.00 380.83 2590.47
   13:24:59.861.29-Jan-2021 4712.01 5667.63 81.22 11.00 381.03 2590.47
   13:25:00.061.29-Jan-2021 4712.01 5667.63 81.22 11.00 381.23 2590.47
   13:25:00.261.29-Jan-2021 4712.01 5668.72 81.22 11.00 381.43 2590.47
   13:25:00.461.29-Jan-2021 4712.01 5665.33 81.22 11.00 381.63 2590.47
   13:25:00.661.29-Jan-2021 4712.01 5664.34 81.22 11.00 381.83 2590.47
   13:25:00.861.29-Jan-2021 4712.01 5670.35 81.22 11.00 382.03 2590.47
   13:25:01.061.29-Jan-2021 4712.01 5670.35 81.22 11.00 382.23 2590.47
   13:25:01.261.29-Jan-2021 4712.01 5665.31 81.21 11.00 382.43 2590.47
   13:25:01.461.29-Jan-2021 4712.01 5662.60 81.21 11.00 382.63 2590.47
   13:25:01.661.29-Jan-2021 4712.01 5673.66 81.21 11.00 382.83 2590.47
   13:25:01.861.29-Jan-2021 4712.01 5670.67 81.21 11.00 383.03 2590.47
   13:25:02.061.29-Jan-2021 4712.01 5670.67 81.21 11.00 383.23 2590.47
   13:25:02.261.29-Jan-2021 4712.01 5665.15 81.21 11.00 383.43 2590.47
   13:25:02.461.29-Jan-2021 4712.01 5669.74 81.21 11.00 383.63 2590.47
   13:25:02.661.29-Jan-2021 4712.01 5670.80 81.21 11.00 383.83 2590.47
   13:25:02.861.29-Jan-2021 4712.01 5669.43 81.21 11.00 384.03 2590.47
