~Version Information
 VERS.                  2.0:   CWLS log ASCII Standard -VERSION 2.0
 WRAP.                   NO:   One line per depth step
~Well Information Block
#MNEM.UNIT     VALUE/NAME     DESCRIPTION
#---------     -----------    ---------------------------
 STRT.S             00:06:31 30-Jan-21: START TIME 00:06:31 30-Jan-21
 STOP.S             00:13:00 30-Jan-21: STOP TIME  00:13:00 30-Jan-21
 STEP.S                   0.00: STEP TIME
 NULL.                 -999.25: NULL VALUE
 DFWT.                        :  DIST FWL TEXT
 DFST.                        :  DIST FSL TEXT
 DMF .             Drill Floor:  DRILL MEAS FROM
 STIM.      00.00.00 25-Sep-20:  START TIME
 DATE.      16.12.48 31-Jan-21:  END TIME
 SPUD.               20-Sep-20:  SPUD DATE
 NREF.                    Grid:  NORTH REFERENCE
 HPTY.       Minimum Curvature:  HOLE POS TYPE
 DMOD.             Drill Model:  DRILL MOD DESC
 SVYD.                  Survey:  SURVEY DESC
 ILTD.               Lithology:  INTERP LTH DESC
 FTOP.          Formation Tops:  FORM TOPS DESC
 RIG .              East Azeri:  RIG NAME
 PDAT.          Mean Sea Level:  PERMANENT DATUM
 FLD .                     ACG:  FIELD NAME
 SON .        AZ-XX-0906591820:  JOB NUMBER
 CTRY.              Azerbaijan:  COUNTRY NAME
 WELL.                     D37:  WELL NAME
 SRVC.     Turan Drilling & Engineering:  CONTRACTOR
 COMP.     BP Exploration (Caspian Sea) ltd.:  COMPANY
 WTYP.                Deviated:  WELL TYPE
 MDS .        Operator Entered:  MAG DATA SOURCE
 UWI .                     N/A:  UNIQUE WELL IDENTIFIER
 API .                     N/A:  API NUMBER
 BASE.              Azerbaijan:  LOGGING EQUIPMENT BASE LOCATION
 REGN.                   EESSA:  REGION
 PROV.                    Baku:  PROVINCE
 STAT.                    Baku:  STATE NAME
 MWDS.                    Baku:  MWD SHOP
 JOBN.        AZ-XX-0906591820:  JOB TICKET NUMB
 DOE .                     N/A:  DOE NUMBER
 DCON.         Sperry Drilling:  DIRECTNL CONTR
 UNIT.                     N/A:  LOGGING EQUIPMENT ID
 CNTY.                        :  COUNTY
 LOC .                        :  LOCATION
 LMF .             Drill Floor:  LOG MEASURED FROM
 TVDS.m                  43.60:  TVDSS CORRECTN
 LATI.deg                40.02:  LATITUDE
 LONG.deg                51.45:  LONGITUDE
 WHNS.m                  11.04:  WELL HEAD N/S
 WHEW.m                 -12.38:  WELL HEAD E/W
 UTMX.m              538763.98:  UTM X
 UTMY.m             4431880.20:  UTM Y
 DFWL.m                   0.00:  DISTANCE FWL
 DFSL.m                   0.00:  DISTANCE FSL
 SDEP.m                 300.00:  START DEPTH
 TDD .m                4900.01:  TOTAL DEPTH (DRILLER)
 VSDR.deg               185.64:  VERT SEC DIRECT
 GVFD.g                   1.00:  GRAVITY FIELD
 MFLD.nT              50301.00:  MAGNETIC FIELD
 MDIP.deg                59.46:  MAGNETIC DIP
 MDEC.deg                 6.43:  MAGNETIC DECL
 GRDC.deg                 0.29:  GRID CORRECTION
 AZTC.deg                 6.14:  AZM TOTAL CORR
 EPD .m                   0.00:  ELEVATION
 EGL .m                   0.00:  GROUND ELEVATION
 WDMS.m                 151.80:  WD ELEV
 APD .m                  43.60:  DEPTH ABOVE PD
 DEP .m                 571.69:  DEPTH
 AGAP.m                  43.60:  AIR GAP
 VSEW.m                 -12.38:  VERT SEC E/W
 VSNS.m                  11.04:  VERT SEC N/S
 EKB .m                  43.60:  KB ELEVATION
 EDF .m                  43.60:  DF ELEVATION
 TDL .m                 412.00:  TOTAL DEPTH (LOGGER)
 VSC .                       0:  VS TO CLOSURE
 MAGU.                 1849300:  MAGUTM CHECKSUM
~Parameter Information Block
#MNEM.UNIT       Value        Description
#---------     -----------    ---------------------------
 AV  .mps                 2.21:  Ann Velocity 
 AVMX.mps                 2.53:  Max Ann Veloc 
 AZIF.deg               144.83:  Azm, Final 
 BHAT.        Rotary Steerable:  BHA Type 
 BROT.°/30m              -0.52:  Build Rotating 
 BS  .in                  6.50:  Bit Size 
 BTPL.psig              209.00:  Bit Press Loss 
 CABU.                      No:  Customer Abuse 
 CGEO.        Ali Isfandiyarov:  Customer Geo 
 COMM.                     Új:  Run Comments 1 
 TCS .hr                 61.31:  Time Ciculation Ended 
 CV  .mps                 4.66:  Crit Velocity 
 CVMX.mps                 5.02:  Max Crit Veloc 
 DD1 .          Fariz Nahmatov:  Direct Drillr 1 
 DD2 .            Musa Ahmadov:  Direct Drillr 2 
 DDSV.               Geo-Pilot:  DD Service 
 DEFF.%                 100.00:  % Det Eff 
 DLRX.°/30m               1.44:  Dogleg Rot Max 
 DLSO.°/30m               0.83:  Dogleg Oriented 
 DLSX.°/30m               1.44:  Dogleg Str Max 
 DRET.      08.30.00 30-Jan-21:  Drill End Time 
 DRST.      21.15.00 27-Jan-21:  Drill Start Tim 
 DTIM.hr                 37.28:  Time Drilling 
 EDEP.m                4867.01:  End Depth 
 ENG1.          Rasim Hashimov:  Engineer 1 
 ENG2.         Almaz Almadatov:  Engineer 2 
 ENG3.        Tamerlan Ahmadov:  Engineer 3 
 ETIM.      22.41.04 31-Jan-21:  End Time 
 FLOI.gpm               400.00:  Flow In 
 FLON.gpm               300.00:  Flow In Min 
 FLOS.cptm                0.00:  Fluid Loss 
 FLOX.gpm               400.00:  Flow In Max 
 HFLO.                      No:  High Flow 
 HPRE.                      No:  High Pressure 
 HTEM.                      No:  High Temp 
 HYDO.m                   1.80:  Hydro Offset 
 IFIN.deg                65.63:  Inc, Final 
 IMAX.deg                66.77:  Inc Max 
 IMIN.deg                65.61:  Inc Min 
 IMND.m                4612.67:  Inc Min Depth 
 IMXD.m                4811.63:  Inc Max Depth 
 JARR.                      No:  Jarring 
 LETM.      08.30.00 30-Jan-21:  Log End Time 
 LOST.hr                     0:  Lost Rig Time 
 LSTM.      21.15.00 27-Jan-21:  Log Start Time 
 MDCL.ppm             41000.00:  Mud Chlorides 
 MDES.     Inversion Oil/Synthetic:  Mud Desc 
 DFD .sg                  1.40:  Mud Density 
 MDMN.sg                  1.40:  Dens Mud Min 
 MDMX.sg                  1.40:  Dens Mud Max 
 MOIL.                      53:  Run Mud Oil % 
 MOWR.                   66:34:  Run Mud OWR 
 MSND.                     0.2:  Run Mud Sand % 
 MSOL.                    17.9:  Run Mud Solids% 
 DFV .spqt               77.00:  Mud Viscosity 
 MWOD.in                  4.75:  MWD Tool OD 
 MWSI.                      No:  Serv Intrp, MWD 
 OTIM.hr                110.38:  Time Operating 
 PCON.           Look Like New:  Pad Condition 
 PMAX.psia             5300.00:  Press Op, Max 
 PV  .cP                 57.00:  Mud PV 
 RUN .                    1200:  Run Number 
 ROPA.m/hr               13.00:  ROP Avg 
 ROPN.m/hr                9.00:  ROP Min 
 ROPX.m/hr               15.00:  ROP Max 
 RPMA.rpm               120.00:  RPM Surface Avg 
 RPMN.rpm               100.00:  RPM Surface Min 
 RPMX.rpm               135.00:  RPM Surface Max 
 RRUN.                    1200:  Rig Run Number 
 RTIM.hr                  2.65:  Time Reaming 
 SAZI.deg               145.04:  Azm, Start 
 SDEP.m                4455.01:  Start Depth 
 SIDD.                      No:  Serv Intrp, DD 
 SINC.deg                65.83:  Inc, Start 
 SPPA.psig             5037.00:  SPP Avg 
 SPPN.psig             4430.00:  SPP Min 
 SPPX.psig             5300.00:  SPP Max 
 STIM.      22.41.04 26-Jan-21:  Start Time 
 SVCS.                 DD, MWD:  Services 
 SVER.                    9.20:  Sperry Version 
 TDAT.m                 412.00:  Tot Depth Attmp 
 TDDF.                      No:  Trip for DD 
 TDLG.m                 412.00:  Tot Depth Loggd 
 TFF .                      No:  Trip for Fail 
 TQAA.f-kp               15.00:  Torque Abs Avg 
 TQAN.f-kp               12.00:  Torque Abs Min 
 TQAX.f-kp               17.00:  Torque Abs Max 
 TRRT.°/30m               1.18:  Turn Rotating 
 MRT .                     ADR:  Maximum Recorded Temperature 
 TTMX.degC               88.24:  Max Tool Temp 
 VS01.                90619458:  Virtual Str1 SN 
 VS02.                90519326:  Virtual Str2 SN 
 VS03.                90522176:  Virtual Str3 SN 
 VS04.                90512683:  Virtual Str4 SN 
 WBMN.klb                 1.00:  WOB Min 
 WITN.           Murad Giluyev:  Customer Rep 
 WITN.     Kamran Kemberlinski:  Customer Rep 2 
 WOBA.klb                 5.00:  WOB Avg 
 WOBX.klb                 9.00:  WOB Max 
 YP  .lhf2               41.00:  Yield Point 
~Curve Information Block
#MNEM.UNIT                 API CODE     Curve Description
#---------               -----------    ---------------------------
 TIME.HHMMSS            00 000 000 000:  GT Time & Date
 GTDEPTH.m              00 000 000 000:  GT Depth
 GTPQH.psia             00 000 000 000:  GT HR Quartz Pressure
 GTTQ.degC              00 000 000 000:  GT Quartz Temperature
 GTTN.NONE              00 000 000 000:  GT Test Number
 GTET.sec               00 000 000 000:  GT Elapsed Test Time
 GTTVD.m                00 000 000 000:  GT True Vertical Depth
#Other Information
#
#WARRANTY: Halliburton will use its best efforts to furnish customers with 
#accurate information and interpretations that are part of, and incident to, the services 
#provided.  However, Halliburton cannot and does not warrant the accuracy 
#or correctness of such information and interpretations.  Under no circumstances should any 
#such information or interpretation be relied upon as the sole basis for any drilling, 
#completion, production, or financial decision or any procedure involving any risk to the 
#safety of any drilling venture, drilling rig or its crew or any other third party.  The 
#Customer has full responsibility for all drilling, completion and production operation.  
#Halliburton makes no representations or warranties, either expressed or 
#implied, including, but not limited to, the implied warranties of merchantability or fitness 
#for a particular purpose, with respect to the services rendered.  In no event will 
#Halliburton be liable for failure to obtain any particular results or for 
#any damages, including, but not limited to, indirect, special or consequential damages, 
#resulting from the use of any information or interpretation provided by Halliburton.
#
~A           TIME           GTDEPTH  GTPQH  GTTQ  GTTN   GTET   GTTVD  
# ...
   00:09:09.913.30-Jan-2021 4782.01 3138.02 81.50 14.00 158.23 2618.40
   00:09:10.113.30-Jan-2021 4782.01 3138.02 81.50 14.00 158.43 2618.40
   00:09:10.313.30-Jan-2021 4782.01 3138.01 81.50 14.00 158.63 2618.40
   00:09:10.513.30-Jan-2021 4782.01 3137.95 81.50 14.00 158.83 2618.40
   00:09:10.713.30-Jan-2021 4782.01 3138.07 81.50 14.00 159.03 2618.40
   00:09:10.913.30-Jan-2021 4782.01 3138.07 81.50 14.00 159.23 2618.40
   00:09:11.113.30-Jan-2021 4782.01 3138.02 81.50 14.00 159.43 2618.40
   00:09:11.313.30-Jan-2021 4782.01 3137.98 81.50 14.00 159.63 2618.40
   00:09:11.513.30-Jan-2021 4782.01 3138.02 81.50 14.00 159.83 2618.40
   00:09:11.713.30-Jan-2021 4782.01 3138.01 81.50 14.00 160.03 2618.40
   00:09:11.913.30-Jan-2021 4782.01 3138.01 81.50 14.00 160.23 2618.40
   00:09:12.113.30-Jan-2021 4782.01 3137.99 81.50 14.00 160.43 2618.40
   00:09:12.313.30-Jan-2021 4782.01 3138.01 81.50 14.00 160.63 2618.40
   00:09:12.513.30-Jan-2021 4782.01 3138.01 81.50 14.00 160.83 2618.40
   00:09:12.713.30-Jan-2021 4782.01 3138.02 81.50 14.00 161.03 2618.40
   00:09:12.913.30-Jan-2021 4782.01 3138.02 81.50 14.00 161.23 2618.40
   00:09:13.113.30-Jan-2021 4782.01 3138.01 81.49 14.00 161.43 2618.40
   00:09:13.313.30-Jan-2021 4782.01 3138.00 81.49 14.00 161.63 2618.40
   00:09:13.514.30-Jan-2021 4782.01 3138.01 81.49 14.00 161.83 2618.40
   00:09:13.714.30-Jan-2021 4782.01 3137.93 81.49 14.00 162.03 2618.40
   00:09:13.914.30-Jan-2021 4782.01 3137.93 81.49 14.00 162.23 2618.40
   00:09:14.114.30-Jan-2021 4782.01 3138.01 81.49 14.00 162.43 2618.40
   00:09:14.314.30-Jan-2021 4782.01 3138.01 81.49 14.00 162.63 2618.40
   00:09:14.514.30-Jan-2021 4782.01 3137.91 81.49 14.00 162.83 2618.40
   00:09:14.714.30-Jan-2021 4782.01 3138.07 81.49 14.00 163.03 2618.40
   00:09:14.914.30-Jan-2021 4782.01 3138.07 81.49 14.00 163.23 2618.40
   00:09:15.114.30-Jan-2021 4782.01 3138.00 81.49 14.00 163.43 2618.40
   00:09:15.314.30-Jan-2021 4782.01 3137.91 81.49 14.00 163.63 2618.40
   00:09:15.514.30-Jan-2021 4782.01 3138.06 81.49 14.00 163.83 2618.40
   00:09:15.714.30-Jan-2021 4782.01 3138.02 81.49 14.00 164.03 2618.40
   00:09:15.914.30-Jan-2021 4782.01 3138.02 81.49 14.00 164.23 2618.40
   00:09:16.114.30-Jan-2021 4782.01 3137.97 81.49 14.00 164.43 2618.40
   00:09:16.314.30-Jan-2021 4782.01 3137.99 81.49 14.00 164.63 2618.40
   00:09:16.514.30-Jan-2021 4782.01 3138.04 81.49 14.00 164.83 2618.40
   00:09:16.714.30-Jan-2021 4782.01 3138.00 81.49 14.00 165.03 2618.40
   00:09:16.914.30-Jan-2021 4782.01 3138.00 81.49 14.00 165.23 2618.40
   00:09:17.114.30-Jan-2021 4782.01 3137.99 81.49 14.00 165.43 2618.40
   00:09:17.314.30-Jan-2021 4782.01 3138.00 81.49 14.00 165.63 2618.40
   00:09:17.514.30-Jan-2021 4782.01 3137.94 81.49 14.00 165.83 2618.40
   00:09:17.714.30-Jan-2021 4782.01 3138.05 81.49 14.00 166.03 2618.40
   00:09:17.914.30-Jan-2021 4782.01 3138.05 81.49 14.00 166.23 2618.40
   00:09:18.114.30-Jan-2021 4782.01 3137.99 81.48 14.00 166.43 2618.40
   00:09:18.314.30-Jan-2021 4782.01 3137.97 81.48 14.00 166.63 2618.40
   00:09:18.514.30-Jan-2021 4782.01 3138.01 81.48 14.00 166.83 2618.40
   00:09:18.715.30-Jan-2021 4782.01 3138.01 81.48 14.00 167.03 2618.40
   00:09:18.915.30-Jan-2021 4782.01 3138.01 81.48 14.00 167.23 2618.40
   00:09:19.115.30-Jan-2021 4782.01 3138.01 81.48 14.00 167.43 2618.40
   00:09:19.315.30-Jan-2021 4782.01 3137.99 81.48 14.00 167.63 2618.40
   00:09:19.515.30-Jan-2021 4782.01 3137.99 81.48 14.00 167.83 2618.40
   00:09:19.715.30-Jan-2021 4782.01 3137.99 81.48 14.00 168.03 2618.40
   00:09:19.915.30-Jan-2021 4782.01 3137.99 81.48 14.00 168.23 2618.40
   00:09:20.115.30-Jan-2021 4782.01 3137.98 81.48 14.00 168.43 2618.40
   00:09:20.315.30-Jan-2021 4782.01 3137.99 81.48 14.00 168.63 2618.40
   00:09:20.515.30-Jan-2021 4782.01 3137.99 81.48 14.00 168.83 2618.40
   00:09:20.715.30-Jan-2021 4782.01 3137.99 81.48 14.00 169.03 2618.40
   00:09:20.915.30-Jan-2021 4782.01 3137.99 81.48 14.00 169.23 2618.40
   00:09:21.115.30-Jan-2021 4782.01 3137.91 81.48 14.00 169.43 2618.40
   00:09:21.315.30-Jan-2021 4782.01 3138.04 81.48 14.00 169.63 2618.40
   00:09:21.515.30-Jan-2021 4782.01 3138.00 81.48 14.00 169.83 2618.40
   00:09:21.715.30-Jan-2021 4782.01 3137.99 81.48 14.00 170.03 2618.40
   00:09:21.915.30-Jan-2021 4782.01 3137.99 81.48 14.00 170.23 2618.40
   00:09:22.115.30-Jan-2021 4782.01 3138.00 81.48 14.00 170.43 2618.40
   00:09:22.315.30-Jan-2021 4782.01 3137.98 81.48 14.00 170.63 2618.40
   00:09:22.515.30-Jan-2021 4782.01 3137.99 81.48 14.00 170.83 2618.40
   00:09:22.715.30-Jan-2021 4782.01 3137.96 81.48 14.00 171.03 2618.40
   00:09:22.915.30-Jan-2021 4782.01 3137.96 81.48 14.00 171.23 2618.40
   00:09:23.115.30-Jan-2021 4782.01 3137.97 81.47 14.00 171.43 2618.40
   00:09:23.315.30-Jan-2021 4782.01 3137.99 81.47 14.00 171.63 2618.40
   00:09:23.515.30-Jan-2021 4782.01 3137.97 81.47 14.00 171.83 2618.40
   00:09:23.715.30-Jan-2021 4782.01 3137.98 81.47 14.00 172.03 2618.40
   00:09:23.916.30-Jan-2021 4782.01 3137.98 81.47 14.00 172.23 2618.40
   00:09:24.116.30-Jan-2021 4782.01 3137.98 81.47 14.00 172.43 2618.40
   00:09:24.316.30-Jan-2021 4782.01 3137.91 81.47 14.00 172.63 2618.40
   00:09:24.516.30-Jan-2021 4782.01 3138.03 81.47 14.00 172.83 2618.40
   00:09:24.716.30-Jan-2021 4782.01 3137.99 81.47 14.00 173.03 2618.40
   00:09:24.916.30-Jan-2021 4782.01 3137.99 81.47 14.00 173.23 2618.40
   00:09:25.116.30-Jan-2021 4782.01 3137.89 81.47 14.00 173.43 2618.40
   00:09:25.316.30-Jan-2021 4782.01 3138.05 81.47 14.00 173.63 2618.40
   00:09:25.516.30-Jan-2021 4782.01 3137.99 81.47 14.00 173.83 2618.40
   00:09:25.716.30-Jan-2021 4782.01 3137.97 81.47 14.00 174.03 2618.40
   00:09:25.916.30-Jan-2021 4782.01 3137.97 81.47 14.00 174.23 2618.40
   00:09:26.116.30-Jan-2021 4782.01 3138.04 81.47 14.00 174.43 2618.40
   00:09:26.316.30-Jan-2021 4782.01 3137.99 81.47 14.00 174.63 2618.40
   00:09:26.516.30-Jan-2021 4782.01 3137.98 81.47 14.00 174.83 2618.40
   00:09:26.716.30-Jan-2021 4782.01 3137.94 81.47 14.00 175.03 2618.40
   00:09:26.916.30-Jan-2021 4782.01 3137.94 81.47 14.00 175.23 2618.40
   00:09:27.116.30-Jan-2021 4782.01 3138.00 81.47 14.00 175.43 2618.40
   00:09:27.316.30-Jan-2021 4782.01 3137.98 81.47 14.00 175.63 2618.40
   00:09:27.516.30-Jan-2021 4782.01 3137.95 81.47 14.00 175.83 2618.40
   00:09:27.716.30-Jan-2021 4782.01 3137.97 81.47 14.00 176.03 2618.40
   00:09:27.916.30-Jan-2021 4782.01 3137.97 81.47 14.00 176.23 2618.40
   00:09:28.116.30-Jan-2021 4782.01 3137.91 81.47 14.00 176.43 2618.40
   00:09:28.316.30-Jan-2021 4782.01 3138.03 81.46 14.00 176.63 2618.40
   00:09:28.516.30-Jan-2021 4782.01 3137.98 81.46 14.00 176.83 2618.40
   00:09:28.716.30-Jan-2021 4782.01 3137.95 81.46 14.00 177.03 2618.40
   00:09:28.916.30-Jan-2021 4782.01 3137.95 81.46 14.00 177.23 2618.40
   00:09:29.117.30-Jan-2021 4782.01 3137.97 81.46 14.00 177.43 2618.40
   00:09:29.317.30-Jan-2021 4782.01 3137.98 81.46 14.00 177.63 2618.40
   00:09:29.517.30-Jan-2021 4782.01 3137.97 81.46 14.00 177.83 2618.40
   00:09:29.717.30-Jan-2021 4782.01 3137.95 81.46 14.00 178.03 2618.40
   00:09:29.917.30-Jan-2021 4782.01 3137.95 81.46 14.00 178.23 2618.40
   00:09:30.117.30-Jan-2021 4782.01 3137.98 81.46 14.00 178.43 2618.40
   00:09:30.317.30-Jan-2021 4782.01 3137.95 81.46 14.00 178.63 2618.40
   00:09:30.517.30-Jan-2021 4782.01 3137.96 81.46 14.00 178.83 2618.40
   00:09:30.717.30-Jan-2021 4782.01 3137.96 81.46 14.00 179.03 2618.40
   00:09:30.917.30-Jan-2021 4782.01 3137.96 81.46 14.00 179.23 2618.40
   00:09:31.117.30-Jan-2021 4782.01 3137.96 81.46 14.00 179.43 2618.40
   00:09:31.317.30-Jan-2021 4782.01 3137.96 81.46 14.00 179.63 2618.40
   00:09:31.517.30-Jan-2021 4782.01 3137.96 81.46 14.00 179.83 2618.40
   00:09:31.717.30-Jan-2021 4782.01 3137.89 81.46 14.00 180.03 2618.40
   00:09:31.917.30-Jan-2021 4782.01 3137.89 81.46 14.00 180.23 2618.40
   00:09:32.117.30-Jan-2021 4782.01 3137.96 81.46 14.00 180.43 2618.40
   00:09:32.317.30-Jan-2021 4782.01 3137.96 81.46 14.00 180.63 2618.40
