~Version Information
 VERS.                  2.0:   CWLS log ASCII Standard -VERSION 2.0
 WRAP.                   NO:   One line per depth step
~Well Information Block
#MNEM.UNIT     VALUE/NAME     DESCRIPTION
#---------     -----------    ---------------------------
 STRT.S             02:23:02 28-Jan-21: START TIME 02:23:02 28-Jan-21
 STOP.S             02:29:37 28-Jan-21: STOP TIME  02:29:37 28-Jan-21
 STEP.S                   0.00: STEP TIME
 NULL.                 -999.25: NULL VALUE
 DFWT.                        :  DIST FWL TEXT
 DFST.                        :  DIST FSL TEXT
 DMF .             Drill Floor:  DRILL MEAS FROM
 STIM.      00.00.00 25-Sep-20:  START TIME
 DATE.      16.12.48 31-Jan-21:  END TIME
 SPUD.               20-Sep-20:  SPUD DATE
 NREF.                    Grid:  NORTH REFERENCE
 HPTY.       Minimum Curvature:  HOLE POS TYPE
 DMOD.             Drill Model:  DRILL MOD DESC
 SVYD.                  Survey:  SURVEY DESC
 ILTD.               Lithology:  INTERP LTH DESC
 FTOP.          Formation Tops:  FORM TOPS DESC
 RIG .              East Azeri:  RIG NAME
 PDAT.          Mean Sea Level:  PERMANENT DATUM
 FLD .                     ACG:  FIELD NAME
 SON .        AZ-XX-0906591820:  JOB NUMBER
 CTRY.              Azerbaijan:  COUNTRY NAME
 WELL.                     D37:  WELL NAME
 SRVC.     Turan Drilling & Engineering:  CONTRACTOR
 COMP.     BP Exploration (Caspian Sea) ltd.:  COMPANY
 WTYP.                Deviated:  WELL TYPE
 MDS .        Operator Entered:  MAG DATA SOURCE
 UWI .                     N/A:  UNIQUE WELL IDENTIFIER
 API .                     N/A:  API NUMBER
 BASE.              Azerbaijan:  LOGGING EQUIPMENT BASE LOCATION
 REGN.                   EESSA:  REGION
 PROV.                    Baku:  PROVINCE
 STAT.                    Baku:  STATE NAME
 MWDS.                    Baku:  MWD SHOP
 JOBN.        AZ-XX-0906591820:  JOB TICKET NUMB
 DOE .                     N/A:  DOE NUMBER
 DCON.         Sperry Drilling:  DIRECTNL CONTR
 UNIT.                     N/A:  LOGGING EQUIPMENT ID
 CNTY.                        :  COUNTY
 LOC .                        :  LOCATION
 LMF .             Drill Floor:  LOG MEASURED FROM
 TVDS.m                  43.60:  TVDSS CORRECTN
 LATI.deg                40.02:  LATITUDE
 LONG.deg                51.45:  LONGITUDE
 WHNS.m                  11.04:  WELL HEAD N/S
 WHEW.m                 -12.38:  WELL HEAD E/W
 UTMX.m              538763.98:  UTM X
 UTMY.m             4431880.20:  UTM Y
 DFWL.m                   0.00:  DISTANCE FWL
 DFSL.m                   0.00:  DISTANCE FSL
 SDEP.m                 300.00:  START DEPTH
 TDD .m                4900.01:  TOTAL DEPTH (DRILLER)
 VSDR.deg               185.64:  VERT SEC DIRECT
 GVFD.g                   1.00:  GRAVITY FIELD
 MFLD.nT              50301.00:  MAGNETIC FIELD
 MDIP.deg                59.46:  MAGNETIC DIP
 MDEC.deg                 6.43:  MAGNETIC DECL
 GRDC.deg                 0.29:  GRID CORRECTION
 AZTC.deg                 6.14:  AZM TOTAL CORR
 EPD .m                   0.00:  ELEVATION
 EGL .m                   0.00:  GROUND ELEVATION
 WDMS.m                 151.80:  WD ELEV
 APD .m                  43.60:  DEPTH ABOVE PD
 DEP .m                 571.69:  DEPTH
 AGAP.m                  43.60:  AIR GAP
 VSEW.m                 -12.38:  VERT SEC E/W
 VSNS.m                  11.04:  VERT SEC N/S
 EKB .m                  43.60:  KB ELEVATION
 EDF .m                  43.60:  DF ELEVATION
 TDL .m                 412.00:  TOTAL DEPTH (LOGGER)
 VSC .                       0:  VS TO CLOSURE
 MAGU.                 1849300:  MAGUTM CHECKSUM
~Parameter Information Block
#MNEM.UNIT       Value        Description
#---------     -----------    ---------------------------
 AV  .mps                 2.21:  Ann Velocity 
 AVMX.mps                 2.53:  Max Ann Veloc 
 AZIF.deg               144.83:  Azm, Final 
 BHAT.        Rotary Steerable:  BHA Type 
 BROT.°/30m              -0.52:  Build Rotating 
 BS  .in                  6.50:  Bit Size 
 BTPL.psig              209.00:  Bit Press Loss 
 CABU.                      No:  Customer Abuse 
 CGEO.        Ali Isfandiyarov:  Customer Geo 
 TCS .hr                 61.31:  Time Ciculation Ended 
 CV  .mps                 4.66:  Crit Velocity 
 CVMX.mps                 5.02:  Max Crit Veloc 
 DD1 .          Fariz Nahmatov:  Direct Drillr 1 
 DD2 .            Musa Ahmadov:  Direct Drillr 2 
 DDSV.               Geo-Pilot:  DD Service 
 DEFF.%                 100.00:  % Det Eff 
 DLRX.°/30m               1.44:  Dogleg Rot Max 
 DLSO.°/30m               0.83:  Dogleg Oriented 
 DLSX.°/30m               1.44:  Dogleg Str Max 
 DRET.      08.30.00 30-Jan-21:  Drill End Time 
 DRST.      21.15.00 27-Jan-21:  Drill Start Tim 
 DTIM.hr                 37.28:  Time Drilling 
 EDEP.m                4867.01:  End Depth 
 ENG1.          Rasim Hashimov:  Engineer 1 
 ENG2.         Almaz Almadatov:  Engineer 2 
 ENG3.        Tamerlan Ahmadov:  Engineer 3 
 ETIM.      22.41.04 31-Jan-21:  End Time 
 FLOI.gpm               400.00:  Flow In 
 FLON.gpm               300.00:  Flow In Min 
 FLOS.cptm                0.00:  Fluid Loss 
 FLOX.gpm               400.00:  Flow In Max 
 HFLO.                      No:  High Flow 
 HPRE.                      No:  High Pressure 
 HTEM.                      No:  High Temp 
 HYDO.m                   1.80:  Hydro Offset 
 IFIN.deg                65.63:  Inc, Final 
 IMAX.deg                66.77:  Inc Max 
 IMIN.deg                65.61:  Inc Min 
 IMND.m                4612.67:  Inc Min Depth 
 IMXD.m                4811.63:  Inc Max Depth 
 JARR.                      No:  Jarring 
 LETM.      08.30.00 30-Jan-21:  Log End Time 
 LOST.hr                     0:  Lost Rig Time 
 LSTM.      21.15.00 27-Jan-21:  Log Start Time 
 MDCL.ppm             41000.00:  Mud Chlorides 
 MDES.     Inversion Oil/Synthetic:  Mud Desc 
 DFD .sg                  1.40:  Mud Density 
 MDMN.sg                  1.40:  Dens Mud Min 
 MDMX.sg                  1.40:  Dens Mud Max 
 MOIL.                      53:  Run Mud Oil % 
 MOWR.                   66:34:  Run Mud OWR 
 MSND.                     0.2:  Run Mud Sand % 
 MSOL.                    17.9:  Run Mud Solids% 
 DFV .spqt               77.00:  Mud Viscosity 
 MWOD.in                  4.75:  MWD Tool OD 
 MWSI.                      No:  Serv Intrp, MWD 
 OTIM.hr                110.38:  Time Operating 
 PCON.           Look Like New:  Pad Condition 
 PMAX.psia             5300.00:  Press Op, Max 
 PV  .cP                 57.00:  Mud PV 
 RUN .                    1200:  Run Number 
 ROPA.m/hr               13.00:  ROP Avg 
 ROPN.m/hr                9.00:  ROP Min 
 ROPX.m/hr               15.00:  ROP Max 
 RPMA.rpm               120.00:  RPM Surface Avg 
 RPMN.rpm               100.00:  RPM Surface Min 
 RPMX.rpm               135.00:  RPM Surface Max 
 RRUN.                    1200:  Rig Run Number 
 RTIM.hr                  2.65:  Time Reaming 
 SAZI.deg               145.04:  Azm, Start 
 SDEP.m                4455.01:  Start Depth 
 SIDD.                      No:  Serv Intrp, DD 
 SINC.deg                65.83:  Inc, Start 
 SPPA.psig             5037.00:  SPP Avg 
 SPPN.psig             4430.00:  SPP Min 
 SPPX.psig             5300.00:  SPP Max 
 STIM.      22.41.04 26-Jan-21:  Start Time 
 SVCS.                 DD, MWD:  Services 
 SVER.                    9.20:  Sperry Version 
 TDAT.m                 412.00:  Tot Depth Attmp 
 TDDF.                      No:  Trip for DD 
 TDLG.m                 412.00:  Tot Depth Loggd 
 TFF .                      No:  Trip for Fail 
 TQAA.f-kp               15.00:  Torque Abs Avg 
 TQAN.f-kp               12.00:  Torque Abs Min 
 TQAX.f-kp               17.00:  Torque Abs Max 
 TRRT.°/30m               1.18:  Turn Rotating 
 MRT .                     ADR:  Maximum Recorded Temperature 
 TTMX.degC               88.24:  Max Tool Temp 
 VS01.                90619458:  Virtual Str1 SN 
 VS02.                90519326:  Virtual Str2 SN 
 VS03.                90522176:  Virtual Str3 SN 
 VS04.                90512683:  Virtual Str4 SN 
 WBMN.klb                 1.00:  WOB Min 
 WITN.           Murad Giluyev:  Customer Rep 
 WITN.     Kamran Kemberlinski:  Customer Rep 2 
 WOBA.klb                 5.00:  WOB Avg 
 WOBX.klb                 9.00:  WOB Max 
 YP  .lhf2               41.00:  Yield Point 
~Curve Information Block
#MNEM.UNIT                 API CODE     Curve Description
#---------               -----------    ---------------------------
 TIME.HHMMSS            00 000 000 000:  GT Time & Date
 GTDEPTH.m              00 000 000 000:  GT Depth
 GTPQH.psia             00 000 000 000:  GT HR Quartz Pressure
 GTTQ.degC              00 000 000 000:  GT Quartz Temperature
 GTTN.NONE              00 000 000 000:  GT Test Number
 GTET.sec               00 000 000 000:  GT Elapsed Test Time
 GTTVD.m                00 000 000 000:  GT True Vertical Depth
#Other Information
#
#WARRANTY: Halliburton will use its best efforts to furnish customers with 
#accurate information and interpretations that are part of, and incident to, the services 
#provided.  However, Halliburton cannot and does not warrant the accuracy 
#or correctness of such information and interpretations.  Under no circumstances should any 
#such information or interpretation be relied upon as the sole basis for any drilling, 
#completion, production, or financial decision or any procedure involving any risk to the 
#safety of any drilling venture, drilling rig or its crew or any other third party.  The 
#Customer has full responsibility for all drilling, completion and production operation.  
#Halliburton makes no representations or warranties, either expressed or 
#implied, including, but not limited to, the implied warranties of merchantability or fitness 
#for a particular purpose, with respect to the services rendered.  In no event will 
#Halliburton be liable for failure to obtain any particular results or for 
#any damages, including, but not limited to, indirect, special or consequential damages, 
#resulting from the use of any information or interpretation provided by Halliburton.
#
~A           TIME           GTDEPTH  GTPQH  GTTQ  GTTN  GTET   GTTVD  
# ...
   02:25:20.000.28-Jan-2021 4453.81 5414.53 60.87 1.00 138.00 2485.38
   02:25:20.200.28-Jan-2021 4453.81 5414.53 60.87 1.00 138.20 2485.38
   02:25:20.400.28-Jan-2021 4453.81 5411.73 60.87 1.00 138.40 2485.38
   02:25:20.600.28-Jan-2021 4453.81 5409.00 60.87 1.00 138.60 2485.38
   02:25:20.800.28-Jan-2021 4453.81 5405.45 60.87 1.00 138.80 2485.38
   02:25:21.000.28-Jan-2021 4453.81 5410.31 60.87 1.00 139.00 2485.38
   02:25:21.200.28-Jan-2021 4453.81 5410.31 60.87 1.00 139.20 2485.38
   02:25:21.400.28-Jan-2021 4453.81 5412.26 60.87 1.00 139.40 2485.38
   02:25:21.600.28-Jan-2021 4453.81 5412.05 60.87 1.00 139.60 2485.38
   02:25:21.800.28-Jan-2021 4453.81 5409.86 60.87 1.00 139.80 2485.38
   02:25:22.000.28-Jan-2021 4453.81 5410.80 60.87 1.00 140.00 2485.38
   02:25:22.200.28-Jan-2021 4453.81 5410.80 60.87 1.00 140.20 2485.38
   02:25:22.400.28-Jan-2021 4453.81 5410.18 60.87 1.00 140.40 2485.38
   02:25:22.600.28-Jan-2021 4453.81 5412.40 60.87 1.00 140.60 2485.38
   02:25:22.800.28-Jan-2021 4453.81 5410.83 60.87 1.00 140.80 2485.38
   02:25:23.000.28-Jan-2021 4453.81 5410.69 60.87 1.00 141.00 2485.38
   02:25:23.200.28-Jan-2021 4453.81 5410.69 60.87 1.00 141.20 2485.38
   02:25:23.400.28-Jan-2021 4453.81 5409.23 60.87 1.00 141.40 2485.38
   02:25:23.600.28-Jan-2021 4453.81 5411.40 60.87 1.00 141.60 2485.38
   02:25:23.800.28-Jan-2021 4453.81 5410.00 60.87 1.00 141.80 2485.38
   02:25:24.000.28-Jan-2021 4453.81 5410.42 60.87 1.00 142.00 2485.38
   02:25:24.200.28-Jan-2021 4453.81 5410.42 60.87 1.00 142.20 2485.38
   02:25:24.400.28-Jan-2021 4453.81 5408.95 60.87 1.00 142.40 2485.38
   02:25:24.600.28-Jan-2021 4453.81 5411.36 60.87 1.00 142.60 2485.38
   02:25:24.800.28-Jan-2021 4453.81 5413.80 60.87 1.00 142.80 2485.38
   02:25:25.000.28-Jan-2021 4453.81 5411.36 60.87 1.00 143.00 2485.38
   02:25:25.200.28-Jan-2021 4453.81 5411.36 60.87 1.00 143.20 2485.38
   02:25:25.400.28-Jan-2021 4453.81 5409.43 60.87 1.00 143.40 2485.38
   02:25:25.600.28-Jan-2021 4453.81 5411.10 60.87 1.00 143.60 2485.38
   02:25:25.800.28-Jan-2021 4453.81 5411.52 60.87 1.00 143.80 2485.38
   02:25:26.000.28-Jan-2021 4453.81 5410.55 60.86 1.00 144.00 2485.38
   02:25:26.200.28-Jan-2021 4453.81 5410.55 60.86 1.00 144.20 2485.38
   02:25:26.400.28-Jan-2021 4453.81 5410.23 60.86 1.00 144.40 2485.38
   02:25:26.600.28-Jan-2021 4453.81 5411.88 60.86 1.00 144.60 2485.38
   02:25:26.800.28-Jan-2021 4453.81 5411.85 60.86 1.00 144.80 2485.38
   02:25:27.000.28-Jan-2021 4453.81 5410.06 60.86 1.00 145.00 2485.38
   02:25:27.200.28-Jan-2021 4453.81 5410.06 60.86 1.00 145.20 2485.38
   02:25:27.400.28-Jan-2021 4453.81 5410.90 60.86 1.00 145.40 2485.38
   02:25:27.600.28-Jan-2021 4453.81 5403.73 60.86 1.00 145.60 2485.38
   02:25:27.800.28-Jan-2021 4453.81 5412.15 60.86 1.00 145.80 2485.38
   02:25:28.000.28-Jan-2021 4453.81 5409.88 60.86 1.00 146.00 2485.38
   02:25:28.200.28-Jan-2021 4453.81 5409.88 60.86 1.00 146.20 2485.38
   02:25:28.400.28-Jan-2021 4453.81 5408.80 60.86 1.00 146.40 2485.38
   02:25:28.600.28-Jan-2021 4453.81 5407.13 60.86 1.00 146.60 2485.38
   02:25:28.800.28-Jan-2021 4453.81 5412.29 60.86 1.00 146.80 2485.38
   02:25:29.000.28-Jan-2021 4453.81 5411.72 60.86 1.00 147.00 2485.38
   02:25:29.200.28-Jan-2021 4453.81 5411.72 60.86 1.00 147.20 2485.38
   02:25:29.400.28-Jan-2021 4453.81 5403.38 60.86 1.00 147.40 2485.38
   02:25:29.600.28-Jan-2021 4453.81 5410.51 60.86 1.00 147.60 2485.38
   02:25:29.800.28-Jan-2021 4453.81 5412.14 60.86 1.00 147.80 2485.38
   02:25:30.000.28-Jan-2021 4453.81 5413.71 60.86 1.00 148.00 2485.38
   02:25:30.200.28-Jan-2021 4453.81 5413.71 60.86 1.00 148.20 2485.38
   02:25:30.400.28-Jan-2021 4453.81 5411.49 60.86 1.00 148.40 2485.38
   02:25:30.600.28-Jan-2021 4453.81 5409.55 60.86 1.00 148.60 2485.38
   02:25:30.800.28-Jan-2021 4453.81 5413.55 60.86 1.00 148.80 2485.38
   02:25:31.000.28-Jan-2021 4453.81 5412.37 60.86 1.00 149.00 2485.38
   02:25:31.200.28-Jan-2021 4453.81 5412.37 60.86 1.00 149.20 2485.38
   02:25:31.400.28-Jan-2021 4453.81 5408.96 60.86 1.00 149.40 2485.38
   02:25:31.600.28-Jan-2021 4453.81 5405.31 60.86 1.00 149.60 2485.38
   02:25:31.800.28-Jan-2021 4453.81 5412.59 60.86 1.00 149.80 2485.38
   02:25:32.000.28-Jan-2021 4453.81 5413.26 60.86 1.00 150.00 2485.38
   02:25:32.200.28-Jan-2021 4453.81 5413.26 60.86 1.00 150.20 2485.38
   02:25:32.400.28-Jan-2021 4453.81 5413.43 60.86 1.00 150.40 2485.38
   02:25:32.600.28-Jan-2021 4453.81 5411.16 60.86 1.00 150.60 2485.38
   02:25:32.800.28-Jan-2021 4453.81 5412.73 60.86 1.00 150.80 2485.38
   02:25:33.000.28-Jan-2021 4453.81 5412.21 60.86 1.00 151.00 2485.38
   02:25:33.200.28-Jan-2021 4453.81 5412.21 60.86 1.00 151.20 2485.38
   02:25:33.400.28-Jan-2021 4453.81 5413.61 60.85 1.00 151.40 2485.38
   02:25:33.600.28-Jan-2021 4453.81 5411.64 60.85 1.00 151.60 2485.38
   02:25:33.800.28-Jan-2021 4453.81 5412.33 60.85 1.00 151.80 2485.38
   02:25:34.000.28-Jan-2021 4453.81 5412.85 60.85 1.00 152.00 2485.38
   02:25:34.200.28-Jan-2021 4453.81 5412.85 60.85 1.00 152.20 2485.38
   02:25:34.400.28-Jan-2021 4453.81 5412.68 60.85 1.00 152.40 2485.38
   02:25:34.600.28-Jan-2021 4453.81 5410.92 60.85 1.00 152.60 2485.38
   02:25:34.800.28-Jan-2021 4453.81 5411.68 60.85 1.00 152.80 2485.38
   02:25:35.000.28-Jan-2021 4453.81 5404.57 60.85 1.00 153.00 2485.38
   02:25:35.200.28-Jan-2021 4453.81 5404.57 60.85 1.00 153.20 2485.38
   02:25:35.400.28-Jan-2021 4453.81 5412.68 60.85 1.00 153.40 2485.38
   02:25:35.600.28-Jan-2021 4453.81 5414.11 60.85 1.00 153.60 2485.38
   02:25:35.800.28-Jan-2021 4453.81 5412.50 60.85 1.00 153.80 2485.38
   02:25:36.000.28-Jan-2021 4453.81 5412.81 60.85 1.00 154.00 2485.38
   02:25:36.200.28-Jan-2021 4453.81 5412.81 60.85 1.00 154.20 2485.38
   02:25:36.400.28-Jan-2021 4453.81 5412.84 60.85 1.00 154.40 2485.38
   02:25:36.600.28-Jan-2021 4453.81 5412.37 60.85 1.00 154.60 2485.38
   02:25:36.800.28-Jan-2021 4453.81 5411.98 60.85 1.00 154.80 2485.38
   02:25:37.000.28-Jan-2021 4453.81 5413.56 60.85 1.00 155.00 2485.38
   02:25:37.200.28-Jan-2021 4453.81 5413.56 60.85 1.00 155.20 2485.38
   02:25:37.400.28-Jan-2021 4453.81 5413.30 60.85 1.00 155.40 2485.38
   02:25:37.600.28-Jan-2021 4453.81 5412.56 60.85 1.00 155.60 2485.38
   02:25:37.800.28-Jan-2021 4453.81 5411.14 60.85 1.00 155.80 2485.38
   02:25:38.000.28-Jan-2021 4453.81 5413.39 60.85 1.00 156.00 2485.38
   02:25:38.200.28-Jan-2021 4453.81 5413.39 60.85 1.00 156.20 2485.38
   02:25:38.400.28-Jan-2021 4453.81 5405.42 60.85 1.00 156.40 2485.38
   02:25:38.600.28-Jan-2021 4453.81 5412.93 60.85 1.00 156.60 2485.38
   02:25:38.800.28-Jan-2021 4453.81 5411.30 60.85 1.00 156.80 2485.38
   02:25:39.000.28-Jan-2021 4453.81 5415.43 60.85 1.00 157.00 2485.38
   02:25:39.200.28-Jan-2021 4453.81 5415.43 60.85 1.00 157.20 2485.38
   02:25:39.400.28-Jan-2021 4453.81 5408.65 60.85 1.00 157.40 2485.38
   02:25:39.600.28-Jan-2021 4453.81 5413.44 60.85 1.00 157.60 2485.38
   02:25:39.800.28-Jan-2021 4453.81 5413.21 60.85 1.00 157.80 2485.38
   02:25:40.000.28-Jan-2021 4453.81 5415.88 60.85 1.00 158.00 2485.38
   02:25:40.200.28-Jan-2021 4453.81 5415.88 60.85 1.00 158.20 2485.38
   02:25:40.400.28-Jan-2021 4453.81 5412.54 60.84 1.00 158.40 2485.38
   02:25:40.600.28-Jan-2021 4453.81 5413.05 60.84 1.00 158.60 2485.38
   02:25:40.800.28-Jan-2021 4453.81 5414.23 60.84 1.00 158.80 2485.38
   02:25:41.000.28-Jan-2021 4453.81 5406.58 60.84 1.00 159.00 2485.38
   02:25:41.200.28-Jan-2021 4453.81 5406.58 60.84 1.00 159.20 2485.38
   02:25:41.400.28-Jan-2021 4453.81 5411.36 60.84 1.00 159.40 2485.38
   02:25:41.600.28-Jan-2021 4453.81 5415.28 60.84 1.00 159.60 2485.38
   02:25:41.800.28-Jan-2021 4453.81 5412.80 60.84 1.00 159.80 2485.38
   02:25:42.000.28-Jan-2021 4453.81 5412.47 60.84 1.00 160.00 2485.38
   02:25:42.200.28-Jan-2021 4453.81 5412.47 60.84 1.00 160.20 2485.38
   02:25:42.400.28-Jan-2021 4453.81 5410.01 60.84 1.00 160.40 2485.38
   02:25:42.600.28-Jan-2021 4453.81 5412.43 60.84 1.00 160.60 2485.38
   02:25:42.800.28-Jan-2021 4453.81 5413.90 60.84 1.00 160.80 2485.38
