~Version Information
 VERS.                  2.0:   CWLS log ASCII Standard -VERSION 2.0
 WRAP.                   NO:   One line per depth step
~Well Information Block
#MNEM.UNIT     VALUE/NAME     DESCRIPTION
#---------     -----------    ---------------------------
 STRT.S             20:44:12 29-Jan-21: START TIME 20:44:12 29-Jan-21
 STOP.S             20:50:42 29-Jan-21: STOP TIME  20:50:42 29-Jan-21
 STEP.S                   0.00: STEP TIME
 NULL.                 -999.25: NULL VALUE
 DFWT.                        :  DIST FWL TEXT
 DFST.                        :  DIST FSL TEXT
 DMF .             Drill Floor:  DRILL MEAS FROM
 STIM.      00.00.00 25-Sep-20:  START TIME
 DATE.      16.12.48 31-Jan-21:  END TIME
 SPUD.               20-Sep-20:  SPUD DATE
 NREF.                    Grid:  NORTH REFERENCE
 HPTY.       Minimum Curvature:  HOLE POS TYPE
 DMOD.             Drill Model:  DRILL MOD DESC
 SVYD.                  Survey:  SURVEY DESC
 ILTD.               Lithology:  INTERP LTH DESC
 FTOP.          Formation Tops:  FORM TOPS DESC
 RIG .              East Azeri:  RIG NAME
 PDAT.          Mean Sea Level:  PERMANENT DATUM
 FLD .                     ACG:  FIELD NAME
 SON .        AZ-XX-0906591820:  JOB NUMBER
 CTRY.              Azerbaijan:  COUNTRY NAME
 WELL.                     D37:  WELL NAME
 SRVC.     Turan Drilling & Engineering:  CONTRACTOR
 COMP.     BP Exploration (Caspian Sea) ltd.:  COMPANY
 WTYP.                Deviated:  WELL TYPE
 MDS .        Operator Entered:  MAG DATA SOURCE
 UWI .                     N/A:  UNIQUE WELL IDENTIFIER
 API .                     N/A:  API NUMBER
 BASE.              Azerbaijan:  LOGGING EQUIPMENT BASE LOCATION
 REGN.                   EESSA:  REGION
 PROV.                    Baku:  PROVINCE
 STAT.                    Baku:  STATE NAME
 MWDS.                    Baku:  MWD SHOP
 JOBN.        AZ-XX-0906591820:  JOB TICKET NUMB
 DOE .                     N/A:  DOE NUMBER
 DCON.         Sperry Drilling:  DIRECTNL CONTR
 UNIT.                     N/A:  LOGGING EQUIPMENT ID
 CNTY.                        :  COUNTY
 LOC .                        :  LOCATION
 LMF .             Drill Floor:  LOG MEASURED FROM
 TVDS.m                  43.60:  TVDSS CORRECTN
 LATI.deg                40.02:  LATITUDE
 LONG.deg                51.45:  LONGITUDE
 WHNS.m                  11.04:  WELL HEAD N/S
 WHEW.m                 -12.38:  WELL HEAD E/W
 UTMX.m              538763.98:  UTM X
 UTMY.m             4431880.20:  UTM Y
 DFWL.m                   0.00:  DISTANCE FWL
 DFSL.m                   0.00:  DISTANCE FSL
 SDEP.m                 300.00:  START DEPTH
 TDD .m                4900.01:  TOTAL DEPTH (DRILLER)
 VSDR.deg               185.64:  VERT SEC DIRECT
 GVFD.g                   1.00:  GRAVITY FIELD
 MFLD.nT              50301.00:  MAGNETIC FIELD
 MDIP.deg                59.46:  MAGNETIC DIP
 MDEC.deg                 6.43:  MAGNETIC DECL
 GRDC.deg                 0.29:  GRID CORRECTION
 AZTC.deg                 6.14:  AZM TOTAL CORR
 EPD .m                   0.00:  ELEVATION
 EGL .m                   0.00:  GROUND ELEVATION
 WDMS.m                 151.80:  WD ELEV
 APD .m                  43.60:  DEPTH ABOVE PD
 DEP .m                 571.69:  DEPTH
 AGAP.m                  43.60:  AIR GAP
 VSEW.m                 -12.38:  VERT SEC E/W
 VSNS.m                  11.04:  VERT SEC N/S
 EKB .m                  43.60:  KB ELEVATION
 EDF .m                  43.60:  DF ELEVATION
 TDL .m                 412.00:  TOTAL DEPTH (LOGGER)
 VSC .                       0:  VS TO CLOSURE
 MAGU.                 1849300:  MAGUTM CHECKSUM
~Parameter Information Block
#MNEM.UNIT       Value        Description
#---------     -----------    ---------------------------
 AV  .mps                 2.21:  Ann Velocity 
 AVMX.mps                 2.53:  Max Ann Veloc 
 AZIF.deg               144.83:  Azm, Final 
 BHAT.        Rotary Steerable:  BHA Type 
 BROT.°/30m              -0.52:  Build Rotating 
 BS  .in                  6.50:  Bit Size 
 BTPL.psig              209.00:  Bit Press Loss 
 CABU.                      No:  Customer Abuse 
 CGEO.        Ali Isfandiyarov:  Customer Geo 
 TCS .hr                 61.31:  Time Ciculation Ended 
 CV  .mps                 4.66:  Crit Velocity 
 CVMX.mps                 5.02:  Max Crit Veloc 
 DD1 .          Fariz Nahmatov:  Direct Drillr 1 
 DD2 .            Musa Ahmadov:  Direct Drillr 2 
 DDSV.               Geo-Pilot:  DD Service 
 DEFF.%                 100.00:  % Det Eff 
 DLRX.°/30m               1.44:  Dogleg Rot Max 
 DLSO.°/30m               0.83:  Dogleg Oriented 
 DLSX.°/30m               1.44:  Dogleg Str Max 
 DRET.      08.30.00 30-Jan-21:  Drill End Time 
 DRST.      21.15.00 27-Jan-21:  Drill Start Tim 
 DTIM.hr                 37.28:  Time Drilling 
 EDEP.m                4867.01:  End Depth 
 ENG1.          Rasim Hashimov:  Engineer 1 
 ENG2.         Almaz Almadatov:  Engineer 2 
 ENG3.        Tamerlan Ahmadov:  Engineer 3 
 ETIM.      22.41.04 31-Jan-21:  End Time 
 FLOI.gpm               400.00:  Flow In 
 FLON.gpm               300.00:  Flow In Min 
 FLOS.cptm                0.00:  Fluid Loss 
 FLOX.gpm               400.00:  Flow In Max 
 HFLO.                      No:  High Flow 
 HPRE.                      No:  High Pressure 
 HTEM.                      No:  High Temp 
 HYDO.m                   1.80:  Hydro Offset 
 IFIN.deg                65.63:  Inc, Final 
 IMAX.deg                66.77:  Inc Max 
 IMIN.deg                65.61:  Inc Min 
 IMND.m                4612.67:  Inc Min Depth 
 IMXD.m                4811.63:  Inc Max Depth 
 JARR.                      No:  Jarring 
 LETM.      08.30.00 30-Jan-21:  Log End Time 
 LOST.hr                     0:  Lost Rig Time 
 LSTM.      21.15.00 27-Jan-21:  Log Start Time 
 MDCL.ppm             41000.00:  Mud Chlorides 
 MDES.     Inversion Oil/Synthetic:  Mud Desc 
 DFD .sg                  1.40:  Mud Density 
 MDMN.sg                  1.40:  Dens Mud Min 
 MDMX.sg                  1.40:  Dens Mud Max 
 MOIL.                      53:  Run Mud Oil % 
 MOWR.                   66:34:  Run Mud OWR 
 MSND.                     0.2:  Run Mud Sand % 
 MSOL.                    17.9:  Run Mud Solids% 
 DFV .spqt               77.00:  Mud Viscosity 
 MWOD.in                  4.75:  MWD Tool OD 
 MWSI.                      No:  Serv Intrp, MWD 
 OTIM.hr                110.38:  Time Operating 
 PCON.           Look Like New:  Pad Condition 
 PMAX.psia             5300.00:  Press Op, Max 
 PV  .cP                 57.00:  Mud PV 
 RUN .                    1200:  Run Number 
 ROPA.m/hr               13.00:  ROP Avg 
 ROPN.m/hr                9.00:  ROP Min 
 ROPX.m/hr               15.00:  ROP Max 
 RPMA.rpm               120.00:  RPM Surface Avg 
 RPMN.rpm               100.00:  RPM Surface Min 
 RPMX.rpm               135.00:  RPM Surface Max 
 RRUN.                    1200:  Rig Run Number 
 RTIM.hr                  2.65:  Time Reaming 
 SAZI.deg               145.04:  Azm, Start 
 SDEP.m                4455.01:  Start Depth 
 SIDD.                      No:  Serv Intrp, DD 
 SINC.deg                65.83:  Inc, Start 
 SPPA.psig             5037.00:  SPP Avg 
 SPPN.psig             4430.00:  SPP Min 
 SPPX.psig             5300.00:  SPP Max 
 STIM.      22.41.04 26-Jan-21:  Start Time 
 SVCS.                 DD, MWD:  Services 
 SVER.                    9.20:  Sperry Version 
 TDAT.m                 412.00:  Tot Depth Attmp 
 TDDF.                      No:  Trip for DD 
 TDLG.m                 412.00:  Tot Depth Loggd 
 TFF .                      No:  Trip for Fail 
 TQAA.f-kp               15.00:  Torque Abs Avg 
 TQAN.f-kp               12.00:  Torque Abs Min 
 TQAX.f-kp               17.00:  Torque Abs Max 
 TRRT.°/30m               1.18:  Turn Rotating 
 MRT .                     ADR:  Maximum Recorded Temperature 
 TTMX.degC               88.24:  Max Tool Temp 
 VS01.                90619458:  Virtual Str1 SN 
 VS02.                90519326:  Virtual Str2 SN 
 VS03.                90522176:  Virtual Str3 SN 
 VS04.                90512683:  Virtual Str4 SN 
 WBMN.klb                 1.00:  WOB Min 
 WITN.           Murad Giluyev:  Customer Rep 
 WITN.     Kamran Kemberlinski:  Customer Rep 2 
 WOBA.klb                 5.00:  WOB Avg 
 WOBX.klb                 9.00:  WOB Max 
 YP  .lhf2               41.00:  Yield Point 
~Curve Information Block
#MNEM.UNIT                 API CODE     Curve Description
#---------               -----------    ---------------------------
 TIME.HHMMSS            00 000 000 000:  GT Time & Date
 GTDEPTH.m              00 000 000 000:  GT Depth
 GTPQH.psia             00 000 000 000:  GT HR Quartz Pressure
 GTTQ.degC              00 000 000 000:  GT Quartz Temperature
 GTTN.NONE              00 000 000 000:  GT Test Number
 GTET.sec               00 000 000 000:  GT Elapsed Test Time
 GTTVD.m                00 000 000 000:  GT True Vertical Depth
#Other Information
#
#WARRANTY: Halliburton will use its best efforts to furnish customers with 
#accurate information and interpretations that are part of, and incident to, the services 
#provided.  However, Halliburton cannot and does not warrant the accuracy 
#or correctness of such information and interpretations.  Under no circumstances should any 
#such information or interpretation be relied upon as the sole basis for any drilling, 
#completion, production, or financial decision or any procedure involving any risk to the 
#safety of any drilling venture, drilling rig or its crew or any other third party.  The 
#Customer has full responsibility for all drilling, completion and production operation.  
#Halliburton makes no representations or warranties, either expressed or 
#implied, including, but not limited to, the implied warranties of merchantability or fitness 
#for a particular purpose, with respect to the services rendered.  In no event will 
#Halliburton be liable for failure to obtain any particular results or for 
#any damages, including, but not limited to, indirect, special or consequential damages, 
#resulting from the use of any information or interpretation provided by Halliburton.
#
~A           TIME           GTDEPTH  GTPQH  GTTQ  GTTN   GTET   GTTVD  
# ...
   20:46:28.214.29-Jan-2021 4766.51 3118.25 83.43 13.00 135.62 2612.24
   20:46:28.414.29-Jan-2021 4766.51 3118.00 83.42 13.00 135.82 2612.24
   20:46:28.614.29-Jan-2021 4766.51 3118.09 83.42 13.00 136.02 2612.24
   20:46:28.814.29-Jan-2021 4766.51 3118.09 83.42 13.00 136.22 2612.24
   20:46:29.014.29-Jan-2021 4766.51 3118.11 83.42 13.00 136.42 2612.24
   20:46:29.214.29-Jan-2021 4766.51 3117.74 83.42 13.00 136.62 2612.24
   20:46:29.414.29-Jan-2021 4766.51 3118.18 83.42 13.00 136.82 2612.24
   20:46:29.614.29-Jan-2021 4766.51 3117.96 83.42 13.00 137.02 2612.24
   20:46:29.814.29-Jan-2021 4766.51 3117.96 83.42 13.00 137.22 2612.24
   20:46:30.014.29-Jan-2021 4766.51 3117.96 83.42 13.00 137.42 2612.24
   20:46:30.214.29-Jan-2021 4766.51 3117.98 83.42 13.00 137.62 2612.24
   20:46:30.415.29-Jan-2021 4766.51 3118.03 83.42 13.00 137.82 2612.24
   20:46:30.615.29-Jan-2021 4766.51 3118.06 83.42 13.00 138.02 2612.24
   20:46:30.815.29-Jan-2021 4766.51 3118.06 83.42 13.00 138.22 2612.24
   20:46:31.015.29-Jan-2021 4766.51 3118.00 83.42 13.00 138.42 2612.24
   20:46:31.215.29-Jan-2021 4766.51 3117.95 83.42 13.00 138.62 2612.24
   20:46:31.415.29-Jan-2021 4766.51 3117.99 83.41 13.00 138.82 2612.24
   20:46:31.615.29-Jan-2021 4766.51 3118.07 83.41 13.00 139.02 2612.24
   20:46:31.815.29-Jan-2021 4766.51 3118.07 83.41 13.00 139.22 2612.24
   20:46:32.015.29-Jan-2021 4766.51 3117.91 83.41 13.00 139.42 2612.24
   20:46:32.215.29-Jan-2021 4766.51 3118.01 83.41 13.00 139.62 2612.24
   20:46:32.415.29-Jan-2021 4766.51 3118.03 83.41 13.00 139.82 2612.24
   20:46:32.615.29-Jan-2021 4766.51 3117.92 83.41 13.00 140.02 2612.24
   20:46:32.815.29-Jan-2021 4766.51 3117.92 83.41 13.00 140.22 2612.24
   20:46:33.015.29-Jan-2021 4766.51 3118.04 83.41 13.00 140.42 2612.24
   20:46:33.215.29-Jan-2021 4766.51 3117.99 83.41 13.00 140.62 2612.24
   20:46:33.415.29-Jan-2021 4766.51 3118.03 83.41 13.00 140.82 2612.24
   20:46:33.615.29-Jan-2021 4766.51 3117.87 83.41 13.00 141.02 2612.24
   20:46:33.815.29-Jan-2021 4766.51 3117.87 83.41 13.00 141.22 2612.24
   20:46:34.015.29-Jan-2021 4766.51 3117.94 83.41 13.00 141.42 2612.24
   20:46:34.215.29-Jan-2021 4766.51 3118.08 83.41 13.00 141.62 2612.24
   20:46:34.415.29-Jan-2021 4766.51 3117.87 83.40 13.00 141.82 2612.24
   20:46:34.615.29-Jan-2021 4766.51 3117.98 83.40 13.00 142.02 2612.24
   20:46:34.815.29-Jan-2021 4766.51 3117.98 83.40 13.00 142.22 2612.24
   20:46:35.015.29-Jan-2021 4766.51 3118.06 83.40 13.00 142.42 2612.24
   20:46:35.215.29-Jan-2021 4766.51 3117.94 83.40 13.00 142.62 2612.24
   20:46:35.415.29-Jan-2021 4766.51 3118.02 83.40 13.00 142.82 2612.24
   20:46:35.615.29-Jan-2021 4766.51 3126.62 83.40 13.00 143.02 2612.24
   20:46:35.815.29-Jan-2021 4766.51 3126.62 83.40 13.00 143.22 2612.24
   20:46:36.015.29-Jan-2021 4766.51 3131.29 83.40 13.00 143.42 2612.24
   20:46:36.215.29-Jan-2021 4766.51 3131.42 83.40 13.00 143.62 2612.24
   20:46:36.415.29-Jan-2021 4766.51 3131.39 83.40 13.00 143.82 2612.24
   20:46:36.615.29-Jan-2021 4766.51 3131.39 83.40 13.00 144.02 2612.24
   20:46:36.815.29-Jan-2021 4766.51 3131.39 83.40 13.00 144.22 2612.24
   20:46:37.015.29-Jan-2021 4766.51 3131.46 83.40 13.00 144.42 2612.24
   20:46:37.215.29-Jan-2021 4766.51 3131.43 83.40 13.00 144.62 2612.24
   20:46:37.415.29-Jan-2021 4766.51 3131.43 83.39 13.00 144.82 2612.24
   20:46:37.615.29-Jan-2021 4766.51 3131.40 83.39 13.00 145.02 2612.24
   20:46:37.815.29-Jan-2021 4766.51 3131.40 83.39 13.00 145.22 2612.24
   20:46:38.015.29-Jan-2021 4766.51 3131.45 83.39 13.00 145.42 2612.24
   20:46:38.215.29-Jan-2021 4766.51 3131.45 83.39 13.00 145.62 2612.24
   20:46:38.415.29-Jan-2021 4766.51 3131.44 83.39 13.00 145.82 2612.24
   20:46:38.615.29-Jan-2021 4766.51 3131.43 83.39 13.00 146.02 2612.24
   20:46:38.815.29-Jan-2021 4766.51 3131.43 83.39 13.00 146.22 2612.24
   20:46:39.016.29-Jan-2021 4766.51 3131.49 83.39 13.00 146.42 2612.24
   20:46:39.216.29-Jan-2021 4766.51 3131.47 83.39 13.00 146.62 2612.24
   20:46:39.416.29-Jan-2021 4766.51 3131.45 83.39 13.00 146.82 2612.24
   20:46:39.616.29-Jan-2021 4766.51 3131.44 83.39 13.00 147.02 2612.24
   20:46:39.816.29-Jan-2021 4766.51 3131.44 83.39 13.00 147.22 2612.24
   20:46:40.016.29-Jan-2021 4766.51 3131.42 83.39 13.00 147.42 2612.24
   20:46:40.216.29-Jan-2021 4766.51 3131.50 83.39 13.00 147.62 2612.24
   20:46:40.416.29-Jan-2021 4766.51 3131.46 83.38 13.00 147.82 2612.24
   20:46:40.616.29-Jan-2021 4766.51 3131.46 83.38 13.00 148.02 2612.24
   20:46:40.816.29-Jan-2021 4766.51 3131.46 83.38 13.00 148.22 2612.24
   20:46:41.016.29-Jan-2021 4766.51 3131.48 83.38 13.00 148.42 2612.24
   20:46:41.216.29-Jan-2021 4766.51 3131.45 83.38 13.00 148.62 2612.24
   20:46:41.416.29-Jan-2021 4766.51 3131.47 83.38 13.00 148.82 2612.24
   20:46:41.616.29-Jan-2021 4766.51 3131.44 83.38 13.00 149.02 2612.24
   20:46:41.816.29-Jan-2021 4766.51 3131.44 83.38 13.00 149.22 2612.24
   20:46:42.016.29-Jan-2021 4766.51 3131.45 83.38 13.00 149.42 2612.24
   20:46:42.216.29-Jan-2021 4766.51 3131.46 83.38 13.00 149.62 2612.24
   20:46:42.416.29-Jan-2021 4766.51 3131.44 83.38 13.00 149.82 2612.24
   20:46:42.616.29-Jan-2021 4766.51 3131.46 83.38 13.00 150.02 2612.24
   20:46:42.816.29-Jan-2021 4766.51 3131.46 83.38 13.00 150.22 2612.24
   20:46:43.016.29-Jan-2021 4766.51 3131.46 83.38 13.00 150.42 2612.24
   20:46:43.216.29-Jan-2021 4766.51 3131.45 83.38 13.00 150.62 2612.24
   20:46:43.416.29-Jan-2021 4766.51 3131.46 83.37 13.00 150.82 2612.24
   20:46:43.616.29-Jan-2021 4766.51 3131.41 83.37 13.00 151.02 2612.24
   20:46:43.816.29-Jan-2021 4766.51 3131.41 83.37 13.00 151.22 2612.24
   20:46:44.016.29-Jan-2021 4766.51 3131.46 83.37 13.00 151.42 2612.24
   20:46:44.216.29-Jan-2021 4766.51 3131.46 83.37 13.00 151.62 2612.24
   20:46:44.416.29-Jan-2021 4766.51 3131.45 83.37 13.00 151.82 2612.24
   20:46:44.616.29-Jan-2021 4766.51 3131.46 83.37 13.00 152.02 2612.24
   20:46:44.816.29-Jan-2021 4766.51 3131.46 83.37 13.00 152.22 2612.24
   20:46:45.016.29-Jan-2021 4766.51 3131.47 83.37 13.00 152.42 2612.24
   20:46:45.216.29-Jan-2021 4766.51 3131.44 83.37 13.00 152.62 2612.24
   20:46:45.416.29-Jan-2021 4766.51 3131.45 83.37 13.00 152.82 2612.24
   20:46:45.616.29-Jan-2021 4766.51 3131.46 83.37 13.00 153.02 2612.24
   20:46:45.816.29-Jan-2021 4766.51 3131.46 83.37 13.00 153.22 2612.24
   20:46:46.016.29-Jan-2021 4766.51 3131.45 83.37 13.00 153.42 2612.24
   20:46:46.216.29-Jan-2021 4766.51 3131.45 83.37 13.00 153.62 2612.24
   20:46:46.416.29-Jan-2021 4766.51 3131.45 83.36 13.00 153.82 2612.24
   20:46:46.616.29-Jan-2021 4766.51 3131.44 83.36 13.00 154.02 2612.24
   20:46:46.816.29-Jan-2021 4766.51 3131.44 83.36 13.00 154.22 2612.24
   20:46:47.016.29-Jan-2021 4766.51 3131.49 83.36 13.00 154.42 2612.24
   20:46:47.216.29-Jan-2021 4766.51 3131.47 83.36 13.00 154.62 2612.24
   20:46:47.417.29-Jan-2021 4766.51 3131.46 83.36 13.00 154.82 2612.24
   20:46:47.617.29-Jan-2021 4766.51 3131.43 83.36 13.00 155.02 2612.24
   20:46:47.817.29-Jan-2021 4766.51 3131.43 83.36 13.00 155.22 2612.24
   20:46:48.017.29-Jan-2021 4766.51 3131.46 83.36 13.00 155.42 2612.24
   20:46:48.217.29-Jan-2021 4766.51 3131.47 83.36 13.00 155.62 2612.24
   20:46:48.417.29-Jan-2021 4766.51 3131.43 83.36 13.00 155.82 2612.24
   20:46:48.617.29-Jan-2021 4766.51 3131.46 83.36 13.00 156.02 2612.24
   20:46:48.817.29-Jan-2021 4766.51 3131.46 83.36 13.00 156.22 2612.24
   20:46:49.017.29-Jan-2021 4766.51 3131.46 83.36 13.00 156.42 2612.24
   20:46:49.217.29-Jan-2021 4766.51 3131.44 83.36 13.00 156.62 2612.24
   20:46:49.417.29-Jan-2021 4766.51 3131.46 83.36 13.00 156.82 2612.24
   20:46:49.617.29-Jan-2021 4766.51 3131.42 83.35 13.00 157.02 2612.24
   20:46:49.817.29-Jan-2021 4766.51 3131.42 83.35 13.00 157.22 2612.24
   20:46:50.017.29-Jan-2021 4766.51 3131.46 83.35 13.00 157.42 2612.24
   20:46:50.217.29-Jan-2021 4766.51 3131.46 83.35 13.00 157.62 2612.24
   20:46:50.417.29-Jan-2021 4766.51 3131.39 83.35 13.00 157.82 2612.24
   20:46:50.617.29-Jan-2021 4766.51 3131.50 83.35 13.00 158.02 2612.24
