~Version Information
 VERS.                  2.0:   CWLS log ASCII Standard -VERSION 2.0
 WRAP.                   NO:   One line per depth step
~Well Information Block
#MNEM.UNIT     VALUE/NAME     DESCRIPTION
#---------     -----------    ---------------------------
 STRT.S             01:29:12 30-Jan-21: START TIME 01:29:12 30-Jan-21
 STOP.S             01:35:33 30-Jan-21: STOP TIME  01:35:33 30-Jan-21
 STEP.S                   0.00: STEP TIME
 NULL.                 -999.25: NULL VALUE
 DFWT.                        :  DIST FWL TEXT
 DFST.                        :  DIST FSL TEXT
 DMF .             Drill Floor:  DRILL MEAS FROM
 STIM.      00.00.00 25-Sep-20:  START TIME
 DATE.      16.12.48 31-Jan-21:  END TIME
 SPUD.               20-Sep-20:  SPUD DATE
 NREF.                    Grid:  NORTH REFERENCE
 HPTY.       Minimum Curvature:  HOLE POS TYPE
 DMOD.             Drill Model:  DRILL MOD DESC
 SVYD.                  Survey:  SURVEY DESC
 ILTD.               Lithology:  INTERP LTH DESC
 FTOP.          Formation Tops:  FORM TOPS DESC
 RIG .              East Azeri:  RIG NAME
 PDAT.          Mean Sea Level:  PERMANENT DATUM
 FLD .                     ACG:  FIELD NAME
 SON .        AZ-XX-0906591820:  JOB NUMBER
 CTRY.              Azerbaijan:  COUNTRY NAME
 WELL.                     D37:  WELL NAME
 SRVC.     Turan Drilling & Engineering:  CONTRACTOR
 COMP.     BP Exploration (Caspian Sea) ltd.:  COMPANY
 WTYP.                Deviated:  WELL TYPE
 MDS .        Operator Entered:  MAG DATA SOURCE
 UWI .                     N/A:  UNIQUE WELL IDENTIFIER
 API .                     N/A:  API NUMBER
 BASE.              Azerbaijan:  LOGGING EQUIPMENT BASE LOCATION
 REGN.                   EESSA:  REGION
 PROV.                    Baku:  PROVINCE
 STAT.                    Baku:  STATE NAME
 MWDS.                    Baku:  MWD SHOP
 JOBN.        AZ-XX-0906591820:  JOB TICKET NUMB
 DOE .                     N/A:  DOE NUMBER
 DCON.         Sperry Drilling:  DIRECTNL CONTR
 UNIT.                     N/A:  LOGGING EQUIPMENT ID
 CNTY.                        :  COUNTY
 LOC .                        :  LOCATION
 LMF .             Drill Floor:  LOG MEASURED FROM
 TVDS.m                  43.60:  TVDSS CORRECTN
 LATI.deg                40.02:  LATITUDE
 LONG.deg                51.45:  LONGITUDE
 WHNS.m                  11.04:  WELL HEAD N/S
 WHEW.m                 -12.38:  WELL HEAD E/W
 UTMX.m              538763.98:  UTM X
 UTMY.m             4431880.20:  UTM Y
 DFWL.m                   0.00:  DISTANCE FWL
 DFSL.m                   0.00:  DISTANCE FSL
 SDEP.m                 300.00:  START DEPTH
 TDD .m                4900.01:  TOTAL DEPTH (DRILLER)
 VSDR.deg               185.64:  VERT SEC DIRECT
 GVFD.g                   1.00:  GRAVITY FIELD
 MFLD.nT              50301.00:  MAGNETIC FIELD
 MDIP.deg                59.46:  MAGNETIC DIP
 MDEC.deg                 6.43:  MAGNETIC DECL
 GRDC.deg                 0.29:  GRID CORRECTION
 AZTC.deg                 6.14:  AZM TOTAL CORR
 EPD .m                   0.00:  ELEVATION
 EGL .m                   0.00:  GROUND ELEVATION
 WDMS.m                 151.80:  WD ELEV
 APD .m                  43.60:  DEPTH ABOVE PD
 DEP .m                 571.69:  DEPTH
 AGAP.m                  43.60:  AIR GAP
 VSEW.m                 -12.38:  VERT SEC E/W
 VSNS.m                  11.04:  VERT SEC N/S
 EKB .m                  43.60:  KB ELEVATION
 EDF .m                  43.60:  DF ELEVATION
 TDL .m                 412.00:  TOTAL DEPTH (LOGGER)
 VSC .                       0:  VS TO CLOSURE
 MAGU.                 1849300:  MAGUTM CHECKSUM
~Parameter Information Block
#MNEM.UNIT       Value        Description
#---------     -----------    ---------------------------
 AV  .mps                 2.21:  Ann Velocity 
 AVMX.mps                 2.53:  Max Ann Veloc 
 AZIF.deg               144.83:  Azm, Final 
 BHAT.        Rotary Steerable:  BHA Type 
 BROT.°/30m              -0.52:  Build Rotating 
 BS  .in                  6.50:  Bit Size 
 BTPL.psig              209.00:  Bit Press Loss 
 CABU.                      No:  Customer Abuse 
 CGEO.        Ali Isfandiyarov:  Customer Geo 
 COMM.                     5j:  Run Comments 1 
 TCS .hr                 61.31:  Time Ciculation Ended 
 CV  .mps                 4.66:  Crit Velocity 
 CVMX.mps                 5.02:  Max Crit Veloc 
 DD1 .          Fariz Nahmatov:  Direct Drillr 1 
 DD2 .            Musa Ahmadov:  Direct Drillr 2 
 DDSV.               Geo-Pilot:  DD Service 
 DEFF.%                 100.00:  % Det Eff 
 DLRX.°/30m               1.44:  Dogleg Rot Max 
 DLSO.°/30m               0.83:  Dogleg Oriented 
 DLSX.°/30m               1.44:  Dogleg Str Max 
 DRET.      08.30.00 30-Jan-21:  Drill End Time 
 DRST.      21.15.00 27-Jan-21:  Drill Start Tim 
 DTIM.hr                 37.28:  Time Drilling 
 EDEP.m                4867.01:  End Depth 
 ENG1.          Rasim Hashimov:  Engineer 1 
 ENG2.         Almaz Almadatov:  Engineer 2 
 ENG3.        Tamerlan Ahmadov:  Engineer 3 
 ETIM.      22.41.04 31-Jan-21:  End Time 
 FLOI.gpm               400.00:  Flow In 
 FLON.gpm               300.00:  Flow In Min 
 FLOS.cptm                0.00:  Fluid Loss 
 FLOX.gpm               400.00:  Flow In Max 
 HFLO.                      No:  High Flow 
 HPRE.                      No:  High Pressure 
 HTEM.                      No:  High Temp 
 HYDO.m                   1.80:  Hydro Offset 
 IFIN.deg                65.63:  Inc, Final 
 IMAX.deg                66.77:  Inc Max 
 IMIN.deg                65.61:  Inc Min 
 IMND.m                4612.67:  Inc Min Depth 
 IMXD.m                4811.63:  Inc Max Depth 
 JARR.                      No:  Jarring 
 LETM.      08.30.00 30-Jan-21:  Log End Time 
 LOST.hr                     0:  Lost Rig Time 
 LSTM.      21.15.00 27-Jan-21:  Log Start Time 
 MDCL.ppm             41000.00:  Mud Chlorides 
 MDES.     Inversion Oil/Synthetic:  Mud Desc 
 DFD .sg                  1.40:  Mud Density 
 MDMN.sg                  1.40:  Dens Mud Min 
 MDMX.sg                  1.40:  Dens Mud Max 
 MOIL.                      53:  Run Mud Oil % 
 MOWR.                   66:34:  Run Mud OWR 
 MSND.                     0.2:  Run Mud Sand % 
 MSOL.                    17.9:  Run Mud Solids% 
 DFV .spqt               77.00:  Mud Viscosity 
 MWOD.in                  4.75:  MWD Tool OD 
 MWSI.                      No:  Serv Intrp, MWD 
 OTIM.hr                110.38:  Time Operating 
 PCON.           Look Like New:  Pad Condition 
 PMAX.psia             5300.00:  Press Op, Max 
 PV  .cP                 57.00:  Mud PV 
 RUN .                    1200:  Run Number 
 ROPA.m/hr               13.00:  ROP Avg 
 ROPN.m/hr                9.00:  ROP Min 
 ROPX.m/hr               15.00:  ROP Max 
 RPMA.rpm               120.00:  RPM Surface Avg 
 RPMN.rpm               100.00:  RPM Surface Min 
 RPMX.rpm               135.00:  RPM Surface Max 
 RRUN.                    1200:  Rig Run Number 
 RTIM.hr                  2.65:  Time Reaming 
 SAZI.deg               145.04:  Azm, Start 
 SDEP.m                4455.01:  Start Depth 
 SIDD.                      No:  Serv Intrp, DD 
 SINC.deg                65.83:  Inc, Start 
 SPPA.psig             5037.00:  SPP Avg 
 SPPN.psig             4430.00:  SPP Min 
 SPPX.psig             5300.00:  SPP Max 
 STIM.      22.41.04 26-Jan-21:  Start Time 
 SVCS.                 DD, MWD:  Services 
 SVER.                    9.20:  Sperry Version 
 TDAT.m                 412.00:  Tot Depth Attmp 
 TDDF.                      No:  Trip for DD 
 TDLG.m                 412.00:  Tot Depth Loggd 
 TFF .                      No:  Trip for Fail 
 TQAA.f-kp               15.00:  Torque Abs Avg 
 TQAN.f-kp               12.00:  Torque Abs Min 
 TQAX.f-kp               17.00:  Torque Abs Max 
 TRRT.°/30m               1.18:  Turn Rotating 
 MRT .                     ADR:  Maximum Recorded Temperature 
 TTMX.degC               88.24:  Max Tool Temp 
 VS01.                90619458:  Virtual Str1 SN 
 VS02.                90519326:  Virtual Str2 SN 
 VS03.                90522176:  Virtual Str3 SN 
 VS04.                90512683:  Virtual Str4 SN 
 WBMN.klb                 1.00:  WOB Min 
 WITN.           Murad Giluyev:  Customer Rep 
 WITN.     Kamran Kemberlinski:  Customer Rep 2 
 WOBA.klb                 5.00:  WOB Avg 
 WOBX.klb                 9.00:  WOB Max 
 YP  .lhf2               41.00:  Yield Point 
~Curve Information Block
#MNEM.UNIT                 API CODE     Curve Description
#---------               -----------    ---------------------------
 TIME.HHMMSS            00 000 000 000:  GT Time & Date
 GTDEPTH.m              00 000 000 000:  GT Depth
 GTPQH.psia             00 000 000 000:  GT HR Quartz Pressure
 GTTQ.degC              00 000 000 000:  GT Quartz Temperature
 GTTN.NONE              00 000 000 000:  GT Test Number
 GTET.sec               00 000 000 000:  GT Elapsed Test Time
 GTTVD.m                00 000 000 000:  GT True Vertical Depth
#Other Information
#
#WARRANTY: Halliburton will use its best efforts to furnish customers with 
#accurate information and interpretations that are part of, and incident to, the services 
#provided.  However, Halliburton cannot and does not warrant the accuracy 
#or correctness of such information and interpretations.  Under no circumstances should any 
#such information or interpretation be relied upon as the sole basis for any drilling, 
#completion, production, or financial decision or any procedure involving any risk to the 
#safety of any drilling venture, drilling rig or its crew or any other third party.  The 
#Customer has full responsibility for all drilling, completion and production operation.  
#Halliburton makes no representations or warranties, either expressed or 
#implied, including, but not limited to, the implied warranties of merchantability or fitness 
#for a particular purpose, with respect to the services rendered.  In no event will 
#Halliburton be liable for failure to obtain any particular results or for 
#any damages, including, but not limited to, indirect, special or consequential damages, 
#resulting from the use of any information or interpretation provided by Halliburton.
#
~A           TIME           GTDEPTH  GTPQH  GTTQ  GTTN   GTET   GTTVD  
# ...
   01:32:58.681.30-Jan-2021 4789.01   37.46 81.85 15.00 226.04 2621.19
   01:32:58.881.30-Jan-2021 4789.01   37.46 81.85 15.00 226.24 2621.19
   01:32:59.081.30-Jan-2021 4789.01   37.48 81.84 15.00 226.44 2621.19
   01:32:59.281.30-Jan-2021 4789.01   37.48 81.84 15.00 226.64 2621.19
   01:32:59.481.30-Jan-2021 4789.01   37.49 81.84 15.00 226.84 2621.19
   01:32:59.681.30-Jan-2021 4789.01   37.49 81.84 15.00 227.04 2621.19
   01:32:59.881.30-Jan-2021 4789.01   37.49 81.84 15.00 227.24 2621.19
   01:33:00.081.30-Jan-2021 4789.01   37.52 81.84 15.00 227.44 2621.19
   01:33:00.281.30-Jan-2021 4789.01   37.52 81.84 15.00 227.64 2621.19
   01:33:00.481.30-Jan-2021 4789.01   37.53 81.84 15.00 227.84 2621.19
   01:33:00.681.30-Jan-2021 4789.01   37.54 81.84 15.00 228.04 2621.19
   01:33:00.881.30-Jan-2021 4789.01   37.54 81.84 15.00 228.24 2621.19
   01:33:01.081.30-Jan-2021 4789.01   37.55 81.84 15.00 228.44 2621.19
   01:33:01.281.30-Jan-2021 4789.01   37.56 81.84 15.00 228.64 2621.19
   01:33:01.481.30-Jan-2021 4789.01   37.57 81.84 15.00 228.84 2621.19
   01:33:01.682.30-Jan-2021 4789.01   37.58 81.84 15.00 229.04 2621.19
   01:33:01.882.30-Jan-2021 4789.01   37.58 81.84 15.00 229.24 2621.19
   01:33:02.082.30-Jan-2021 4789.01   37.59 81.84 15.00 229.44 2621.19
   01:33:02.282.30-Jan-2021 4789.01   37.60 81.84 15.00 229.64 2621.19
   01:33:02.482.30-Jan-2021 4789.01   37.60 81.84 15.00 229.84 2621.19
   01:33:02.682.30-Jan-2021 4789.01   37.62 81.84 15.00 230.04 2621.19
   01:33:02.882.30-Jan-2021 4789.01   37.62 81.84 15.00 230.24 2621.19
   01:33:03.082.30-Jan-2021 4789.01   37.63 81.84 15.00 230.44 2621.19
   01:33:03.282.30-Jan-2021 4789.01   37.64 81.84 15.00 230.64 2621.19
   01:33:03.482.30-Jan-2021 4789.01   37.65 81.84 15.00 230.84 2621.19
   01:33:03.682.30-Jan-2021 4789.01   37.65 81.84 15.00 231.04 2621.19
   01:33:03.882.30-Jan-2021 4789.01   37.65 81.84 15.00 231.24 2621.19
   01:33:04.082.30-Jan-2021 4789.01   37.67 81.83 15.00 231.44 2621.19
   01:33:04.282.30-Jan-2021 4789.01   37.68 81.84 15.00 231.64 2621.19
   01:33:04.482.30-Jan-2021 4789.01   37.69 81.83 15.00 231.84 2621.19
   01:33:04.682.30-Jan-2021 4789.01   37.70 81.83 15.00 232.04 2621.19
   01:33:04.882.30-Jan-2021 4789.01   37.70 81.83 15.00 232.24 2621.19
   01:33:05.082.30-Jan-2021 4789.01   37.71 81.83 15.00 232.44 2621.19
   01:33:05.282.30-Jan-2021 4789.01   37.72 81.83 15.00 232.64 2621.19
   01:33:05.482.30-Jan-2021 4789.01   37.73 81.83 15.00 232.84 2621.19
   01:33:05.682.30-Jan-2021 4789.01   37.74 81.83 15.00 233.04 2621.19
   01:33:05.882.30-Jan-2021 4789.01   37.74 81.83 15.00 233.24 2621.19
   01:33:06.082.30-Jan-2021 4789.01   37.75 81.83 15.00 233.44 2621.19
   01:33:06.282.30-Jan-2021 4789.01   37.76 81.83 15.00 233.64 2621.19
   01:33:06.482.30-Jan-2021 4789.01   37.77 81.83 15.00 233.85 2621.19
   01:33:06.682.30-Jan-2021 4789.01   37.78 81.83 15.00 234.05 2621.19
   01:33:06.883.30-Jan-2021 4789.01   37.78 81.83 15.00 234.25 2621.19
   01:33:07.083.30-Jan-2021 4789.01   37.79 81.83 15.00 234.45 2621.19
   01:33:07.283.30-Jan-2021 4789.01   37.79 81.83 15.00 234.65 2621.19
   01:33:07.483.30-Jan-2021 4789.01   37.81 81.83 15.00 234.85 2621.19
   01:33:07.683.30-Jan-2021 4789.01   37.82 81.83 15.00 235.05 2621.19
   01:33:07.883.30-Jan-2021 4789.01   37.82 81.83 15.00 235.25 2621.19
   01:33:08.083.30-Jan-2021 4789.01   37.84 81.83 15.00 235.45 2621.19
   01:33:08.283.30-Jan-2021 4789.01   37.84 81.83 15.00 235.65 2621.19
   01:33:08.483.30-Jan-2021 4789.01   37.85 81.83 15.00 235.85 2621.19
   01:33:08.683.30-Jan-2021 4789.01   37.85 81.83 15.00 236.05 2621.19
   01:33:08.883.30-Jan-2021 4789.01   37.85 81.83 15.00 236.25 2621.19
   01:33:09.083.30-Jan-2021 4789.01   37.87 81.83 15.00 236.45 2621.19
   01:33:09.283.30-Jan-2021 4789.01   37.88 81.83 15.00 236.65 2621.19
   01:33:09.483.30-Jan-2021 4789.01   37.89 81.82 15.00 236.85 2621.19
   01:33:09.683.30-Jan-2021 4789.01   37.89 81.82 15.00 237.05 2621.19
   01:33:09.883.30-Jan-2021 4789.01   37.89 81.82 15.00 237.25 2621.19
   01:33:10.083.30-Jan-2021 4789.01   37.91 81.82 15.00 237.45 2621.19
   01:33:10.283.30-Jan-2021 4789.01   37.92 81.82 15.00 237.65 2621.19
   01:33:10.483.30-Jan-2021 4789.01   37.93 81.82 15.00 237.85 2621.19
   01:33:10.683.30-Jan-2021 4789.01   37.93 81.82 15.00 238.05 2621.19
   01:33:10.883.30-Jan-2021 4789.01   37.93 81.82 15.00 238.25 2621.19
   01:33:11.083.30-Jan-2021 4789.01   37.95 81.82 15.00 238.45 2621.19
   01:33:11.283.30-Jan-2021 4789.01   37.95 81.82 15.00 238.65 2621.19
   01:33:11.483.30-Jan-2021 4789.01   37.97 81.82 15.00 238.85 2621.19
   01:33:11.683.30-Jan-2021 4789.01   37.98 81.82 15.00 239.05 2621.19
   01:33:11.883.30-Jan-2021 4789.01   37.98 81.82 15.00 239.25 2621.19
   01:33:12.084.30-Jan-2021 4789.01   37.99 81.82 15.00 239.45 2621.19
   01:33:12.284.30-Jan-2021 4789.01   38.00 81.82 15.00 239.65 2621.19
   01:33:12.484.30-Jan-2021 4789.01   38.01 81.82 15.00 239.85 2621.19
   01:33:12.684.30-Jan-2021 4789.01   38.01 81.82 15.00 240.05 2621.19
   01:33:12.884.30-Jan-2021 4789.01   38.01 81.82 15.00 240.25 2621.19
   01:33:13.084.30-Jan-2021 4789.01   38.02 81.82 15.00 240.45 2621.19
   01:33:13.284.30-Jan-2021 4789.01   37.92 81.82 15.00 240.65 2621.19
   01:33:13.484.30-Jan-2021 4789.01   37.62 81.82 15.00 240.85 2621.19
   01:33:13.684.30-Jan-2021 4789.01   37.21 81.82 15.00 241.05 2621.19
   01:33:13.884.30-Jan-2021 4789.01   37.21 81.82 15.00 241.25 2621.19
   01:33:14.084.30-Jan-2021 4789.01   36.47 81.82 15.00 241.45 2621.19
   01:33:14.284.30-Jan-2021 4789.01   36.10 81.82 15.00 241.65 2621.19
   01:33:14.484.30-Jan-2021 4789.01   35.73 81.82 15.00 241.85 2621.19
   01:33:14.684.30-Jan-2021 4789.01   35.40 81.82 15.00 242.05 2621.19
   01:33:14.884.30-Jan-2021 4789.01   35.40 81.82 15.00 242.25 2621.19
   01:33:15.084.30-Jan-2021 4789.01   34.78 81.81 15.00 242.45 2621.19
   01:33:15.284.30-Jan-2021 4789.01   34.48 81.81 15.00 242.65 2621.19
   01:33:15.484.30-Jan-2021 4789.01   34.19 81.81 15.00 242.85 2621.19
   01:33:15.684.30-Jan-2021 4789.01   33.89 81.81 15.00 243.05 2621.19
   01:33:15.884.30-Jan-2021 4789.01   33.89 81.81 15.00 243.25 2621.19
   01:33:16.084.30-Jan-2021 4789.01   33.35 81.81 15.00 243.45 2621.19
   01:33:16.284.30-Jan-2021 4789.01   33.08 81.81 15.00 243.65 2621.19
   01:33:16.484.30-Jan-2021 4789.01   32.80 81.81 15.00 243.85 2621.19
   01:33:16.684.30-Jan-2021 4789.01   32.49 81.81 15.00 244.05 2621.19
   01:33:16.884.30-Jan-2021 4789.01   32.49 81.81 15.00 244.25 2621.19
   01:33:17.084.30-Jan-2021 4789.01   31.95 81.81 15.00 244.45 2621.19
   01:33:17.285.30-Jan-2021 4789.01   31.72 81.81 15.00 244.65 2621.19
   01:33:17.485.30-Jan-2021 4789.01   31.48 81.81 15.00 244.85 2621.19
   01:33:17.685.30-Jan-2021 4789.01   31.29 81.81 15.00 245.05 2621.19
   01:33:17.885.30-Jan-2021 4789.01   31.29 81.81 15.00 245.25 2621.19
   01:33:18.085.30-Jan-2021 4789.01   30.88 81.81 15.00 245.45 2621.19
   01:33:18.285.30-Jan-2021 4789.01   30.65 81.81 15.00 245.65 2621.19
   01:33:18.485.30-Jan-2021 4789.01   30.37 81.81 15.00 245.85 2621.19
   01:33:18.685.30-Jan-2021 4789.01   30.12 81.81 15.00 246.05 2621.19
   01:33:18.885.30-Jan-2021 4789.01   30.12 81.81 15.00 246.25 2621.19
   01:33:19.085.30-Jan-2021 4789.01   29.79 81.81 15.00 246.45 2621.19
   01:33:19.285.30-Jan-2021 4789.01   29.61 81.81 15.00 246.65 2621.19
   01:33:19.485.30-Jan-2021 4789.01   29.44 81.81 15.00 246.85 2621.19
   01:33:19.685.30-Jan-2021 4789.01   29.25 81.81 15.00 247.05 2621.19
   01:33:19.885.30-Jan-2021 4789.01   29.25 81.81 15.00 247.25 2621.19
   01:33:20.085.30-Jan-2021 4789.01   28.79 81.80 15.00 247.45 2621.19
   01:33:20.285.30-Jan-2021 4789.01   28.61 81.80 15.00 247.65 2621.19
   01:33:20.485.30-Jan-2021 4789.01   28.42 81.80 15.00 247.85 2621.19
   01:33:20.685.30-Jan-2021 4789.01   28.22 81.80 15.00 248.05 2621.19
   01:33:20.885.30-Jan-2021 4789.01   28.22 81.80 15.00 248.25 2621.19
   01:33:21.085.30-Jan-2021 4789.01   28.22 81.80 15.00 248.45 2621.19
