~Version Information
 VERS.                  2.0:   CWLS log ASCII Standard -VERSION 2.0
 WRAP.                   NO:   One line per depth step
~Well Information Block
#MNEM.UNIT     VALUE/NAME     DESCRIPTION
#---------     -----------    ---------------------------
 STRT.S             08:50:58 29-Jan-21: START TIME 08:50:58 29-Jan-21
 STOP.S             08:57:28 29-Jan-21: STOP TIME  08:57:28 29-Jan-21
 STEP.S                   0.00: STEP TIME
 NULL.                 -999.25: NULL VALUE
 DFWT.                        :  DIST FWL TEXT
 DFST.                        :  DIST FSL TEXT
 DMF .             Drill Floor:  DRILL MEAS FROM
 STIM.      00.00.00 25-Sep-20:  START TIME
 DATE.      16.12.48 31-Jan-21:  END TIME
 SPUD.               20-Sep-20:  SPUD DATE
 NREF.                    Grid:  NORTH REFERENCE
 HPTY.       Minimum Curvature:  HOLE POS TYPE
 DMOD.             Drill Model:  DRILL MOD DESC
 SVYD.                  Survey:  SURVEY DESC
 ILTD.               Lithology:  INTERP LTH DESC
 FTOP.          Formation Tops:  FORM TOPS DESC
 RIG .              East Azeri:  RIG NAME
 PDAT.          Mean Sea Level:  PERMANENT DATUM
 FLD .                     ACG:  FIELD NAME
 SON .        AZ-XX-0906591820:  JOB NUMBER
 CTRY.              Azerbaijan:  COUNTRY NAME
 WELL.                     D37:  WELL NAME
 SRVC.     Turan Drilling & Engineering:  CONTRACTOR
 COMP.     BP Exploration (Caspian Sea) ltd.:  COMPANY
 WTYP.                Deviated:  WELL TYPE
 MDS .        Operator Entered:  MAG DATA SOURCE
 UWI .                     N/A:  UNIQUE WELL IDENTIFIER
 API .                     N/A:  API NUMBER
 BASE.              Azerbaijan:  LOGGING EQUIPMENT BASE LOCATION
 REGN.                   EESSA:  REGION
 PROV.                    Baku:  PROVINCE
 STAT.                    Baku:  STATE NAME
 MWDS.                    Baku:  MWD SHOP
 JOBN.        AZ-XX-0906591820:  JOB TICKET NUMB
 DOE .                     N/A:  DOE NUMBER
 DCON.         Sperry Drilling:  DIRECTNL CONTR
 UNIT.                     N/A:  LOGGING EQUIPMENT ID
 CNTY.                        :  COUNTY
 LOC .                        :  LOCATION
 LMF .             Drill Floor:  LOG MEASURED FROM
 TVDS.m                  43.60:  TVDSS CORRECTN
 LATI.deg                40.02:  LATITUDE
 LONG.deg                51.45:  LONGITUDE
 WHNS.m                  11.04:  WELL HEAD N/S
 WHEW.m                 -12.38:  WELL HEAD E/W
 UTMX.m              538763.98:  UTM X
 UTMY.m             4431880.20:  UTM Y
 DFWL.m                   0.00:  DISTANCE FWL
 DFSL.m                   0.00:  DISTANCE FSL
 SDEP.m                 300.00:  START DEPTH
 TDD .m                4900.01:  TOTAL DEPTH (DRILLER)
 VSDR.deg               185.64:  VERT SEC DIRECT
 GVFD.g                   1.00:  GRAVITY FIELD
 MFLD.nT              50301.00:  MAGNETIC FIELD
 MDIP.deg                59.46:  MAGNETIC DIP
 MDEC.deg                 6.43:  MAGNETIC DECL
 GRDC.deg                 0.29:  GRID CORRECTION
 AZTC.deg                 6.14:  AZM TOTAL CORR
 EPD .m                   0.00:  ELEVATION
 EGL .m                   0.00:  GROUND ELEVATION
 WDMS.m                 151.80:  WD ELEV
 APD .m                  43.60:  DEPTH ABOVE PD
 DEP .m                 571.69:  DEPTH
 AGAP.m                  43.60:  AIR GAP
 VSEW.m                 -12.38:  VERT SEC E/W
 VSNS.m                  11.04:  VERT SEC N/S
 EKB .m                  43.60:  KB ELEVATION
 EDF .m                  43.60:  DF ELEVATION
 TDL .m                 412.00:  TOTAL DEPTH (LOGGER)
 VSC .                       0:  VS TO CLOSURE
 MAGU.                 1849300:  MAGUTM CHECKSUM
~Parameter Information Block
#MNEM.UNIT       Value        Description
#---------     -----------    ---------------------------
 AV  .mps                 2.21:  Ann Velocity 
 AVMX.mps                 2.53:  Max Ann Veloc 
 AZIF.deg               144.83:  Azm, Final 
 BHAT.        Rotary Steerable:  BHA Type 
 BROT.°/30m              -0.52:  Build Rotating 
 BS  .in                  6.50:  Bit Size 
 BTPL.psig              209.00:  Bit Press Loss 
 CABU.                      No:  Customer Abuse 
 CGEO.        Ali Isfandiyarov:  Customer Geo 
 COMM.                     Ä	‡:  Run Comments 1 
 TCS .hr                 61.31:  Time Ciculation Ended 
 CV  .mps                 4.66:  Crit Velocity 
 CVMX.mps                 5.02:  Max Crit Veloc 
 DD1 .          Fariz Nahmatov:  Direct Drillr 1 
 DD2 .            Musa Ahmadov:  Direct Drillr 2 
 DDSV.               Geo-Pilot:  DD Service 
 DEFF.%                 100.00:  % Det Eff 
 DLRX.°/30m               1.44:  Dogleg Rot Max 
 DLSO.°/30m               0.83:  Dogleg Oriented 
 DLSX.°/30m               1.44:  Dogleg Str Max 
 DRET.      08.30.00 30-Jan-21:  Drill End Time 
 DRST.      21.15.00 27-Jan-21:  Drill Start Tim 
 DTIM.hr                 37.28:  Time Drilling 
 EDEP.m                4867.01:  End Depth 
 ENG1.          Rasim Hashimov:  Engineer 1 
 ENG2.         Almaz Almadatov:  Engineer 2 
 ENG3.        Tamerlan Ahmadov:  Engineer 3 
 ETIM.      22.41.04 31-Jan-21:  End Time 
 FLOI.gpm               400.00:  Flow In 
 FLON.gpm               300.00:  Flow In Min 
 FLOS.cptm                0.00:  Fluid Loss 
 FLOX.gpm               400.00:  Flow In Max 
 HFLO.                      No:  High Flow 
 HPRE.                      No:  High Pressure 
 HTEM.                      No:  High Temp 
 HYDO.m                   1.80:  Hydro Offset 
 IFIN.deg                65.63:  Inc, Final 
 IMAX.deg                66.77:  Inc Max 
 IMIN.deg                65.61:  Inc Min 
 IMND.m                4612.67:  Inc Min Depth 
 IMXD.m                4811.63:  Inc Max Depth 
 JARR.                      No:  Jarring 
 LETM.      08.30.00 30-Jan-21:  Log End Time 
 LOST.hr                     0:  Lost Rig Time 
 LSTM.      21.15.00 27-Jan-21:  Log Start Time 
 MDCL.ppm             41000.00:  Mud Chlorides 
 MDES.     Inversion Oil/Synthetic:  Mud Desc 
 DFD .sg                  1.40:  Mud Density 
 MDMN.sg                  1.40:  Dens Mud Min 
 MDMX.sg                  1.40:  Dens Mud Max 
 MOIL.                      53:  Run Mud Oil % 
 MOWR.                   66:34:  Run Mud OWR 
 MSND.                     0.2:  Run Mud Sand % 
 MSOL.                    17.9:  Run Mud Solids% 
 DFV .spqt               77.00:  Mud Viscosity 
 MWOD.in                  4.75:  MWD Tool OD 
 MWSI.                      No:  Serv Intrp, MWD 
 OTIM.hr                110.38:  Time Operating 
 PCON.           Look Like New:  Pad Condition 
 PMAX.psia             5300.00:  Press Op, Max 
 PV  .cP                 57.00:  Mud PV 
 RUN .                    1200:  Run Number 
 ROPA.m/hr               13.00:  ROP Avg 
 ROPN.m/hr                9.00:  ROP Min 
 ROPX.m/hr               15.00:  ROP Max 
 RPMA.rpm               120.00:  RPM Surface Avg 
 RPMN.rpm               100.00:  RPM Surface Min 
 RPMX.rpm               135.00:  RPM Surface Max 
 RRUN.                    1200:  Rig Run Number 
 RTIM.hr                  2.65:  Time Reaming 
 SAZI.deg               145.04:  Azm, Start 
 SDEP.m                4455.01:  Start Depth 
 SIDD.                      No:  Serv Intrp, DD 
 SINC.deg                65.83:  Inc, Start 
 SPPA.psig             5037.00:  SPP Avg 
 SPPN.psig             4430.00:  SPP Min 
 SPPX.psig             5300.00:  SPP Max 
 STIM.      22.41.04 26-Jan-21:  Start Time 
 SVCS.                 DD, MWD:  Services 
 SVER.                    9.20:  Sperry Version 
 TDAT.m                 412.00:  Tot Depth Attmp 
 TDDF.                      No:  Trip for DD 
 TDLG.m                 412.00:  Tot Depth Loggd 
 TFF .                      No:  Trip for Fail 
 TQAA.f-kp               15.00:  Torque Abs Avg 
 TQAN.f-kp               12.00:  Torque Abs Min 
 TQAX.f-kp               17.00:  Torque Abs Max 
 TRRT.°/30m               1.18:  Turn Rotating 
 MRT .                     ADR:  Maximum Recorded Temperature 
 TTMX.degC               88.24:  Max Tool Temp 
 VS01.                90619458:  Virtual Str1 SN 
 VS02.                90519326:  Virtual Str2 SN 
 VS03.                90522176:  Virtual Str3 SN 
 VS04.                90512683:  Virtual Str4 SN 
 WBMN.klb                 1.00:  WOB Min 
 WITN.           Murad Giluyev:  Customer Rep 
 WITN.     Kamran Kemberlinski:  Customer Rep 2 
 WOBA.klb                 5.00:  WOB Avg 
 WOBX.klb                 9.00:  WOB Max 
 YP  .lhf2               41.00:  Yield Point 
~Curve Information Block
#MNEM.UNIT                 API CODE     Curve Description
#---------               -----------    ---------------------------
 TIME.HHMMSS            00 000 000 000:  GT Time & Date
 GTDEPTH.m              00 000 000 000:  GT Depth
 GTPQH.psia             00 000 000 000:  GT HR Quartz Pressure
 GTTQ.degC              00 000 000 000:  GT Quartz Temperature
 GTTN.NONE              00 000 000 000:  GT Test Number
 GTET.sec               00 000 000 000:  GT Elapsed Test Time
 GTTVD.m                00 000 000 000:  GT True Vertical Depth
#Other Information
#
#WARRANTY: Halliburton will use its best efforts to furnish customers with 
#accurate information and interpretations that are part of, and incident to, the services 
#provided.  However, Halliburton cannot and does not warrant the accuracy 
#or correctness of such information and interpretations.  Under no circumstances should any 
#such information or interpretation be relied upon as the sole basis for any drilling, 
#completion, production, or financial decision or any procedure involving any risk to the 
#safety of any drilling venture, drilling rig or its crew or any other third party.  The 
#Customer has full responsibility for all drilling, completion and production operation.  
#Halliburton makes no representations or warranties, either expressed or 
#implied, including, but not limited to, the implied warranties of merchantability or fitness 
#for a particular purpose, with respect to the services rendered.  In no event will 
#Halliburton be liable for failure to obtain any particular results or for 
#any damages, including, but not limited to, indirect, special or consequential damages, 
#resulting from the use of any information or interpretation provided by Halliburton.
#
~A           TIME           GTDEPTH  GTPQH  GTTQ  GTTN  GTET   GTTVD  
# ...
   08:52:53.699.29-Jan-2021 4683.51 3065.45 81.09 9.00 115.02 2579.09
   08:52:53.899.29-Jan-2021 4683.51 3065.45 81.09 9.00 115.22 2579.09
   08:52:54.099.29-Jan-2021 4683.51 3065.40 81.09 9.00 115.42 2579.09
   08:52:54.299.29-Jan-2021 4683.51 3065.40 81.09 9.00 115.62 2579.09
   08:52:54.499.29-Jan-2021 4683.51 3065.44 81.08 9.00 115.82 2579.09
   08:52:54.699.29-Jan-2021 4683.51 3065.42 81.08 9.00 116.02 2579.09
   08:52:54.899.29-Jan-2021 4683.51 3065.42 81.08 9.00 116.22 2579.09
   08:52:55.100.29-Jan-2021 4683.51 3065.43 81.08 9.00 116.42 2579.09
   08:52:55.300.29-Jan-2021 4683.51 3065.41 81.08 9.00 116.62 2579.09
   08:52:55.500.29-Jan-2021 4683.51 3065.42 81.08 9.00 116.82 2579.09
   08:52:55.700.29-Jan-2021 4683.51 3065.39 81.08 9.00 117.02 2579.09
   08:52:55.900.29-Jan-2021 4683.51 3065.39 81.08 9.00 117.22 2579.09
   08:52:56.100.29-Jan-2021 4683.51 3065.42 81.08 9.00 117.42 2579.09
   08:52:56.300.29-Jan-2021 4683.51 3065.38 81.08 9.00 117.62 2579.09
   08:52:56.500.29-Jan-2021 4683.51 3065.41 81.08 9.00 117.82 2579.09
   08:52:56.700.29-Jan-2021 4683.51 3065.41 81.08 9.00 118.02 2579.09
   08:52:56.900.29-Jan-2021 4683.51 3065.41 81.08 9.00 118.22 2579.09
   08:52:57.100.29-Jan-2021 4683.51 3065.34 81.07 9.00 118.42 2579.09
   08:52:57.300.29-Jan-2021 4683.51 3065.44 81.07 9.00 118.63 2579.09
   08:52:57.500.29-Jan-2021 4683.51 3065.41 81.07 9.00 118.83 2579.09
   08:52:57.700.29-Jan-2021 4683.51 3065.37 81.07 9.00 119.03 2579.09
   08:52:57.900.29-Jan-2021 4683.51 3065.37 81.07 9.00 119.23 2579.09
   08:52:58.100.29-Jan-2021 4683.51 3065.39 81.07 9.00 119.43 2579.09
   08:52:58.300.29-Jan-2021 4683.51 3065.39 81.07 9.00 119.63 2579.09
   08:52:58.500.29-Jan-2021 4683.51 3065.38 81.07 9.00 119.83 2579.09
   08:52:58.700.29-Jan-2021 4683.51 3065.39 81.07 9.00 120.03 2579.09
   08:52:58.900.29-Jan-2021 4683.51 3065.39 81.07 9.00 120.23 2579.09
   08:52:59.100.29-Jan-2021 4683.51 3065.38 81.07 9.00 120.43 2579.09
   08:52:59.300.29-Jan-2021 4683.51 3065.38 81.07 9.00 120.63 2579.09
   08:52:59.500.29-Jan-2021 4683.51 3065.39 81.07 9.00 120.83 2579.09
   08:52:59.700.29-Jan-2021 4683.51 3065.39 81.07 9.00 121.03 2579.09
   08:52:59.901.29-Jan-2021 4683.51 3065.39 81.07 9.00 121.23 2579.09
   08:53:00.101.29-Jan-2021 4683.51 3065.37 81.06 9.00 121.43 2579.09
   08:53:00.301.29-Jan-2021 4683.51 3065.38 81.06 9.00 121.63 2579.09
   08:53:00.501.29-Jan-2021 4683.51 3065.38 81.06 9.00 121.83 2579.09
   08:53:00.701.29-Jan-2021 4683.51 3065.37 81.06 9.00 122.03 2579.09
   08:53:00.901.29-Jan-2021 4683.51 3065.37 81.06 9.00 122.23 2579.09
   08:53:01.101.29-Jan-2021 4683.51 3065.38 81.06 9.00 122.43 2579.09
   08:53:01.301.29-Jan-2021 4683.51 3065.36 81.06 9.00 122.63 2579.09
   08:53:01.501.29-Jan-2021 4683.51 3065.37 81.06 9.00 122.83 2579.09
   08:53:01.701.29-Jan-2021 4683.51 3065.37 81.06 9.00 123.03 2579.09
   08:53:01.901.29-Jan-2021 4683.51 3065.37 81.06 9.00 123.23 2579.09
   08:53:02.101.29-Jan-2021 4683.51 3065.35 81.06 9.00 123.43 2579.09
   08:53:02.301.29-Jan-2021 4683.51 3065.38 81.06 9.00 123.63 2579.09
   08:53:02.501.29-Jan-2021 4683.51 3065.38 81.06 9.00 123.83 2579.09
   08:53:02.701.29-Jan-2021 4683.51 3065.34 81.05 9.00 124.03 2579.09
   08:53:02.901.29-Jan-2021 4683.51 3065.34 81.05 9.00 124.23 2579.09
   08:53:03.101.29-Jan-2021 4683.51 3065.37 81.05 9.00 124.43 2579.09
   08:53:03.301.29-Jan-2021 4683.51 3065.37 81.05 9.00 124.63 2579.09
   08:53:03.501.29-Jan-2021 4683.51 3065.35 81.05 9.00 124.83 2579.09
   08:53:03.701.29-Jan-2021 4683.51 3065.37 81.05 9.00 125.03 2579.09
   08:53:03.901.29-Jan-2021 4683.51 3065.37 81.05 9.00 125.23 2579.09
   08:53:04.101.29-Jan-2021 4683.51 3065.37 81.05 9.00 125.43 2579.09
   08:53:04.301.29-Jan-2021 4683.51 3065.35 81.05 9.00 125.63 2579.09
   08:53:04.502.29-Jan-2021 4683.51 3065.35 81.05 9.00 125.83 2579.09
   08:53:04.702.29-Jan-2021 4683.51 3065.35 81.05 9.00 126.03 2579.09
   08:53:04.902.29-Jan-2021 4683.51 3065.35 81.05 9.00 126.23 2579.09
   08:53:05.102.29-Jan-2021 4683.51 3065.34 81.05 9.00 126.43 2579.09
   08:53:05.302.29-Jan-2021 4683.51 3065.35 81.05 9.00 126.63 2579.09
   08:53:05.502.29-Jan-2021 4683.51 3065.35 81.04 9.00 126.83 2579.09
   08:53:05.702.29-Jan-2021 4683.51 3065.36 81.04 9.00 127.03 2579.09
   08:53:05.902.29-Jan-2021 4683.51 3065.36 81.04 9.00 127.23 2579.09
   08:53:06.102.29-Jan-2021 4683.51 3065.32 81.04 9.00 127.43 2579.09
   08:53:06.302.29-Jan-2021 4683.51 3065.36 81.04 9.00 127.63 2579.09
   08:53:06.502.29-Jan-2021 4683.51 3065.36 81.04 9.00 127.83 2579.09
   08:53:06.702.29-Jan-2021 4683.51 3065.33 81.04 9.00 128.03 2579.09
   08:53:06.902.29-Jan-2021 4683.51 3065.33 81.04 9.00 128.23 2579.09
   08:53:07.102.29-Jan-2021 4683.51 3065.36 81.04 9.00 128.43 2579.09
   08:53:07.302.29-Jan-2021 4683.51 3065.34 81.04 9.00 128.63 2579.09
   08:53:07.502.29-Jan-2021 4683.51 3065.32 81.04 9.00 128.83 2579.09
   08:53:07.702.29-Jan-2021 4683.51 3065.36 81.04 9.00 129.03 2579.09
   08:53:07.902.29-Jan-2021 4683.51 3065.36 81.04 9.00 129.23 2579.09
   08:53:08.102.29-Jan-2021 4683.51 3065.32 81.04 9.00 129.43 2579.09
   08:53:08.302.29-Jan-2021 4683.51 3065.34 81.03 9.00 129.63 2579.09
   08:53:08.502.29-Jan-2021 4683.51 3065.34 81.03 9.00 129.83 2579.09
   08:53:08.702.29-Jan-2021 4683.51 3065.32 81.03 9.00 130.03 2579.09
   08:53:08.902.29-Jan-2021 4683.51 3065.32 81.03 9.00 130.23 2579.09
   08:53:09.102.29-Jan-2021 4683.51 3065.34 81.03 9.00 130.43 2579.09
   08:53:09.303.29-Jan-2021 4683.51 3065.34 81.03 9.00 130.63 2579.09
   08:53:09.503.29-Jan-2021 4683.51 3065.32 81.03 9.00 130.83 2579.09
   08:53:09.703.29-Jan-2021 4683.51 3065.33 81.03 9.00 131.03 2579.09
   08:53:09.903.29-Jan-2021 4683.51 3065.33 81.03 9.00 131.23 2579.09
   08:53:10.103.29-Jan-2021 4683.51 3065.27 81.03 9.00 131.43 2579.09
   08:53:10.303.29-Jan-2021 4683.51 3065.36 81.03 9.00 131.63 2579.09
   08:53:10.503.29-Jan-2021 4683.51 3065.34 81.03 9.00 131.83 2579.09
   08:53:10.703.29-Jan-2021 4683.51 3065.30 81.03 9.00 132.03 2579.09
   08:53:10.903.29-Jan-2021 4683.51 3065.30 81.03 9.00 132.23 2579.09
   08:53:11.103.29-Jan-2021 4683.51 3065.32 81.02 9.00 132.43 2579.09
   08:53:11.303.29-Jan-2021 4683.51 3065.33 81.02 9.00 132.63 2579.09
   08:53:11.503.29-Jan-2021 4683.51 3065.26 81.02 9.00 132.83 2579.09
   08:53:11.703.29-Jan-2021 4683.51 3053.52 81.02 9.00 133.03 2579.09
   08:53:11.903.29-Jan-2021 4683.51 3053.52 81.02 9.00 133.23 2579.09
   08:53:12.103.29-Jan-2021 4683.51 3048.94 81.02 9.00 133.43 2579.09
   08:53:12.303.29-Jan-2021 4683.51 3048.84 81.02 9.00 133.63 2579.09
   08:53:12.503.29-Jan-2021 4683.51 3048.85 81.02 9.00 133.83 2579.09
   08:53:12.703.29-Jan-2021 4683.51 3048.87 81.02 9.00 134.03 2579.09
   08:53:12.903.29-Jan-2021 4683.51 3048.87 81.02 9.00 134.23 2579.09
   08:53:13.103.29-Jan-2021 4683.51 3048.79 81.02 9.00 134.43 2579.09
   08:53:13.303.29-Jan-2021 4683.51 3048.77 81.02 9.00 134.63 2579.09
   08:53:13.503.29-Jan-2021 4683.51 3048.89 81.02 9.00 134.83 2579.09
   08:53:13.703.29-Jan-2021 4683.51 3048.70 81.01 9.00 135.03 2579.09
   08:53:13.903.29-Jan-2021 4683.51 3048.70 81.01 9.00 135.23 2579.09
   08:53:14.104.29-Jan-2021 4683.51 3048.85 81.01 9.00 135.43 2579.09
   08:53:14.304.29-Jan-2021 4683.51 3048.74 81.01 9.00 135.63 2579.09
   08:53:14.504.29-Jan-2021 4683.51 3048.96 81.01 9.00 135.83 2579.09
   08:53:14.704.29-Jan-2021 4683.51 3048.87 81.01 9.00 136.03 2579.09
   08:53:14.904.29-Jan-2021 4683.51 3048.87 81.01 9.00 136.23 2579.09
   08:53:15.104.29-Jan-2021 4683.51 3048.80 81.01 9.00 136.43 2579.09
   08:53:15.304.29-Jan-2021 4683.51 3048.83 81.01 9.00 136.63 2579.09
   08:53:15.504.29-Jan-2021 4683.51 3048.92 81.01 9.00 136.83 2579.09
   08:53:15.704.29-Jan-2021 4683.51 3049.02 81.01 9.00 137.03 2579.09
   08:53:15.904.29-Jan-2021 4683.51 3049.02 81.01 9.00 137.23 2579.09
   08:53:16.104.29-Jan-2021 4683.51 3048.90 81.01 9.00 137.43 2579.09
   08:53:16.304.29-Jan-2021 4683.51 3048.96 81.01 9.00 137.63 2579.09
   08:53:16.504.29-Jan-2021 4683.51 3048.98 81.00 9.00 137.83 2579.09
