~Version Information
 VERS.                  2.0:   CWLS log ASCII Standard -VERSION 2.0
 WRAP.                   NO:   One line per depth step
~Well Information Block
#MNEM.UNIT     VALUE/NAME     DESCRIPTION
#---------     -----------    ---------------------------
 STRT.S             07:03:45 29-Jan-21: START TIME 07:03:45 29-Jan-21
 STOP.S             07:10:14 29-Jan-21: STOP TIME  07:10:14 29-Jan-21
 STEP.S                   0.00: STEP TIME
 NULL.                 -999.25: NULL VALUE
 DFWT.                        :  DIST FWL TEXT
 DFST.                        :  DIST FSL TEXT
 DMF .             Drill Floor:  DRILL MEAS FROM
 STIM.      00.00.00 25-Sep-20:  START TIME
 DATE.      16.12.48 31-Jan-21:  END TIME
 SPUD.               20-Sep-20:  SPUD DATE
 NREF.                    Grid:  NORTH REFERENCE
 HPTY.       Minimum Curvature:  HOLE POS TYPE
 DMOD.             Drill Model:  DRILL MOD DESC
 SVYD.                  Survey:  SURVEY DESC
 ILTD.               Lithology:  INTERP LTH DESC
 FTOP.          Formation Tops:  FORM TOPS DESC
 RIG .              East Azeri:  RIG NAME
 PDAT.          Mean Sea Level:  PERMANENT DATUM
 FLD .                     ACG:  FIELD NAME
 SON .        AZ-XX-0906591820:  JOB NUMBER
 CTRY.              Azerbaijan:  COUNTRY NAME
 WELL.                     D37:  WELL NAME
 SRVC.     Turan Drilling & Engineering:  CONTRACTOR
 COMP.     BP Exploration (Caspian Sea) ltd.:  COMPANY
 WTYP.                Deviated:  WELL TYPE
 MDS .        Operator Entered:  MAG DATA SOURCE
 UWI .                     N/A:  UNIQUE WELL IDENTIFIER
 API .                     N/A:  API NUMBER
 BASE.              Azerbaijan:  LOGGING EQUIPMENT BASE LOCATION
 REGN.                   EESSA:  REGION
 PROV.                    Baku:  PROVINCE
 STAT.                    Baku:  STATE NAME
 MWDS.                    Baku:  MWD SHOP
 JOBN.        AZ-XX-0906591820:  JOB TICKET NUMB
 DOE .                     N/A:  DOE NUMBER
 DCON.         Sperry Drilling:  DIRECTNL CONTR
 UNIT.                     N/A:  LOGGING EQUIPMENT ID
 CNTY.                        :  COUNTY
 LOC .                        :  LOCATION
 LMF .             Drill Floor:  LOG MEASURED FROM
 TVDS.m                  43.60:  TVDSS CORRECTN
 LATI.deg                40.02:  LATITUDE
 LONG.deg                51.45:  LONGITUDE
 WHNS.m                  11.04:  WELL HEAD N/S
 WHEW.m                 -12.38:  WELL HEAD E/W
 UTMX.m              538763.98:  UTM X
 UTMY.m             4431880.20:  UTM Y
 DFWL.m                   0.00:  DISTANCE FWL
 DFSL.m                   0.00:  DISTANCE FSL
 SDEP.m                 300.00:  START DEPTH
 TDD .m                4900.01:  TOTAL DEPTH (DRILLER)
 VSDR.deg               185.64:  VERT SEC DIRECT
 GVFD.g                   1.00:  GRAVITY FIELD
 MFLD.nT              50301.00:  MAGNETIC FIELD
 MDIP.deg                59.46:  MAGNETIC DIP
 MDEC.deg                 6.43:  MAGNETIC DECL
 GRDC.deg                 0.29:  GRID CORRECTION
 AZTC.deg                 6.14:  AZM TOTAL CORR
 EPD .m                   0.00:  ELEVATION
 EGL .m                   0.00:  GROUND ELEVATION
 WDMS.m                 151.80:  WD ELEV
 APD .m                  43.60:  DEPTH ABOVE PD
 DEP .m                 571.69:  DEPTH
 AGAP.m                  43.60:  AIR GAP
 VSEW.m                 -12.38:  VERT SEC E/W
 VSNS.m                  11.04:  VERT SEC N/S
 EKB .m                  43.60:  KB ELEVATION
 EDF .m                  43.60:  DF ELEVATION
 TDL .m                 412.00:  TOTAL DEPTH (LOGGER)
 VSC .                       0:  VS TO CLOSURE
 MAGU.                 1849300:  MAGUTM CHECKSUM
~Parameter Information Block
#MNEM.UNIT       Value        Description
#---------     -----------    ---------------------------
 AV  .mps                 2.21:  Ann Velocity 
 AVMX.mps                 2.53:  Max Ann Veloc 
 AZIF.deg               144.83:  Azm, Final 
 BHAT.        Rotary Steerable:  BHA Type 
 BROT.°/30m              -0.52:  Build Rotating 
 BS  .in                  6.50:  Bit Size 
 BTPL.psig              209.00:  Bit Press Loss 
 CABU.                      No:  Customer Abuse 
 CGEO.        Ali Isfandiyarov:  Customer Geo 
 COMM.                     ü®q:  Run Comments 1 
 TCS .hr                 61.31:  Time Ciculation Ended 
 CV  .mps                 4.66:  Crit Velocity 
 CVMX.mps                 5.02:  Max Crit Veloc 
 DD1 .          Fariz Nahmatov:  Direct Drillr 1 
 DD2 .            Musa Ahmadov:  Direct Drillr 2 
 DDSV.               Geo-Pilot:  DD Service 
 DEFF.%                 100.00:  % Det Eff 
 DLRX.°/30m               1.44:  Dogleg Rot Max 
 DLSO.°/30m               0.83:  Dogleg Oriented 
 DLSX.°/30m               1.44:  Dogleg Str Max 
 DRET.      08.30.00 30-Jan-21:  Drill End Time 
 DRST.      21.15.00 27-Jan-21:  Drill Start Tim 
 DTIM.hr                 37.28:  Time Drilling 
 EDEP.m                4867.01:  End Depth 
 ENG1.          Rasim Hashimov:  Engineer 1 
 ENG2.         Almaz Almadatov:  Engineer 2 
 ENG3.        Tamerlan Ahmadov:  Engineer 3 
 ETIM.      22.41.04 31-Jan-21:  End Time 
 FLOI.gpm               400.00:  Flow In 
 FLON.gpm               300.00:  Flow In Min 
 FLOS.cptm                0.00:  Fluid Loss 
 FLOX.gpm               400.00:  Flow In Max 
 HFLO.                      No:  High Flow 
 HPRE.                      No:  High Pressure 
 HTEM.                      No:  High Temp 
 HYDO.m                   1.80:  Hydro Offset 
 IFIN.deg                65.63:  Inc, Final 
 IMAX.deg                66.77:  Inc Max 
 IMIN.deg                65.61:  Inc Min 
 IMND.m                4612.67:  Inc Min Depth 
 IMXD.m                4811.63:  Inc Max Depth 
 JARR.                      No:  Jarring 
 LETM.      08.30.00 30-Jan-21:  Log End Time 
 LOST.hr                     0:  Lost Rig Time 
 LSTM.      21.15.00 27-Jan-21:  Log Start Time 
 MDCL.ppm             41000.00:  Mud Chlorides 
 MDES.     Inversion Oil/Synthetic:  Mud Desc 
 DFD .sg                  1.40:  Mud Density 
 MDMN.sg                  1.40:  Dens Mud Min 
 MDMX.sg                  1.40:  Dens Mud Max 
 MOIL.                      53:  Run Mud Oil % 
 MOWR.                   66:34:  Run Mud OWR 
 MSND.                     0.2:  Run Mud Sand % 
 MSOL.                    17.9:  Run Mud Solids% 
 DFV .spqt               77.00:  Mud Viscosity 
 MWOD.in                  4.75:  MWD Tool OD 
 MWSI.                      No:  Serv Intrp, MWD 
 OTIM.hr                110.38:  Time Operating 
 PCON.           Look Like New:  Pad Condition 
 PMAX.psia             5300.00:  Press Op, Max 
 PV  .cP                 57.00:  Mud PV 
 RUN .                    1200:  Run Number 
 ROPA.m/hr               13.00:  ROP Avg 
 ROPN.m/hr                9.00:  ROP Min 
 ROPX.m/hr               15.00:  ROP Max 
 RPMA.rpm               120.00:  RPM Surface Avg 
 RPMN.rpm               100.00:  RPM Surface Min 
 RPMX.rpm               135.00:  RPM Surface Max 
 RRUN.                    1200:  Rig Run Number 
 RTIM.hr                  2.65:  Time Reaming 
 SAZI.deg               145.04:  Azm, Start 
 SDEP.m                4455.01:  Start Depth 
 SIDD.                      No:  Serv Intrp, DD 
 SINC.deg                65.83:  Inc, Start 
 SPPA.psig             5037.00:  SPP Avg 
 SPPN.psig             4430.00:  SPP Min 
 SPPX.psig             5300.00:  SPP Max 
 STIM.      22.41.04 26-Jan-21:  Start Time 
 SVCS.                 DD, MWD:  Services 
 SVER.                    9.20:  Sperry Version 
 TDAT.m                 412.00:  Tot Depth Attmp 
 TDDF.                      No:  Trip for DD 
 TDLG.m                 412.00:  Tot Depth Loggd 
 TFF .                      No:  Trip for Fail 
 TQAA.f-kp               15.00:  Torque Abs Avg 
 TQAN.f-kp               12.00:  Torque Abs Min 
 TQAX.f-kp               17.00:  Torque Abs Max 
 TRRT.°/30m               1.18:  Turn Rotating 
 MRT .                     ADR:  Maximum Recorded Temperature 
 TTMX.degC               88.24:  Max Tool Temp 
 VS01.                90619458:  Virtual Str1 SN 
 VS02.                90519326:  Virtual Str2 SN 
 VS03.                90522176:  Virtual Str3 SN 
 VS04.                90512683:  Virtual Str4 SN 
 WBMN.klb                 1.00:  WOB Min 
 WITN.           Murad Giluyev:  Customer Rep 
 WITN.     Kamran Kemberlinski:  Customer Rep 2 
 WOBA.klb                 5.00:  WOB Avg 
 WOBX.klb                 9.00:  WOB Max 
 YP  .lhf2               41.00:  Yield Point 
~Curve Information Block
#MNEM.UNIT                 API CODE     Curve Description
#---------               -----------    ---------------------------
 TIME.HHMMSS            00 000 000 000:  GT Time & Date
 GTDEPTH.m              00 000 000 000:  GT Depth
 GTPQH.psia             00 000 000 000:  GT HR Quartz Pressure
 GTTQ.degC              00 000 000 000:  GT Quartz Temperature
 GTTN.NONE              00 000 000 000:  GT Test Number
 GTET.sec               00 000 000 000:  GT Elapsed Test Time
 GTTVD.m                00 000 000 000:  GT True Vertical Depth
#Other Information
#
#WARRANTY: Halliburton will use its best efforts to furnish customers with 
#accurate information and interpretations that are part of, and incident to, the services 
#provided.  However, Halliburton cannot and does not warrant the accuracy 
#or correctness of such information and interpretations.  Under no circumstances should any 
#such information or interpretation be relied upon as the sole basis for any drilling, 
#completion, production, or financial decision or any procedure involving any risk to the 
#safety of any drilling venture, drilling rig or its crew or any other third party.  The 
#Customer has full responsibility for all drilling, completion and production operation.  
#Halliburton makes no representations or warranties, either expressed or 
#implied, including, but not limited to, the implied warranties of merchantability or fitness 
#for a particular purpose, with respect to the services rendered.  In no event will 
#Halliburton be liable for failure to obtain any particular results or for 
#any damages, including, but not limited to, indirect, special or consequential damages, 
#resulting from the use of any information or interpretation provided by Halliburton.
#
~A           TIME           GTDEPTH  GTPQH  GTTQ  GTTN  GTET   GTTVD  
   07:03:45.319.29-Jan-2021 4666.01 5624.48 80.23 8.00   0.00 2572.07
   07:03:45.519.29-Jan-2021 4666.01 5624.48 80.23 8.00   0.20 2572.07
   07:03:45.719.29-Jan-2021 4666.01 5623.06 80.23 8.00   0.40 2572.07
   07:03:45.919.29-Jan-2021 4666.01 5625.30 80.23 8.00   0.60 2572.07
   07:03:46.119.29-Jan-2021 4666.01 5624.87 80.23 8.00   0.80 2572.07
   07:03:46.319.29-Jan-2021 4666.01 5620.38 80.23 8.00   1.00 2572.07
   07:03:46.519.29-Jan-2021 4666.01 5620.38 80.23 8.00   1.20 2572.07
   07:03:46.719.29-Jan-2021 4666.01 5624.98 80.23 8.00   1.40 2572.07
   07:03:46.919.29-Jan-2021 4666.01 5622.42 80.23 8.00   1.60 2572.07
   07:03:47.119.29-Jan-2021 4666.01 5624.66 80.23 8.00   1.80 2572.07
   07:03:47.319.29-Jan-2021 4666.01 5625.32 80.22 8.00   2.00 2572.07
   07:03:47.519.29-Jan-2021 4666.01 5625.32 80.22 8.00   2.20 2572.07
   07:03:47.719.29-Jan-2021 4666.01 5624.68 80.22 8.00   2.40 2572.07
   07:03:47.919.29-Jan-2021 4666.01 5624.22 80.22 8.00   2.60 2572.07
   07:03:48.119.29-Jan-2021 4666.01 5624.70 80.22 8.00   2.80 2572.07
   07:03:48.319.29-Jan-2021 4666.01 5623.59 80.22 8.00   3.00 2572.07
   07:03:48.519.29-Jan-2021 4666.01 5623.59 80.22 8.00   3.20 2572.07
   07:03:48.719.29-Jan-2021 4666.01 5624.67 80.22 8.00   3.40 2572.07
   07:03:48.919.29-Jan-2021 4666.01 5625.71 80.22 8.00   3.60 2572.07
   07:03:49.119.29-Jan-2021 4666.01 5619.97 80.22 8.00   3.80 2572.07
   07:03:49.320.29-Jan-2021 4666.01 5624.83 80.22 8.00   4.00 2572.07
   07:03:49.520.29-Jan-2021 4666.01 5624.83 80.22 8.00   4.20 2572.07
   07:03:49.720.29-Jan-2021 4666.01 5625.30 80.21 8.00   4.40 2572.07
   07:03:49.920.29-Jan-2021 4666.01 5624.45 80.21 8.00   4.60 2572.07
   07:03:50.120.29-Jan-2021 4666.01 5625.82 80.21 8.00   4.80 2572.07
   07:03:50.320.29-Jan-2021 4666.01 5625.73 80.21 8.00   5.00 2572.07
   07:03:50.520.29-Jan-2021 4666.01 5625.73 80.21 8.00   5.20 2572.07
   07:03:50.720.29-Jan-2021 4666.01 5625.35 80.21 8.00   5.40 2572.07
   07:03:50.920.29-Jan-2021 4666.01 5625.02 80.21 8.00   5.60 2572.07
   07:03:51.120.29-Jan-2021 4666.01 5625.67 80.21 8.00   5.80 2572.07
   07:03:51.320.29-Jan-2021 4666.01 5624.52 80.21 8.00   6.00 2572.07
   07:03:51.520.29-Jan-2021 4666.01 5624.52 80.21 8.00   6.20 2572.07
   07:03:51.720.29-Jan-2021 4666.01 5625.02 80.21 8.00   6.40 2572.07
   07:03:51.920.29-Jan-2021 4666.01 5625.40 80.21 8.00   6.60 2572.07
   07:03:52.120.29-Jan-2021 4666.01 5619.69 80.21 8.00   6.80 2572.07
   07:03:52.320.29-Jan-2021 4666.01 5626.30 80.21 8.00   7.00 2572.07
   07:03:52.520.29-Jan-2021 4666.01 5626.30 80.21 8.00   7.20 2572.07
   07:03:52.720.29-Jan-2021 4666.01 5626.30 80.21 8.00   7.40 2572.07
   07:03:52.920.29-Jan-2021 4666.01 5625.31 80.20 8.00   7.60 2572.07
   07:03:53.120.29-Jan-2021 4666.01 5626.66 80.20 8.00   7.80 2572.07
   07:03:53.320.29-Jan-2021 4666.01 5625.73 80.20 8.00   8.00 2572.07
   07:03:53.520.29-Jan-2021 4666.01 5625.73 80.20 8.00   8.20 2572.07
   07:03:53.720.29-Jan-2021 4666.01 5626.93 80.20 8.00   8.40 2572.07
   07:03:53.920.29-Jan-2021 4666.01 5626.76 80.20 8.00   8.60 2572.07
   07:03:54.121.29-Jan-2021 4666.01 5626.52 80.20 8.00   8.80 2572.07
   07:03:54.321.29-Jan-2021 4666.01 5626.07 80.20 8.00   9.00 2572.07
   07:03:54.521.29-Jan-2021 4666.01 5626.07 80.20 8.00   9.20 2572.07
   07:03:54.721.29-Jan-2021 4666.01 5626.24 80.20 8.00   9.40 2572.07
   07:03:54.921.29-Jan-2021 4666.01 5626.06 80.20 8.00   9.60 2572.07
   07:03:55.121.29-Jan-2021 4666.01 5625.63 80.19 8.00   9.80 2572.07
   07:03:55.321.29-Jan-2021 4666.01 5626.49 80.19 8.00  10.00 2572.07
   07:03:55.521.29-Jan-2021 4666.01 5626.49 80.19 8.00  10.20 2572.07
   07:03:55.721.29-Jan-2021 4666.01 5624.67 80.19 8.00  10.40 2572.07
   07:03:55.921.29-Jan-2021 4666.01 5622.94 80.19 8.00  10.60 2572.07
   07:03:56.121.29-Jan-2021 4666.01 5626.62 80.19 8.00  10.80 2572.07
   07:03:56.321.29-Jan-2021 4666.01 5623.36 80.19 8.00  11.00 2572.07
   07:03:56.521.29-Jan-2021 4666.01 5623.36 80.19 8.00  11.20 2572.07
   07:03:56.721.29-Jan-2021 4666.01 5626.22 80.19 8.00  11.40 2572.07
   07:03:56.921.29-Jan-2021 4666.01 5621.98 80.19 8.00  11.60 2572.07
   07:03:57.121.29-Jan-2021 4666.01 5626.69 80.19 8.00  11.80 2572.07
   07:03:57.321.29-Jan-2021 4666.01 5625.87 80.19 8.00  12.00 2572.07
   07:03:57.521.29-Jan-2021 4666.01 5625.87 80.19 8.00  12.20 2572.07
   07:03:57.721.29-Jan-2021 4666.01 5619.82 80.18 8.00  12.40 2572.07
   07:03:57.921.29-Jan-2021 4666.01 5628.94 80.18 8.00  12.60 2572.07
   07:03:58.121.29-Jan-2021 4666.01 5627.44 80.18 8.00  12.80 2572.07
   07:03:58.321.29-Jan-2021 4666.01 5622.39 80.18 8.00  13.00 2572.07
   07:03:58.521.29-Jan-2021 4666.01 5622.39 80.18 8.00  13.20 2572.07
   07:03:58.722.29-Jan-2021 4666.01 5628.57 80.18 8.00  13.40 2572.07
   07:03:58.922.29-Jan-2021 4666.01 5624.86 80.18 8.00  13.60 2572.07
   07:03:59.122.29-Jan-2021 4666.01 5621.06 80.18 8.00  13.80 2572.07
   07:03:59.322.29-Jan-2021 4666.01 5628.49 80.18 8.00  14.00 2572.07
   07:03:59.522.29-Jan-2021 4666.01 5628.49 80.18 8.00  14.20 2572.07
   07:03:59.722.29-Jan-2021 4666.01 5624.25 80.18 8.00  14.40 2572.07
   07:03:59.922.29-Jan-2021 4666.01 5644.85 80.18 8.00  14.60 2572.07
   07:04:00.122.29-Jan-2021 4666.01 5668.36 80.18 8.00  14.80 2572.07
   07:04:00.322.29-Jan-2021 4666.01 5712.26 80.17 8.00  15.00 2572.07
   07:04:00.522.29-Jan-2021 4666.01 5712.26 80.17 8.00  15.20 2572.07
   07:04:00.722.29-Jan-2021 4666.01 5788.69 80.17 8.00  15.40 2572.07
   07:04:00.922.29-Jan-2021 4666.01 5830.55 80.17 8.00  15.60 2572.07
   07:04:01.122.29-Jan-2021 4666.01 5857.54 80.17 8.00  15.80 2572.07
   07:04:01.322.29-Jan-2021 4666.01 5885.35 80.17 8.00  16.00 2572.07
   07:04:01.522.29-Jan-2021 4666.01 5885.35 80.17 8.00  16.20 2572.07
   07:04:01.722.29-Jan-2021 4666.01 5943.71 80.17 8.00  16.40 2572.07
   07:04:01.922.29-Jan-2021 4666.01 5969.19 80.17 8.00  16.60 2572.07
   07:04:02.122.29-Jan-2021 4666.01 6001.01 80.17 8.00  16.80 2572.07
   07:04:02.322.29-Jan-2021 4666.01 6029.27 80.17 8.00  17.00 2572.07
   07:04:02.522.29-Jan-2021 4666.01 6029.27 80.17 8.00  17.20 2572.07
   07:04:02.722.29-Jan-2021 4666.01 6098.72 80.17 8.00  17.40 2572.07
   07:04:02.922.29-Jan-2021 4666.01 6184.03 80.17 8.00  17.60 2572.07
   07:04:03.122.29-Jan-2021 4666.01 6217.62 80.16 8.00  17.80 2572.07
   07:04:03.322.29-Jan-2021 4666.01 6235.20 80.16 8.00  18.00 2572.07
   07:04:03.523.29-Jan-2021 4666.01 6235.20 80.16 8.00  18.20 2572.07
   07:04:03.723.29-Jan-2021 4666.01 6188.35 80.16 8.00  18.40 2572.07
   07:04:03.923.29-Jan-2021 4666.01 6183.31 80.16 8.00  18.60 2572.07
   07:04:04.123.29-Jan-2021 4666.01 5659.80 80.16 8.00  18.80 2572.07
   07:04:04.323.29-Jan-2021 4666.01 5692.62 80.16 8.00  19.00 2572.07
   07:04:04.523.29-Jan-2021 4666.01 5692.62 80.16 8.00  19.20 2572.07
   07:04:04.723.29-Jan-2021 4666.01 5728.57 80.16 8.00  19.40 2572.07
   07:04:04.923.29-Jan-2021 4666.01 5741.84 80.16 8.00  19.60 2572.07
   07:04:05.123.29-Jan-2021 4666.01 5754.29 80.16 8.00  19.80 2572.07
   07:04:05.323.29-Jan-2021 4666.01 5774.33 80.16 8.00  20.00 2572.07
   07:04:05.523.29-Jan-2021 4666.01 5774.33 80.16 8.00  20.20 2572.07
   07:04:05.723.29-Jan-2021 4666.01 5917.43 80.16 8.00  20.40 2572.07
   07:04:05.923.29-Jan-2021 4666.01 6055.93 80.15 8.00  20.60 2572.07
   07:04:06.123.29-Jan-2021 4666.01 6112.80 80.15 8.00  20.80 2572.07
   07:04:06.323.29-Jan-2021 4666.01 6126.99 80.15 8.00  21.00 2572.07
   07:04:06.523.29-Jan-2021 4666.01 6126.99 80.15 8.00  21.20 2572.07
   07:04:06.723.29-Jan-2021 4666.01 6198.72 80.15 8.00  21.40 2572.07
   07:04:06.923.29-Jan-2021 4666.01 6173.61 80.15 8.00  21.60 2572.07
   07:04:07.123.29-Jan-2021 4666.01 6151.18 80.15 8.00  21.80 2572.07
   07:04:07.323.29-Jan-2021 4666.01 6135.03 80.15 8.00  22.00 2572.07
   07:04:07.523.29-Jan-2021 4666.01 6135.03 80.15 8.00  22.20 2572.07
   07:04:07.723.29-Jan-2021 4666.01 6120.51 80.15 8.00  22.40 2572.07
   07:04:07.923.29-Jan-2021 4666.01 6117.83 80.15 8.00  22.60 2572.07
   07:04:08.123.29-Jan-2021 4666.01 6114.04 80.15 8.00  22.80 2572.07
