~Version Information
 VERS.                  2.0:   CWLS log ASCII Standard -VERSION 2.0
 WRAP.                   NO:   One line per depth step
~Well Information Block
#MNEM.UNIT     VALUE/NAME     DESCRIPTION
#---------     -----------    ---------------------------
 STRT.S             01:54:12 30-Jan-21: START TIME 01:54:12 30-Jan-21
 STOP.S             02:00:42 30-Jan-21: STOP TIME  02:00:42 30-Jan-21
 STEP.S                   0.00: STEP TIME
 NULL.                 -999.25: NULL VALUE
 DFWT.                        :  DIST FWL TEXT
 DFST.                        :  DIST FSL TEXT
 DMF .             Drill Floor:  DRILL MEAS FROM
 STIM.      00.00.00 25-Sep-20:  START TIME
 DATE.      16.12.48 31-Jan-21:  END TIME
 SPUD.               20-Sep-20:  SPUD DATE
 NREF.                    Grid:  NORTH REFERENCE
 HPTY.       Minimum Curvature:  HOLE POS TYPE
 DMOD.             Drill Model:  DRILL MOD DESC
 SVYD.                  Survey:  SURVEY DESC
 ILTD.               Lithology:  INTERP LTH DESC
 FTOP.          Formation Tops:  FORM TOPS DESC
 RIG .              East Azeri:  RIG NAME
 PDAT.          Mean Sea Level:  PERMANENT DATUM
 FLD .                     ACG:  FIELD NAME
 SON .        AZ-XX-0906591820:  JOB NUMBER
 CTRY.              Azerbaijan:  COUNTRY NAME
 WELL.                     D37:  WELL NAME
 SRVC.     Turan Drilling & Engineering:  CONTRACTOR
 COMP.     BP Exploration (Caspian Sea) ltd.:  COMPANY
 WTYP.                Deviated:  WELL TYPE
 MDS .        Operator Entered:  MAG DATA SOURCE
 UWI .                     N/A:  UNIQUE WELL IDENTIFIER
 API .                     N/A:  API NUMBER
 BASE.              Azerbaijan:  LOGGING EQUIPMENT BASE LOCATION
 REGN.                   EESSA:  REGION
 PROV.                    Baku:  PROVINCE
 STAT.                    Baku:  STATE NAME
 MWDS.                    Baku:  MWD SHOP
 JOBN.        AZ-XX-0906591820:  JOB TICKET NUMB
 DOE .                     N/A:  DOE NUMBER
 DCON.         Sperry Drilling:  DIRECTNL CONTR
 UNIT.                     N/A:  LOGGING EQUIPMENT ID
 CNTY.                        :  COUNTY
 LOC .                        :  LOCATION
 LMF .             Drill Floor:  LOG MEASURED FROM
 TVDS.m                  43.60:  TVDSS CORRECTN
 LATI.deg                40.02:  LATITUDE
 LONG.deg                51.45:  LONGITUDE
 WHNS.m                  11.04:  WELL HEAD N/S
 WHEW.m                 -12.38:  WELL HEAD E/W
 UTMX.m              538763.98:  UTM X
 UTMY.m             4431880.20:  UTM Y
 DFWL.m                   0.00:  DISTANCE FWL
 DFSL.m                   0.00:  DISTANCE FSL
 SDEP.m                 300.00:  START DEPTH
 TDD .m                4900.01:  TOTAL DEPTH (DRILLER)
 VSDR.deg               185.64:  VERT SEC DIRECT
 GVFD.g                   1.00:  GRAVITY FIELD
 MFLD.nT              50301.00:  MAGNETIC FIELD
 MDIP.deg                59.46:  MAGNETIC DIP
 MDEC.deg                 6.43:  MAGNETIC DECL
 GRDC.deg                 0.29:  GRID CORRECTION
 AZTC.deg                 6.14:  AZM TOTAL CORR
 EPD .m                   0.00:  ELEVATION
 EGL .m                   0.00:  GROUND ELEVATION
 WDMS.m                 151.80:  WD ELEV
 APD .m                  43.60:  DEPTH ABOVE PD
 DEP .m                 571.69:  DEPTH
 AGAP.m                  43.60:  AIR GAP
 VSEW.m                 -12.38:  VERT SEC E/W
 VSNS.m                  11.04:  VERT SEC N/S
 EKB .m                  43.60:  KB ELEVATION
 EDF .m                  43.60:  DF ELEVATION
 TDL .m                 412.00:  TOTAL DEPTH (LOGGER)
 VSC .                       0:  VS TO CLOSURE
 MAGU.                 1849300:  MAGUTM CHECKSUM
~Parameter Information Block
#MNEM.UNIT       Value        Description
#---------     -----------    ---------------------------
 AV  .mps                 2.21:  Ann Velocity 
 AVMX.mps                 2.53:  Max Ann Veloc 
 AZIF.deg               144.83:  Azm, Final 
 BHAT.        Rotary Steerable:  BHA Type 
 BROT.°/30m              -0.52:  Build Rotating 
 BS  .in                  6.50:  Bit Size 
 BTPL.psig              209.00:  Bit Press Loss 
 CABU.                      No:  Customer Abuse 
 CGEO.        Ali Isfandiyarov:  Customer Geo 
 COMM.                     d!e:  Run Comments 1 
 TCS .hr                 61.31:  Time Ciculation Ended 
 CV  .mps                 4.66:  Crit Velocity 
 CVMX.mps                 5.02:  Max Crit Veloc 
 DD1 .          Fariz Nahmatov:  Direct Drillr 1 
 DD2 .            Musa Ahmadov:  Direct Drillr 2 
 DDSV.               Geo-Pilot:  DD Service 
 DEFF.%                 100.00:  % Det Eff 
 DLRX.°/30m               1.44:  Dogleg Rot Max 
 DLSO.°/30m               0.83:  Dogleg Oriented 
 DLSX.°/30m               1.44:  Dogleg Str Max 
 DRET.      08.30.00 30-Jan-21:  Drill End Time 
 DRST.      21.15.00 27-Jan-21:  Drill Start Tim 
 DTIM.hr                 37.28:  Time Drilling 
 EDEP.m                4867.01:  End Depth 
 ENG1.          Rasim Hashimov:  Engineer 1 
 ENG2.         Almaz Almadatov:  Engineer 2 
 ENG3.        Tamerlan Ahmadov:  Engineer 3 
 ETIM.      22.41.04 31-Jan-21:  End Time 
 FLOI.gpm               400.00:  Flow In 
 FLON.gpm               300.00:  Flow In Min 
 FLOS.cptm                0.00:  Fluid Loss 
 FLOX.gpm               400.00:  Flow In Max 
 HFLO.                      No:  High Flow 
 HPRE.                      No:  High Pressure 
 HTEM.                      No:  High Temp 
 HYDO.m                   1.80:  Hydro Offset 
 IFIN.deg                65.63:  Inc, Final 
 IMAX.deg                66.77:  Inc Max 
 IMIN.deg                65.61:  Inc Min 
 IMND.m                4612.67:  Inc Min Depth 
 IMXD.m                4811.63:  Inc Max Depth 
 JARR.                      No:  Jarring 
 LETM.      08.30.00 30-Jan-21:  Log End Time 
 LOST.hr                     0:  Lost Rig Time 
 LSTM.      21.15.00 27-Jan-21:  Log Start Time 
 MDCL.ppm             41000.00:  Mud Chlorides 
 MDES.     Inversion Oil/Synthetic:  Mud Desc 
 DFD .sg                  1.40:  Mud Density 
 MDMN.sg                  1.40:  Dens Mud Min 
 MDMX.sg                  1.40:  Dens Mud Max 
 MOIL.                      53:  Run Mud Oil % 
 MOWR.                   66:34:  Run Mud OWR 
 MSND.                     0.2:  Run Mud Sand % 
 MSOL.                    17.9:  Run Mud Solids% 
 DFV .spqt               77.00:  Mud Viscosity 
 MWOD.in                  4.75:  MWD Tool OD 
 MWSI.                      No:  Serv Intrp, MWD 
 OTIM.hr                110.38:  Time Operating 
 PCON.           Look Like New:  Pad Condition 
 PMAX.psia             5300.00:  Press Op, Max 
 PV  .cP                 57.00:  Mud PV 
 RUN .                    1200:  Run Number 
 ROPA.m/hr               13.00:  ROP Avg 
 ROPN.m/hr                9.00:  ROP Min 
 ROPX.m/hr               15.00:  ROP Max 
 RPMA.rpm               120.00:  RPM Surface Avg 
 RPMN.rpm               100.00:  RPM Surface Min 
 RPMX.rpm               135.00:  RPM Surface Max 
 RRUN.                    1200:  Rig Run Number 
 RTIM.hr                  2.65:  Time Reaming 
 SAZI.deg               145.04:  Azm, Start 
 SDEP.m                4455.01:  Start Depth 
 SIDD.                      No:  Serv Intrp, DD 
 SINC.deg                65.83:  Inc, Start 
 SPPA.psig             5037.00:  SPP Avg 
 SPPN.psig             4430.00:  SPP Min 
 SPPX.psig             5300.00:  SPP Max 
 STIM.      22.41.04 26-Jan-21:  Start Time 
 SVCS.                 DD, MWD:  Services 
 SVER.                    9.20:  Sperry Version 
 TDAT.m                 412.00:  Tot Depth Attmp 
 TDDF.                      No:  Trip for DD 
 TDLG.m                 412.00:  Tot Depth Loggd 
 TFF .                      No:  Trip for Fail 
 TQAA.f-kp               15.00:  Torque Abs Avg 
 TQAN.f-kp               12.00:  Torque Abs Min 
 TQAX.f-kp               17.00:  Torque Abs Max 
 TRRT.°/30m               1.18:  Turn Rotating 
 MRT .                     ADR:  Maximum Recorded Temperature 
 TTMX.degC               88.24:  Max Tool Temp 
 VS01.                90619458:  Virtual Str1 SN 
 VS02.                90519326:  Virtual Str2 SN 
 VS03.                90522176:  Virtual Str3 SN 
 VS04.                90512683:  Virtual Str4 SN 
 WBMN.klb                 1.00:  WOB Min 
 WITN.           Murad Giluyev:  Customer Rep 
 WITN.     Kamran Kemberlinski:  Customer Rep 2 
 WOBA.klb                 5.00:  WOB Avg 
 WOBX.klb                 9.00:  WOB Max 
 YP  .lhf2               41.00:  Yield Point 
~Curve Information Block
#MNEM.UNIT                 API CODE     Curve Description
#---------               -----------    ---------------------------
 TIME.HHMMSS            00 000 000 000:  GT Time & Date
 GTDEPTH.m              00 000 000 000:  GT Depth
 GTPQH.psia             00 000 000 000:  GT HR Quartz Pressure
 GTTQ.degC              00 000 000 000:  GT Quartz Temperature
 GTTN.NONE              00 000 000 000:  GT Test Number
 GTET.sec               00 000 000 000:  GT Elapsed Test Time
 GTTVD.m                00 000 000 000:  GT True Vertical Depth
#Other Information
#
#WARRANTY: Halliburton will use its best efforts to furnish customers with 
#accurate information and interpretations that are part of, and incident to, the services 
#provided.  However, Halliburton cannot and does not warrant the accuracy 
#or correctness of such information and interpretations.  Under no circumstances should any 
#such information or interpretation be relied upon as the sole basis for any drilling, 
#completion, production, or financial decision or any procedure involving any risk to the 
#safety of any drilling venture, drilling rig or its crew or any other third party.  The 
#Customer has full responsibility for all drilling, completion and production operation.  
#Halliburton makes no representations or warranties, either expressed or 
#implied, including, but not limited to, the implied warranties of merchantability or fitness 
#for a particular purpose, with respect to the services rendered.  In no event will 
#Halliburton be liable for failure to obtain any particular results or for 
#any damages, including, but not limited to, indirect, special or consequential damages, 
#resulting from the use of any information or interpretation provided by Halliburton.
#
~A           TIME           GTDEPTH  GTPQH  GTTQ  GTTN   GTET   GTTVD  
# ...
   01:59:51.992.30-Jan-2021 4790.01 5655.28 80.47 16.00 339.07 2621.59
   01:59:52.192.30-Jan-2021 4790.01 5655.28 80.47 16.00 339.27 2621.59
   01:59:52.392.30-Jan-2021 4790.01 5656.21 80.47 16.00 339.47 2621.59
   01:59:52.592.30-Jan-2021 4790.01 5656.24 80.47 16.00 339.67 2621.59
   01:59:52.792.30-Jan-2021 4790.01 5655.00 80.47 16.00 339.87 2621.59
   01:59:52.992.30-Jan-2021 4790.01 5655.92 80.47 16.00 340.07 2621.59
   01:59:53.192.30-Jan-2021 4790.01 5655.92 80.47 16.00 340.27 2621.59
   01:59:53.392.30-Jan-2021 4790.01 5656.27 80.47 16.00 340.47 2621.59
   01:59:53.592.30-Jan-2021 4790.01 5654.64 80.47 16.00 340.67 2621.59
   01:59:53.792.30-Jan-2021 4790.01 5656.08 80.47 16.00 340.87 2621.59
   01:59:53.992.30-Jan-2021 4790.01 5656.09 80.47 16.00 341.07 2621.59
   01:59:54.192.30-Jan-2021 4790.01 5656.09 80.47 16.00 341.27 2621.59
   01:59:54.392.30-Jan-2021 4790.01 5655.80 80.47 16.00 341.47 2621.59
   01:59:54.592.30-Jan-2021 4790.01 5655.89 80.47 16.00 341.67 2621.59
   01:59:54.792.30-Jan-2021 4790.01 5655.97 80.47 16.00 341.87 2621.59
   01:59:54.992.30-Jan-2021 4790.01 5655.93 80.47 16.00 342.07 2621.59
   01:59:55.192.30-Jan-2021 4790.01 5655.93 80.47 16.00 342.27 2621.59
   01:59:55.392.30-Jan-2021 4790.01 5656.00 80.47 16.00 342.47 2621.59
   01:59:55.592.30-Jan-2021 4790.01 5655.97 80.47 16.00 342.67 2621.59
   01:59:55.792.30-Jan-2021 4790.01 5656.03 80.47 16.00 342.87 2621.59
   01:59:55.992.30-Jan-2021 4790.01 5655.77 80.46 16.00 343.07 2621.59
   01:59:56.192.30-Jan-2021 4790.01 5655.77 80.46 16.00 343.27 2621.59
   01:59:56.392.30-Jan-2021 4790.01 5656.00 80.46 16.00 343.47 2621.59
   01:59:56.592.30-Jan-2021 4790.01 5656.05 80.46 16.00 343.67 2621.59
   01:59:56.792.30-Jan-2021 4790.01 5655.92 80.46 16.00 343.87 2621.59
   01:59:56.992.30-Jan-2021 4790.01 5656.02 80.46 16.00 344.07 2621.59
   01:59:57.193.30-Jan-2021 4790.01 5656.02 80.46 16.00 344.27 2621.59
   01:59:57.393.30-Jan-2021 4790.01 5655.99 80.46 16.00 344.47 2621.59
   01:59:57.593.30-Jan-2021 4790.01 5655.96 80.46 16.00 344.67 2621.59
   01:59:57.793.30-Jan-2021 4790.01 5655.95 80.46 16.00 344.87 2621.59
   01:59:57.993.30-Jan-2021 4790.01 5655.93 80.46 16.00 345.07 2621.59
   01:59:58.193.30-Jan-2021 4790.01 5655.93 80.46 16.00 345.27 2621.59
   01:59:58.393.30-Jan-2021 4790.01 5655.94 80.46 16.00 345.47 2621.59
   01:59:58.593.30-Jan-2021 4790.01 5655.00 80.46 16.00 345.67 2621.59
   01:59:58.793.30-Jan-2021 4790.01 5656.05 80.46 16.00 345.87 2621.59
   01:59:58.993.30-Jan-2021 4790.01 5655.92 80.46 16.00 346.07 2621.59
   01:59:59.193.30-Jan-2021 4790.01 5655.92 80.46 16.00 346.27 2621.59
   01:59:59.393.30-Jan-2021 4790.01 5735.85 80.46 16.00 346.47 2621.59
   01:59:59.593.30-Jan-2021 4790.01 5734.74 80.46 16.00 346.67 2621.59
   01:59:59.793.30-Jan-2021 4790.01 5617.45 80.46 16.00 346.87 2621.59
   01:59:59.993.30-Jan-2021 4790.01 5740.18 80.46 16.00 347.07 2621.59
   02:00:00.193.30-Jan-2021 4790.01 5740.18 80.46 16.00 347.27 2621.59
   02:00:00.393.30-Jan-2021 4790.01 5739.07 80.46 16.00 347.47 2621.59
   02:00:00.593.30-Jan-2021 4790.01 5739.46 80.46 16.00 347.67 2621.59
   02:00:00.793.30-Jan-2021 4790.01 5739.67 80.46 16.00 347.87 2621.59
   02:00:00.993.30-Jan-2021 4790.01 5739.93 80.46 16.00 348.07 2621.59
   02:00:01.193.30-Jan-2021 4790.01 5739.93 80.46 16.00 348.27 2621.59
   02:00:01.393.30-Jan-2021 4790.01 5740.32 80.46 16.00 348.47 2621.59
   02:00:01.593.30-Jan-2021 4790.01 5739.82 80.46 16.00 348.67 2621.59
   02:00:01.793.30-Jan-2021 4790.01 5740.94 80.46 16.00 348.87 2621.59
   02:00:01.993.30-Jan-2021 4790.01 5733.36 80.46 16.00 349.07 2621.59
   02:00:02.193.30-Jan-2021 4790.01 5733.36 80.46 16.00 349.27 2621.59
   02:00:02.394.30-Jan-2021 4790.01 5740.99 80.46 16.00 349.47 2621.59
   02:00:02.594.30-Jan-2021 4790.01 5741.13 80.46 16.00 349.67 2621.59
   02:00:02.794.30-Jan-2021 4790.01 5735.64 80.46 16.00 349.87 2621.59
   02:00:02.994.30-Jan-2021 4790.01 5738.64 80.46 16.00 350.07 2621.59
   02:00:03.194.30-Jan-2021 4790.01 5738.64 80.46 16.00 350.27 2621.59
   02:00:03.394.30-Jan-2021 4790.01 5741.72 80.46 16.00 350.47 2621.59
   02:00:03.594.30-Jan-2021 4790.01 5738.66 80.46 16.00 350.67 2621.59
   02:00:03.794.30-Jan-2021 4790.01 5736.77 80.46 16.00 350.87 2621.59
   02:00:03.994.30-Jan-2021 4790.01 5740.98 80.46 16.00 351.07 2621.59
   02:00:04.194.30-Jan-2021 4790.01 5740.98 80.46 16.00 351.27 2621.59
   02:00:04.394.30-Jan-2021 4790.01 5743.35 80.46 16.00 351.47 2621.59
   02:00:04.594.30-Jan-2021 4790.01 5731.42 80.46 16.00 351.67 2621.59
   02:00:04.794.30-Jan-2021 4790.01 5742.16 80.46 16.00 351.87 2621.59
   02:00:04.994.30-Jan-2021 4790.01 5743.40 80.46 16.00 352.07 2621.59
   02:00:05.194.30-Jan-2021 4790.01 5743.40 80.46 16.00 352.27 2621.59
   02:00:05.394.30-Jan-2021 4790.01 5737.67 80.46 16.00 352.47 2621.59
   02:00:05.594.30-Jan-2021 4790.01 5741.75 80.46 16.00 352.67 2621.59
   02:00:05.794.30-Jan-2021 4790.01 5741.36 80.46 16.00 352.87 2621.59
   02:00:05.994.30-Jan-2021 4790.01 5736.65 80.46 16.00 353.07 2621.59
   02:00:06.194.30-Jan-2021 4790.01 5736.65 80.46 16.00 353.27 2621.59
   02:00:06.394.30-Jan-2021 4790.01 5741.80 80.46 16.00 353.47 2621.59
   02:00:06.594.30-Jan-2021 4790.01 5740.43 80.46 16.00 353.67 2621.59
   02:00:06.794.30-Jan-2021 4790.01 5740.08 80.46 16.00 353.87 2621.59
   02:00:06.994.30-Jan-2021 4790.01 5740.71 80.46 16.00 354.07 2621.59
   02:00:07.194.30-Jan-2021 4790.01 5740.71 80.46 16.00 354.27 2621.59
   02:00:07.394.30-Jan-2021 4790.01 5742.14 80.46 16.00 354.47 2621.59
   02:00:07.595.30-Jan-2021 4790.01 5741.48 80.46 16.00 354.67 2621.59
   02:00:07.795.30-Jan-2021 4790.01 5740.71 80.46 16.00 354.87 2621.59
   02:00:07.995.30-Jan-2021 4790.01 5741.49 80.46 16.00 355.07 2621.59
   02:00:08.195.30-Jan-2021 4790.01 5741.49 80.46 16.00 355.27 2621.59
   02:00:08.395.30-Jan-2021 4790.01 5741.30 80.46 16.00 355.47 2621.59
   02:00:08.595.30-Jan-2021 4790.01 5742.03 80.46 16.00 355.67 2621.59
   02:00:08.795.30-Jan-2021 4790.01 5741.04 80.46 16.00 355.87 2621.59
   02:00:08.995.30-Jan-2021 4790.01 5741.81 80.46 16.00 356.07 2621.59
   02:00:09.195.30-Jan-2021 4790.01 5741.81 80.46 16.00 356.27 2621.59
   02:00:09.395.30-Jan-2021 4790.01 5741.71 80.46 16.00 356.47 2621.59
   02:00:09.595.30-Jan-2021 4790.01 5734.38 80.46 16.00 356.67 2621.59
   02:00:09.795.30-Jan-2021 4790.01 5742.00 80.46 16.00 356.87 2621.59
   02:00:09.995.30-Jan-2021 4790.01 5741.99 80.46 16.00 357.07 2621.59
   02:00:10.195.30-Jan-2021 4790.01 5741.99 80.46 16.00 357.27 2621.59
   02:00:10.395.30-Jan-2021 4790.01 5737.72 80.46 16.00 357.47 2621.59
   02:00:10.595.30-Jan-2021 4790.01 5740.71 80.46 16.00 357.67 2621.59
   02:00:10.795.30-Jan-2021 4790.01 5740.62 80.46 16.00 357.87 2621.59
   02:00:10.995.30-Jan-2021 4790.01 5741.62 80.46 16.00 358.07 2621.59
   02:00:11.195.30-Jan-2021 4790.01 5741.62 80.46 16.00 358.27 2621.59
   02:00:11.395.30-Jan-2021 4790.01 5739.88 80.46 16.00 358.47 2621.59
   02:00:11.595.30-Jan-2021 4790.01 5741.03 80.46 16.00 358.67 2621.59
   02:00:11.795.30-Jan-2021 4790.01 5741.03 80.46 16.00 358.87 2621.59
   02:00:11.995.30-Jan-2021 4790.01 5741.66 80.46 16.00 359.07 2621.59
   02:00:12.195.30-Jan-2021 4790.01 5741.66 80.46 16.00 359.27 2621.59
   02:00:12.395.30-Jan-2021 4790.01 5741.14 80.46 16.00 359.47 2621.59
   02:00:12.595.30-Jan-2021 4790.01 5740.57 80.46 16.00 359.67 2621.59
   02:00:12.796.30-Jan-2021 4790.01 5741.39 80.46 16.00 359.87 2621.59
   02:00:12.996.30-Jan-2021 4790.01 5734.54 80.46 16.00 360.07 2621.59
   02:00:13.196.30-Jan-2021 4790.01 5734.54 80.46 16.00 360.27 2621.59
   02:00:13.396.30-Jan-2021 4790.01 5742.03 80.46 16.00 360.47 2621.59
   02:00:13.596.30-Jan-2021 4790.01 5741.94 80.46 16.00 360.67 2621.59
   02:00:13.796.30-Jan-2021 4790.01 5730.68 80.46 16.00 360.87 2621.59
   02:00:13.996.30-Jan-2021 4790.01 5743.95 80.46 16.00 361.07 2621.59
   02:00:14.196.30-Jan-2021 4790.01 5743.95 80.46 16.00 361.27 2621.59
   02:00:14.396.30-Jan-2021 4790.01 5742.51 80.46 16.00 361.47 2621.59
