~Version Information
 VERS.                  2.0:   CWLS log ASCII Standard -VERSION 2.0
 WRAP.                   NO:   One line per depth step
~Well Information Block
#MNEM.UNIT     VALUE/NAME     DESCRIPTION
#---------     -----------    ---------------------------
 STRT.S             11:33:05 30-Jan-21: START TIME 11:33:05 30-Jan-21
 STOP.S             11:39:34 30-Jan-21: STOP TIME  11:39:34 30-Jan-21
 STEP.S                   0.00: STEP TIME
 NULL.                 -999.25: NULL VALUE
 DFWT.                        :  DIST FWL TEXT
 DFST.                        :  DIST FSL TEXT
 DMF .             Drill Floor:  DRILL MEAS FROM
 STIM.      00.00.00 25-Sep-20:  START TIME
 DATE.      16.12.48 31-Jan-21:  END TIME
 SPUD.               20-Sep-20:  SPUD DATE
 NREF.                    Grid:  NORTH REFERENCE
 HPTY.       Minimum Curvature:  HOLE POS TYPE
 DMOD.             Drill Model:  DRILL MOD DESC
 SVYD.                  Survey:  SURVEY DESC
 ILTD.               Lithology:  INTERP LTH DESC
 FTOP.          Formation Tops:  FORM TOPS DESC
 RIG .              East Azeri:  RIG NAME
 PDAT.          Mean Sea Level:  PERMANENT DATUM
 FLD .                     ACG:  FIELD NAME
 SON .        AZ-XX-0906591820:  JOB NUMBER
 CTRY.              Azerbaijan:  COUNTRY NAME
 WELL.                     D37:  WELL NAME
 SRVC.     Turan Drilling & Engineering:  CONTRACTOR
 COMP.     BP Exploration (Caspian Sea) ltd.:  COMPANY
 WTYP.                Deviated:  WELL TYPE
 MDS .        Operator Entered:  MAG DATA SOURCE
 UWI .                     N/A:  UNIQUE WELL IDENTIFIER
 API .                     N/A:  API NUMBER
 BASE.              Azerbaijan:  LOGGING EQUIPMENT BASE LOCATION
 REGN.                   EESSA:  REGION
 PROV.                    Baku:  PROVINCE
 STAT.                    Baku:  STATE NAME
 MWDS.                    Baku:  MWD SHOP
 JOBN.        AZ-XX-0906591820:  JOB TICKET NUMB
 DOE .                     N/A:  DOE NUMBER
 DCON.         Sperry Drilling:  DIRECTNL CONTR
 UNIT.                     N/A:  LOGGING EQUIPMENT ID
 CNTY.                        :  COUNTY
 LOC .                        :  LOCATION
 LMF .             Drill Floor:  LOG MEASURED FROM
 TVDS.m                  43.60:  TVDSS CORRECTN
 LATI.deg                40.02:  LATITUDE
 LONG.deg                51.45:  LONGITUDE
 WHNS.m                  11.04:  WELL HEAD N/S
 WHEW.m                 -12.38:  WELL HEAD E/W
 UTMX.m              538763.98:  UTM X
 UTMY.m             4431880.20:  UTM Y
 DFWL.m                   0.00:  DISTANCE FWL
 DFSL.m                   0.00:  DISTANCE FSL
 SDEP.m                 300.00:  START DEPTH
 TDD .m                4900.01:  TOTAL DEPTH (DRILLER)
 VSDR.deg               185.64:  VERT SEC DIRECT
 GVFD.g                   1.00:  GRAVITY FIELD
 MFLD.nT              50301.00:  MAGNETIC FIELD
 MDIP.deg                59.46:  MAGNETIC DIP
 MDEC.deg                 6.43:  MAGNETIC DECL
 GRDC.deg                 0.29:  GRID CORRECTION
 AZTC.deg                 6.14:  AZM TOTAL CORR
 EPD .m                   0.00:  ELEVATION
 EGL .m                   0.00:  GROUND ELEVATION
 WDMS.m                 151.80:  WD ELEV
 APD .m                  43.60:  DEPTH ABOVE PD
 DEP .m                 571.69:  DEPTH
 AGAP.m                  43.60:  AIR GAP
 VSEW.m                 -12.38:  VERT SEC E/W
 VSNS.m                  11.04:  VERT SEC N/S
 EKB .m                  43.60:  KB ELEVATION
 EDF .m                  43.60:  DF ELEVATION
 TDL .m                 412.00:  TOTAL DEPTH (LOGGER)
 VSC .                       0:  VS TO CLOSURE
 MAGU.                 1849300:  MAGUTM CHECKSUM
~Parameter Information Block
#MNEM.UNIT       Value        Description
#---------     -----------    ---------------------------
 AV  .mps                 2.21:  Ann Velocity 
 AVMX.mps                 2.53:  Max Ann Veloc 
 AZIF.deg               144.83:  Azm, Final 
 BHAT.        Rotary Steerable:  BHA Type 
 BROT.°/30m              -0.52:  Build Rotating 
 BS  .in                  6.50:  Bit Size 
 BTPL.psig              209.00:  Bit Press Loss 
 CABU.                      No:  Customer Abuse 
 CGEO.        Ali Isfandiyarov:  Customer Geo 
 COMM.                     <»c:  Run Comments 1 
 TCS .hr                 61.31:  Time Ciculation Ended 
 CV  .mps                 4.66:  Crit Velocity 
 CVMX.mps                 5.02:  Max Crit Veloc 
 DD1 .          Fariz Nahmatov:  Direct Drillr 1 
 DD2 .            Musa Ahmadov:  Direct Drillr 2 
 DDSV.               Geo-Pilot:  DD Service 
 DEFF.%                 100.00:  % Det Eff 
 DLRX.°/30m               1.44:  Dogleg Rot Max 
 DLSO.°/30m               0.83:  Dogleg Oriented 
 DLSX.°/30m               1.44:  Dogleg Str Max 
 DRET.      08.30.00 30-Jan-21:  Drill End Time 
 DRST.      21.15.00 27-Jan-21:  Drill Start Tim 
 DTIM.hr                 37.28:  Time Drilling 
 EDEP.m                4867.01:  End Depth 
 ENG1.          Rasim Hashimov:  Engineer 1 
 ENG2.         Almaz Almadatov:  Engineer 2 
 ENG3.        Tamerlan Ahmadov:  Engineer 3 
 ETIM.      22.41.04 31-Jan-21:  End Time 
 FLOI.gpm               400.00:  Flow In 
 FLON.gpm               300.00:  Flow In Min 
 FLOS.cptm                0.00:  Fluid Loss 
 FLOX.gpm               400.00:  Flow In Max 
 HFLO.                      No:  High Flow 
 HPRE.                      No:  High Pressure 
 HTEM.                      No:  High Temp 
 HYDO.m                   1.80:  Hydro Offset 
 IFIN.deg                65.63:  Inc, Final 
 IMAX.deg                66.77:  Inc Max 
 IMIN.deg                65.61:  Inc Min 
 IMND.m                4612.67:  Inc Min Depth 
 IMXD.m                4811.63:  Inc Max Depth 
 JARR.                      No:  Jarring 
 LETM.      08.30.00 30-Jan-21:  Log End Time 
 LOST.hr                     0:  Lost Rig Time 
 LSTM.      21.15.00 27-Jan-21:  Log Start Time 
 MDCL.ppm             41000.00:  Mud Chlorides 
 MDES.     Inversion Oil/Synthetic:  Mud Desc 
 DFD .sg                  1.40:  Mud Density 
 MDMN.sg                  1.40:  Dens Mud Min 
 MDMX.sg                  1.40:  Dens Mud Max 
 MOIL.                      53:  Run Mud Oil % 
 MOWR.                   66:34:  Run Mud OWR 
 MSND.                     0.2:  Run Mud Sand % 
 MSOL.                    17.9:  Run Mud Solids% 
 DFV .spqt               77.00:  Mud Viscosity 
 MWOD.in                  4.75:  MWD Tool OD 
 MWSI.                      No:  Serv Intrp, MWD 
 OTIM.hr                110.38:  Time Operating 
 PCON.           Look Like New:  Pad Condition 
 PMAX.psia             5300.00:  Press Op, Max 
 PV  .cP                 57.00:  Mud PV 
 RUN .                    1200:  Run Number 
 ROPA.m/hr               13.00:  ROP Avg 
 ROPN.m/hr                9.00:  ROP Min 
 ROPX.m/hr               15.00:  ROP Max 
 RPMA.rpm               120.00:  RPM Surface Avg 
 RPMN.rpm               100.00:  RPM Surface Min 
 RPMX.rpm               135.00:  RPM Surface Max 
 RRUN.                    1200:  Rig Run Number 
 RTIM.hr                  2.65:  Time Reaming 
 SAZI.deg               145.04:  Azm, Start 
 SDEP.m                4455.01:  Start Depth 
 SIDD.                      No:  Serv Intrp, DD 
 SINC.deg                65.83:  Inc, Start 
 SPPA.psig             5037.00:  SPP Avg 
 SPPN.psig             4430.00:  SPP Min 
 SPPX.psig             5300.00:  SPP Max 
 STIM.      22.41.04 26-Jan-21:  Start Time 
 SVCS.                 DD, MWD:  Services 
 SVER.                    9.20:  Sperry Version 
 TDAT.m                 412.00:  Tot Depth Attmp 
 TDDF.                      No:  Trip for DD 
 TDLG.m                 412.00:  Tot Depth Loggd 
 TFF .                      No:  Trip for Fail 
 TQAA.f-kp               15.00:  Torque Abs Avg 
 TQAN.f-kp               12.00:  Torque Abs Min 
 TQAX.f-kp               17.00:  Torque Abs Max 
 TRRT.°/30m               1.18:  Turn Rotating 
 MRT .                     ADR:  Maximum Recorded Temperature 
 TTMX.degC               88.24:  Max Tool Temp 
 VS01.                90619458:  Virtual Str1 SN 
 VS02.                90519326:  Virtual Str2 SN 
 VS03.                90522176:  Virtual Str3 SN 
 VS04.                90512683:  Virtual Str4 SN 
 WBMN.klb                 1.00:  WOB Min 
 WITN.           Murad Giluyev:  Customer Rep 
 WITN.     Kamran Kemberlinski:  Customer Rep 2 
 WOBA.klb                 5.00:  WOB Avg 
 WOBX.klb                 9.00:  WOB Max 
 YP  .lhf2               41.00:  Yield Point 
~Curve Information Block
#MNEM.UNIT                 API CODE     Curve Description
#---------               -----------    ---------------------------
 TIME.HHMMSS            00 000 000 000:  GT Time & Date
 GTDEPTH.m              00 000 000 000:  GT Depth
 GTPQH.psia             00 000 000 000:  GT HR Quartz Pressure
 GTTQ.degC              00 000 000 000:  GT Quartz Temperature
 GTTN.NONE              00 000 000 000:  GT Test Number
 GTET.sec               00 000 000 000:  GT Elapsed Test Time
 GTTVD.m                00 000 000 000:  GT True Vertical Depth
#Other Information
#
#WARRANTY: Halliburton will use its best efforts to furnish customers with 
#accurate information and interpretations that are part of, and incident to, the services 
#provided.  However, Halliburton cannot and does not warrant the accuracy 
#or correctness of such information and interpretations.  Under no circumstances should any 
#such information or interpretation be relied upon as the sole basis for any drilling, 
#completion, production, or financial decision or any procedure involving any risk to the 
#safety of any drilling venture, drilling rig or its crew or any other third party.  The 
#Customer has full responsibility for all drilling, completion and production operation.  
#Halliburton makes no representations or warranties, either expressed or 
#implied, including, but not limited to, the implied warranties of merchantability or fitness 
#for a particular purpose, with respect to the services rendered.  In no event will 
#Halliburton be liable for failure to obtain any particular results or for 
#any damages, including, but not limited to, indirect, special or consequential damages, 
#resulting from the use of any information or interpretation provided by Halliburton.
#
~A           TIME           GTDEPTH  GTPQH  GTTQ  GTTN   GTET   GTTVD  
# ...
   11:36:51.221.30-Jan-2021 4826.01 3154.24 84.40 18.00 226.04 2635.88
   11:36:51.421.30-Jan-2021 4826.01 3154.24 84.40 18.00 226.24 2635.88
   11:36:51.621.30-Jan-2021 4826.01 3154.22 84.40 18.00 226.44 2635.88
   11:36:51.821.30-Jan-2021 4826.01 3154.23 84.40 18.00 226.64 2635.88
   11:36:52.021.30-Jan-2021 4826.01 3154.23 84.40 18.00 226.84 2635.88
   11:36:52.221.30-Jan-2021 4826.01 3154.23 84.40 18.00 227.04 2635.88
   11:36:52.421.30-Jan-2021 4826.01 3154.23 84.40 18.00 227.24 2635.88
   11:36:52.621.30-Jan-2021 4826.01 3154.22 84.40 18.00 227.44 2635.88
   11:36:52.821.30-Jan-2021 4826.01 3154.23 84.40 18.00 227.64 2635.88
   11:36:53.021.30-Jan-2021 4826.01 3154.17 84.40 18.00 227.84 2635.88
   11:36:53.221.30-Jan-2021 4826.01 3154.30 84.40 18.00 228.04 2635.88
   11:36:53.421.30-Jan-2021 4826.01 3154.30 84.40 18.00 228.24 2635.88
   11:36:53.621.30-Jan-2021 4826.01 3154.23 84.40 18.00 228.44 2635.88
   11:36:53.821.30-Jan-2021 4826.01 3154.20 84.40 18.00 228.64 2635.88
   11:36:54.021.30-Jan-2021 4826.01 3154.28 84.40 18.00 228.84 2635.88
   11:36:54.221.30-Jan-2021 4826.01 3154.25 84.40 18.00 229.04 2635.88
   11:36:54.421.30-Jan-2021 4826.01 3154.25 84.40 18.00 229.24 2635.88
   11:36:54.621.30-Jan-2021 4826.01 3154.20 84.39 18.00 229.44 2635.88
   11:36:54.821.30-Jan-2021 4826.01 3154.28 84.39 18.00 229.64 2635.88
   11:36:55.021.30-Jan-2021 4826.01 3154.25 84.39 18.00 229.84 2635.88
   11:36:55.222.30-Jan-2021 4826.01 3154.25 84.39 18.00 230.04 2635.88
   11:36:55.422.30-Jan-2021 4826.01 3154.25 84.39 18.00 230.24 2635.88
   11:36:55.622.30-Jan-2021 4826.01 3154.23 84.39 18.00 230.44 2635.88
   11:36:55.822.30-Jan-2021 4826.01 3154.24 84.39 18.00 230.64 2635.88
   11:36:56.022.30-Jan-2021 4826.01 3154.24 84.39 18.00 230.84 2635.88
   11:36:56.222.30-Jan-2021 4826.01 3154.25 84.39 18.00 231.04 2635.88
   11:36:56.422.30-Jan-2021 4826.01 3154.25 84.39 18.00 231.24 2635.88
   11:36:56.622.30-Jan-2021 4826.01 3154.18 84.39 18.00 231.44 2635.88
   11:36:56.822.30-Jan-2021 4826.01 3154.28 84.39 18.00 231.64 2635.88
   11:36:57.022.30-Jan-2021 4826.01 3154.25 84.39 18.00 231.84 2635.88
   11:36:57.222.30-Jan-2021 4826.01 3154.23 84.39 18.00 232.04 2635.88
   11:36:57.422.30-Jan-2021 4826.01 3154.23 84.39 18.00 232.24 2635.88
   11:36:57.622.30-Jan-2021 4826.01 3154.21 84.39 18.00 232.44 2635.88
   11:36:57.822.30-Jan-2021 4826.01 3154.24 84.39 18.00 232.64 2635.88
   11:36:58.022.30-Jan-2021 4826.01 3154.23 84.39 18.00 232.84 2635.88
   11:36:58.222.30-Jan-2021 4826.01 3154.24 84.39 18.00 233.04 2635.88
   11:36:58.422.30-Jan-2021 4826.01 3154.24 84.39 18.00 233.24 2635.88
   11:36:58.622.30-Jan-2021 4826.01 3154.23 84.38 18.00 233.44 2635.88
   11:36:58.822.30-Jan-2021 4826.01 3154.21 84.38 18.00 233.64 2635.88
   11:36:59.022.30-Jan-2021 4826.01 3154.23 84.38 18.00 233.84 2635.88
   11:36:59.222.30-Jan-2021 4826.01 3154.22 84.38 18.00 234.04 2635.88
   11:36:59.422.30-Jan-2021 4826.01 3154.22 84.38 18.00 234.24 2635.88
   11:36:59.622.30-Jan-2021 4826.01 3154.21 84.38 18.00 234.44 2635.88
   11:36:59.822.30-Jan-2021 4826.01 3154.21 84.38 18.00 234.64 2635.88
   11:37:00.022.30-Jan-2021 4826.01 3154.22 84.38 18.00 234.84 2635.88
   11:37:00.222.30-Jan-2021 4826.01 3154.17 84.38 18.00 235.04 2635.88
   11:37:00.422.30-Jan-2021 4826.01 3154.17 84.38 18.00 235.24 2635.88
   11:37:00.622.30-Jan-2021 4826.01 3154.23 84.38 18.00 235.44 2635.88
   11:37:00.823.30-Jan-2021 4826.01 3154.23 84.38 18.00 235.64 2635.88
   11:37:01.023.30-Jan-2021 4826.01 3154.23 84.38 18.00 235.84 2635.88
   11:37:01.223.30-Jan-2021 4826.01 3154.21 84.38 18.00 236.04 2635.88
   11:37:01.423.30-Jan-2021 4826.01 3154.21 84.38 18.00 236.24 2635.88
   11:37:01.623.30-Jan-2021 4826.01 3154.23 84.38 18.00 236.44 2635.88
   11:37:01.823.30-Jan-2021 4826.01 3154.22 84.38 18.00 236.64 2635.88
   11:37:02.023.30-Jan-2021 4826.01 3154.22 84.37 18.00 236.84 2635.88
   11:37:02.223.30-Jan-2021 4826.01 3154.22 84.37 18.00 237.04 2635.88
   11:37:02.423.30-Jan-2021 4826.01 3154.22 84.37 18.00 237.24 2635.88
   11:37:02.623.30-Jan-2021 4826.01 3154.22 84.37 18.00 237.44 2635.88
   11:37:02.823.30-Jan-2021 4826.01 3154.21 84.37 18.00 237.64 2635.88
   11:37:03.023.30-Jan-2021 4826.01 3154.22 84.37 18.00 237.84 2635.88
   11:37:03.223.30-Jan-2021 4826.01 3154.19 84.37 18.00 238.04 2635.88
   11:37:03.423.30-Jan-2021 4826.01 3154.19 84.37 18.00 238.24 2635.88
   11:37:03.623.30-Jan-2021 4826.01 3131.27 84.37 18.00 238.44 2635.88
   11:37:03.823.30-Jan-2021 4826.01 3130.91 84.37 18.00 238.64 2635.88
   11:37:04.023.30-Jan-2021 4826.01 3130.67 84.37 18.00 238.84 2635.88
   11:37:04.223.30-Jan-2021 4826.01 3130.56 84.37 18.00 239.04 2635.88
   11:37:04.423.30-Jan-2021 4826.01 3130.56 84.37 18.00 239.24 2635.88
   11:37:04.623.30-Jan-2021 4826.01 3130.73 84.37 18.00 239.44 2635.88
   11:37:04.823.30-Jan-2021 4826.01 3130.73 84.37 18.00 239.64 2635.88
   11:37:05.023.30-Jan-2021 4826.01 3130.27 84.37 18.00 239.84 2635.88
   11:37:05.223.30-Jan-2021 4826.01 3130.80 84.37 18.00 240.04 2635.88
   11:37:05.423.30-Jan-2021 4826.01 3130.80 84.37 18.00 240.24 2635.88
   11:37:05.623.30-Jan-2021 4826.01 3130.69 84.36 18.00 240.44 2635.88
   11:37:05.823.30-Jan-2021 4826.01 3130.60 84.36 18.00 240.64 2635.88
   11:37:06.023.30-Jan-2021 4826.01 3130.27 84.36 18.00 240.84 2635.88
   11:37:06.223.30-Jan-2021 4826.01 3130.63 84.36 18.00 241.04 2635.88
   11:37:06.424.30-Jan-2021 4826.01 3130.63 84.36 18.00 241.24 2635.88
   11:37:06.624.30-Jan-2021 4826.01 3130.73 84.36 18.00 241.44 2635.88
   11:37:06.824.30-Jan-2021 4826.01 3130.61 84.36 18.00 241.64 2635.88
   11:37:07.024.30-Jan-2021 4826.01 3130.08 84.36 18.00 241.84 2635.88
   11:37:07.224.30-Jan-2021 4826.01 3130.85 84.36 18.00 242.04 2635.88
   11:37:07.424.30-Jan-2021 4826.01 3130.85 84.36 18.00 242.24 2635.88
   11:37:07.624.30-Jan-2021 4826.01 3130.74 84.36 18.00 242.44 2635.88
   11:37:07.824.30-Jan-2021 4826.01 3130.57 84.36 18.00 242.64 2635.88
   11:37:08.024.30-Jan-2021 4826.01 3130.30 84.36 18.00 242.84 2635.88
   11:37:08.224.30-Jan-2021 4826.01 3130.60 84.36 18.00 243.04 2635.88
   11:37:08.424.30-Jan-2021 4826.01 3130.60 84.36 18.00 243.24 2635.88
   11:37:08.624.30-Jan-2021 4826.01 3130.44 84.36 18.00 243.44 2635.88
   11:37:08.824.30-Jan-2021 4826.01 3130.53 84.36 18.00 243.64 2635.88
   11:37:09.024.30-Jan-2021 4826.01 3130.34 84.36 18.00 243.84 2635.88
   11:37:09.224.30-Jan-2021 4826.01 3130.39 84.36 18.00 244.04 2635.88
   11:37:09.424.30-Jan-2021 4826.01 3130.39 84.36 18.00 244.24 2635.88
   11:37:09.624.30-Jan-2021 4826.01 3130.57 84.35 18.00 244.44 2635.88
   11:37:09.824.30-Jan-2021 4826.01 3130.38 84.35 18.00 244.64 2635.88
   11:37:10.024.30-Jan-2021 4826.01 3130.53 84.35 18.00 244.84 2635.88
   11:37:10.224.30-Jan-2021 4826.01 3130.46 84.35 18.00 245.04 2635.88
   11:37:10.424.30-Jan-2021 4826.01 3130.46 84.35 18.00 245.24 2635.88
   11:37:10.624.30-Jan-2021 4826.01 3130.09 84.35 18.00 245.44 2635.88
   11:37:10.824.30-Jan-2021 4826.01 3131.08 84.35 18.00 245.64 2635.88
   11:37:11.024.30-Jan-2021 4826.01 3130.44 84.35 18.00 245.84 2635.88
   11:37:11.224.30-Jan-2021 4826.01 3130.56 84.35 18.00 246.04 2635.88
   11:37:11.424.30-Jan-2021 4826.01 3130.56 84.35 18.00 246.24 2635.88
   11:37:11.624.30-Jan-2021 4826.01 3130.31 84.35 18.00 246.44 2635.88
   11:37:11.824.30-Jan-2021 4826.01 3130.53 84.35 18.00 246.64 2635.88
   11:37:12.025.30-Jan-2021 4826.01 3130.57 84.35 18.00 246.84 2635.88
   11:37:12.225.30-Jan-2021 4826.01 3130.58 84.35 18.00 247.04 2635.88
   11:37:12.425.30-Jan-2021 4826.01 3130.58 84.35 18.00 247.24 2635.88
   11:37:12.625.30-Jan-2021 4826.01 3130.53 84.35 18.00 247.44 2635.88
   11:37:12.825.30-Jan-2021 4826.01 3130.63 84.35 18.00 247.64 2635.88
   11:37:13.025.30-Jan-2021 4826.01 3130.71 84.34 18.00 247.84 2635.88
   11:37:13.225.30-Jan-2021 4826.01 3130.90 84.34 18.00 248.04 2635.88
   11:37:13.425.30-Jan-2021 4826.01 3130.90 84.34 18.00 248.24 2635.88
   11:37:13.625.30-Jan-2021 4826.01 3132.37 84.34 18.00 248.44 2635.88
