~Version Information
 VERS.                  2.0:   CWLS log ASCII Standard -VERSION 2.0
 WRAP.                   NO:   One line per depth step
~Well Information Block
#MNEM.UNIT     VALUE/NAME     DESCRIPTION
#---------     -----------    ---------------------------
 STRT.S             18:28:03 29-Jan-21: START TIME 18:28:03 29-Jan-21
 STOP.S             18:34:33 29-Jan-21: STOP TIME  18:34:33 29-Jan-21
 STEP.S                   0.00: STEP TIME
 NULL.                 -999.25: NULL VALUE
 DFWT.                        :  DIST FWL TEXT
 DFST.                        :  DIST FSL TEXT
 DMF .             Drill Floor:  DRILL MEAS FROM
 STIM.      00.00.00 25-Sep-20:  START TIME
 DATE.      16.12.48 31-Jan-21:  END TIME
 SPUD.               20-Sep-20:  SPUD DATE
 NREF.                    Grid:  NORTH REFERENCE
 HPTY.       Minimum Curvature:  HOLE POS TYPE
 DMOD.             Drill Model:  DRILL MOD DESC
 SVYD.                  Survey:  SURVEY DESC
 ILTD.               Lithology:  INTERP LTH DESC
 FTOP.          Formation Tops:  FORM TOPS DESC
 RIG .              East Azeri:  RIG NAME
 PDAT.          Mean Sea Level:  PERMANENT DATUM
 FLD .                     ACG:  FIELD NAME
 SON .        AZ-XX-0906591820:  JOB NUMBER
 CTRY.              Azerbaijan:  COUNTRY NAME
 WELL.                     D37:  WELL NAME
 SRVC.     Turan Drilling & Engineering:  CONTRACTOR
 COMP.     BP Exploration (Caspian Sea) ltd.:  COMPANY
 WTYP.                Deviated:  WELL TYPE
 MDS .        Operator Entered:  MAG DATA SOURCE
 UWI .                     N/A:  UNIQUE WELL IDENTIFIER
 API .                     N/A:  API NUMBER
 BASE.              Azerbaijan:  LOGGING EQUIPMENT BASE LOCATION
 REGN.                   EESSA:  REGION
 PROV.                    Baku:  PROVINCE
 STAT.                    Baku:  STATE NAME
 MWDS.                    Baku:  MWD SHOP
 JOBN.        AZ-XX-0906591820:  JOB TICKET NUMB
 DOE .                     N/A:  DOE NUMBER
 DCON.         Sperry Drilling:  DIRECTNL CONTR
 UNIT.                     N/A:  LOGGING EQUIPMENT ID
 CNTY.                        :  COUNTY
 LOC .                        :  LOCATION
 LMF .             Drill Floor:  LOG MEASURED FROM
 TVDS.m                  43.60:  TVDSS CORRECTN
 LATI.deg                40.02:  LATITUDE
 LONG.deg                51.45:  LONGITUDE
 WHNS.m                  11.04:  WELL HEAD N/S
 WHEW.m                 -12.38:  WELL HEAD E/W
 UTMX.m              538763.98:  UTM X
 UTMY.m             4431880.20:  UTM Y
 DFWL.m                   0.00:  DISTANCE FWL
 DFSL.m                   0.00:  DISTANCE FSL
 SDEP.m                 300.00:  START DEPTH
 TDD .m                4900.01:  TOTAL DEPTH (DRILLER)
 VSDR.deg               185.64:  VERT SEC DIRECT
 GVFD.g                   1.00:  GRAVITY FIELD
 MFLD.nT              50301.00:  MAGNETIC FIELD
 MDIP.deg                59.46:  MAGNETIC DIP
 MDEC.deg                 6.43:  MAGNETIC DECL
 GRDC.deg                 0.29:  GRID CORRECTION
 AZTC.deg                 6.14:  AZM TOTAL CORR
 EPD .m                   0.00:  ELEVATION
 EGL .m                   0.00:  GROUND ELEVATION
 WDMS.m                 151.80:  WD ELEV
 APD .m                  43.60:  DEPTH ABOVE PD
 DEP .m                 571.69:  DEPTH
 AGAP.m                  43.60:  AIR GAP
 VSEW.m                 -12.38:  VERT SEC E/W
 VSNS.m                  11.04:  VERT SEC N/S
 EKB .m                  43.60:  KB ELEVATION
 EDF .m                  43.60:  DF ELEVATION
 TDL .m                 412.00:  TOTAL DEPTH (LOGGER)
 VSC .                       0:  VS TO CLOSURE
 MAGU.                 1849300:  MAGUTM CHECKSUM
~Parameter Information Block
#MNEM.UNIT       Value        Description
#---------     -----------    ---------------------------
 AV  .mps                 2.21:  Ann Velocity 
 AVMX.mps                 2.53:  Max Ann Veloc 
 AZIF.deg               144.83:  Azm, Final 
 BHAT.        Rotary Steerable:  BHA Type 
 BROT.°/30m              -0.52:  Build Rotating 
 BS  .in                  6.50:  Bit Size 
 BTPL.psig              209.00:  Bit Press Loss 
 CABU.                      No:  Customer Abuse 
 CGEO.        Ali Isfandiyarov:  Customer Geo 
 COMM.                     tðz:  Run Comments 1 
 TCS .hr                 61.31:  Time Ciculation Ended 
 CV  .mps                 4.66:  Crit Velocity 
 CVMX.mps                 5.02:  Max Crit Veloc 
 DD1 .          Fariz Nahmatov:  Direct Drillr 1 
 DD2 .            Musa Ahmadov:  Direct Drillr 2 
 DDSV.               Geo-Pilot:  DD Service 
 DEFF.%                 100.00:  % Det Eff 
 DLRX.°/30m               1.44:  Dogleg Rot Max 
 DLSO.°/30m               0.83:  Dogleg Oriented 
 DLSX.°/30m               1.44:  Dogleg Str Max 
 DRET.      08.30.00 30-Jan-21:  Drill End Time 
 DRST.      21.15.00 27-Jan-21:  Drill Start Tim 
 DTIM.hr                 37.28:  Time Drilling 
 EDEP.m                4867.01:  End Depth 
 ENG1.          Rasim Hashimov:  Engineer 1 
 ENG2.         Almaz Almadatov:  Engineer 2 
 ENG3.        Tamerlan Ahmadov:  Engineer 3 
 ETIM.      22.41.04 31-Jan-21:  End Time 
 FLOI.gpm               400.00:  Flow In 
 FLON.gpm               300.00:  Flow In Min 
 FLOS.cptm                0.00:  Fluid Loss 
 FLOX.gpm               400.00:  Flow In Max 
 HFLO.                      No:  High Flow 
 HPRE.                      No:  High Pressure 
 HTEM.                      No:  High Temp 
 HYDO.m                   1.80:  Hydro Offset 
 IFIN.deg                65.63:  Inc, Final 
 IMAX.deg                66.77:  Inc Max 
 IMIN.deg                65.61:  Inc Min 
 IMND.m                4612.67:  Inc Min Depth 
 IMXD.m                4811.63:  Inc Max Depth 
 JARR.                      No:  Jarring 
 LETM.      08.30.00 30-Jan-21:  Log End Time 
 LOST.hr                     0:  Lost Rig Time 
 LSTM.      21.15.00 27-Jan-21:  Log Start Time 
 MDCL.ppm             41000.00:  Mud Chlorides 
 MDES.     Inversion Oil/Synthetic:  Mud Desc 
 DFD .sg                  1.40:  Mud Density 
 MDMN.sg                  1.40:  Dens Mud Min 
 MDMX.sg                  1.40:  Dens Mud Max 
 MOIL.                      53:  Run Mud Oil % 
 MOWR.                   66:34:  Run Mud OWR 
 MSND.                     0.2:  Run Mud Sand % 
 MSOL.                    17.9:  Run Mud Solids% 
 DFV .spqt               77.00:  Mud Viscosity 
 MWOD.in                  4.75:  MWD Tool OD 
 MWSI.                      No:  Serv Intrp, MWD 
 OTIM.hr                110.38:  Time Operating 
 PCON.           Look Like New:  Pad Condition 
 PMAX.psia             5300.00:  Press Op, Max 
 PV  .cP                 57.00:  Mud PV 
 RUN .                    1200:  Run Number 
 ROPA.m/hr               13.00:  ROP Avg 
 ROPN.m/hr                9.00:  ROP Min 
 ROPX.m/hr               15.00:  ROP Max 
 RPMA.rpm               120.00:  RPM Surface Avg 
 RPMN.rpm               100.00:  RPM Surface Min 
 RPMX.rpm               135.00:  RPM Surface Max 
 RRUN.                    1200:  Rig Run Number 
 RTIM.hr                  2.65:  Time Reaming 
 SAZI.deg               145.04:  Azm, Start 
 SDEP.m                4455.01:  Start Depth 
 SIDD.                      No:  Serv Intrp, DD 
 SINC.deg                65.83:  Inc, Start 
 SPPA.psig             5037.00:  SPP Avg 
 SPPN.psig             4430.00:  SPP Min 
 SPPX.psig             5300.00:  SPP Max 
 STIM.      22.41.04 26-Jan-21:  Start Time 
 SVCS.                 DD, MWD:  Services 
 SVER.                    9.20:  Sperry Version 
 TDAT.m                 412.00:  Tot Depth Attmp 
 TDDF.                      No:  Trip for DD 
 TDLG.m                 412.00:  Tot Depth Loggd 
 TFF .                      No:  Trip for Fail 
 TQAA.f-kp               15.00:  Torque Abs Avg 
 TQAN.f-kp               12.00:  Torque Abs Min 
 TQAX.f-kp               17.00:  Torque Abs Max 
 TRRT.°/30m               1.18:  Turn Rotating 
 MRT .                     ADR:  Maximum Recorded Temperature 
 TTMX.degC               88.24:  Max Tool Temp 
 VS01.                90619458:  Virtual Str1 SN 
 VS02.                90519326:  Virtual Str2 SN 
 VS03.                90522176:  Virtual Str3 SN 
 VS04.                90512683:  Virtual Str4 SN 
 WBMN.klb                 1.00:  WOB Min 
 WITN.           Murad Giluyev:  Customer Rep 
 WITN.     Kamran Kemberlinski:  Customer Rep 2 
 WOBA.klb                 5.00:  WOB Avg 
 WOBX.klb                 9.00:  WOB Max 
 YP  .lhf2               41.00:  Yield Point 
~Curve Information Block
#MNEM.UNIT                 API CODE     Curve Description
#---------               -----------    ---------------------------
 TIME.HHMMSS            00 000 000 000:  GT Time & Date
 GTDEPTH.m              00 000 000 000:  GT Depth
 GTPQH.psia             00 000 000 000:  GT HR Quartz Pressure
 GTTQ.degC              00 000 000 000:  GT Quartz Temperature
 GTTN.NONE              00 000 000 000:  GT Test Number
 GTET.sec               00 000 000 000:  GT Elapsed Test Time
 GTTVD.m                00 000 000 000:  GT True Vertical Depth
#Other Information
#
#WARRANTY: Halliburton will use its best efforts to furnish customers with 
#accurate information and interpretations that are part of, and incident to, the services 
#provided.  However, Halliburton cannot and does not warrant the accuracy 
#or correctness of such information and interpretations.  Under no circumstances should any 
#such information or interpretation be relied upon as the sole basis for any drilling, 
#completion, production, or financial decision or any procedure involving any risk to the 
#safety of any drilling venture, drilling rig or its crew or any other third party.  The 
#Customer has full responsibility for all drilling, completion and production operation.  
#Halliburton makes no representations or warranties, either expressed or 
#implied, including, but not limited to, the implied warranties of merchantability or fitness 
#for a particular purpose, with respect to the services rendered.  In no event will 
#Halliburton be liable for failure to obtain any particular results or for 
#any damages, including, but not limited to, indirect, special or consequential damages, 
#resulting from the use of any information or interpretation provided by Halliburton.
#
~A           TIME           GTDEPTH  GTPQH  GTTQ  GTTN   GTET   GTTVD  
# ...
   18:29:11.441.29-Jan-2021 4752.01 3125.97 83.17 12.00  67.81 2606.49
   18:29:11.641.29-Jan-2021 4752.01 3125.96 83.17 12.00  68.01 2606.49
   18:29:11.841.29-Jan-2021 4752.01 3125.96 83.17 12.00  68.21 2606.49
   18:29:12.041.29-Jan-2021 4752.01 3125.93 83.16 12.00  68.41 2606.49
   18:29:12.241.29-Jan-2021 4752.01 3125.98 83.16 12.00  68.61 2606.49
   18:29:12.441.29-Jan-2021 4752.01 3125.95 83.16 12.00  68.81 2606.49
   18:29:12.642.29-Jan-2021 4752.01 3125.96 83.16 12.00  69.01 2606.49
   18:29:12.842.29-Jan-2021 4752.01 3125.96 83.16 12.00  69.21 2606.49
   18:29:13.042.29-Jan-2021 4752.01 3125.98 83.16 12.00  69.41 2606.49
   18:29:13.242.29-Jan-2021 4752.01 3125.95 83.16 12.00  69.61 2606.49
   18:29:13.442.29-Jan-2021 4752.01 3125.97 83.16 12.00  69.81 2606.49
   18:29:13.642.29-Jan-2021 4752.01 3125.93 83.16 12.00  70.01 2606.49
   18:29:13.842.29-Jan-2021 4752.01 3125.93 83.16 12.00  70.21 2606.49
   18:29:14.042.29-Jan-2021 4752.01 3125.95 83.16 12.00  70.41 2606.49
   18:29:14.242.29-Jan-2021 4752.01 3125.97 83.16 12.00  70.61 2606.49
   18:29:14.442.29-Jan-2021 4752.01 3125.94 83.15 12.00  70.81 2606.49
   18:29:14.642.29-Jan-2021 4752.01 3125.97 83.15 12.00  71.01 2606.49
   18:29:14.842.29-Jan-2021 4752.01 3125.97 83.15 12.00  71.21 2606.49
   18:29:15.042.29-Jan-2021 4752.01 3125.96 83.15 12.00  71.41 2606.49
   18:29:15.242.29-Jan-2021 4752.01 3125.95 83.15 12.00  71.61 2606.49
   18:29:15.442.29-Jan-2021 4752.01 3125.96 83.15 12.00  71.81 2606.49
   18:29:15.642.29-Jan-2021 4752.01 3125.95 83.15 12.00  72.01 2606.49
   18:29:15.842.29-Jan-2021 4752.01 3125.95 83.15 12.00  72.21 2606.49
   18:29:16.042.29-Jan-2021 4752.01 3125.95 83.15 12.00  72.41 2606.49
   18:29:16.242.29-Jan-2021 4752.01 3125.95 83.15 12.00  72.61 2606.49
   18:29:16.442.29-Jan-2021 4752.01 3125.92 83.15 12.00  72.81 2606.49
   18:29:16.642.29-Jan-2021 4752.01 3125.96 83.15 12.00  73.01 2606.49
   18:29:16.842.29-Jan-2021 4752.01 3125.96 83.15 12.00  73.21 2606.49
   18:29:17.042.29-Jan-2021 4752.01 3125.94 83.14 12.00  73.41 2606.49
   18:29:17.242.29-Jan-2021 4752.01 3125.92 83.14 12.00  73.61 2606.49
   18:29:17.442.29-Jan-2021 4752.01 3125.96 83.14 12.00  73.81 2606.49
   18:29:17.642.29-Jan-2021 4752.01 3125.95 83.14 12.00  74.01 2606.49
   18:29:17.842.29-Jan-2021 4752.01 3125.95 83.14 12.00  74.21 2606.49
   18:29:18.042.29-Jan-2021 4752.01 3125.94 83.14 12.00  74.41 2606.49
   18:29:18.242.29-Jan-2021 4752.01 3125.95 83.14 12.00  74.61 2606.49
   18:29:18.442.29-Jan-2021 4752.01 3125.96 83.14 12.00  74.81 2606.49
   18:29:18.642.29-Jan-2021 4752.01 3125.95 83.14 12.00  75.01 2606.49
   18:29:18.842.29-Jan-2021 4752.01 3125.95 83.14 12.00  75.21 2606.49
   18:29:19.042.29-Jan-2021 4752.01 3125.94 83.14 12.00  75.41 2606.49
   18:29:19.242.29-Jan-2021 4752.01 3125.94 83.14 12.00  75.61 2606.49
   18:29:19.442.29-Jan-2021 4752.01 3125.94 83.13 12.00  75.81 2606.49
   18:29:19.642.29-Jan-2021 4752.01 3125.91 83.13 12.00  76.01 2606.49
   18:29:19.842.29-Jan-2021 4752.01 3125.91 83.13 12.00  76.21 2606.49
   18:29:20.042.29-Jan-2021 4752.01 3125.93 83.13 12.00  76.41 2606.49
   18:29:20.242.29-Jan-2021 4752.01 3125.94 83.13 12.00  76.61 2606.49
   18:29:20.442.29-Jan-2021 4752.01 3125.90 83.13 12.00  76.81 2606.49
   18:29:20.642.29-Jan-2021 4752.01 3125.93 83.13 12.00  77.01 2606.49
   18:29:20.842.29-Jan-2021 4752.01 3125.93 83.13 12.00  77.21 2606.49
   18:29:21.043.29-Jan-2021 4752.01 3125.92 83.13 12.00  77.41 2606.49
   18:29:21.243.29-Jan-2021 4752.01 3125.91 83.13 12.00  77.61 2606.49
   18:29:21.443.29-Jan-2021 4752.01 3125.87 83.13 12.00  77.81 2606.49
   18:29:21.643.29-Jan-2021 4752.01 3125.95 83.13 12.00  78.01 2606.49
   18:29:21.843.29-Jan-2021 4752.01 3125.95 83.13 12.00  78.21 2606.49
   18:29:22.043.29-Jan-2021 4752.01 3125.90 83.12 12.00  78.41 2606.49
   18:29:22.243.29-Jan-2021 4752.01 3125.91 83.12 12.00  78.61 2606.49
   18:29:22.443.29-Jan-2021 4752.01 3125.89 83.12 12.00  78.81 2606.49
   18:29:22.643.29-Jan-2021 4752.01 3125.93 83.12 12.00  79.01 2606.49
   18:29:22.843.29-Jan-2021 4752.01 3125.93 83.12 12.00  79.21 2606.49
   18:29:23.043.29-Jan-2021 4752.01 3125.91 83.12 12.00  79.41 2606.49
   18:29:23.243.29-Jan-2021 4752.01 3125.86 83.12 12.00  79.61 2606.49
   18:29:23.443.29-Jan-2021 4752.01 3125.95 83.12 12.00  79.81 2606.49
   18:29:23.643.29-Jan-2021 4752.01 3125.90 83.12 12.00  80.01 2606.49
   18:29:23.843.29-Jan-2021 4752.01 3125.90 83.12 12.00  80.21 2606.49
   18:29:24.043.29-Jan-2021 4752.01 3125.89 83.12 12.00  80.41 2606.49
   18:29:24.243.29-Jan-2021 4752.01 3125.92 83.12 12.00  80.61 2606.49
   18:29:24.443.29-Jan-2021 4752.01 3125.91 83.11 12.00  80.81 2606.49
   18:29:24.643.29-Jan-2021 4752.01 3125.92 83.11 12.00  81.01 2606.49
   18:29:24.843.29-Jan-2021 4752.01 3125.92 83.11 12.00  81.21 2606.49
   18:29:25.043.29-Jan-2021 4752.01 3125.91 83.11 12.00  81.41 2606.49
   18:29:25.243.29-Jan-2021 4752.01 3125.92 83.11 12.00  81.61 2606.49
   18:29:25.443.29-Jan-2021 4752.01 3125.91 83.11 12.00  81.81 2606.49
   18:29:25.643.29-Jan-2021 4752.01 3125.90 83.11 12.00  82.01 2606.49
   18:29:25.843.29-Jan-2021 4752.01 3125.90 83.11 12.00  82.21 2606.49
   18:29:26.043.29-Jan-2021 4752.01 3125.91 83.11 12.00  82.41 2606.49
   18:29:26.243.29-Jan-2021 4752.01 3125.90 83.11 12.00  82.61 2606.49
   18:29:26.443.29-Jan-2021 4752.01 3125.90 83.11 12.00  82.81 2606.49
   18:29:26.643.29-Jan-2021 4752.01 3125.91 83.11 12.00  83.01 2606.49
   18:29:26.843.29-Jan-2021 4752.01 3125.91 83.11 12.00  83.21 2606.49
   18:29:27.043.29-Jan-2021 4752.01 3125.91 83.10 12.00  83.41 2606.49
   18:29:27.243.29-Jan-2021 4752.01 3125.89 83.10 12.00  83.61 2606.49
   18:29:27.443.29-Jan-2021 4752.01 3125.89 83.10 12.00  83.81 2606.49
   18:29:27.643.29-Jan-2021 4752.01 3125.87 83.10 12.00  84.01 2606.49
   18:29:27.843.29-Jan-2021 4752.01 3125.87 83.10 12.00  84.21 2606.49
   18:29:28.043.29-Jan-2021 4752.01 3125.89 83.10 12.00  84.41 2606.49
   18:29:28.243.29-Jan-2021 4752.01 3125.90 83.10 12.00  84.61 2606.49
   18:29:28.443.29-Jan-2021 4752.01 3125.88 83.10 12.00  84.81 2606.49
   18:29:28.643.29-Jan-2021 4752.01 3125.88 83.10 12.00  85.01 2606.49
   18:29:28.843.29-Jan-2021 4752.01 3125.88 83.10 12.00  85.21 2606.49
   18:29:29.043.29-Jan-2021 4752.01 3125.90 83.10 12.00  85.41 2606.49
   18:29:29.243.29-Jan-2021 4752.01 3125.87 83.10 12.00  85.61 2606.49
   18:29:29.444.29-Jan-2021 4752.01 3125.89 83.09 12.00  85.81 2606.49
   18:29:29.644.29-Jan-2021 4752.01 3125.88 83.09 12.00  86.01 2606.49
   18:29:29.844.29-Jan-2021 4752.01 3125.88 83.09 12.00  86.21 2606.49
   18:29:30.044.29-Jan-2021 4752.01 3125.84 83.09 12.00  86.41 2606.49
   18:29:30.244.29-Jan-2021 4752.01 3125.90 83.09 12.00  86.61 2606.49
   18:29:30.444.29-Jan-2021 4752.01 3125.87 83.09 12.00  86.81 2606.49
   18:29:30.644.29-Jan-2021 4752.01 3125.87 83.09 12.00  87.01 2606.49
   18:29:30.844.29-Jan-2021 4752.01 3125.87 83.09 12.00  87.21 2606.49
   18:29:31.044.29-Jan-2021 4752.01 3125.86 83.09 12.00  87.41 2606.49
   18:29:31.244.29-Jan-2021 4752.01 3125.87 83.09 12.00  87.61 2606.49
   18:29:31.444.29-Jan-2021 4752.01 3125.87 83.09 12.00  87.81 2606.49
   18:29:31.644.29-Jan-2021 4752.01 3125.85 83.09 12.00  88.01 2606.49
   18:29:31.844.29-Jan-2021 4752.01 3125.85 83.09 12.00  88.21 2606.49
   18:29:32.044.29-Jan-2021 4752.01 3125.89 83.08 12.00  88.41 2606.49
   18:29:32.244.29-Jan-2021 4752.01 3125.88 83.08 12.00  88.61 2606.49
   18:29:32.444.29-Jan-2021 4752.01 3125.85 83.08 12.00  88.81 2606.49
   18:29:32.644.29-Jan-2021 4752.01 3125.84 83.08 12.00  89.01 2606.49
   18:29:32.844.29-Jan-2021 4752.01 3125.84 83.08 12.00  89.21 2606.49
   18:29:33.044.29-Jan-2021 4752.01 3125.88 83.08 12.00  89.41 2606.49
   18:29:33.244.29-Jan-2021 4752.01 3125.85 83.08 12.00  89.61 2606.49
   18:29:33.444.29-Jan-2021 4752.01 3125.85 83.08 12.00  89.81 2606.49
   18:29:33.644.29-Jan-2021 4752.01 3125.78 83.08 12.00  90.01 2606.49
   18:29:33.844.29-Jan-2021 4752.01 3125.78 83.08 12.00  90.21 2606.49
