~Version Information
 VERS.                  2.0:   CWLS log ASCII Standard -VERSION 2.0
 WRAP.                   NO:   One line per depth step
~Well Information Block
#MNEM.UNIT     VALUE/NAME     DESCRIPTION
#---------     -----------    ---------------------------
 STRT.S             14:01:04 28-Jan-21: START TIME 14:01:04 28-Jan-21
 STOP.S             14:07:34 28-Jan-21: STOP TIME  14:07:34 28-Jan-21
 STEP.S                   0.00: STEP TIME
 NULL.                 -999.25: NULL VALUE
 DFWT.                        :  DIST FWL TEXT
 DFST.                        :  DIST FSL TEXT
 DMF .             Drill Floor:  DRILL MEAS FROM
 STIM.      00.00.00 25-Sep-20:  START TIME
 DATE.      16.12.48 31-Jan-21:  END TIME
 SPUD.               20-Sep-20:  SPUD DATE
 NREF.                    Grid:  NORTH REFERENCE
 HPTY.       Minimum Curvature:  HOLE POS TYPE
 DMOD.             Drill Model:  DRILL MOD DESC
 SVYD.                  Survey:  SURVEY DESC
 ILTD.               Lithology:  INTERP LTH DESC
 FTOP.          Formation Tops:  FORM TOPS DESC
 RIG .              East Azeri:  RIG NAME
 PDAT.          Mean Sea Level:  PERMANENT DATUM
 FLD .                     ACG:  FIELD NAME
 SON .        AZ-XX-0906591820:  JOB NUMBER
 CTRY.              Azerbaijan:  COUNTRY NAME
 WELL.                     D37:  WELL NAME
 SRVC.     Turan Drilling & Engineering:  CONTRACTOR
 COMP.     BP Exploration (Caspian Sea) ltd.:  COMPANY
 WTYP.                Deviated:  WELL TYPE
 MDS .        Operator Entered:  MAG DATA SOURCE
 UWI .                     N/A:  UNIQUE WELL IDENTIFIER
 API .                     N/A:  API NUMBER
 BASE.              Azerbaijan:  LOGGING EQUIPMENT BASE LOCATION
 REGN.                   EESSA:  REGION
 PROV.                    Baku:  PROVINCE
 STAT.                    Baku:  STATE NAME
 MWDS.                    Baku:  MWD SHOP
 JOBN.        AZ-XX-0906591820:  JOB TICKET NUMB
 DOE .                     N/A:  DOE NUMBER
 DCON.         Sperry Drilling:  DIRECTNL CONTR
 UNIT.                     N/A:  LOGGING EQUIPMENT ID
 CNTY.                        :  COUNTY
 LOC .                        :  LOCATION
 LMF .             Drill Floor:  LOG MEASURED FROM
 TVDS.m                  43.60:  TVDSS CORRECTN
 LATI.deg                40.02:  LATITUDE
 LONG.deg                51.45:  LONGITUDE
 WHNS.m                  11.04:  WELL HEAD N/S
 WHEW.m                 -12.38:  WELL HEAD E/W
 UTMX.m              538763.98:  UTM X
 UTMY.m             4431880.20:  UTM Y
 DFWL.m                   0.00:  DISTANCE FWL
 DFSL.m                   0.00:  DISTANCE FSL
 SDEP.m                 300.00:  START DEPTH
 TDD .m                4900.01:  TOTAL DEPTH (DRILLER)
 VSDR.deg               185.64:  VERT SEC DIRECT
 GVFD.g                   1.00:  GRAVITY FIELD
 MFLD.nT              50301.00:  MAGNETIC FIELD
 MDIP.deg                59.46:  MAGNETIC DIP
 MDEC.deg                 6.43:  MAGNETIC DECL
 GRDC.deg                 0.29:  GRID CORRECTION
 AZTC.deg                 6.14:  AZM TOTAL CORR
 EPD .m                   0.00:  ELEVATION
 EGL .m                   0.00:  GROUND ELEVATION
 WDMS.m                 151.80:  WD ELEV
 APD .m                  43.60:  DEPTH ABOVE PD
 DEP .m                 571.69:  DEPTH
 AGAP.m                  43.60:  AIR GAP
 VSEW.m                 -12.38:  VERT SEC E/W
 VSNS.m                  11.04:  VERT SEC N/S
 EKB .m                  43.60:  KB ELEVATION
 EDF .m                  43.60:  DF ELEVATION
 TDL .m                 412.00:  TOTAL DEPTH (LOGGER)
 VSC .                       0:  VS TO CLOSURE
 MAGU.                 1849300:  MAGUTM CHECKSUM
~Parameter Information Block
#MNEM.UNIT       Value        Description
#---------     -----------    ---------------------------
 AV  .mps                 2.21:  Ann Velocity 
 AVMX.mps                 2.53:  Max Ann Veloc 
 AZIF.deg               144.83:  Azm, Final 
 BHAT.        Rotary Steerable:  BHA Type 
 BROT.°/30m              -0.52:  Build Rotating 
 BS  .in                  6.50:  Bit Size 
 BTPL.psig              209.00:  Bit Press Loss 
 CABU.                      No:  Customer Abuse 
 CGEO.        Ali Isfandiyarov:  Customer Geo 
 COMM.                     T´U:  Run Comments 1 
 TCS .hr                 61.31:  Time Ciculation Ended 
 CV  .mps                 4.66:  Crit Velocity 
 CVMX.mps                 5.02:  Max Crit Veloc 
 DD1 .          Fariz Nahmatov:  Direct Drillr 1 
 DD2 .            Musa Ahmadov:  Direct Drillr 2 
 DDSV.               Geo-Pilot:  DD Service 
 DEFF.%                 100.00:  % Det Eff 
 DLRX.°/30m               1.44:  Dogleg Rot Max 
 DLSO.°/30m               0.83:  Dogleg Oriented 
 DLSX.°/30m               1.44:  Dogleg Str Max 
 DRET.      08.30.00 30-Jan-21:  Drill End Time 
 DRST.      21.15.00 27-Jan-21:  Drill Start Tim 
 DTIM.hr                 37.28:  Time Drilling 
 EDEP.m                4867.01:  End Depth 
 ENG1.          Rasim Hashimov:  Engineer 1 
 ENG2.         Almaz Almadatov:  Engineer 2 
 ENG3.        Tamerlan Ahmadov:  Engineer 3 
 ETIM.      22.41.04 31-Jan-21:  End Time 
 FLOI.gpm               400.00:  Flow In 
 FLON.gpm               300.00:  Flow In Min 
 FLOS.cptm                0.00:  Fluid Loss 
 FLOX.gpm               400.00:  Flow In Max 
 HFLO.                      No:  High Flow 
 HPRE.                      No:  High Pressure 
 HTEM.                      No:  High Temp 
 HYDO.m                   1.80:  Hydro Offset 
 IFIN.deg                65.63:  Inc, Final 
 IMAX.deg                66.77:  Inc Max 
 IMIN.deg                65.61:  Inc Min 
 IMND.m                4612.67:  Inc Min Depth 
 IMXD.m                4811.63:  Inc Max Depth 
 JARR.                      No:  Jarring 
 LETM.      08.30.00 30-Jan-21:  Log End Time 
 LOST.hr                     0:  Lost Rig Time 
 LSTM.      21.15.00 27-Jan-21:  Log Start Time 
 MDCL.ppm             41000.00:  Mud Chlorides 
 MDES.     Inversion Oil/Synthetic:  Mud Desc 
 DFD .sg                  1.40:  Mud Density 
 MDMN.sg                  1.40:  Dens Mud Min 
 MDMX.sg                  1.40:  Dens Mud Max 
 MOIL.                      53:  Run Mud Oil % 
 MOWR.                   66:34:  Run Mud OWR 
 MSND.                     0.2:  Run Mud Sand % 
 MSOL.                    17.9:  Run Mud Solids% 
 DFV .spqt               77.00:  Mud Viscosity 
 MWOD.in                  4.75:  MWD Tool OD 
 MWSI.                      No:  Serv Intrp, MWD 
 OTIM.hr                110.38:  Time Operating 
 PCON.           Look Like New:  Pad Condition 
 PMAX.psia             5300.00:  Press Op, Max 
 PV  .cP                 57.00:  Mud PV 
 RUN .                    1200:  Run Number 
 ROPA.m/hr               13.00:  ROP Avg 
 ROPN.m/hr                9.00:  ROP Min 
 ROPX.m/hr               15.00:  ROP Max 
 RPMA.rpm               120.00:  RPM Surface Avg 
 RPMN.rpm               100.00:  RPM Surface Min 
 RPMX.rpm               135.00:  RPM Surface Max 
 RRUN.                    1200:  Rig Run Number 
 RTIM.hr                  2.65:  Time Reaming 
 SAZI.deg               145.04:  Azm, Start 
 SDEP.m                4455.01:  Start Depth 
 SIDD.                      No:  Serv Intrp, DD 
 SINC.deg                65.83:  Inc, Start 
 SPPA.psig             5037.00:  SPP Avg 
 SPPN.psig             4430.00:  SPP Min 
 SPPX.psig             5300.00:  SPP Max 
 STIM.      22.41.04 26-Jan-21:  Start Time 
 SVCS.                 DD, MWD:  Services 
 SVER.                    9.20:  Sperry Version 
 TDAT.m                 412.00:  Tot Depth Attmp 
 TDDF.                      No:  Trip for DD 
 TDLG.m                 412.00:  Tot Depth Loggd 
 TFF .                      No:  Trip for Fail 
 TQAA.f-kp               15.00:  Torque Abs Avg 
 TQAN.f-kp               12.00:  Torque Abs Min 
 TQAX.f-kp               17.00:  Torque Abs Max 
 TRRT.°/30m               1.18:  Turn Rotating 
 MRT .                     ADR:  Maximum Recorded Temperature 
 TTMX.degC               88.24:  Max Tool Temp 
 VS01.                90619458:  Virtual Str1 SN 
 VS02.                90519326:  Virtual Str2 SN 
 VS03.                90522176:  Virtual Str3 SN 
 VS04.                90512683:  Virtual Str4 SN 
 WBMN.klb                 1.00:  WOB Min 
 WITN.           Murad Giluyev:  Customer Rep 
 WITN.     Kamran Kemberlinski:  Customer Rep 2 
 WOBA.klb                 5.00:  WOB Avg 
 WOBX.klb                 9.00:  WOB Max 
 YP  .lhf2               41.00:  Yield Point 
~Curve Information Block
#MNEM.UNIT                 API CODE     Curve Description
#---------               -----------    ---------------------------
 TIME.HHMMSS            00 000 000 000:  GT Time & Date
 GTDEPTH.m              00 000 000 000:  GT Depth
 GTPQH.psia             00 000 000 000:  GT HR Quartz Pressure
 GTTQ.degC              00 000 000 000:  GT Quartz Temperature
 GTTN.NONE              00 000 000 000:  GT Test Number
 GTET.sec               00 000 000 000:  GT Elapsed Test Time
 GTTVD.m                00 000 000 000:  GT True Vertical Depth
#Other Information
#
#WARRANTY: Halliburton will use its best efforts to furnish customers with 
#accurate information and interpretations that are part of, and incident to, the services 
#provided.  However, Halliburton cannot and does not warrant the accuracy 
#or correctness of such information and interpretations.  Under no circumstances should any 
#such information or interpretation be relied upon as the sole basis for any drilling, 
#completion, production, or financial decision or any procedure involving any risk to the 
#safety of any drilling venture, drilling rig or its crew or any other third party.  The 
#Customer has full responsibility for all drilling, completion and production operation.  
#Halliburton makes no representations or warranties, either expressed or 
#implied, including, but not limited to, the implied warranties of merchantability or fitness 
#for a particular purpose, with respect to the services rendered.  In no event will 
#Halliburton be liable for failure to obtain any particular results or for 
#any damages, including, but not limited to, indirect, special or consequential damages, 
#resulting from the use of any information or interpretation provided by Halliburton.
#
~A           TIME           GTDEPTH  GTPQH  GTTQ  GTTN  GTET   GTTVD  
# ...
   14:02:59.773.28-Jan-2021 4535.01 3139.49 72.18 3.00 115.02 2518.76
   14:02:59.973.28-Jan-2021 4535.01 3139.49 72.18 3.00 115.22 2518.76
   14:03:00.173.28-Jan-2021 4535.01 3139.50 72.18 3.00 115.42 2518.76
   14:03:00.373.28-Jan-2021 4535.01 3139.50 72.18 3.00 115.62 2518.76
   14:03:00.573.28-Jan-2021 4535.01 3139.50 72.18 3.00 115.82 2518.76
   14:03:00.773.28-Jan-2021 4535.01 3139.50 72.18 3.00 116.02 2518.76
   14:03:00.973.28-Jan-2021 4535.01 3139.50 72.18 3.00 116.22 2518.76
   14:03:01.173.28-Jan-2021 4535.01 3139.50 72.18 3.00 116.42 2518.76
   14:03:01.373.28-Jan-2021 4535.01 3139.40 72.18 3.00 116.62 2518.76
   14:03:01.573.28-Jan-2021 4535.01 3139.52 72.18 3.00 116.82 2518.76
   14:03:01.773.28-Jan-2021 4535.01 3139.49 72.18 3.00 117.02 2518.76
   14:03:01.973.28-Jan-2021 4535.01 3139.49 72.18 3.00 117.22 2518.76
   14:03:02.173.28-Jan-2021 4535.01 3139.48 72.18 3.00 117.42 2518.76
   14:03:02.373.28-Jan-2021 4535.01 3139.49 72.18 3.00 117.62 2518.76
   14:03:02.573.28-Jan-2021 4535.01 3139.48 72.17 3.00 117.82 2518.76
   14:03:02.773.28-Jan-2021 4535.01 3139.48 72.17 3.00 118.02 2518.76
   14:03:02.973.28-Jan-2021 4535.01 3139.48 72.17 3.00 118.22 2518.76
   14:03:03.173.28-Jan-2021 4535.01 3139.49 72.17 3.00 118.42 2518.76
   14:03:03.373.28-Jan-2021 4535.01 3139.48 72.17 3.00 118.62 2518.76
   14:03:03.573.28-Jan-2021 4535.01 3139.48 72.17 3.00 118.82 2518.76
   14:03:03.773.28-Jan-2021 4535.01 3139.49 72.17 3.00 119.02 2518.76
   14:03:03.973.28-Jan-2021 4535.01 3139.49 72.17 3.00 119.22 2518.76
   14:03:04.173.28-Jan-2021 4535.01 3139.48 72.17 3.00 119.42 2518.76
   14:03:04.374.28-Jan-2021 4535.01 3139.48 72.17 3.00 119.62 2518.76
   14:03:04.574.28-Jan-2021 4535.01 3139.39 72.17 3.00 119.82 2518.76
   14:03:04.774.28-Jan-2021 4535.01 3139.51 72.17 3.00 120.02 2518.76
   14:03:04.974.28-Jan-2021 4535.01 3139.51 72.17 3.00 120.22 2518.76
   14:03:05.174.28-Jan-2021 4535.01 3139.45 72.17 3.00 120.42 2518.76
   14:03:05.374.28-Jan-2021 4535.01 3139.41 72.17 3.00 120.62 2518.76
   14:03:05.574.28-Jan-2021 4535.01 3139.47 72.17 3.00 120.83 2518.76
   14:03:05.774.28-Jan-2021 4535.01 3139.49 72.17 3.00 121.03 2518.76
   14:03:05.974.28-Jan-2021 4535.01 3139.49 72.17 3.00 121.23 2518.76
   14:03:06.174.28-Jan-2021 4535.01 3139.38 72.17 3.00 121.43 2518.76
   14:03:06.374.28-Jan-2021 4535.01 3139.48 72.17 3.00 121.63 2518.76
   14:03:06.574.28-Jan-2021 4535.01 3139.47 72.17 3.00 121.83 2518.76
   14:03:06.774.28-Jan-2021 4535.01 3139.45 72.17 3.00 122.03 2518.76
   14:03:06.974.28-Jan-2021 4535.01 3139.45 72.17 3.00 122.23 2518.76
   14:03:07.174.28-Jan-2021 4535.01 3139.45 72.17 3.00 122.43 2518.76
   14:03:07.374.28-Jan-2021 4535.01 3139.42 72.17 3.00 122.63 2518.76
   14:03:07.574.28-Jan-2021 4535.01 3139.43 72.17 3.00 122.83 2518.76
   14:03:07.774.28-Jan-2021 4535.01 3139.44 72.17 3.00 123.03 2518.76
   14:03:07.974.28-Jan-2021 4535.01 3139.44 72.17 3.00 123.23 2518.76
   14:03:08.174.28-Jan-2021 4535.01 3139.44 72.16 3.00 123.43 2518.76
   14:03:08.374.28-Jan-2021 4535.01 3139.45 72.16 3.00 123.63 2518.76
   14:03:08.574.28-Jan-2021 4535.01 3139.40 72.16 3.00 123.83 2518.76
   14:03:08.774.28-Jan-2021 4535.01 3139.42 72.16 3.00 124.03 2518.76
   14:03:08.974.28-Jan-2021 4535.01 3139.42 72.16 3.00 124.23 2518.76
   14:03:09.175.28-Jan-2021 4535.01 3139.43 72.16 3.00 124.43 2518.76
   14:03:09.375.28-Jan-2021 4535.01 3139.44 72.16 3.00 124.63 2518.76
   14:03:09.575.28-Jan-2021 4535.01 3139.45 72.16 3.00 124.83 2518.76
   14:03:09.775.28-Jan-2021 4535.01 3139.43 72.16 3.00 125.03 2518.76
   14:03:09.975.28-Jan-2021 4535.01 3139.43 72.16 3.00 125.23 2518.76
   14:03:10.175.28-Jan-2021 4535.01 3139.44 72.16 3.00 125.43 2518.76
   14:03:10.375.28-Jan-2021 4535.01 3139.43 72.16 3.00 125.63 2518.76
   14:03:10.575.28-Jan-2021 4535.01 3139.43 72.16 3.00 125.83 2518.76
   14:03:10.775.28-Jan-2021 4535.01 3139.42 72.16 3.00 126.03 2518.76
   14:03:10.975.28-Jan-2021 4535.01 3139.42 72.16 3.00 126.23 2518.76
   14:03:11.175.28-Jan-2021 4535.01 3139.42 72.16 3.00 126.43 2518.76
   14:03:11.375.28-Jan-2021 4535.01 3139.44 72.16 3.00 126.63 2518.76
   14:03:11.575.28-Jan-2021 4535.01 3139.43 72.16 3.00 126.83 2518.76
   14:03:11.775.28-Jan-2021 4535.01 3139.43 72.16 3.00 127.03 2518.76
   14:03:11.975.28-Jan-2021 4535.01 3139.43 72.16 3.00 127.23 2518.76
   14:03:12.175.28-Jan-2021 4535.01 3139.41 72.16 3.00 127.43 2518.76
   14:03:12.375.28-Jan-2021 4535.01 3139.40 72.16 3.00 127.63 2518.76
   14:03:12.575.28-Jan-2021 4535.01 3139.44 72.16 3.00 127.83 2518.76
   14:03:12.775.28-Jan-2021 4535.01 3139.42 72.16 3.00 128.03 2518.76
   14:03:12.975.28-Jan-2021 4535.01 3139.42 72.16 3.00 128.23 2518.76
   14:03:13.175.28-Jan-2021 4535.01 3139.42 72.15 3.00 128.43 2518.76
   14:03:13.375.28-Jan-2021 4535.01 3139.42 72.15 3.00 128.63 2518.76
   14:03:13.575.28-Jan-2021 4535.01 3139.43 72.15 3.00 128.83 2518.76
   14:03:13.775.28-Jan-2021 4535.01 3139.42 72.15 3.00 129.03 2518.76
   14:03:13.976.28-Jan-2021 4535.01 3139.42 72.15 3.00 129.23 2518.76
   14:03:14.176.28-Jan-2021 4535.01 3139.42 72.15 3.00 129.43 2518.76
   14:03:14.376.28-Jan-2021 4535.01 3139.42 72.15 3.00 129.63 2518.76
   14:03:14.576.28-Jan-2021 4535.01 3139.42 72.15 3.00 129.83 2518.76
   14:03:14.776.28-Jan-2021 4535.01 3139.42 72.15 3.00 130.03 2518.76
   14:03:14.976.28-Jan-2021 4535.01 3139.42 72.15 3.00 130.23 2518.76
   14:03:15.176.28-Jan-2021 4535.01 3139.42 72.15 3.00 130.43 2518.76
   14:03:15.376.28-Jan-2021 4535.01 3139.39 72.15 3.00 130.63 2518.76
   14:03:15.576.28-Jan-2021 4535.01 3139.40 72.15 3.00 130.83 2518.76
   14:03:15.776.28-Jan-2021 4535.01 3139.41 72.15 3.00 131.03 2518.76
   14:03:15.976.28-Jan-2021 4535.01 3139.41 72.15 3.00 131.23 2518.76
   14:03:16.176.28-Jan-2021 4535.01 3139.32 72.15 3.00 131.43 2518.76
   14:03:16.376.28-Jan-2021 4535.01 3139.46 72.15 3.00 131.63 2518.76
   14:03:16.576.28-Jan-2021 4535.01 3139.41 72.15 3.00 131.83 2518.76
   14:03:16.776.28-Jan-2021 4535.01 3139.40 72.15 3.00 132.03 2518.76
   14:03:16.976.28-Jan-2021 4535.01 3139.40 72.15 3.00 132.23 2518.76
   14:03:17.176.28-Jan-2021 4535.01 3139.37 72.15 3.00 132.43 2518.76
   14:03:17.376.28-Jan-2021 4535.01 3135.99 72.15 3.00 132.63 2518.76
   14:03:17.576.28-Jan-2021 4535.01 3106.78 72.15 3.00 132.83 2518.76
   14:03:17.776.28-Jan-2021 4535.01 3106.38 72.15 3.00 133.03 2518.76
   14:03:17.976.28-Jan-2021 4535.01 3106.38 72.15 3.00 133.23 2518.76
   14:03:18.176.28-Jan-2021 4535.01 3106.60 72.15 3.00 133.43 2518.76
   14:03:18.376.28-Jan-2021 4535.01 3106.63 72.15 3.00 133.63 2518.76
   14:03:18.576.28-Jan-2021 4535.01 3106.78 72.14 3.00 133.83 2518.76
   14:03:18.777.28-Jan-2021 4535.01 3106.55 72.14 3.00 134.03 2518.76
   14:03:18.977.28-Jan-2021 4535.01 3106.55 72.14 3.00 134.23 2518.76
   14:03:19.177.28-Jan-2021 4535.01 3106.75 72.14 3.00 134.43 2518.76
   14:03:19.377.28-Jan-2021 4535.01 3106.89 72.14 3.00 134.63 2518.76
   14:03:19.577.28-Jan-2021 4535.01 3106.81 72.14 3.00 134.83 2518.76
   14:03:19.777.28-Jan-2021 4535.01 3106.75 72.14 3.00 135.03 2518.76
   14:03:19.977.28-Jan-2021 4535.01 3106.75 72.14 3.00 135.23 2518.76
   14:03:20.177.28-Jan-2021 4535.01 3106.91 72.14 3.00 135.43 2518.76
   14:03:20.377.28-Jan-2021 4535.01 3106.84 72.14 3.00 135.63 2518.76
   14:03:20.577.28-Jan-2021 4535.01 3106.96 72.14 3.00 135.83 2518.76
   14:03:20.777.28-Jan-2021 4535.01 3107.07 72.14 3.00 136.03 2518.76
   14:03:20.977.28-Jan-2021 4535.01 3107.07 72.14 3.00 136.23 2518.76
   14:03:21.177.28-Jan-2021 4535.01 3107.27 72.14 3.00 136.43 2518.76
   14:03:21.377.28-Jan-2021 4535.01 3107.17 72.14 3.00 136.63 2518.76
   14:03:21.577.28-Jan-2021 4535.01 3107.20 72.14 3.00 136.83 2518.76
   14:03:21.777.28-Jan-2021 4535.01 3107.26 72.14 3.00 137.03 2518.76
   14:03:21.977.28-Jan-2021 4535.01 3107.26 72.14 3.00 137.23 2518.76
   14:03:22.177.28-Jan-2021 4535.01 3107.27 72.14 3.00 137.43 2518.76
   14:03:22.377.28-Jan-2021 4535.01 3107.13 72.14 3.00 137.63 2518.76
   14:03:22.577.28-Jan-2021 4535.01 3107.27 72.14 3.00 137.83 2518.76
