~Version Information
 VERS.                  2.0:   CWLS log ASCII Standard -VERSION 2.0
 WRAP.                   NO:   One line per depth step
~Well Information Block
#MNEM.UNIT     VALUE/NAME     DESCRIPTION
#---------     -----------    ---------------------------
 STRT.S             13:18:38 29-Jan-21: START TIME 13:18:38 29-Jan-21
 STOP.S             13:25:08 29-Jan-21: STOP TIME  13:25:08 29-Jan-21
 STEP.S                   0.00: STEP TIME
 NULL.                 -999.25: NULL VALUE
 DFWT.                        :  DIST FWL TEXT
 DFST.                        :  DIST FSL TEXT
 DMF .             Drill Floor:  DRILL MEAS FROM
 STIM.      00.00.00 25-Sep-20:  START TIME
 DATE.      16.12.48 31-Jan-21:  END TIME
 SPUD.               20-Sep-20:  SPUD DATE
 NREF.                    Grid:  NORTH REFERENCE
 HPTY.       Minimum Curvature:  HOLE POS TYPE
 DMOD.             Drill Model:  DRILL MOD DESC
 SVYD.                  Survey:  SURVEY DESC
 ILTD.               Lithology:  INTERP LTH DESC
 FTOP.          Formation Tops:  FORM TOPS DESC
 RIG .              East Azeri:  RIG NAME
 PDAT.          Mean Sea Level:  PERMANENT DATUM
 FLD .                     ACG:  FIELD NAME
 SON .        AZ-XX-0906591820:  JOB NUMBER
 CTRY.              Azerbaijan:  COUNTRY NAME
 WELL.                     D37:  WELL NAME
 SRVC.     Turan Drilling & Engineering:  CONTRACTOR
 COMP.     BP Exploration (Caspian Sea) ltd.:  COMPANY
 WTYP.                Deviated:  WELL TYPE
 MDS .        Operator Entered:  MAG DATA SOURCE
 UWI .                     N/A:  UNIQUE WELL IDENTIFIER
 API .                     N/A:  API NUMBER
 BASE.              Azerbaijan:  LOGGING EQUIPMENT BASE LOCATION
 REGN.                   EESSA:  REGION
 PROV.                    Baku:  PROVINCE
 STAT.                    Baku:  STATE NAME
 MWDS.                    Baku:  MWD SHOP
 JOBN.        AZ-XX-0906591820:  JOB TICKET NUMB
 DOE .                     N/A:  DOE NUMBER
 DCON.         Sperry Drilling:  DIRECTNL CONTR
 UNIT.                     N/A:  LOGGING EQUIPMENT ID
 CNTY.                        :  COUNTY
 LOC .                        :  LOCATION
 LMF .             Drill Floor:  LOG MEASURED FROM
 TVDS.m                  43.60:  TVDSS CORRECTN
 LATI.deg                40.02:  LATITUDE
 LONG.deg                51.45:  LONGITUDE
 WHNS.m                  11.04:  WELL HEAD N/S
 WHEW.m                 -12.38:  WELL HEAD E/W
 UTMX.m              538763.98:  UTM X
 UTMY.m             4431880.20:  UTM Y
 DFWL.m                   0.00:  DISTANCE FWL
 DFSL.m                   0.00:  DISTANCE FSL
 SDEP.m                 300.00:  START DEPTH
 TDD .m                4900.01:  TOTAL DEPTH (DRILLER)
 VSDR.deg               185.64:  VERT SEC DIRECT
 GVFD.g                   1.00:  GRAVITY FIELD
 MFLD.nT              50301.00:  MAGNETIC FIELD
 MDIP.deg                59.46:  MAGNETIC DIP
 MDEC.deg                 6.43:  MAGNETIC DECL
 GRDC.deg                 0.29:  GRID CORRECTION
 AZTC.deg                 6.14:  AZM TOTAL CORR
 EPD .m                   0.00:  ELEVATION
 EGL .m                   0.00:  GROUND ELEVATION
 WDMS.m                 151.80:  WD ELEV
 APD .m                  43.60:  DEPTH ABOVE PD
 DEP .m                 571.69:  DEPTH
 AGAP.m                  43.60:  AIR GAP
 VSEW.m                 -12.38:  VERT SEC E/W
 VSNS.m                  11.04:  VERT SEC N/S
 EKB .m                  43.60:  KB ELEVATION
 EDF .m                  43.60:  DF ELEVATION
 TDL .m                 412.00:  TOTAL DEPTH (LOGGER)
 VSC .                       0:  VS TO CLOSURE
 MAGU.                 1849300:  MAGUTM CHECKSUM
~Parameter Information Block
#MNEM.UNIT       Value        Description
#---------     -----------    ---------------------------
 AV  .mps                 2.21:  Ann Velocity 
 AVMX.mps                 2.53:  Max Ann Veloc 
 AZIF.deg               144.83:  Azm, Final 
 BHAT.        Rotary Steerable:  BHA Type 
 BROT.°/30m              -0.52:  Build Rotating 
 BS  .in                  6.50:  Bit Size 
 BTPL.psig              209.00:  Bit Press Loss 
 CABU.                      No:  Customer Abuse 
 CGEO.        Ali Isfandiyarov:  Customer Geo 
 COMM.                     lÄt:  Run Comments 1 
 TCS .hr                 61.31:  Time Ciculation Ended 
 CV  .mps                 4.66:  Crit Velocity 
 CVMX.mps                 5.02:  Max Crit Veloc 
 DD1 .          Fariz Nahmatov:  Direct Drillr 1 
 DD2 .            Musa Ahmadov:  Direct Drillr 2 
 DDSV.               Geo-Pilot:  DD Service 
 DEFF.%                 100.00:  % Det Eff 
 DLRX.°/30m               1.44:  Dogleg Rot Max 
 DLSO.°/30m               0.83:  Dogleg Oriented 
 DLSX.°/30m               1.44:  Dogleg Str Max 
 DRET.      08.30.00 30-Jan-21:  Drill End Time 
 DRST.      21.15.00 27-Jan-21:  Drill Start Tim 
 DTIM.hr                 37.28:  Time Drilling 
 EDEP.m                4867.01:  End Depth 
 ENG1.          Rasim Hashimov:  Engineer 1 
 ENG2.         Almaz Almadatov:  Engineer 2 
 ENG3.        Tamerlan Ahmadov:  Engineer 3 
 ETIM.      22.41.04 31-Jan-21:  End Time 
 FLOI.gpm               400.00:  Flow In 
 FLON.gpm               300.00:  Flow In Min 
 FLOS.cptm                0.00:  Fluid Loss 
 FLOX.gpm               400.00:  Flow In Max 
 HFLO.                      No:  High Flow 
 HPRE.                      No:  High Pressure 
 HTEM.                      No:  High Temp 
 HYDO.m                   1.80:  Hydro Offset 
 IFIN.deg                65.63:  Inc, Final 
 IMAX.deg                66.77:  Inc Max 
 IMIN.deg                65.61:  Inc Min 
 IMND.m                4612.67:  Inc Min Depth 
 IMXD.m                4811.63:  Inc Max Depth 
 JARR.                      No:  Jarring 
 LETM.      08.30.00 30-Jan-21:  Log End Time 
 LOST.hr                     0:  Lost Rig Time 
 LSTM.      21.15.00 27-Jan-21:  Log Start Time 
 MDCL.ppm             41000.00:  Mud Chlorides 
 MDES.     Inversion Oil/Synthetic:  Mud Desc 
 DFD .sg                  1.40:  Mud Density 
 MDMN.sg                  1.40:  Dens Mud Min 
 MDMX.sg                  1.40:  Dens Mud Max 
 MOIL.                      53:  Run Mud Oil % 
 MOWR.                   66:34:  Run Mud OWR 
 MSND.                     0.2:  Run Mud Sand % 
 MSOL.                    17.9:  Run Mud Solids% 
 DFV .spqt               77.00:  Mud Viscosity 
 MWOD.in                  4.75:  MWD Tool OD 
 MWSI.                      No:  Serv Intrp, MWD 
 OTIM.hr                110.38:  Time Operating 
 PCON.           Look Like New:  Pad Condition 
 PMAX.psia             5300.00:  Press Op, Max 
 PV  .cP                 57.00:  Mud PV 
 RUN .                    1200:  Run Number 
 ROPA.m/hr               13.00:  ROP Avg 
 ROPN.m/hr                9.00:  ROP Min 
 ROPX.m/hr               15.00:  ROP Max 
 RPMA.rpm               120.00:  RPM Surface Avg 
 RPMN.rpm               100.00:  RPM Surface Min 
 RPMX.rpm               135.00:  RPM Surface Max 
 RRUN.                    1200:  Rig Run Number 
 RTIM.hr                  2.65:  Time Reaming 
 SAZI.deg               145.04:  Azm, Start 
 SDEP.m                4455.01:  Start Depth 
 SIDD.                      No:  Serv Intrp, DD 
 SINC.deg                65.83:  Inc, Start 
 SPPA.psig             5037.00:  SPP Avg 
 SPPN.psig             4430.00:  SPP Min 
 SPPX.psig             5300.00:  SPP Max 
 STIM.      22.41.04 26-Jan-21:  Start Time 
 SVCS.                 DD, MWD:  Services 
 SVER.                    9.20:  Sperry Version 
 TDAT.m                 412.00:  Tot Depth Attmp 
 TDDF.                      No:  Trip for DD 
 TDLG.m                 412.00:  Tot Depth Loggd 
 TFF .                      No:  Trip for Fail 
 TQAA.f-kp               15.00:  Torque Abs Avg 
 TQAN.f-kp               12.00:  Torque Abs Min 
 TQAX.f-kp               17.00:  Torque Abs Max 
 TRRT.°/30m               1.18:  Turn Rotating 
 MRT .                     ADR:  Maximum Recorded Temperature 
 TTMX.degC               88.24:  Max Tool Temp 
 VS01.                90619458:  Virtual Str1 SN 
 VS02.                90519326:  Virtual Str2 SN 
 VS03.                90522176:  Virtual Str3 SN 
 VS04.                90512683:  Virtual Str4 SN 
 WBMN.klb                 1.00:  WOB Min 
 WITN.           Murad Giluyev:  Customer Rep 
 WITN.     Kamran Kemberlinski:  Customer Rep 2 
 WOBA.klb                 5.00:  WOB Avg 
 WOBX.klb                 9.00:  WOB Max 
 YP  .lhf2               41.00:  Yield Point 
~Curve Information Block
#MNEM.UNIT                 API CODE     Curve Description
#---------               -----------    ---------------------------
 TIME.HHMMSS            00 000 000 000:  GT Time & Date
 GTDEPTH.m              00 000 000 000:  GT Depth
 GTPQH.psia             00 000 000 000:  GT HR Quartz Pressure
 GTTQ.degC              00 000 000 000:  GT Quartz Temperature
 GTTN.NONE              00 000 000 000:  GT Test Number
 GTET.sec               00 000 000 000:  GT Elapsed Test Time
 GTTVD.m                00 000 000 000:  GT True Vertical Depth
#Other Information
#
#WARRANTY: Halliburton will use its best efforts to furnish customers with 
#accurate information and interpretations that are part of, and incident to, the services 
#provided.  However, Halliburton cannot and does not warrant the accuracy 
#or correctness of such information and interpretations.  Under no circumstances should any 
#such information or interpretation be relied upon as the sole basis for any drilling, 
#completion, production, or financial decision or any procedure involving any risk to the 
#safety of any drilling venture, drilling rig or its crew or any other third party.  The 
#Customer has full responsibility for all drilling, completion and production operation.  
#Halliburton makes no representations or warranties, either expressed or 
#implied, including, but not limited to, the implied warranties of merchantability or fitness 
#for a particular purpose, with respect to the services rendered.  In no event will 
#Halliburton be liable for failure to obtain any particular results or for 
#any damages, including, but not limited to, indirect, special or consequential damages, 
#resulting from the use of any information or interpretation provided by Halliburton.
#
~A           TIME           GTDEPTH  GTPQH  GTTQ  GTTN   GTET   GTTVD  
# ...
   13:20:31.842.29-Jan-2021 4712.01 3107.00 82.02 11.00 113.01 2590.47
   13:20:32.042.29-Jan-2021 4712.01 3107.00 82.02 11.00 113.21 2590.47
   13:20:32.242.29-Jan-2021 4712.01 3107.01 82.02 11.00 113.41 2590.47
   13:20:32.442.29-Jan-2021 4712.01 3106.98 82.02 11.00 113.61 2590.47
   13:20:32.642.29-Jan-2021 4712.01 3106.97 82.02 11.00 113.81 2590.47
   13:20:32.842.29-Jan-2021 4712.01 3107.00 82.02 11.00 114.01 2590.47
   13:20:33.042.29-Jan-2021 4712.01 3107.00 82.02 11.00 114.21 2590.47
   13:20:33.242.29-Jan-2021 4712.01 3106.98 82.02 11.00 114.41 2590.47
   13:20:33.442.29-Jan-2021 4712.01 3106.99 82.02 11.00 114.61 2590.47
   13:20:33.642.29-Jan-2021 4712.01 3106.98 82.02 11.00 114.81 2590.47
   13:20:33.842.29-Jan-2021 4712.01 3106.88 82.02 11.00 115.01 2590.47
   13:20:34.042.29-Jan-2021 4712.01 3106.88 82.02 11.00 115.21 2590.47
   13:20:34.242.29-Jan-2021 4712.01 3106.99 82.02 11.00 115.41 2590.47
   13:20:34.442.29-Jan-2021 4712.01 3106.97 82.02 11.00 115.61 2590.47
   13:20:34.642.29-Jan-2021 4712.01 3106.98 82.01 11.00 115.81 2590.47
   13:20:34.842.29-Jan-2021 4712.01 3106.98 82.01 11.00 116.01 2590.47
   13:20:35.042.29-Jan-2021 4712.01 3106.98 82.01 11.00 116.21 2590.47
   13:20:35.242.29-Jan-2021 4712.01 3106.96 82.01 11.00 116.41 2590.47
   13:20:35.442.29-Jan-2021 4712.01 3106.98 82.01 11.00 116.61 2590.47
   13:20:35.642.29-Jan-2021 4712.01 3106.97 82.01 11.00 116.81 2590.47
   13:20:35.842.29-Jan-2021 4712.01 3107.00 82.01 11.00 117.01 2590.47
   13:20:36.042.29-Jan-2021 4712.01 3107.00 82.01 11.00 117.21 2590.47
   13:20:36.242.29-Jan-2021 4712.01 3106.98 82.01 11.00 117.41 2590.47
   13:20:36.442.29-Jan-2021 4712.01 3106.98 82.01 11.00 117.61 2590.47
   13:20:36.642.29-Jan-2021 4712.01 3106.97 82.01 11.00 117.81 2590.47
   13:20:36.842.29-Jan-2021 4712.01 3106.96 82.01 11.00 118.01 2590.47
   13:20:37.042.29-Jan-2021 4712.01 3106.96 82.01 11.00 118.21 2590.47
   13:20:37.242.29-Jan-2021 4712.01 3107.06 82.01 11.00 118.41 2590.47
   13:20:37.442.29-Jan-2021 4712.01 3106.97 82.00 11.00 118.61 2590.47
   13:20:37.642.29-Jan-2021 4712.01 3106.97 82.00 11.00 118.81 2590.47
   13:20:37.842.29-Jan-2021 4712.01 3106.94 82.00 11.00 119.01 2590.47
   13:20:38.042.29-Jan-2021 4712.01 3106.94 82.00 11.00 119.21 2590.47
   13:20:38.242.29-Jan-2021 4712.01 3106.98 82.00 11.00 119.41 2590.47
   13:20:38.442.29-Jan-2021 4712.01 3106.98 82.00 11.00 119.61 2590.47
   13:20:38.642.29-Jan-2021 4712.01 3106.92 82.00 11.00 119.81 2590.47
   13:20:38.842.29-Jan-2021 4712.01 3106.92 82.00 11.00 120.01 2590.47
   13:20:39.042.29-Jan-2021 4712.01 3106.92 82.00 11.00 120.21 2590.47
   13:20:39.242.29-Jan-2021 4712.01 3106.95 82.00 11.00 120.41 2590.47
   13:20:39.442.29-Jan-2021 4712.01 3106.95 82.00 11.00 120.61 2590.47
   13:20:39.642.29-Jan-2021 4712.01 3106.83 82.00 11.00 120.81 2590.47
   13:20:39.843.29-Jan-2021 4712.01 3107.09 82.00 11.00 121.01 2590.47
   13:20:40.043.29-Jan-2021 4712.01 3107.09 82.00 11.00 121.21 2590.47
   13:20:40.243.29-Jan-2021 4712.01 3106.90 81.99 11.00 121.41 2590.47
   13:20:40.443.29-Jan-2021 4712.01 3107.00 81.99 11.00 121.61 2590.47
   13:20:40.643.29-Jan-2021 4712.01 3106.96 81.99 11.00 121.81 2590.47
   13:20:40.843.29-Jan-2021 4712.01 3106.83 81.99 11.00 122.01 2590.47
   13:20:41.043.29-Jan-2021 4712.01 3106.83 81.99 11.00 122.21 2590.47
   13:20:41.243.29-Jan-2021 4712.01 3106.96 81.99 11.00 122.41 2590.47
   13:20:41.443.29-Jan-2021 4712.01 3106.92 81.99 11.00 122.61 2590.47
   13:20:41.643.29-Jan-2021 4712.01 3106.98 81.99 11.00 122.81 2590.47
   13:20:41.843.29-Jan-2021 4712.01 3106.95 81.99 11.00 123.01 2590.47
   13:20:42.043.29-Jan-2021 4712.01 3106.95 81.99 11.00 123.21 2590.47
   13:20:42.243.29-Jan-2021 4712.01 3106.95 81.99 11.00 123.41 2590.47
   13:20:42.443.29-Jan-2021 4712.01 3106.94 81.99 11.00 123.61 2590.47
   13:20:42.643.29-Jan-2021 4712.01 3106.95 81.99 11.00 123.81 2590.47
   13:20:42.843.29-Jan-2021 4712.01 3106.95 81.98 11.00 124.01 2590.47
   13:20:43.043.29-Jan-2021 4712.01 3106.95 81.98 11.00 124.21 2590.47
   13:20:43.243.29-Jan-2021 4712.01 3106.94 81.98 11.00 124.41 2590.47
   13:20:43.443.29-Jan-2021 4712.01 3106.95 81.98 11.00 124.61 2590.47
   13:20:43.643.29-Jan-2021 4712.01 3106.93 81.98 11.00 124.81 2590.47
   13:20:43.843.29-Jan-2021 4712.01 3106.93 81.98 11.00 125.01 2590.47
   13:20:44.043.29-Jan-2021 4712.01 3106.93 81.98 11.00 125.21 2590.47
   13:20:44.243.29-Jan-2021 4712.01 3106.92 81.98 11.00 125.41 2590.47
   13:20:44.443.29-Jan-2021 4712.01 3106.80 81.98 11.00 125.61 2590.47
   13:20:44.643.29-Jan-2021 4712.01 3107.06 81.98 11.00 125.81 2590.47
   13:20:44.843.29-Jan-2021 4712.01 3106.96 81.98 11.00 126.01 2590.47
   13:20:45.043.29-Jan-2021 4712.01 3106.96 81.98 11.00 126.21 2590.47
   13:20:45.243.29-Jan-2021 4712.01 3106.97 81.98 11.00 126.41 2590.47
   13:20:45.443.29-Jan-2021 4712.01 3106.94 81.98 11.00 126.61 2590.47
   13:20:45.643.29-Jan-2021 4712.01 3106.97 81.97 11.00 126.81 2590.47
   13:20:45.843.29-Jan-2021 4712.01 3106.91 81.97 11.00 127.01 2590.47
   13:20:46.043.29-Jan-2021 4712.01 3106.91 81.97 11.00 127.21 2590.47
   13:20:46.243.29-Jan-2021 4712.01 3106.93 81.97 11.00 127.41 2590.47
   13:20:46.443.29-Jan-2021 4712.01 3106.93 81.97 11.00 127.61 2590.47
   13:20:46.643.29-Jan-2021 4712.01 3106.93 81.97 11.00 127.81 2590.47
   13:20:46.843.29-Jan-2021 4712.01 3106.93 81.97 11.00 128.01 2590.47
   13:20:47.043.29-Jan-2021 4712.01 3106.93 81.97 11.00 128.21 2590.47
   13:20:47.243.29-Jan-2021 4712.01 3106.92 81.97 11.00 128.41 2590.47
   13:20:47.443.29-Jan-2021 4712.01 3106.92 81.97 11.00 128.61 2590.47
   13:20:47.643.29-Jan-2021 4712.01 3106.78 81.97 11.00 128.81 2590.47
   13:20:47.843.29-Jan-2021 4712.01 3107.05 81.97 11.00 129.01 2590.47
   13:20:48.043.29-Jan-2021 4712.01 3107.05 81.97 11.00 129.21 2590.47
   13:20:48.243.29-Jan-2021 4712.01 3106.88 81.97 11.00 129.41 2590.47
   13:20:48.443.29-Jan-2021 4712.01 3106.86 81.96 11.00 129.61 2590.47
   13:20:48.643.29-Jan-2021 4712.01 3107.02 81.96 11.00 129.81 2590.47
   13:20:48.843.29-Jan-2021 4712.01 3106.93 81.96 11.00 130.01 2590.47
   13:20:49.043.29-Jan-2021 4712.01 3106.93 81.96 11.00 130.21 2590.47
   13:20:49.243.29-Jan-2021 4712.01 3106.91 81.96 11.00 130.41 2590.47
   13:20:49.443.29-Jan-2021 4712.01 3106.81 81.96 11.00 130.61 2590.47
   13:20:49.643.29-Jan-2021 4712.01 3107.06 81.96 11.00 130.81 2590.47
   13:20:49.843.29-Jan-2021 4712.01 3106.92 81.96 11.00 131.01 2590.47
   13:20:50.043.29-Jan-2021 4712.01 3106.92 81.96 11.00 131.21 2590.47
   13:20:50.243.29-Jan-2021 4712.01 3106.96 81.96 11.00 131.41 2590.47
   13:20:50.443.29-Jan-2021 4712.01 3106.92 81.96 11.00 131.61 2590.47
   13:20:50.643.29-Jan-2021 4712.01 3106.96 81.96 11.00 131.81 2590.47
   13:20:50.843.29-Jan-2021 4712.01 3106.86 81.96 11.00 132.01 2590.47
   13:20:51.043.29-Jan-2021 4712.01 3106.86 81.96 11.00 132.21 2590.47
   13:20:51.243.29-Jan-2021 4712.01 3106.53 81.95 11.00 132.41 2590.47
   13:20:51.443.29-Jan-2021 4712.01 3073.23 81.95 11.00 132.61 2590.47
   13:20:51.643.29-Jan-2021 4712.01 3033.07 81.95 11.00 132.81 2590.47
   13:20:51.843.29-Jan-2021 4712.01 3032.17 81.95 11.00 133.01 2590.47
   13:20:52.043.29-Jan-2021 4712.01 3032.17 81.95 11.00 133.21 2590.47
   13:20:52.243.29-Jan-2021 4712.01 3031.45 81.95 11.00 133.41 2590.47
   13:20:52.443.29-Jan-2021 4712.01 3031.93 81.95 11.00 133.61 2590.47
   13:20:52.643.29-Jan-2021 4712.01 3032.06 81.95 11.00 133.81 2590.47
   13:20:52.843.29-Jan-2021 4712.01 3031.89 81.95 11.00 134.01 2590.47
   13:20:53.043.29-Jan-2021 4712.01 3031.89 81.95 11.00 134.21 2590.47
   13:20:53.243.29-Jan-2021 4712.01 3032.04 81.95 11.00 134.41 2590.47
   13:20:53.443.29-Jan-2021 4712.01 3031.68 81.95 11.00 134.61 2590.47
   13:20:53.643.29-Jan-2021 4712.01 3031.93 81.95 11.00 134.81 2590.47
   13:20:53.843.29-Jan-2021 4712.01 3032.05 81.95 11.00 135.01 2590.47
   13:20:54.044.29-Jan-2021 4712.01 3032.05 81.95 11.00 135.21 2590.47
   13:20:54.244.29-Jan-2021 4712.01 3031.74 81.94 11.00 135.41 2590.47
