~Version Information
 VERS.                  2.0:   CWLS log ASCII Standard -VERSION 2.0
 WRAP.                   NO:   One line per depth step
~Well Information Block
#MNEM.UNIT     VALUE/NAME     DESCRIPTION
#---------     -----------    ---------------------------
 STRT.S             07:03:45 29-Jan-21: START TIME 07:03:45 29-Jan-21
 STOP.S             07:10:14 29-Jan-21: STOP TIME  07:10:14 29-Jan-21
 STEP.S                   0.00: STEP TIME
 NULL.                 -999.25: NULL VALUE
 DFWT.                        :  DIST FWL TEXT
 DFST.                        :  DIST FSL TEXT
 DMF .             Drill Floor:  DRILL MEAS FROM
 STIM.      00.00.00 25-Sep-20:  START TIME
 DATE.      16.12.48 31-Jan-21:  END TIME
 SPUD.               20-Sep-20:  SPUD DATE
 NREF.                    Grid:  NORTH REFERENCE
 HPTY.       Minimum Curvature:  HOLE POS TYPE
 DMOD.             Drill Model:  DRILL MOD DESC
 SVYD.                  Survey:  SURVEY DESC
 ILTD.               Lithology:  INTERP LTH DESC
 FTOP.          Formation Tops:  FORM TOPS DESC
 RIG .              East Azeri:  RIG NAME
 PDAT.          Mean Sea Level:  PERMANENT DATUM
 FLD .                     ACG:  FIELD NAME
 SON .        AZ-XX-0906591820:  JOB NUMBER
 CTRY.              Azerbaijan:  COUNTRY NAME
 WELL.                     D37:  WELL NAME
 SRVC.     Turan Drilling & Engineering:  CONTRACTOR
 COMP.     BP Exploration (Caspian Sea) ltd.:  COMPANY
 WTYP.                Deviated:  WELL TYPE
 MDS .        Operator Entered:  MAG DATA SOURCE
 UWI .                     N/A:  UNIQUE WELL IDENTIFIER
 API .                     N/A:  API NUMBER
 BASE.              Azerbaijan:  LOGGING EQUIPMENT BASE LOCATION
 REGN.                   EESSA:  REGION
 PROV.                    Baku:  PROVINCE
 STAT.                    Baku:  STATE NAME
 MWDS.                    Baku:  MWD SHOP
 JOBN.        AZ-XX-0906591820:  JOB TICKET NUMB
 DOE .                     N/A:  DOE NUMBER
 DCON.         Sperry Drilling:  DIRECTNL CONTR
 UNIT.                     N/A:  LOGGING EQUIPMENT ID
 CNTY.                        :  COUNTY
 LOC .                        :  LOCATION
 LMF .             Drill Floor:  LOG MEASURED FROM
 TVDS.m                  43.60:  TVDSS CORRECTN
 LATI.deg                40.02:  LATITUDE
 LONG.deg                51.45:  LONGITUDE
 WHNS.m                  11.04:  WELL HEAD N/S
 WHEW.m                 -12.38:  WELL HEAD E/W
 UTMX.m              538763.98:  UTM X
 UTMY.m             4431880.20:  UTM Y
 DFWL.m                   0.00:  DISTANCE FWL
 DFSL.m                   0.00:  DISTANCE FSL
 SDEP.m                 300.00:  START DEPTH
 TDD .m                4900.01:  TOTAL DEPTH (DRILLER)
 VSDR.deg               185.64:  VERT SEC DIRECT
 GVFD.g                   1.00:  GRAVITY FIELD
 MFLD.nT              50301.00:  MAGNETIC FIELD
 MDIP.deg                59.46:  MAGNETIC DIP
 MDEC.deg                 6.43:  MAGNETIC DECL
 GRDC.deg                 0.29:  GRID CORRECTION
 AZTC.deg                 6.14:  AZM TOTAL CORR
 EPD .m                   0.00:  ELEVATION
 EGL .m                   0.00:  GROUND ELEVATION
 WDMS.m                 151.80:  WD ELEV
 APD .m                  43.60:  DEPTH ABOVE PD
 DEP .m                 571.69:  DEPTH
 AGAP.m                  43.60:  AIR GAP
 VSEW.m                 -12.38:  VERT SEC E/W
 VSNS.m                  11.04:  VERT SEC N/S
 EKB .m                  43.60:  KB ELEVATION
 EDF .m                  43.60:  DF ELEVATION
 TDL .m                 412.00:  TOTAL DEPTH (LOGGER)
 VSC .                       0:  VS TO CLOSURE
 MAGU.                 1849300:  MAGUTM CHECKSUM
~Parameter Information Block
#MNEM.UNIT       Value        Description
#---------     -----------    ---------------------------
 AV  .mps                 2.21:  Ann Velocity 
 AVMX.mps                 2.53:  Max Ann Veloc 
 AZIF.deg               144.83:  Azm, Final 
 BHAT.        Rotary Steerable:  BHA Type 
 BROT.°/30m              -0.52:  Build Rotating 
 BS  .in                  6.50:  Bit Size 
 BTPL.psig              209.00:  Bit Press Loss 
 CABU.                      No:  Customer Abuse 
 CGEO.        Ali Isfandiyarov:  Customer Geo 
 COMM.                     ü®q:  Run Comments 1 
 TCS .hr                 61.31:  Time Ciculation Ended 
 CV  .mps                 4.66:  Crit Velocity 
 CVMX.mps                 5.02:  Max Crit Veloc 
 DD1 .          Fariz Nahmatov:  Direct Drillr 1 
 DD2 .            Musa Ahmadov:  Direct Drillr 2 
 DDSV.               Geo-Pilot:  DD Service 
 DEFF.%                 100.00:  % Det Eff 
 DLRX.°/30m               1.44:  Dogleg Rot Max 
 DLSO.°/30m               0.83:  Dogleg Oriented 
 DLSX.°/30m               1.44:  Dogleg Str Max 
 DRET.      08.30.00 30-Jan-21:  Drill End Time 
 DRST.      21.15.00 27-Jan-21:  Drill Start Tim 
 DTIM.hr                 37.28:  Time Drilling 
 EDEP.m                4867.01:  End Depth 
 ENG1.          Rasim Hashimov:  Engineer 1 
 ENG2.         Almaz Almadatov:  Engineer 2 
 ENG3.        Tamerlan Ahmadov:  Engineer 3 
 ETIM.      22.41.04 31-Jan-21:  End Time 
 FLOI.gpm               400.00:  Flow In 
 FLON.gpm               300.00:  Flow In Min 
 FLOS.cptm                0.00:  Fluid Loss 
 FLOX.gpm               400.00:  Flow In Max 
 HFLO.                      No:  High Flow 
 HPRE.                      No:  High Pressure 
 HTEM.                      No:  High Temp 
 HYDO.m                   1.80:  Hydro Offset 
 IFIN.deg                65.63:  Inc, Final 
 IMAX.deg                66.77:  Inc Max 
 IMIN.deg                65.61:  Inc Min 
 IMND.m                4612.67:  Inc Min Depth 
 IMXD.m                4811.63:  Inc Max Depth 
 JARR.                      No:  Jarring 
 LETM.      08.30.00 30-Jan-21:  Log End Time 
 LOST.hr                     0:  Lost Rig Time 
 LSTM.      21.15.00 27-Jan-21:  Log Start Time 
 MDCL.ppm             41000.00:  Mud Chlorides 
 MDES.     Inversion Oil/Synthetic:  Mud Desc 
 DFD .sg                  1.40:  Mud Density 
 MDMN.sg                  1.40:  Dens Mud Min 
 MDMX.sg                  1.40:  Dens Mud Max 
 MOIL.                      53:  Run Mud Oil % 
 MOWR.                   66:34:  Run Mud OWR 
 MSND.                     0.2:  Run Mud Sand % 
 MSOL.                    17.9:  Run Mud Solids% 
 DFV .spqt               77.00:  Mud Viscosity 
 MWOD.in                  4.75:  MWD Tool OD 
 MWSI.                      No:  Serv Intrp, MWD 
 OTIM.hr                110.38:  Time Operating 
 PCON.           Look Like New:  Pad Condition 
 PMAX.psia             5300.00:  Press Op, Max 
 PV  .cP                 57.00:  Mud PV 
 RUN .                    1200:  Run Number 
 ROPA.m/hr               13.00:  ROP Avg 
 ROPN.m/hr                9.00:  ROP Min 
 ROPX.m/hr               15.00:  ROP Max 
 RPMA.rpm               120.00:  RPM Surface Avg 
 RPMN.rpm               100.00:  RPM Surface Min 
 RPMX.rpm               135.00:  RPM Surface Max 
 RRUN.                    1200:  Rig Run Number 
 RTIM.hr                  2.65:  Time Reaming 
 SAZI.deg               145.04:  Azm, Start 
 SDEP.m                4455.01:  Start Depth 
 SIDD.                      No:  Serv Intrp, DD 
 SINC.deg                65.83:  Inc, Start 
 SPPA.psig             5037.00:  SPP Avg 
 SPPN.psig             4430.00:  SPP Min 
 SPPX.psig             5300.00:  SPP Max 
 STIM.      22.41.04 26-Jan-21:  Start Time 
 SVCS.                 DD, MWD:  Services 
 SVER.                    9.20:  Sperry Version 
 TDAT.m                 412.00:  Tot Depth Attmp 
 TDDF.                      No:  Trip for DD 
 TDLG.m                 412.00:  Tot Depth Loggd 
 TFF .                      No:  Trip for Fail 
 TQAA.f-kp               15.00:  Torque Abs Avg 
 TQAN.f-kp               12.00:  Torque Abs Min 
 TQAX.f-kp               17.00:  Torque Abs Max 
 TRRT.°/30m               1.18:  Turn Rotating 
 MRT .                     ADR:  Maximum Recorded Temperature 
 TTMX.degC               88.24:  Max Tool Temp 
 VS01.                90619458:  Virtual Str1 SN 
 VS02.                90519326:  Virtual Str2 SN 
 VS03.                90522176:  Virtual Str3 SN 
 VS04.                90512683:  Virtual Str4 SN 
 WBMN.klb                 1.00:  WOB Min 
 WITN.           Murad Giluyev:  Customer Rep 
 WITN.     Kamran Kemberlinski:  Customer Rep 2 
 WOBA.klb                 5.00:  WOB Avg 
 WOBX.klb                 9.00:  WOB Max 
 YP  .lhf2               41.00:  Yield Point 
~Curve Information Block
#MNEM.UNIT                 API CODE     Curve Description
#---------               -----------    ---------------------------
 TIME.HHMMSS            00 000 000 000:  GT Time & Date
 GTDEPTH.m              00 000 000 000:  GT Depth
 GTPQH.psia             00 000 000 000:  GT HR Quartz Pressure
 GTTQ.degC              00 000 000 000:  GT Quartz Temperature
 GTTN.NONE              00 000 000 000:  GT Test Number
 GTET.sec               00 000 000 000:  GT Elapsed Test Time
 GTTVD.m                00 000 000 000:  GT True Vertical Depth
#Other Information
#
#WARRANTY: Halliburton will use its best efforts to furnish customers with 
#accurate information and interpretations that are part of, and incident to, the services 
#provided.  However, Halliburton cannot and does not warrant the accuracy 
#or correctness of such information and interpretations.  Under no circumstances should any 
#such information or interpretation be relied upon as the sole basis for any drilling, 
#completion, production, or financial decision or any procedure involving any risk to the 
#safety of any drilling venture, drilling rig or its crew or any other third party.  The 
#Customer has full responsibility for all drilling, completion and production operation.  
#Halliburton makes no representations or warranties, either expressed or 
#implied, including, but not limited to, the implied warranties of merchantability or fitness 
#for a particular purpose, with respect to the services rendered.  In no event will 
#Halliburton be liable for failure to obtain any particular results or for 
#any damages, including, but not limited to, indirect, special or consequential damages, 
#resulting from the use of any information or interpretation provided by Halliburton.
#
~A           TIME           GTDEPTH  GTPQH  GTTQ  GTTN  GTET   GTTVD  
# ...
   07:07:35.367.29-Jan-2021 4666.01 3051.59 79.46 8.00 230.05 2572.07
   07:07:35.567.29-Jan-2021 4666.01 3051.59 79.46 8.00 230.25 2572.07
   07:07:35.767.29-Jan-2021 4666.01 3051.63 79.46 8.00 230.45 2572.07
   07:07:35.967.29-Jan-2021 4666.01 3051.63 79.46 8.00 230.65 2572.07
   07:07:36.167.29-Jan-2021 4666.01 3051.60 79.46 8.00 230.85 2572.07
   07:07:36.367.29-Jan-2021 4666.01 3051.62 79.46 8.00 231.05 2572.07
   07:07:36.567.29-Jan-2021 4666.01 3051.62 79.46 8.00 231.25 2572.07
   07:07:36.767.29-Jan-2021 4666.01 3051.61 79.46 8.00 231.45 2572.07
   07:07:36.968.29-Jan-2021 4666.01 3051.59 79.46 8.00 231.65 2572.07
   07:07:37.168.29-Jan-2021 4666.01 3051.60 79.46 8.00 231.85 2572.07
   07:07:37.368.29-Jan-2021 4666.01 3051.60 79.46 8.00 232.05 2572.07
   07:07:37.568.29-Jan-2021 4666.01 3051.60 79.46 8.00 232.25 2572.07
   07:07:37.768.29-Jan-2021 4666.01 3051.59 79.46 8.00 232.45 2572.07
   07:07:37.968.29-Jan-2021 4666.01 3051.54 79.46 8.00 232.65 2572.07
   07:07:38.168.29-Jan-2021 4666.01 3051.68 79.46 8.00 232.85 2572.07
   07:07:38.368.29-Jan-2021 4666.01 3051.65 79.45 8.00 233.05 2572.07
   07:07:38.568.29-Jan-2021 4666.01 3051.65 79.45 8.00 233.25 2572.07
   07:07:38.768.29-Jan-2021 4666.01 3051.53 79.45 8.00 233.45 2572.07
   07:07:38.968.29-Jan-2021 4666.01 3051.73 79.45 8.00 233.65 2572.07
   07:07:39.168.29-Jan-2021 4666.01 3051.63 79.45 8.00 233.85 2572.07
   07:07:39.368.29-Jan-2021 4666.01 3051.61 79.45 8.00 234.05 2572.07
   07:07:39.568.29-Jan-2021 4666.01 3051.61 79.45 8.00 234.25 2572.07
   07:07:39.768.29-Jan-2021 4666.01 3051.64 79.45 8.00 234.45 2572.07
   07:07:39.968.29-Jan-2021 4666.01 3051.61 79.45 8.00 234.65 2572.07
   07:07:40.168.29-Jan-2021 4666.01 3051.59 79.45 8.00 234.85 2572.07
   07:07:40.368.29-Jan-2021 4666.01 3051.66 79.45 8.00 235.05 2572.07
   07:07:40.568.29-Jan-2021 4666.01 3051.66 79.45 8.00 235.25 2572.07
   07:07:40.768.29-Jan-2021 4666.01 3051.58 79.45 8.00 235.45 2572.07
   07:07:40.968.29-Jan-2021 4666.01 3051.65 79.45 8.00 235.65 2572.07
   07:07:41.168.29-Jan-2021 4666.01 3051.61 79.45 8.00 235.85 2572.07
   07:07:41.368.29-Jan-2021 4666.01 3051.52 79.45 8.00 236.05 2572.07
   07:07:41.568.29-Jan-2021 4666.01 3051.52 79.45 8.00 236.25 2572.07
   07:07:41.769.29-Jan-2021 4666.01 3051.65 79.45 8.00 236.45 2572.07
   07:07:41.969.29-Jan-2021 4666.01 3051.60 79.44 8.00 236.65 2572.07
   07:07:42.169.29-Jan-2021 4666.01 3051.64 79.44 8.00 236.85 2572.07
   07:07:42.369.29-Jan-2021 4666.01 3051.64 79.44 8.00 237.05 2572.07
   07:07:42.569.29-Jan-2021 4666.01 3051.64 79.44 8.00 237.25 2572.07
   07:07:42.769.29-Jan-2021 4666.01 3051.65 79.44 8.00 237.45 2572.07
   07:07:42.969.29-Jan-2021 4666.01 3051.63 79.44 8.00 237.65 2572.07
   07:07:43.169.29-Jan-2021 4666.01 3051.63 79.44 8.00 237.85 2572.07
   07:07:43.369.29-Jan-2021 4666.01 3051.61 79.44 8.00 238.05 2572.07
   07:07:43.569.29-Jan-2021 4666.01 3051.61 79.44 8.00 238.25 2572.07
   07:07:43.769.29-Jan-2021 4666.01 3051.61 79.44 8.00 238.45 2572.07
   07:07:43.969.29-Jan-2021 4666.01 3051.61 79.44 8.00 238.65 2572.07
   07:07:44.169.29-Jan-2021 4666.01 3051.59 79.44 8.00 238.85 2572.07
   07:07:44.369.29-Jan-2021 4666.01 3051.55 79.44 8.00 239.05 2572.07
   07:07:44.569.29-Jan-2021 4666.01 3051.55 79.44 8.00 239.25 2572.07
   07:07:44.769.29-Jan-2021 4666.01 2997.10 79.44 8.00 239.45 2572.07
   07:07:44.969.29-Jan-2021 4666.01 2995.31 79.44 8.00 239.65 2572.07
   07:07:45.169.29-Jan-2021 4666.01 2995.03 79.44 8.00 239.85 2572.07
   07:07:45.369.29-Jan-2021 4666.01 2995.20 79.44 8.00 240.05 2572.07
   07:07:45.569.29-Jan-2021 4666.01 2995.20 79.44 8.00 240.25 2572.07
   07:07:45.769.29-Jan-2021 4666.01 2994.70 79.43 8.00 240.45 2572.07
   07:07:45.969.29-Jan-2021 4666.01 2995.62 79.43 8.00 240.65 2572.07
   07:07:46.169.29-Jan-2021 4666.01 2994.99 79.43 8.00 240.85 2572.07
   07:07:46.370.29-Jan-2021 4666.01 2994.64 79.43 8.00 241.05 2572.07
   07:07:46.570.29-Jan-2021 4666.01 2994.64 79.43 8.00 241.25 2572.07
   07:07:46.770.29-Jan-2021 4666.01 2995.36 79.43 8.00 241.45 2572.07
   07:07:46.970.29-Jan-2021 4666.01 2995.06 79.43 8.00 241.65 2572.07
   07:07:47.170.29-Jan-2021 4666.01 2994.78 79.43 8.00 241.85 2572.07
   07:07:47.370.29-Jan-2021 4666.01 2995.08 79.43 8.00 242.05 2572.07
   07:07:47.570.29-Jan-2021 4666.01 2995.08 79.43 8.00 242.25 2572.07
   07:07:47.770.29-Jan-2021 4666.01 2995.18 79.43 8.00 242.45 2572.07
   07:07:47.970.29-Jan-2021 4666.01 2994.74 79.43 8.00 242.65 2572.07
   07:07:48.170.29-Jan-2021 4666.01 2994.82 79.43 8.00 242.85 2572.07
   07:07:48.370.29-Jan-2021 4666.01 2994.81 79.43 8.00 243.05 2572.07
   07:07:48.570.29-Jan-2021 4666.01 2994.81 79.43 8.00 243.25 2572.07
   07:07:48.770.29-Jan-2021 4666.01 2994.91 79.43 8.00 243.45 2572.07
   07:07:48.970.29-Jan-2021 4666.01 2995.17 79.43 8.00 243.65 2572.07
   07:07:49.170.29-Jan-2021 4666.01 2995.29 79.43 8.00 243.85 2572.07
   07:07:49.370.29-Jan-2021 4666.01 2995.14 79.42 8.00 244.05 2572.07
   07:07:49.570.29-Jan-2021 4666.01 2995.14 79.42 8.00 244.25 2572.07
   07:07:49.770.29-Jan-2021 4666.01 2994.34 79.42 8.00 244.45 2572.07
   07:07:49.970.29-Jan-2021 4666.01 2995.96 79.42 8.00 244.65 2572.07
   07:07:50.170.29-Jan-2021 4666.01 2995.11 79.42 8.00 244.85 2572.07
   07:07:50.370.29-Jan-2021 4666.01 2994.75 79.42 8.00 245.05 2572.07
   07:07:50.570.29-Jan-2021 4666.01 2994.75 79.42 8.00 245.25 2572.07
   07:07:50.770.29-Jan-2021 4666.01 2995.29 79.42 8.00 245.45 2572.07
   07:07:50.970.29-Jan-2021 4666.01 2995.43 79.42 8.00 245.65 2572.07
   07:07:51.171.29-Jan-2021 4666.01 2994.62 79.42 8.00 245.85 2572.07
   07:07:51.371.29-Jan-2021 4666.01 2995.59 79.42 8.00 246.05 2572.07
   07:07:51.571.29-Jan-2021 4666.01 2995.59 79.42 8.00 246.25 2572.07
   07:07:51.771.29-Jan-2021 4666.01 2994.48 79.42 8.00 246.45 2572.07
   07:07:51.971.29-Jan-2021 4666.01 2995.40 79.42 8.00 246.65 2572.07
   07:07:52.171.29-Jan-2021 4666.01 2995.20 79.42 8.00 246.85 2572.07
   07:07:52.371.29-Jan-2021 4666.01 2994.15 79.42 8.00 247.05 2572.07
   07:07:52.571.29-Jan-2021 4666.01 2994.15 79.42 8.00 247.25 2572.07
   07:07:52.771.29-Jan-2021 4666.01 2995.58 79.42 8.00 247.45 2572.07
   07:07:52.971.29-Jan-2021 4666.01 2994.63 79.41 8.00 247.65 2572.07
   07:07:53.171.29-Jan-2021 4666.01 2995.43 79.41 8.00 247.85 2572.07
   07:07:53.371.29-Jan-2021 4666.01 2995.49 79.41 8.00 248.05 2572.07
   07:07:53.571.29-Jan-2021 4666.01 2995.49 79.41 8.00 248.25 2572.07
   07:07:53.771.29-Jan-2021 4666.01 2996.15 79.41 8.00 248.45 2572.07
   07:07:53.971.29-Jan-2021 4666.01 2995.09 79.41 8.00 248.65 2572.07
   07:07:54.171.29-Jan-2021 4666.01 2995.42 79.41 8.00 248.85 2572.07
   07:07:54.371.29-Jan-2021 4666.01 2995.18 79.41 8.00 249.05 2572.07
   07:07:54.571.29-Jan-2021 4666.01 2995.18 79.41 8.00 249.25 2572.07
   07:07:54.771.29-Jan-2021 4666.01 2995.65 79.41 8.00 249.45 2572.07
   07:07:54.971.29-Jan-2021 4666.01 3042.01 79.41 8.00 249.65 2572.07
   07:07:55.171.29-Jan-2021 4666.01 3050.83 79.41 8.00 249.85 2572.07
   07:07:55.371.29-Jan-2021 4666.01 3050.98 79.41 8.00 250.05 2572.07
   07:07:55.571.29-Jan-2021 4666.01 3050.98 79.41 8.00 250.25 2572.07
   07:07:55.771.29-Jan-2021 4666.01 3051.08 79.41 8.00 250.45 2572.07
   07:07:55.972.29-Jan-2021 4666.01 3051.13 79.41 8.00 250.65 2572.07
   07:07:56.172.29-Jan-2021 4666.01 3051.16 79.41 8.00 250.85 2572.07
   07:07:56.372.29-Jan-2021 4666.01 3051.21 79.41 8.00 251.05 2572.07
   07:07:56.572.29-Jan-2021 4666.01 3051.21 79.41 8.00 251.25 2572.07
   07:07:56.772.29-Jan-2021 4666.01 3051.30 79.40 8.00 251.45 2572.07
   07:07:56.972.29-Jan-2021 4666.01 3051.31 79.40 8.00 251.65 2572.07
   07:07:57.172.29-Jan-2021 4666.01 3051.32 79.40 8.00 251.85 2572.07
   07:07:57.372.29-Jan-2021 4666.01 3051.35 79.40 8.00 252.05 2572.07
   07:07:57.572.29-Jan-2021 4666.01 3051.35 79.40 8.00 252.25 2572.07
   07:07:57.772.29-Jan-2021 4666.01 3051.35 79.40 8.00 252.45 2572.07
   07:07:57.972.29-Jan-2021 4666.01 3051.37 79.40 8.00 252.65 2572.07
   07:07:58.172.29-Jan-2021 4666.01 3051.36 79.40 8.00 252.85 2572.07
