~Version Information
 VERS.                  2.0:   CWLS log ASCII Standard -VERSION 2.0
 WRAP.                   NO:   One line per depth step
~Well Information Block
#MNEM.UNIT     VALUE/NAME     DESCRIPTION
#---------     -----------    ---------------------------
 STRT.S             17:31:15 28-Jan-21: START TIME 17:31:15 28-Jan-21
 STOP.S             17:37:46 28-Jan-21: STOP TIME  17:37:46 28-Jan-21
 STEP.S                   0.00: STEP TIME
 NULL.                 -999.25: NULL VALUE
 DFWT.                        :  DIST FWL TEXT
 DFST.                        :  DIST FSL TEXT
 DMF .             Drill Floor:  DRILL MEAS FROM
 STIM.      00.00.00 25-Sep-20:  START TIME
 DATE.      16.12.48 31-Jan-21:  END TIME
 SPUD.               20-Sep-20:  SPUD DATE
 NREF.                    Grid:  NORTH REFERENCE
 HPTY.       Minimum Curvature:  HOLE POS TYPE
 DMOD.             Drill Model:  DRILL MOD DESC
 SVYD.                  Survey:  SURVEY DESC
 ILTD.               Lithology:  INTERP LTH DESC
 FTOP.          Formation Tops:  FORM TOPS DESC
 RIG .              East Azeri:  RIG NAME
 PDAT.          Mean Sea Level:  PERMANENT DATUM
 FLD .                     ACG:  FIELD NAME
 SON .        AZ-XX-0906591820:  JOB NUMBER
 CTRY.              Azerbaijan:  COUNTRY NAME
 WELL.                     D37:  WELL NAME
 SRVC.     Turan Drilling & Engineering:  CONTRACTOR
 COMP.     BP Exploration (Caspian Sea) ltd.:  COMPANY
 WTYP.                Deviated:  WELL TYPE
 MDS .        Operator Entered:  MAG DATA SOURCE
 UWI .                     N/A:  UNIQUE WELL IDENTIFIER
 API .                     N/A:  API NUMBER
 BASE.              Azerbaijan:  LOGGING EQUIPMENT BASE LOCATION
 REGN.                   EESSA:  REGION
 PROV.                    Baku:  PROVINCE
 STAT.                    Baku:  STATE NAME
 MWDS.                    Baku:  MWD SHOP
 JOBN.        AZ-XX-0906591820:  JOB TICKET NUMB
 DOE .                     N/A:  DOE NUMBER
 DCON.         Sperry Drilling:  DIRECTNL CONTR
 UNIT.                     N/A:  LOGGING EQUIPMENT ID
 CNTY.                        :  COUNTY
 LOC .                        :  LOCATION
 LMF .             Drill Floor:  LOG MEASURED FROM
 TVDS.m                  43.60:  TVDSS CORRECTN
 LATI.deg                40.02:  LATITUDE
 LONG.deg                51.45:  LONGITUDE
 WHNS.m                  11.04:  WELL HEAD N/S
 WHEW.m                 -12.38:  WELL HEAD E/W
 UTMX.m              538763.98:  UTM X
 UTMY.m             4431880.20:  UTM Y
 DFWL.m                   0.00:  DISTANCE FWL
 DFSL.m                   0.00:  DISTANCE FSL
 SDEP.m                 300.00:  START DEPTH
 TDD .m                4900.01:  TOTAL DEPTH (DRILLER)
 VSDR.deg               185.64:  VERT SEC DIRECT
 GVFD.g                   1.00:  GRAVITY FIELD
 MFLD.nT              50301.00:  MAGNETIC FIELD
 MDIP.deg                59.46:  MAGNETIC DIP
 MDEC.deg                 6.43:  MAGNETIC DECL
 GRDC.deg                 0.29:  GRID CORRECTION
 AZTC.deg                 6.14:  AZM TOTAL CORR
 EPD .m                   0.00:  ELEVATION
 EGL .m                   0.00:  GROUND ELEVATION
 WDMS.m                 151.80:  WD ELEV
 APD .m                  43.60:  DEPTH ABOVE PD
 DEP .m                 571.69:  DEPTH
 AGAP.m                  43.60:  AIR GAP
 VSEW.m                 -12.38:  VERT SEC E/W
 VSNS.m                  11.04:  VERT SEC N/S
 EKB .m                  43.60:  KB ELEVATION
 EDF .m                  43.60:  DF ELEVATION
 TDL .m                 412.00:  TOTAL DEPTH (LOGGER)
 VSC .                       0:  VS TO CLOSURE
 MAGU.                 1849300:  MAGUTM CHECKSUM
~Parameter Information Block
#MNEM.UNIT       Value        Description
#---------     -----------    ---------------------------
 AV  .mps                 2.21:  Ann Velocity 
 AVMX.mps                 2.53:  Max Ann Veloc 
 AZIF.deg               144.83:  Azm, Final 
 BHAT.        Rotary Steerable:  BHA Type 
 BROT.°/30m              -0.52:  Build Rotating 
 BS  .in                  6.50:  Bit Size 
 BTPL.psig              209.00:  Bit Press Loss 
 CABU.                      No:  Customer Abuse 
 CGEO.        Ali Isfandiyarov:  Customer Geo 
 COMM.                     ¼¨M:  Run Comments 1 
 TCS .hr                 61.31:  Time Ciculation Ended 
 CV  .mps                 4.66:  Crit Velocity 
 CVMX.mps                 5.02:  Max Crit Veloc 
 DD1 .          Fariz Nahmatov:  Direct Drillr 1 
 DD2 .            Musa Ahmadov:  Direct Drillr 2 
 DDSV.               Geo-Pilot:  DD Service 
 DEFF.%                 100.00:  % Det Eff 
 DLRX.°/30m               1.44:  Dogleg Rot Max 
 DLSO.°/30m               0.83:  Dogleg Oriented 
 DLSX.°/30m               1.44:  Dogleg Str Max 
 DRET.      08.30.00 30-Jan-21:  Drill End Time 
 DRST.      21.15.00 27-Jan-21:  Drill Start Tim 
 DTIM.hr                 37.28:  Time Drilling 
 EDEP.m                4867.01:  End Depth 
 ENG1.          Rasim Hashimov:  Engineer 1 
 ENG2.         Almaz Almadatov:  Engineer 2 
 ENG3.        Tamerlan Ahmadov:  Engineer 3 
 ETIM.      22.41.04 31-Jan-21:  End Time 
 FLOI.gpm               400.00:  Flow In 
 FLON.gpm               300.00:  Flow In Min 
 FLOS.cptm                0.00:  Fluid Loss 
 FLOX.gpm               400.00:  Flow In Max 
 HFLO.                      No:  High Flow 
 HPRE.                      No:  High Pressure 
 HTEM.                      No:  High Temp 
 HYDO.m                   1.80:  Hydro Offset 
 IFIN.deg                65.63:  Inc, Final 
 IMAX.deg                66.77:  Inc Max 
 IMIN.deg                65.61:  Inc Min 
 IMND.m                4612.67:  Inc Min Depth 
 IMXD.m                4811.63:  Inc Max Depth 
 JARR.                      No:  Jarring 
 LETM.      08.30.00 30-Jan-21:  Log End Time 
 LOST.hr                     0:  Lost Rig Time 
 LSTM.      21.15.00 27-Jan-21:  Log Start Time 
 MDCL.ppm             41000.00:  Mud Chlorides 
 MDES.     Inversion Oil/Synthetic:  Mud Desc 
 DFD .sg                  1.40:  Mud Density 
 MDMN.sg                  1.40:  Dens Mud Min 
 MDMX.sg                  1.40:  Dens Mud Max 
 MOIL.                      53:  Run Mud Oil % 
 MOWR.                   66:34:  Run Mud OWR 
 MSND.                     0.2:  Run Mud Sand % 
 MSOL.                    17.9:  Run Mud Solids% 
 DFV .spqt               77.00:  Mud Viscosity 
 MWOD.in                  4.75:  MWD Tool OD 
 MWSI.                      No:  Serv Intrp, MWD 
 OTIM.hr                110.38:  Time Operating 
 PCON.           Look Like New:  Pad Condition 
 PMAX.psia             5300.00:  Press Op, Max 
 PV  .cP                 57.00:  Mud PV 
 RUN .                    1200:  Run Number 
 ROPA.m/hr               13.00:  ROP Avg 
 ROPN.m/hr                9.00:  ROP Min 
 ROPX.m/hr               15.00:  ROP Max 
 RPMA.rpm               120.00:  RPM Surface Avg 
 RPMN.rpm               100.00:  RPM Surface Min 
 RPMX.rpm               135.00:  RPM Surface Max 
 RRUN.                    1200:  Rig Run Number 
 RTIM.hr                  2.65:  Time Reaming 
 SAZI.deg               145.04:  Azm, Start 
 SDEP.m                4455.01:  Start Depth 
 SIDD.                      No:  Serv Intrp, DD 
 SINC.deg                65.83:  Inc, Start 
 SPPA.psig             5037.00:  SPP Avg 
 SPPN.psig             4430.00:  SPP Min 
 SPPX.psig             5300.00:  SPP Max 
 STIM.      22.41.04 26-Jan-21:  Start Time 
 SVCS.                 DD, MWD:  Services 
 SVER.                    9.20:  Sperry Version 
 TDAT.m                 412.00:  Tot Depth Attmp 
 TDDF.                      No:  Trip for DD 
 TDLG.m                 412.00:  Tot Depth Loggd 
 TFF .                      No:  Trip for Fail 
 TQAA.f-kp               15.00:  Torque Abs Avg 
 TQAN.f-kp               12.00:  Torque Abs Min 
 TQAX.f-kp               17.00:  Torque Abs Max 
 TRRT.°/30m               1.18:  Turn Rotating 
 MRT .                     ADR:  Maximum Recorded Temperature 
 TTMX.degC               88.24:  Max Tool Temp 
 VS01.                90619458:  Virtual Str1 SN 
 VS02.                90519326:  Virtual Str2 SN 
 VS03.                90522176:  Virtual Str3 SN 
 VS04.                90512683:  Virtual Str4 SN 
 WBMN.klb                 1.00:  WOB Min 
 WITN.           Murad Giluyev:  Customer Rep 
 WITN.     Kamran Kemberlinski:  Customer Rep 2 
 WOBA.klb                 5.00:  WOB Avg 
 WOBX.klb                 9.00:  WOB Max 
 YP  .lhf2               41.00:  Yield Point 
~Curve Information Block
#MNEM.UNIT                 API CODE     Curve Description
#---------               -----------    ---------------------------
 TIME.HHMMSS            00 000 000 000:  GT Time & Date
 GTDEPTH.m              00 000 000 000:  GT Depth
 GTPQH.psia             00 000 000 000:  GT HR Quartz Pressure
 GTTQ.degC              00 000 000 000:  GT Quartz Temperature
 GTTN.NONE              00 000 000 000:  GT Test Number
 GTET.sec               00 000 000 000:  GT Elapsed Test Time
 GTTVD.m                00 000 000 000:  GT True Vertical Depth
#Other Information
#
#WARRANTY: Halliburton will use its best efforts to furnish customers with 
#accurate information and interpretations that are part of, and incident to, the services 
#provided.  However, Halliburton cannot and does not warrant the accuracy 
#or correctness of such information and interpretations.  Under no circumstances should any 
#such information or interpretation be relied upon as the sole basis for any drilling, 
#completion, production, or financial decision or any procedure involving any risk to the 
#safety of any drilling venture, drilling rig or its crew or any other third party.  The 
#Customer has full responsibility for all drilling, completion and production operation.  
#Halliburton makes no representations or warranties, either expressed or 
#implied, including, but not limited to, the implied warranties of merchantability or fitness 
#for a particular purpose, with respect to the services rendered.  In no event will 
#Halliburton be liable for failure to obtain any particular results or for 
#any damages, including, but not limited to, indirect, special or consequential damages, 
#resulting from the use of any information or interpretation provided by Halliburton.
#
~A           TIME           GTDEPTH  GTPQH  GTTQ  GTTN  GTET   GTTVD  
# ...
   17:36:14.347.28-Jan-2021 4557.01 3087.35 74.30 5.00 299.06 2527.68
   17:36:14.547.28-Jan-2021 4557.01 3087.35 74.30 5.00 299.26 2527.68
   17:36:14.747.28-Jan-2021 4557.01 3087.27 74.29 5.00 299.46 2527.68
   17:36:14.948.28-Jan-2021 4557.01 3087.38 74.29 5.00 299.66 2527.68
   17:36:15.148.28-Jan-2021 4557.01 3087.43 74.29 5.00 299.86 2527.68
   17:36:15.348.28-Jan-2021 4557.01 3087.36 74.29 5.00 300.06 2527.68
   17:36:15.548.28-Jan-2021 4557.01 3087.36 74.29 5.00 300.26 2527.68
   17:36:15.748.28-Jan-2021 4557.01 3087.50 74.29 5.00 300.46 2527.68
   17:36:15.948.28-Jan-2021 4557.01 3087.44 74.29 5.00 300.66 2527.68
   17:36:16.148.28-Jan-2021 4557.01 3087.36 74.29 5.00 300.86 2527.68
   17:36:16.348.28-Jan-2021 4557.01 3087.35 74.29 5.00 301.06 2527.68
   17:36:16.548.28-Jan-2021 4557.01 3087.35 74.29 5.00 301.26 2527.68
   17:36:16.748.28-Jan-2021 4557.01 3087.35 74.29 5.00 301.46 2527.68
   17:36:16.948.28-Jan-2021 4557.01 3087.40 74.29 5.00 301.66 2527.68
   17:36:17.148.28-Jan-2021 4557.01 3087.42 74.29 5.00 301.86 2527.68
   17:36:17.348.28-Jan-2021 4557.01 3087.37 74.29 5.00 302.06 2527.68
   17:36:17.548.28-Jan-2021 4557.01 3087.37 74.29 5.00 302.26 2527.68
   17:36:17.748.28-Jan-2021 4557.01 3087.44 74.29 5.00 302.46 2527.68
   17:36:17.948.28-Jan-2021 4557.01 3087.39 74.29 5.00 302.66 2527.68
   17:36:18.148.28-Jan-2021 4557.01 3087.43 74.29 5.00 302.86 2527.68
   17:36:18.348.28-Jan-2021 4557.01 3087.25 74.29 5.00 303.06 2527.68
   17:36:18.548.28-Jan-2021 4557.01 3087.25 74.29 5.00 303.26 2527.68
   17:36:18.748.28-Jan-2021 4557.01 3087.46 74.29 5.00 303.46 2527.68
   17:36:18.948.28-Jan-2021 4557.01 3087.35 74.29 5.00 303.66 2527.68
   17:36:19.148.28-Jan-2021 4557.01 3087.45 74.29 5.00 303.86 2527.68
   17:36:19.348.28-Jan-2021 4557.01 3087.40 74.29 5.00 304.06 2527.68
   17:36:19.548.28-Jan-2021 4557.01 3087.40 74.29 5.00 304.26 2527.68
   17:36:19.748.28-Jan-2021 4557.01 3087.43 74.29 5.00 304.46 2527.68
   17:36:19.949.28-Jan-2021 4557.01 3087.38 74.28 5.00 304.66 2527.68
   17:36:20.149.28-Jan-2021 4557.01 3087.40 74.28 5.00 304.86 2527.68
   17:36:20.349.28-Jan-2021 4557.01 3087.36 74.28 5.00 305.06 2527.68
   17:36:20.549.28-Jan-2021 4557.01 3087.36 74.28 5.00 305.26 2527.68
   17:36:20.749.28-Jan-2021 4557.01 3087.39 74.28 5.00 305.46 2527.68
   17:36:20.949.28-Jan-2021 4557.01 3087.39 74.28 5.00 305.66 2527.68
   17:36:21.149.28-Jan-2021 4557.01 3087.38 74.28 5.00 305.86 2527.68
   17:36:21.349.28-Jan-2021 4557.01 3087.40 74.28 5.00 306.06 2527.68
   17:36:21.549.28-Jan-2021 4557.01 3087.40 74.28 5.00 306.26 2527.68
   17:36:21.749.28-Jan-2021 4557.01 3087.39 74.28 5.00 306.46 2527.68
   17:36:21.949.28-Jan-2021 4557.01 3087.27 74.28 5.00 306.66 2527.68
   17:36:22.149.28-Jan-2021 4557.01 3087.41 74.28 5.00 306.86 2527.68
   17:36:22.349.28-Jan-2021 4557.01 3087.46 74.28 5.00 307.06 2527.68
   17:36:22.549.28-Jan-2021 4557.01 3087.46 74.28 5.00 307.26 2527.68
   17:36:22.749.28-Jan-2021 4557.01 3087.48 74.28 5.00 307.46 2527.68
   17:36:22.949.28-Jan-2021 4557.01 3087.39 74.28 5.00 307.66 2527.68
   17:36:23.149.28-Jan-2021 4557.01 3087.41 74.28 5.00 307.86 2527.68
   17:36:23.349.28-Jan-2021 4557.01 3087.40 74.28 5.00 308.06 2527.68
   17:36:23.549.28-Jan-2021 4557.01 3087.40 74.28 5.00 308.26 2527.68
   17:36:23.749.28-Jan-2021 4557.01 3087.40 74.28 5.00 308.46 2527.68
   17:36:23.949.28-Jan-2021 4557.01 3087.39 74.28 5.00 308.66 2527.68
   17:36:24.149.28-Jan-2021 4557.01 3087.40 74.28 5.00 308.86 2527.68
   17:36:24.349.28-Jan-2021 4557.01 3087.41 74.28 5.00 309.06 2527.68
   17:36:24.549.28-Jan-2021 4557.01 3087.41 74.28 5.00 309.26 2527.68
   17:36:24.749.28-Jan-2021 4557.01 3087.39 74.28 5.00 309.46 2527.68
   17:36:24.949.28-Jan-2021 4557.01 3087.41 74.27 5.00 309.66 2527.68
   17:36:25.150.28-Jan-2021 4557.01 3087.28 74.27 5.00 309.86 2527.68
   17:36:25.350.28-Jan-2021 4557.01 3087.45 74.27 5.00 310.06 2527.68
   17:36:25.550.28-Jan-2021 4557.01 3087.45 74.27 5.00 310.26 2527.68
   17:36:25.750.28-Jan-2021 4557.01 3087.40 74.27 5.00 310.46 2527.68
   17:36:25.950.28-Jan-2021 4557.01 3087.28 74.27 5.00 310.66 2527.68
   17:36:26.150.28-Jan-2021 4557.01 3087.54 74.27 5.00 310.86 2527.68
   17:36:26.350.28-Jan-2021 4557.01 3087.44 74.27 5.00 311.06 2527.68
   17:36:26.550.28-Jan-2021 4557.01 3087.44 74.27 5.00 311.26 2527.68
   17:36:26.750.28-Jan-2021 4557.01 3087.39 74.27 5.00 311.46 2527.68
   17:36:26.950.28-Jan-2021 4557.01 3087.48 74.27 5.00 311.66 2527.68
   17:36:27.150.28-Jan-2021 4557.01 3087.37 74.27 5.00 311.86 2527.68
   17:36:27.350.28-Jan-2021 4557.01 3087.45 74.27 5.00 312.06 2527.68
   17:36:27.550.28-Jan-2021 4557.01 3087.45 74.27 5.00 312.26 2527.68
   17:36:27.750.28-Jan-2021 4557.01 3087.40 74.27 5.00 312.46 2527.68
   17:36:27.950.28-Jan-2021 4557.01 3087.39 74.27 5.00 312.66 2527.68
   17:36:28.150.28-Jan-2021 4557.01 3087.50 74.27 5.00 312.86 2527.68
   17:36:28.350.28-Jan-2021 4557.01 3087.42 74.27 5.00 313.06 2527.68
   17:36:28.550.28-Jan-2021 4557.01 3087.42 74.27 5.00 313.26 2527.68
   17:36:28.750.28-Jan-2021 4557.01 3087.29 74.27 5.00 313.46 2527.68
   17:36:28.950.28-Jan-2021 4557.01 3087.44 74.27 5.00 313.66 2527.68
   17:36:29.150.28-Jan-2021 4557.01 3087.49 74.27 5.00 313.86 2527.68
   17:36:29.350.28-Jan-2021 4557.01 3087.39 74.27 5.00 314.06 2527.68
   17:36:29.550.28-Jan-2021 4557.01 3087.39 74.27 5.00 314.26 2527.68
   17:36:29.750.28-Jan-2021 4557.01 3087.40 74.27 5.00 314.46 2527.68
   17:36:29.950.28-Jan-2021 4557.01 3087.43 74.27 5.00 314.66 2527.68
   17:36:30.151.28-Jan-2021 4557.01 3087.44 74.26 5.00 314.86 2527.68
   17:36:30.351.28-Jan-2021 4557.01 3087.41 74.26 5.00 315.06 2527.68
   17:36:30.551.28-Jan-2021 4557.01 3087.41 74.26 5.00 315.26 2527.68
   17:36:30.751.28-Jan-2021 4557.01 3087.42 74.26 5.00 315.46 2527.68
   17:36:30.951.28-Jan-2021 4557.01 3087.42 74.26 5.00 315.66 2527.68
   17:36:31.151.28-Jan-2021 4557.01 3087.44 74.26 5.00 315.86 2527.68
   17:36:31.351.28-Jan-2021 4557.01 3087.42 74.26 5.00 316.06 2527.68
   17:36:31.551.28-Jan-2021 4557.01 3087.42 74.26 5.00 316.26 2527.68
   17:36:31.751.28-Jan-2021 4557.01 3087.42 74.26 5.00 316.46 2527.68
   17:36:31.951.28-Jan-2021 4557.01 3087.42 74.26 5.00 316.66 2527.68
   17:36:32.151.28-Jan-2021 4557.01 3087.41 74.26 5.00 316.86 2527.68
   17:36:32.351.28-Jan-2021 4557.01 3087.30 74.26 5.00 317.06 2527.68
   17:36:32.551.28-Jan-2021 4557.01 3087.30 74.26 5.00 317.26 2527.68
   17:36:32.751.28-Jan-2021 4557.01 3087.49 74.26 5.00 317.46 2527.68
   17:36:32.951.28-Jan-2021 4557.01 3087.41 74.26 5.00 317.66 2527.68
   17:36:33.151.28-Jan-2021 4557.01 3087.48 74.26 5.00 317.86 2527.68
   17:36:33.351.28-Jan-2021 4557.01 3087.41 74.26 5.00 318.06 2527.68
   17:36:33.551.28-Jan-2021 4557.01 3087.41 74.26 5.00 318.26 2527.68
   17:36:33.751.28-Jan-2021 4557.01 3087.44 74.26 5.00 318.46 2527.68
   17:36:33.951.28-Jan-2021 4557.01 3087.41 74.26 5.00 318.66 2527.68
   17:36:34.151.28-Jan-2021 4557.01 3087.43 74.26 5.00 318.86 2527.68
   17:36:34.351.28-Jan-2021 4557.01 3087.42 74.26 5.00 319.06 2527.68
   17:36:34.551.28-Jan-2021 4557.01 3087.42 74.26 5.00 319.26 2527.68
   17:36:34.751.28-Jan-2021 4557.01 3087.43 74.26 5.00 319.46 2527.68
   17:36:34.951.28-Jan-2021 4557.01 3087.43 74.26 5.00 319.66 2527.68
   17:36:35.151.28-Jan-2021 4557.01 3087.41 74.26 5.00 319.86 2527.68
   17:36:35.352.28-Jan-2021 4557.01 3087.42 74.25 5.00 320.06 2527.68
   17:36:35.552.28-Jan-2021 4557.01 3087.42 74.25 5.00 320.26 2527.68
   17:36:35.752.28-Jan-2021 4557.01 3087.45 74.25 5.00 320.46 2527.68
   17:36:35.952.28-Jan-2021 4557.01 3087.52 74.25 5.00 320.66 2527.68
   17:36:36.152.28-Jan-2021 4557.01 3087.41 74.25 5.00 320.86 2527.68
   17:36:36.352.28-Jan-2021 4557.01 3087.31 74.25 5.00 321.06 2527.68
   17:36:36.552.28-Jan-2021 4557.01 3087.31 74.25 5.00 321.26 2527.68
   17:36:36.752.28-Jan-2021 4557.01 3087.48 74.25 5.00 321.46 2527.68
   17:36:36.952.28-Jan-2021 4557.01 3087.43 74.25 5.00 321.66 2527.68
   17:36:37.152.28-Jan-2021 4557.01 3087.43 74.25 5.00 321.86 2527.68
