~Version Information
 VERS.                  2.0:   CWLS log ASCII Standard -VERSION 2.0
 WRAP.                   NO:   One line per depth step
~Well Information Block
#MNEM.UNIT     VALUE/NAME     DESCRIPTION
#---------     -----------    ---------------------------
 STRT.S             13:18:38 29-Jan-21: START TIME 13:18:38 29-Jan-21
 STOP.S             13:25:08 29-Jan-21: STOP TIME  13:25:08 29-Jan-21
 STEP.S                   0.00: STEP TIME
 NULL.                 -999.25: NULL VALUE
 DFWT.                        :  DIST FWL TEXT
 DFST.                        :  DIST FSL TEXT
 DMF .             Drill Floor:  DRILL MEAS FROM
 STIM.      00.00.00 25-Sep-20:  START TIME
 DATE.      16.12.48 31-Jan-21:  END TIME
 SPUD.               20-Sep-20:  SPUD DATE
 NREF.                    Grid:  NORTH REFERENCE
 HPTY.       Minimum Curvature:  HOLE POS TYPE
 DMOD.             Drill Model:  DRILL MOD DESC
 SVYD.                  Survey:  SURVEY DESC
 ILTD.               Lithology:  INTERP LTH DESC
 FTOP.          Formation Tops:  FORM TOPS DESC
 RIG .              East Azeri:  RIG NAME
 PDAT.          Mean Sea Level:  PERMANENT DATUM
 FLD .                     ACG:  FIELD NAME
 SON .        AZ-XX-0906591820:  JOB NUMBER
 CTRY.              Azerbaijan:  COUNTRY NAME
 WELL.                     D37:  WELL NAME
 SRVC.     Turan Drilling & Engineering:  CONTRACTOR
 COMP.     BP Exploration (Caspian Sea) ltd.:  COMPANY
 WTYP.                Deviated:  WELL TYPE
 MDS .        Operator Entered:  MAG DATA SOURCE
 UWI .                     N/A:  UNIQUE WELL IDENTIFIER
 API .                     N/A:  API NUMBER
 BASE.              Azerbaijan:  LOGGING EQUIPMENT BASE LOCATION
 REGN.                   EESSA:  REGION
 PROV.                    Baku:  PROVINCE
 STAT.                    Baku:  STATE NAME
 MWDS.                    Baku:  MWD SHOP
 JOBN.        AZ-XX-0906591820:  JOB TICKET NUMB
 DOE .                     N/A:  DOE NUMBER
 DCON.         Sperry Drilling:  DIRECTNL CONTR
 UNIT.                     N/A:  LOGGING EQUIPMENT ID
 CNTY.                        :  COUNTY
 LOC .                        :  LOCATION
 LMF .             Drill Floor:  LOG MEASURED FROM
 TVDS.m                  43.60:  TVDSS CORRECTN
 LATI.deg                40.02:  LATITUDE
 LONG.deg                51.45:  LONGITUDE
 WHNS.m                  11.04:  WELL HEAD N/S
 WHEW.m                 -12.38:  WELL HEAD E/W
 UTMX.m              538763.98:  UTM X
 UTMY.m             4431880.20:  UTM Y
 DFWL.m                   0.00:  DISTANCE FWL
 DFSL.m                   0.00:  DISTANCE FSL
 SDEP.m                 300.00:  START DEPTH
 TDD .m                4900.01:  TOTAL DEPTH (DRILLER)
 VSDR.deg               185.64:  VERT SEC DIRECT
 GVFD.g                   1.00:  GRAVITY FIELD
 MFLD.nT              50301.00:  MAGNETIC FIELD
 MDIP.deg                59.46:  MAGNETIC DIP
 MDEC.deg                 6.43:  MAGNETIC DECL
 GRDC.deg                 0.29:  GRID CORRECTION
 AZTC.deg                 6.14:  AZM TOTAL CORR
 EPD .m                   0.00:  ELEVATION
 EGL .m                   0.00:  GROUND ELEVATION
 WDMS.m                 151.80:  WD ELEV
 APD .m                  43.60:  DEPTH ABOVE PD
 DEP .m                 571.69:  DEPTH
 AGAP.m                  43.60:  AIR GAP
 VSEW.m                 -12.38:  VERT SEC E/W
 VSNS.m                  11.04:  VERT SEC N/S
 EKB .m                  43.60:  KB ELEVATION
 EDF .m                  43.60:  DF ELEVATION
 TDL .m                 412.00:  TOTAL DEPTH (LOGGER)
 VSC .                       0:  VS TO CLOSURE
 MAGU.                 1849300:  MAGUTM CHECKSUM
~Parameter Information Block
#MNEM.UNIT       Value        Description
#---------     -----------    ---------------------------
 AV  .mps                 2.21:  Ann Velocity 
 AVMX.mps                 2.53:  Max Ann Veloc 
 AZIF.deg               144.83:  Azm, Final 
 BHAT.        Rotary Steerable:  BHA Type 
 BROT.°/30m              -0.52:  Build Rotating 
 BS  .in                  6.50:  Bit Size 
 BTPL.psig              209.00:  Bit Press Loss 
 CABU.                      No:  Customer Abuse 
 CGEO.        Ali Isfandiyarov:  Customer Geo 
 COMM.                     lÄt:  Run Comments 1 
 TCS .hr                 61.31:  Time Ciculation Ended 
 CV  .mps                 4.66:  Crit Velocity 
 CVMX.mps                 5.02:  Max Crit Veloc 
 DD1 .          Fariz Nahmatov:  Direct Drillr 1 
 DD2 .            Musa Ahmadov:  Direct Drillr 2 
 DDSV.               Geo-Pilot:  DD Service 
 DEFF.%                 100.00:  % Det Eff 
 DLRX.°/30m               1.44:  Dogleg Rot Max 
 DLSO.°/30m               0.83:  Dogleg Oriented 
 DLSX.°/30m               1.44:  Dogleg Str Max 
 DRET.      08.30.00 30-Jan-21:  Drill End Time 
 DRST.      21.15.00 27-Jan-21:  Drill Start Tim 
 DTIM.hr                 37.28:  Time Drilling 
 EDEP.m                4867.01:  End Depth 
 ENG1.          Rasim Hashimov:  Engineer 1 
 ENG2.         Almaz Almadatov:  Engineer 2 
 ENG3.        Tamerlan Ahmadov:  Engineer 3 
 ETIM.      22.41.04 31-Jan-21:  End Time 
 FLOI.gpm               400.00:  Flow In 
 FLON.gpm               300.00:  Flow In Min 
 FLOS.cptm                0.00:  Fluid Loss 
 FLOX.gpm               400.00:  Flow In Max 
 HFLO.                      No:  High Flow 
 HPRE.                      No:  High Pressure 
 HTEM.                      No:  High Temp 
 HYDO.m                   1.80:  Hydro Offset 
 IFIN.deg                65.63:  Inc, Final 
 IMAX.deg                66.77:  Inc Max 
 IMIN.deg                65.61:  Inc Min 
 IMND.m                4612.67:  Inc Min Depth 
 IMXD.m                4811.63:  Inc Max Depth 
 JARR.                      No:  Jarring 
 LETM.      08.30.00 30-Jan-21:  Log End Time 
 LOST.hr                     0:  Lost Rig Time 
 LSTM.      21.15.00 27-Jan-21:  Log Start Time 
 MDCL.ppm             41000.00:  Mud Chlorides 
 MDES.     Inversion Oil/Synthetic:  Mud Desc 
 DFD .sg                  1.40:  Mud Density 
 MDMN.sg                  1.40:  Dens Mud Min 
 MDMX.sg                  1.40:  Dens Mud Max 
 MOIL.                      53:  Run Mud Oil % 
 MOWR.                   66:34:  Run Mud OWR 
 MSND.                     0.2:  Run Mud Sand % 
 MSOL.                    17.9:  Run Mud Solids% 
 DFV .spqt               77.00:  Mud Viscosity 
 MWOD.in                  4.75:  MWD Tool OD 
 MWSI.                      No:  Serv Intrp, MWD 
 OTIM.hr                110.38:  Time Operating 
 PCON.           Look Like New:  Pad Condition 
 PMAX.psia             5300.00:  Press Op, Max 
 PV  .cP                 57.00:  Mud PV 
 RUN .                    1200:  Run Number 
 ROPA.m/hr               13.00:  ROP Avg 
 ROPN.m/hr                9.00:  ROP Min 
 ROPX.m/hr               15.00:  ROP Max 
 RPMA.rpm               120.00:  RPM Surface Avg 
 RPMN.rpm               100.00:  RPM Surface Min 
 RPMX.rpm               135.00:  RPM Surface Max 
 RRUN.                    1200:  Rig Run Number 
 RTIM.hr                  2.65:  Time Reaming 
 SAZI.deg               145.04:  Azm, Start 
 SDEP.m                4455.01:  Start Depth 
 SIDD.                      No:  Serv Intrp, DD 
 SINC.deg                65.83:  Inc, Start 
 SPPA.psig             5037.00:  SPP Avg 
 SPPN.psig             4430.00:  SPP Min 
 SPPX.psig             5300.00:  SPP Max 
 STIM.      22.41.04 26-Jan-21:  Start Time 
 SVCS.                 DD, MWD:  Services 
 SVER.                    9.20:  Sperry Version 
 TDAT.m                 412.00:  Tot Depth Attmp 
 TDDF.                      No:  Trip for DD 
 TDLG.m                 412.00:  Tot Depth Loggd 
 TFF .                      No:  Trip for Fail 
 TQAA.f-kp               15.00:  Torque Abs Avg 
 TQAN.f-kp               12.00:  Torque Abs Min 
 TQAX.f-kp               17.00:  Torque Abs Max 
 TRRT.°/30m               1.18:  Turn Rotating 
 MRT .                     ADR:  Maximum Recorded Temperature 
 TTMX.degC               88.24:  Max Tool Temp 
 VS01.                90619458:  Virtual Str1 SN 
 VS02.                90519326:  Virtual Str2 SN 
 VS03.                90522176:  Virtual Str3 SN 
 VS04.                90512683:  Virtual Str4 SN 
 WBMN.klb                 1.00:  WOB Min 
 WITN.           Murad Giluyev:  Customer Rep 
 WITN.     Kamran Kemberlinski:  Customer Rep 2 
 WOBA.klb                 5.00:  WOB Avg 
 WOBX.klb                 9.00:  WOB Max 
 YP  .lhf2               41.00:  Yield Point 
~Curve Information Block
#MNEM.UNIT                 API CODE     Curve Description
#---------               -----------    ---------------------------
 TIME.HHMMSS            00 000 000 000:  GT Time & Date
 GTDEPTH.m              00 000 000 000:  GT Depth
 GTPQH.psia             00 000 000 000:  GT HR Quartz Pressure
 GTTQ.degC              00 000 000 000:  GT Quartz Temperature
 GTTN.NONE              00 000 000 000:  GT Test Number
 GTET.sec               00 000 000 000:  GT Elapsed Test Time
 GTTVD.m                00 000 000 000:  GT True Vertical Depth
#Other Information
#
#WARRANTY: Halliburton will use its best efforts to furnish customers with 
#accurate information and interpretations that are part of, and incident to, the services 
#provided.  However, Halliburton cannot and does not warrant the accuracy 
#or correctness of such information and interpretations.  Under no circumstances should any 
#such information or interpretation be relied upon as the sole basis for any drilling, 
#completion, production, or financial decision or any procedure involving any risk to the 
#safety of any drilling venture, drilling rig or its crew or any other third party.  The 
#Customer has full responsibility for all drilling, completion and production operation.  
#Halliburton makes no representations or warranties, either expressed or 
#implied, including, but not limited to, the implied warranties of merchantability or fitness 
#for a particular purpose, with respect to the services rendered.  In no event will 
#Halliburton be liable for failure to obtain any particular results or for 
#any damages, including, but not limited to, indirect, special or consequential damages, 
#resulting from the use of any information or interpretation provided by Halliburton.
#
~A           TIME           GTDEPTH  GTPQH  GTTQ  GTTN   GTET   GTTVD  
# ...
   13:24:17.858.29-Jan-2021 4712.01 3106.54 81.30 11.00 339.02 2590.47
   13:24:18.058.29-Jan-2021 4712.01 3106.54 81.30 11.00 339.22 2590.47
   13:24:18.258.29-Jan-2021 4712.01 3106.71 81.30 11.00 339.42 2590.47
   13:24:18.458.29-Jan-2021 4712.01 3106.61 81.30 11.00 339.62 2590.47
   13:24:18.658.29-Jan-2021 4712.01 3106.58 81.30 11.00 339.82 2590.47
   13:24:18.858.29-Jan-2021 4712.01 3106.58 81.30 11.00 340.02 2590.47
   13:24:19.058.29-Jan-2021 4712.01 3106.58 81.30 11.00 340.22 2590.47
   13:24:19.258.29-Jan-2021 4712.01 3106.76 81.30 11.00 340.42 2590.47
   13:24:19.458.29-Jan-2021 4712.01 3106.60 81.30 11.00 340.62 2590.47
   13:24:19.658.29-Jan-2021 4712.01 3106.52 81.30 11.00 340.82 2590.47
   13:24:19.858.29-Jan-2021 4712.01 3106.66 81.30 11.00 341.02 2590.47
   13:24:20.058.29-Jan-2021 4712.01 3106.66 81.30 11.00 341.22 2590.47
   13:24:20.258.29-Jan-2021 4712.01 3106.65 81.30 11.00 341.42 2590.47
   13:24:20.458.29-Jan-2021 4712.01 3106.52 81.30 11.00 341.62 2590.47
   13:24:20.658.29-Jan-2021 4712.01 3106.64 81.30 11.00 341.82 2590.47
   13:24:20.858.29-Jan-2021 4712.01 3106.45 81.29 11.00 342.02 2590.47
   13:24:21.058.29-Jan-2021 4712.01 3106.45 81.29 11.00 342.22 2590.47
   13:24:21.258.29-Jan-2021 4712.01 3106.62 81.29 11.00 342.42 2590.47
   13:24:21.458.29-Jan-2021 4712.01 3106.53 81.29 11.00 342.62 2590.47
   13:24:21.658.29-Jan-2021 4712.01 3106.65 81.29 11.00 342.82 2590.47
   13:24:21.858.29-Jan-2021 4712.01 3106.57 81.29 11.00 343.02 2590.47
   13:24:22.058.29-Jan-2021 4712.01 3106.57 81.29 11.00 343.22 2590.47
   13:24:22.258.29-Jan-2021 4712.01 3106.57 81.29 11.00 343.42 2590.47
   13:24:22.458.29-Jan-2021 4712.01 3106.58 81.29 11.00 343.62 2590.47
   13:24:22.658.29-Jan-2021 4712.01 3106.58 81.29 11.00 343.82 2590.47
   13:24:22.858.29-Jan-2021 4712.01 3106.58 81.29 11.00 344.02 2590.47
   13:24:23.058.29-Jan-2021 4712.01 3106.58 81.29 11.00 344.22 2590.47
   13:24:23.258.29-Jan-2021 4712.01 3106.56 81.29 11.00 344.42 2590.47
   13:24:23.458.29-Jan-2021 4712.01 3106.58 81.29 11.00 344.62 2590.47
   13:24:23.658.29-Jan-2021 4712.01 3106.57 81.29 11.00 344.82 2590.47
   13:24:23.858.29-Jan-2021 4712.01 3106.56 81.29 11.00 345.02 2590.47
   13:24:24.058.29-Jan-2021 4712.01 3106.56 81.29 11.00 345.22 2590.47
   13:24:24.258.29-Jan-2021 4712.01 3106.57 81.29 11.00 345.42 2590.47
   13:24:24.458.29-Jan-2021 4712.01 3106.41 81.28 11.00 345.62 2590.47
   13:24:24.658.29-Jan-2021 4712.01 3106.75 81.28 11.00 345.82 2590.47
   13:24:24.858.29-Jan-2021 4712.01 3106.61 81.28 11.00 346.02 2590.47
   13:24:25.058.29-Jan-2021 4712.01 3106.61 81.28 11.00 346.22 2590.47
   13:24:25.258.29-Jan-2021 4712.01 3106.63 81.28 11.00 346.42 2590.47
   13:24:25.458.29-Jan-2021 4712.01 3107.98 81.28 11.00 346.62 2590.47
   13:24:25.658.29-Jan-2021 4712.01 3113.69 81.28 11.00 346.82 2590.47
   13:24:25.858.29-Jan-2021 4712.01 3159.52 81.28 11.00 347.02 2590.47
   13:24:26.058.29-Jan-2021 4712.01 3159.52 81.28 11.00 347.22 2590.47
   13:24:26.258.29-Jan-2021 4712.01 5663.02 81.28 11.00 347.42 2590.47
   13:24:26.458.29-Jan-2021 4712.01 5663.31 81.28 11.00 347.62 2590.47
   13:24:26.658.29-Jan-2021 4712.01 5661.87 81.28 11.00 347.82 2590.47
   13:24:26.858.29-Jan-2021 4712.01 5661.89 81.28 11.00 348.02 2590.47
   13:24:27.058.29-Jan-2021 4712.01 5661.89 81.28 11.00 348.22 2590.47
   13:24:27.258.29-Jan-2021 4712.01 5663.13 81.28 11.00 348.42 2590.47
   13:24:27.458.29-Jan-2021 4712.01 5663.71 81.28 11.00 348.62 2590.47
   13:24:27.659.29-Jan-2021 4712.01 5657.93 81.28 11.00 348.82 2590.47
   13:24:27.859.29-Jan-2021 4712.01 5668.59 81.28 11.00 349.02 2590.47
   13:24:28.059.29-Jan-2021 4712.01 5668.59 81.28 11.00 349.22 2590.47
   13:24:28.259.29-Jan-2021 4712.01 5666.71 81.28 11.00 349.42 2590.47
   13:24:28.459.29-Jan-2021 4712.01 5662.27 81.27 11.00 349.62 2590.47
   13:24:28.659.29-Jan-2021 4712.01 5666.26 81.27 11.00 349.82 2590.47
   13:24:28.859.29-Jan-2021 4712.01 5668.99 81.27 11.00 350.02 2590.47
   13:24:29.059.29-Jan-2021 4712.01 5668.99 81.27 11.00 350.22 2590.47
   13:24:29.259.29-Jan-2021 4712.01 5665.03 81.27 11.00 350.42 2590.47
   13:24:29.459.29-Jan-2021 4712.01 5662.10 81.27 11.00 350.62 2590.47
   13:24:29.659.29-Jan-2021 4712.01 5673.16 81.27 11.00 350.82 2590.47
   13:24:29.859.29-Jan-2021 4712.01 5669.09 81.27 11.00 351.02 2590.47
   13:24:30.059.29-Jan-2021 4712.01 5669.09 81.27 11.00 351.22 2590.47
   13:24:30.259.29-Jan-2021 4712.01 5663.37 81.27 11.00 351.42 2590.47
   13:24:30.459.29-Jan-2021 4712.01 5670.19 81.27 11.00 351.62 2590.47
   13:24:30.659.29-Jan-2021 4712.01 5671.64 81.27 11.00 351.82 2590.47
   13:24:30.859.29-Jan-2021 4712.01 5663.91 81.27 11.00 352.02 2590.47
   13:24:31.059.29-Jan-2021 4712.01 5663.91 81.27 11.00 352.22 2590.47
   13:24:31.259.29-Jan-2021 4712.01 5662.93 81.27 11.00 352.42 2590.47
   13:24:31.459.29-Jan-2021 4712.01 5673.61 81.27 11.00 352.62 2590.47
   13:24:31.659.29-Jan-2021 4712.01 5668.89 81.27 11.00 352.82 2590.47
   13:24:31.859.29-Jan-2021 4712.01 5668.29 81.27 11.00 353.02 2590.47
   13:24:32.059.29-Jan-2021 4712.01 5668.29 81.27 11.00 353.22 2590.47
   13:24:32.259.29-Jan-2021 4712.01 5669.44 81.27 11.00 353.42 2590.47
   13:24:32.459.29-Jan-2021 4712.01 5670.06 81.27 11.00 353.62 2590.47
   13:24:32.659.29-Jan-2021 4712.01 5669.01 81.27 11.00 353.82 2590.47
   13:24:32.859.29-Jan-2021 4712.01 5670.33 81.27 11.00 354.02 2590.47
   13:24:33.059.29-Jan-2021 4712.01 5670.33 81.27 11.00 354.22 2590.47
   13:24:33.259.29-Jan-2021 4712.01 5669.88 81.27 11.00 354.42 2590.47
   13:24:33.459.29-Jan-2021 4712.01 5669.44 81.27 11.00 354.62 2590.47
   13:24:33.659.29-Jan-2021 4712.01 5669.08 81.27 11.00 354.82 2590.47
   13:24:33.859.29-Jan-2021 4712.01 5669.42 81.27 11.00 355.02 2590.47
   13:24:34.059.29-Jan-2021 4712.01 5669.42 81.27 11.00 355.22 2590.47
   13:24:34.259.29-Jan-2021 4712.01 5669.13 81.27 11.00 355.42 2590.47
   13:24:34.459.29-Jan-2021 4712.01 5669.74 81.27 11.00 355.62 2590.47
   13:24:34.659.29-Jan-2021 4712.01 5669.63 81.27 11.00 355.82 2590.47
   13:24:34.859.29-Jan-2021 4712.01 5662.57 81.27 11.00 356.03 2590.47
   13:24:35.059.29-Jan-2021 4712.01 5662.57 81.27 11.00 356.23 2590.47
   13:24:35.259.29-Jan-2021 4712.01 5669.86 81.27 11.00 356.43 2590.47
   13:24:35.459.29-Jan-2021 4712.01 5668.44 81.27 11.00 356.63 2590.47
   13:24:35.659.29-Jan-2021 4712.01 5667.89 81.27 11.00 356.83 2590.47
   13:24:35.859.29-Jan-2021 4712.01 5669.40 81.27 11.00 357.03 2590.47
   13:24:36.059.29-Jan-2021 4712.01 5669.40 81.27 11.00 357.23 2590.47
   13:24:36.259.29-Jan-2021 4712.01 5671.15 81.27 11.00 357.43 2590.47
   13:24:36.459.29-Jan-2021 4712.01 5669.29 81.27 11.00 357.63 2590.47
   13:24:36.659.29-Jan-2021 4712.01 5669.64 81.27 11.00 357.83 2590.47
   13:24:36.859.29-Jan-2021 4712.01 5670.19 81.27 11.00 358.03 2590.47
   13:24:37.059.29-Jan-2021 4712.01 5670.19 81.27 11.00 358.23 2590.47
   13:24:37.259.29-Jan-2021 4712.01 5668.76 81.27 11.00 358.43 2590.47
   13:24:37.459.29-Jan-2021 4712.01 5670.16 81.27 11.00 358.63 2590.47
   13:24:37.659.29-Jan-2021 4712.01 5669.22 81.27 11.00 358.83 2590.47
   13:24:37.859.29-Jan-2021 4712.01 5669.23 81.26 11.00 359.03 2590.47
   13:24:38.059.29-Jan-2021 4712.01 5669.23 81.26 11.00 359.23 2590.47
   13:24:38.259.29-Jan-2021 4712.01 5672.48 81.26 11.00 359.43 2590.47
   13:24:38.459.29-Jan-2021 4712.01 5669.60 81.26 11.00 359.63 2590.47
   13:24:38.659.29-Jan-2021 4712.01 5668.50 81.26 11.00 359.83 2590.47
   13:24:38.859.29-Jan-2021 4712.01 5664.42 81.26 11.00 360.03 2590.47
   13:24:39.059.29-Jan-2021 4712.01 5664.42 81.26 11.00 360.23 2590.47
   13:24:39.259.29-Jan-2021 4712.01 5670.83 81.26 11.00 360.43 2590.47
   13:24:39.459.29-Jan-2021 4712.01 5670.03 81.26 11.00 360.63 2590.47
   13:24:39.659.29-Jan-2021 4712.01 5659.09 81.26 11.00 360.83 2590.47
   13:24:39.859.29-Jan-2021 4712.01 5673.36 81.26 11.00 361.03 2590.47
   13:24:40.059.29-Jan-2021 4712.01 5673.36 81.26 11.00 361.23 2590.47
   13:24:40.259.29-Jan-2021 4712.01 5668.78 81.26 11.00 361.43 2590.47
