~Version Information
 VERS.                  2.0:   CWLS log ASCII Standard -VERSION 2.0
 WRAP.                   NO:   One line per depth step
~Well Information Block
#MNEM.UNIT     VALUE/NAME     DESCRIPTION
#---------     -----------    ---------------------------
 STRT.S             20:44:12 29-Jan-21: START TIME 20:44:12 29-Jan-21
 STOP.S             20:50:42 29-Jan-21: STOP TIME  20:50:42 29-Jan-21
 STEP.S                   0.00: STEP TIME
 NULL.                 -999.25: NULL VALUE
 DFWT.                        :  DIST FWL TEXT
 DFST.                        :  DIST FSL TEXT
 DMF .             Drill Floor:  DRILL MEAS FROM
 STIM.      00.00.00 25-Sep-20:  START TIME
 DATE.      16.12.48 31-Jan-21:  END TIME
 SPUD.               20-Sep-20:  SPUD DATE
 NREF.                    Grid:  NORTH REFERENCE
 HPTY.       Minimum Curvature:  HOLE POS TYPE
 DMOD.             Drill Model:  DRILL MOD DESC
 SVYD.                  Survey:  SURVEY DESC
 ILTD.               Lithology:  INTERP LTH DESC
 FTOP.          Formation Tops:  FORM TOPS DESC
 RIG .              East Azeri:  RIG NAME
 PDAT.          Mean Sea Level:  PERMANENT DATUM
 FLD .                     ACG:  FIELD NAME
 SON .        AZ-XX-0906591820:  JOB NUMBER
 CTRY.              Azerbaijan:  COUNTRY NAME
 WELL.                     D37:  WELL NAME
 SRVC.     Turan Drilling & Engineering:  CONTRACTOR
 COMP.     BP Exploration (Caspian Sea) ltd.:  COMPANY
 WTYP.                Deviated:  WELL TYPE
 MDS .        Operator Entered:  MAG DATA SOURCE
 UWI .                     N/A:  UNIQUE WELL IDENTIFIER
 API .                     N/A:  API NUMBER
 BASE.              Azerbaijan:  LOGGING EQUIPMENT BASE LOCATION
 REGN.                   EESSA:  REGION
 PROV.                    Baku:  PROVINCE
 STAT.                    Baku:  STATE NAME
 MWDS.                    Baku:  MWD SHOP
 JOBN.        AZ-XX-0906591820:  JOB TICKET NUMB
 DOE .                     N/A:  DOE NUMBER
 DCON.         Sperry Drilling:  DIRECTNL CONTR
 UNIT.                     N/A:  LOGGING EQUIPMENT ID
 CNTY.                        :  COUNTY
 LOC .                        :  LOCATION
 LMF .             Drill Floor:  LOG MEASURED FROM
 TVDS.m                  43.60:  TVDSS CORRECTN
 LATI.deg                40.02:  LATITUDE
 LONG.deg                51.45:  LONGITUDE
 WHNS.m                  11.04:  WELL HEAD N/S
 WHEW.m                 -12.38:  WELL HEAD E/W
 UTMX.m              538763.98:  UTM X
 UTMY.m             4431880.20:  UTM Y
 DFWL.m                   0.00:  DISTANCE FWL
 DFSL.m                   0.00:  DISTANCE FSL
 SDEP.m                 300.00:  START DEPTH
 TDD .m                4900.01:  TOTAL DEPTH (DRILLER)
 VSDR.deg               185.64:  VERT SEC DIRECT
 GVFD.g                   1.00:  GRAVITY FIELD
 MFLD.nT              50301.00:  MAGNETIC FIELD
 MDIP.deg                59.46:  MAGNETIC DIP
 MDEC.deg                 6.43:  MAGNETIC DECL
 GRDC.deg                 0.29:  GRID CORRECTION
 AZTC.deg                 6.14:  AZM TOTAL CORR
 EPD .m                   0.00:  ELEVATION
 EGL .m                   0.00:  GROUND ELEVATION
 WDMS.m                 151.80:  WD ELEV
 APD .m                  43.60:  DEPTH ABOVE PD
 DEP .m                 571.69:  DEPTH
 AGAP.m                  43.60:  AIR GAP
 VSEW.m                 -12.38:  VERT SEC E/W
 VSNS.m                  11.04:  VERT SEC N/S
 EKB .m                  43.60:  KB ELEVATION
 EDF .m                  43.60:  DF ELEVATION
 TDL .m                 412.00:  TOTAL DEPTH (LOGGER)
 VSC .                       0:  VS TO CLOSURE
 MAGU.                 1849300:  MAGUTM CHECKSUM
~Parameter Information Block
#MNEM.UNIT       Value        Description
#---------     -----------    ---------------------------
 AV  .mps                 2.21:  Ann Velocity 
 AVMX.mps                 2.53:  Max Ann Veloc 
 AZIF.deg               144.83:  Azm, Final 
 BHAT.        Rotary Steerable:  BHA Type 
 BROT.°/30m              -0.52:  Build Rotating 
 BS  .in                  6.50:  Bit Size 
 BTPL.psig              209.00:  Bit Press Loss 
 CABU.                      No:  Customer Abuse 
 CGEO.        Ali Isfandiyarov:  Customer Geo 
 TCS .hr                 61.31:  Time Ciculation Ended 
 CV  .mps                 4.66:  Crit Velocity 
 CVMX.mps                 5.02:  Max Crit Veloc 
 DD1 .          Fariz Nahmatov:  Direct Drillr 1 
 DD2 .            Musa Ahmadov:  Direct Drillr 2 
 DDSV.               Geo-Pilot:  DD Service 
 DEFF.%                 100.00:  % Det Eff 
 DLRX.°/30m               1.44:  Dogleg Rot Max 
 DLSO.°/30m               0.83:  Dogleg Oriented 
 DLSX.°/30m               1.44:  Dogleg Str Max 
 DRET.      08.30.00 30-Jan-21:  Drill End Time 
 DRST.      21.15.00 27-Jan-21:  Drill Start Tim 
 DTIM.hr                 37.28:  Time Drilling 
 EDEP.m                4867.01:  End Depth 
 ENG1.          Rasim Hashimov:  Engineer 1 
 ENG2.         Almaz Almadatov:  Engineer 2 
 ENG3.        Tamerlan Ahmadov:  Engineer 3 
 ETIM.      22.41.04 31-Jan-21:  End Time 
 FLOI.gpm               400.00:  Flow In 
 FLON.gpm               300.00:  Flow In Min 
 FLOS.cptm                0.00:  Fluid Loss 
 FLOX.gpm               400.00:  Flow In Max 
 HFLO.                      No:  High Flow 
 HPRE.                      No:  High Pressure 
 HTEM.                      No:  High Temp 
 HYDO.m                   1.80:  Hydro Offset 
 IFIN.deg                65.63:  Inc, Final 
 IMAX.deg                66.77:  Inc Max 
 IMIN.deg                65.61:  Inc Min 
 IMND.m                4612.67:  Inc Min Depth 
 IMXD.m                4811.63:  Inc Max Depth 
 JARR.                      No:  Jarring 
 LETM.      08.30.00 30-Jan-21:  Log End Time 
 LOST.hr                     0:  Lost Rig Time 
 LSTM.      21.15.00 27-Jan-21:  Log Start Time 
 MDCL.ppm             41000.00:  Mud Chlorides 
 MDES.     Inversion Oil/Synthetic:  Mud Desc 
 DFD .sg                  1.40:  Mud Density 
 MDMN.sg                  1.40:  Dens Mud Min 
 MDMX.sg                  1.40:  Dens Mud Max 
 MOIL.                      53:  Run Mud Oil % 
 MOWR.                   66:34:  Run Mud OWR 
 MSND.                     0.2:  Run Mud Sand % 
 MSOL.                    17.9:  Run Mud Solids% 
 DFV .spqt               77.00:  Mud Viscosity 
 MWOD.in                  4.75:  MWD Tool OD 
 MWSI.                      No:  Serv Intrp, MWD 
 OTIM.hr                110.38:  Time Operating 
 PCON.           Look Like New:  Pad Condition 
 PMAX.psia             5300.00:  Press Op, Max 
 PV  .cP                 57.00:  Mud PV 
 RUN .                    1200:  Run Number 
 ROPA.m/hr               13.00:  ROP Avg 
 ROPN.m/hr                9.00:  ROP Min 
 ROPX.m/hr               15.00:  ROP Max 
 RPMA.rpm               120.00:  RPM Surface Avg 
 RPMN.rpm               100.00:  RPM Surface Min 
 RPMX.rpm               135.00:  RPM Surface Max 
 RRUN.                    1200:  Rig Run Number 
 RTIM.hr                  2.65:  Time Reaming 
 SAZI.deg               145.04:  Azm, Start 
 SDEP.m                4455.01:  Start Depth 
 SIDD.                      No:  Serv Intrp, DD 
 SINC.deg                65.83:  Inc, Start 
 SPPA.psig             5037.00:  SPP Avg 
 SPPN.psig             4430.00:  SPP Min 
 SPPX.psig             5300.00:  SPP Max 
 STIM.      22.41.04 26-Jan-21:  Start Time 
 SVCS.                 DD, MWD:  Services 
 SVER.                    9.20:  Sperry Version 
 TDAT.m                 412.00:  Tot Depth Attmp 
 TDDF.                      No:  Trip for DD 
 TDLG.m                 412.00:  Tot Depth Loggd 
 TFF .                      No:  Trip for Fail 
 TQAA.f-kp               15.00:  Torque Abs Avg 
 TQAN.f-kp               12.00:  Torque Abs Min 
 TQAX.f-kp               17.00:  Torque Abs Max 
 TRRT.°/30m               1.18:  Turn Rotating 
 MRT .                     ADR:  Maximum Recorded Temperature 
 TTMX.degC               88.24:  Max Tool Temp 
 VS01.                90619458:  Virtual Str1 SN 
 VS02.                90519326:  Virtual Str2 SN 
 VS03.                90522176:  Virtual Str3 SN 
 VS04.                90512683:  Virtual Str4 SN 
 WBMN.klb                 1.00:  WOB Min 
 WITN.           Murad Giluyev:  Customer Rep 
 WITN.     Kamran Kemberlinski:  Customer Rep 2 
 WOBA.klb                 5.00:  WOB Avg 
 WOBX.klb                 9.00:  WOB Max 
 YP  .lhf2               41.00:  Yield Point 
~Curve Information Block
#MNEM.UNIT                 API CODE     Curve Description
#---------               -----------    ---------------------------
 TIME.HHMMSS            00 000 000 000:  GT Time & Date
 GTDEPTH.m              00 000 000 000:  GT Depth
 GTPQH.psia             00 000 000 000:  GT HR Quartz Pressure
 GTTQ.degC              00 000 000 000:  GT Quartz Temperature
 GTTN.NONE              00 000 000 000:  GT Test Number
 GTET.sec               00 000 000 000:  GT Elapsed Test Time
 GTTVD.m                00 000 000 000:  GT True Vertical Depth
#Other Information
#
#WARRANTY: Halliburton will use its best efforts to furnish customers with 
#accurate information and interpretations that are part of, and incident to, the services 
#provided.  However, Halliburton cannot and does not warrant the accuracy 
#or correctness of such information and interpretations.  Under no circumstances should any 
#such information or interpretation be relied upon as the sole basis for any drilling, 
#completion, production, or financial decision or any procedure involving any risk to the 
#safety of any drilling venture, drilling rig or its crew or any other third party.  The 
#Customer has full responsibility for all drilling, completion and production operation.  
#Halliburton makes no representations or warranties, either expressed or 
#implied, including, but not limited to, the implied warranties of merchantability or fitness 
#for a particular purpose, with respect to the services rendered.  In no event will 
#Halliburton be liable for failure to obtain any particular results or for 
#any damages, including, but not limited to, indirect, special or consequential damages, 
#resulting from the use of any information or interpretation provided by Halliburton.
#
~A           TIME           GTDEPTH  GTPQH  GTTQ  GTTN   GTET   GTTVD  
# ...
   20:49:06.433.29-Jan-2021 4766.51 3131.25 82.94 13.00 293.83 2612.24
   20:49:06.633.29-Jan-2021 4766.51 3131.25 82.94 13.00 294.03 2612.24
   20:49:06.833.29-Jan-2021 4766.51 3131.25 82.94 13.00 294.23 2612.24
   20:49:07.033.29-Jan-2021 4766.51 3131.25 82.94 13.00 294.43 2612.24
   20:49:07.233.29-Jan-2021 4766.51 3131.25 82.94 13.00 294.63 2612.24
   20:49:07.433.29-Jan-2021 4766.51 3131.21 82.94 13.00 294.83 2612.24
   20:49:07.633.29-Jan-2021 4766.51 3131.30 82.94 13.00 295.03 2612.24
   20:49:07.833.29-Jan-2021 4766.51 3131.30 82.94 13.00 295.23 2612.24
   20:49:08.033.29-Jan-2021 4766.51 3131.27 82.94 13.00 295.43 2612.24
   20:49:08.233.29-Jan-2021 4766.51 3131.24 82.94 13.00 295.63 2612.24
   20:49:08.433.29-Jan-2021 4766.51 3131.29 82.94 13.00 295.83 2612.24
   20:49:08.633.29-Jan-2021 4766.51 3131.27 82.94 13.00 296.03 2612.24
   20:49:08.833.29-Jan-2021 4766.51 3131.27 82.94 13.00 296.23 2612.24
   20:49:09.033.29-Jan-2021 4766.51 3131.24 82.94 13.00 296.44 2612.24
   20:49:09.233.29-Jan-2021 4766.51 3131.27 82.93 13.00 296.64 2612.24
   20:49:09.433.29-Jan-2021 4766.51 3131.25 82.93 13.00 296.84 2612.24
   20:49:09.633.29-Jan-2021 4766.51 3131.29 82.93 13.00 297.04 2612.24
   20:49:09.833.29-Jan-2021 4766.51 3131.29 82.93 13.00 297.24 2612.24
   20:49:10.033.29-Jan-2021 4766.51 3131.27 82.93 13.00 297.44 2612.24
   20:49:10.233.29-Jan-2021 4766.51 3131.25 82.93 13.00 297.64 2612.24
   20:49:10.433.29-Jan-2021 4766.51 3131.28 82.93 13.00 297.84 2612.24
   20:49:10.633.29-Jan-2021 4766.51 3131.27 82.93 13.00 298.04 2612.24
   20:49:10.833.29-Jan-2021 4766.51 3131.27 82.93 13.00 298.24 2612.24
   20:49:11.033.29-Jan-2021 4766.51 3131.24 82.93 13.00 298.44 2612.24
   20:49:11.233.29-Jan-2021 4766.51 3131.28 82.93 13.00 298.64 2612.24
   20:49:11.434.29-Jan-2021 4766.51 3131.26 82.93 13.00 298.84 2612.24
   20:49:11.634.29-Jan-2021 4766.51 3131.27 82.93 13.00 299.04 2612.24
   20:49:11.834.29-Jan-2021 4766.51 3131.27 82.93 13.00 299.24 2612.24
   20:49:12.034.29-Jan-2021 4766.51 3131.26 82.93 13.00 299.44 2612.24
   20:49:12.234.29-Jan-2021 4766.51 3131.25 82.93 13.00 299.64 2612.24
   20:49:12.434.29-Jan-2021 4766.51 3131.26 82.93 13.00 299.84 2612.24
   20:49:12.634.29-Jan-2021 4766.51 3131.26 82.93 13.00 300.04 2612.24
   20:49:12.834.29-Jan-2021 4766.51 3131.26 82.93 13.00 300.24 2612.24
   20:49:13.034.29-Jan-2021 4766.51 3131.25 82.92 13.00 300.44 2612.24
   20:49:13.234.29-Jan-2021 4766.51 3131.24 82.92 13.00 300.64 2612.24
   20:49:13.434.29-Jan-2021 4766.51 3131.26 82.92 13.00 300.84 2612.24
   20:49:13.634.29-Jan-2021 4766.51 3131.25 82.92 13.00 301.04 2612.24
   20:49:13.834.29-Jan-2021 4766.51 3131.25 82.92 13.00 301.24 2612.24
   20:49:14.034.29-Jan-2021 4766.51 3131.24 82.92 13.00 301.44 2612.24
   20:49:14.234.29-Jan-2021 4766.51 3131.25 82.92 13.00 301.64 2612.24
   20:49:14.434.29-Jan-2021 4766.51 3131.25 82.92 13.00 301.84 2612.24
   20:49:14.634.29-Jan-2021 4766.51 3131.25 82.92 13.00 302.04 2612.24
   20:49:14.834.29-Jan-2021 4766.51 3131.25 82.92 13.00 302.24 2612.24
   20:49:15.034.29-Jan-2021 4766.51 3131.24 82.92 13.00 302.44 2612.24
   20:49:15.234.29-Jan-2021 4766.51 3131.27 82.92 13.00 302.64 2612.24
   20:49:15.434.29-Jan-2021 4766.51 3131.26 82.92 13.00 302.84 2612.24
   20:49:15.634.29-Jan-2021 4766.51 3131.26 82.92 13.00 303.04 2612.24
   20:49:15.834.29-Jan-2021 4766.51 3131.26 82.92 13.00 303.24 2612.24
   20:49:16.034.29-Jan-2021 4766.51 3131.27 82.92 13.00 303.44 2612.24
   20:49:16.234.29-Jan-2021 4766.51 3131.25 82.92 13.00 303.64 2612.24
   20:49:16.434.29-Jan-2021 4766.51 3131.26 82.91 13.00 303.84 2612.24
   20:49:16.634.29-Jan-2021 4766.51 3131.24 82.91 13.00 304.04 2612.24
   20:49:16.834.29-Jan-2021 4766.51 3131.24 82.91 13.00 304.24 2612.24
   20:49:17.034.29-Jan-2021 4766.51 3131.24 82.91 13.00 304.44 2612.24
   20:49:17.234.29-Jan-2021 4766.51 3131.25 82.91 13.00 304.64 2612.24
   20:49:17.434.29-Jan-2021 4766.51 3131.24 82.91 13.00 304.84 2612.24
   20:49:17.634.29-Jan-2021 4766.51 3131.25 82.91 13.00 305.04 2612.24
   20:49:17.834.29-Jan-2021 4766.51 3131.25 82.91 13.00 305.24 2612.24
   20:49:18.034.29-Jan-2021 4766.51 3131.24 82.91 13.00 305.44 2612.24
   20:49:18.234.29-Jan-2021 4766.51 3131.24 82.91 13.00 305.64 2612.24
   20:49:18.434.29-Jan-2021 4766.51 3131.26 82.91 13.00 305.84 2612.24
   20:49:18.634.29-Jan-2021 4766.51 3131.27 82.91 13.00 306.04 2612.24
   20:49:18.834.29-Jan-2021 4766.51 3131.27 82.91 13.00 306.24 2612.24
   20:49:19.034.29-Jan-2021 4766.51 3131.24 82.91 13.00 306.44 2612.24
   20:49:19.234.29-Jan-2021 4766.51 3131.24 82.91 13.00 306.64 2612.24
   20:49:19.434.29-Jan-2021 4766.51 3131.27 82.91 13.00 306.84 2612.24
   20:49:19.634.29-Jan-2021 4766.51 3131.26 82.91 13.00 307.04 2612.24
   20:49:19.835.29-Jan-2021 4766.51 3131.26 82.91 13.00 307.24 2612.24
   20:49:20.035.29-Jan-2021 4766.51 3131.25 82.90 13.00 307.44 2612.24
   20:49:20.235.29-Jan-2021 4766.51 3131.20 82.90 13.00 307.64 2612.24
   20:49:20.435.29-Jan-2021 4766.51 3131.30 82.90 13.00 307.84 2612.24
   20:49:20.635.29-Jan-2021 4766.51 3131.27 82.90 13.00 308.04 2612.24
   20:49:20.835.29-Jan-2021 4766.51 3131.27 82.90 13.00 308.24 2612.24
   20:49:21.035.29-Jan-2021 4766.51 3131.24 82.90 13.00 308.44 2612.24
   20:49:21.235.29-Jan-2021 4766.51 3131.25 82.90 13.00 308.64 2612.24
   20:49:21.435.29-Jan-2021 4766.51 3131.28 82.90 13.00 308.84 2612.24
   20:49:21.635.29-Jan-2021 4766.51 3131.27 82.90 13.00 309.04 2612.24
   20:49:21.835.29-Jan-2021 4766.51 3131.27 82.90 13.00 309.24 2612.24
   20:49:22.035.29-Jan-2021 4766.51 3131.24 82.90 13.00 309.44 2612.24
   20:49:22.235.29-Jan-2021 4766.51 3131.25 82.90 13.00 309.64 2612.24
   20:49:22.435.29-Jan-2021 4766.51 3131.25 82.90 13.00 309.84 2612.24
   20:49:22.635.29-Jan-2021 4766.51 3131.26 82.90 13.00 310.04 2612.24
   20:49:22.835.29-Jan-2021 4766.51 3131.26 82.90 13.00 310.24 2612.24
   20:49:23.035.29-Jan-2021 4766.51 3131.26 82.90 13.00 310.44 2612.24
   20:49:23.235.29-Jan-2021 4766.51 3131.25 82.90 13.00 310.64 2612.24
   20:49:23.435.29-Jan-2021 4766.51 3131.25 82.90 13.00 310.84 2612.24
   20:49:23.635.29-Jan-2021 4766.51 3131.25 82.90 13.00 311.04 2612.24
   20:49:23.835.29-Jan-2021 4766.51 3131.25 82.90 13.00 311.24 2612.24
   20:49:24.035.29-Jan-2021 4766.51 3131.24 82.89 13.00 311.44 2612.24
   20:49:24.235.29-Jan-2021 4766.51 3131.25 82.89 13.00 311.64 2612.24
   20:49:24.435.29-Jan-2021 4766.51 3131.24 82.89 13.00 311.84 2612.24
   20:49:24.635.29-Jan-2021 4766.51 3131.24 82.89 13.00 312.04 2612.24
   20:49:24.835.29-Jan-2021 4766.51 3131.24 82.89 13.00 312.24 2612.24
   20:49:25.035.29-Jan-2021 4766.51 3131.24 82.89 13.00 312.44 2612.24
   20:49:25.235.29-Jan-2021 4766.51 3131.23 82.89 13.00 312.64 2612.24
   20:49:25.435.29-Jan-2021 4766.51 3131.25 82.89 13.00 312.84 2612.24
   20:49:25.635.29-Jan-2021 4766.51 3131.23 82.89 13.00 313.04 2612.24
   20:49:25.835.29-Jan-2021 4766.51 3131.23 82.89 13.00 313.24 2612.24
   20:49:26.035.29-Jan-2021 4766.51 3131.23 82.89 13.00 313.44 2612.24
   20:49:26.235.29-Jan-2021 4766.51 3131.26 82.89 13.00 313.64 2612.24
   20:49:26.435.29-Jan-2021 4766.51 3131.25 82.89 13.00 313.84 2612.24
   20:49:26.635.29-Jan-2021 4766.51 3131.27 82.89 13.00 314.04 2612.24
   20:49:26.835.29-Jan-2021 4766.51 3131.27 82.89 13.00 314.24 2612.24
   20:49:27.035.29-Jan-2021 4766.51 3131.25 82.89 13.00 314.44 2612.24
   20:49:27.235.29-Jan-2021 4766.51 3131.25 82.89 13.00 314.64 2612.24
   20:49:27.435.29-Jan-2021 4766.51 3131.25 82.88 13.00 314.84 2612.24
   20:49:27.635.29-Jan-2021 4766.51 3131.23 82.88 13.00 315.04 2612.24
   20:49:27.835.29-Jan-2021 4766.51 3131.23 82.88 13.00 315.24 2612.24
   20:49:28.035.29-Jan-2021 4766.51 3131.25 82.88 13.00 315.44 2612.24
   20:49:28.236.29-Jan-2021 4766.51 3131.23 82.88 13.00 315.64 2612.24
   20:49:28.436.29-Jan-2021 4766.51 3131.24 82.88 13.00 315.84 2612.24
   20:49:28.636.29-Jan-2021 4766.51 3131.23 82.88 13.00 316.04 2612.24
   20:49:28.836.29-Jan-2021 4766.51 3131.23 82.88 13.00 316.24 2612.24
