~Version Information
 VERS.                  2.0:   CWLS log ASCII Standard -VERSION 2.0
 WRAP.                   NO:   One line per depth step
~Well Information Block
#MNEM.UNIT     VALUE/NAME     DESCRIPTION
#---------     -----------    ---------------------------
 STRT.S             14:01:04 28-Jan-21: START TIME 14:01:04 28-Jan-21
 STOP.S             14:07:34 28-Jan-21: STOP TIME  14:07:34 28-Jan-21
 STEP.S                   0.00: STEP TIME
 NULL.                 -999.25: NULL VALUE
 DFWT.                        :  DIST FWL TEXT
 DFST.                        :  DIST FSL TEXT
 DMF .             Drill Floor:  DRILL MEAS FROM
 STIM.      00.00.00 25-Sep-20:  START TIME
 DATE.      16.12.48 31-Jan-21:  END TIME
 SPUD.               20-Sep-20:  SPUD DATE
 NREF.                    Grid:  NORTH REFERENCE
 HPTY.       Minimum Curvature:  HOLE POS TYPE
 DMOD.             Drill Model:  DRILL MOD DESC
 SVYD.                  Survey:  SURVEY DESC
 ILTD.               Lithology:  INTERP LTH DESC
 FTOP.          Formation Tops:  FORM TOPS DESC
 RIG .              East Azeri:  RIG NAME
 PDAT.          Mean Sea Level:  PERMANENT DATUM
 FLD .                     ACG:  FIELD NAME
 SON .        AZ-XX-0906591820:  JOB NUMBER
 CTRY.              Azerbaijan:  COUNTRY NAME
 WELL.                     D37:  WELL NAME
 SRVC.     Turan Drilling & Engineering:  CONTRACTOR
 COMP.     BP Exploration (Caspian Sea) ltd.:  COMPANY
 WTYP.                Deviated:  WELL TYPE
 MDS .        Operator Entered:  MAG DATA SOURCE
 UWI .                     N/A:  UNIQUE WELL IDENTIFIER
 API .                     N/A:  API NUMBER
 BASE.              Azerbaijan:  LOGGING EQUIPMENT BASE LOCATION
 REGN.                   EESSA:  REGION
 PROV.                    Baku:  PROVINCE
 STAT.                    Baku:  STATE NAME
 MWDS.                    Baku:  MWD SHOP
 JOBN.        AZ-XX-0906591820:  JOB TICKET NUMB
 DOE .                     N/A:  DOE NUMBER
 DCON.         Sperry Drilling:  DIRECTNL CONTR
 UNIT.                     N/A:  LOGGING EQUIPMENT ID
 CNTY.                        :  COUNTY
 LOC .                        :  LOCATION
 LMF .             Drill Floor:  LOG MEASURED FROM
 TVDS.m                  43.60:  TVDSS CORRECTN
 LATI.deg                40.02:  LATITUDE
 LONG.deg                51.45:  LONGITUDE
 WHNS.m                  11.04:  WELL HEAD N/S
 WHEW.m                 -12.38:  WELL HEAD E/W
 UTMX.m              538763.98:  UTM X
 UTMY.m             4431880.20:  UTM Y
 DFWL.m                   0.00:  DISTANCE FWL
 DFSL.m                   0.00:  DISTANCE FSL
 SDEP.m                 300.00:  START DEPTH
 TDD .m                4900.01:  TOTAL DEPTH (DRILLER)
 VSDR.deg               185.64:  VERT SEC DIRECT
 GVFD.g                   1.00:  GRAVITY FIELD
 MFLD.nT              50301.00:  MAGNETIC FIELD
 MDIP.deg                59.46:  MAGNETIC DIP
 MDEC.deg                 6.43:  MAGNETIC DECL
 GRDC.deg                 0.29:  GRID CORRECTION
 AZTC.deg                 6.14:  AZM TOTAL CORR
 EPD .m                   0.00:  ELEVATION
 EGL .m                   0.00:  GROUND ELEVATION
 WDMS.m                 151.80:  WD ELEV
 APD .m                  43.60:  DEPTH ABOVE PD
 DEP .m                 571.69:  DEPTH
 AGAP.m                  43.60:  AIR GAP
 VSEW.m                 -12.38:  VERT SEC E/W
 VSNS.m                  11.04:  VERT SEC N/S
 EKB .m                  43.60:  KB ELEVATION
 EDF .m                  43.60:  DF ELEVATION
 TDL .m                 412.00:  TOTAL DEPTH (LOGGER)
 VSC .                       0:  VS TO CLOSURE
 MAGU.                 1849300:  MAGUTM CHECKSUM
~Parameter Information Block
#MNEM.UNIT       Value        Description
#---------     -----------    ---------------------------
 AV  .mps                 2.21:  Ann Velocity 
 AVMX.mps                 2.53:  Max Ann Veloc 
 AZIF.deg               144.83:  Azm, Final 
 BHAT.        Rotary Steerable:  BHA Type 
 BROT.°/30m              -0.52:  Build Rotating 
 BS  .in                  6.50:  Bit Size 
 BTPL.psig              209.00:  Bit Press Loss 
 CABU.                      No:  Customer Abuse 
 CGEO.        Ali Isfandiyarov:  Customer Geo 
 COMM.                     T´U:  Run Comments 1 
 TCS .hr                 61.31:  Time Ciculation Ended 
 CV  .mps                 4.66:  Crit Velocity 
 CVMX.mps                 5.02:  Max Crit Veloc 
 DD1 .          Fariz Nahmatov:  Direct Drillr 1 
 DD2 .            Musa Ahmadov:  Direct Drillr 2 
 DDSV.               Geo-Pilot:  DD Service 
 DEFF.%                 100.00:  % Det Eff 
 DLRX.°/30m               1.44:  Dogleg Rot Max 
 DLSO.°/30m               0.83:  Dogleg Oriented 
 DLSX.°/30m               1.44:  Dogleg Str Max 
 DRET.      08.30.00 30-Jan-21:  Drill End Time 
 DRST.      21.15.00 27-Jan-21:  Drill Start Tim 
 DTIM.hr                 37.28:  Time Drilling 
 EDEP.m                4867.01:  End Depth 
 ENG1.          Rasim Hashimov:  Engineer 1 
 ENG2.         Almaz Almadatov:  Engineer 2 
 ENG3.        Tamerlan Ahmadov:  Engineer 3 
 ETIM.      22.41.04 31-Jan-21:  End Time 
 FLOI.gpm               400.00:  Flow In 
 FLON.gpm               300.00:  Flow In Min 
 FLOS.cptm                0.00:  Fluid Loss 
 FLOX.gpm               400.00:  Flow In Max 
 HFLO.                      No:  High Flow 
 HPRE.                      No:  High Pressure 
 HTEM.                      No:  High Temp 
 HYDO.m                   1.80:  Hydro Offset 
 IFIN.deg                65.63:  Inc, Final 
 IMAX.deg                66.77:  Inc Max 
 IMIN.deg                65.61:  Inc Min 
 IMND.m                4612.67:  Inc Min Depth 
 IMXD.m                4811.63:  Inc Max Depth 
 JARR.                      No:  Jarring 
 LETM.      08.30.00 30-Jan-21:  Log End Time 
 LOST.hr                     0:  Lost Rig Time 
 LSTM.      21.15.00 27-Jan-21:  Log Start Time 
 MDCL.ppm             41000.00:  Mud Chlorides 
 MDES.     Inversion Oil/Synthetic:  Mud Desc 
 DFD .sg                  1.40:  Mud Density 
 MDMN.sg                  1.40:  Dens Mud Min 
 MDMX.sg                  1.40:  Dens Mud Max 
 MOIL.                      53:  Run Mud Oil % 
 MOWR.                   66:34:  Run Mud OWR 
 MSND.                     0.2:  Run Mud Sand % 
 MSOL.                    17.9:  Run Mud Solids% 
 DFV .spqt               77.00:  Mud Viscosity 
 MWOD.in                  4.75:  MWD Tool OD 
 MWSI.                      No:  Serv Intrp, MWD 
 OTIM.hr                110.38:  Time Operating 
 PCON.           Look Like New:  Pad Condition 
 PMAX.psia             5300.00:  Press Op, Max 
 PV  .cP                 57.00:  Mud PV 
 RUN .                    1200:  Run Number 
 ROPA.m/hr               13.00:  ROP Avg 
 ROPN.m/hr                9.00:  ROP Min 
 ROPX.m/hr               15.00:  ROP Max 
 RPMA.rpm               120.00:  RPM Surface Avg 
 RPMN.rpm               100.00:  RPM Surface Min 
 RPMX.rpm               135.00:  RPM Surface Max 
 RRUN.                    1200:  Rig Run Number 
 RTIM.hr                  2.65:  Time Reaming 
 SAZI.deg               145.04:  Azm, Start 
 SDEP.m                4455.01:  Start Depth 
 SIDD.                      No:  Serv Intrp, DD 
 SINC.deg                65.83:  Inc, Start 
 SPPA.psig             5037.00:  SPP Avg 
 SPPN.psig             4430.00:  SPP Min 
 SPPX.psig             5300.00:  SPP Max 
 STIM.      22.41.04 26-Jan-21:  Start Time 
 SVCS.                 DD, MWD:  Services 
 SVER.                    9.20:  Sperry Version 
 TDAT.m                 412.00:  Tot Depth Attmp 
 TDDF.                      No:  Trip for DD 
 TDLG.m                 412.00:  Tot Depth Loggd 
 TFF .                      No:  Trip for Fail 
 TQAA.f-kp               15.00:  Torque Abs Avg 
 TQAN.f-kp               12.00:  Torque Abs Min 
 TQAX.f-kp               17.00:  Torque Abs Max 
 TRRT.°/30m               1.18:  Turn Rotating 
 MRT .                     ADR:  Maximum Recorded Temperature 
 TTMX.degC               88.24:  Max Tool Temp 
 VS01.                90619458:  Virtual Str1 SN 
 VS02.                90519326:  Virtual Str2 SN 
 VS03.                90522176:  Virtual Str3 SN 
 VS04.                90512683:  Virtual Str4 SN 
 WBMN.klb                 1.00:  WOB Min 
 WITN.           Murad Giluyev:  Customer Rep 
 WITN.     Kamran Kemberlinski:  Customer Rep 2 
 WOBA.klb                 5.00:  WOB Avg 
 WOBX.klb                 9.00:  WOB Max 
 YP  .lhf2               41.00:  Yield Point 
~Curve Information Block
#MNEM.UNIT                 API CODE     Curve Description
#---------               -----------    ---------------------------
 TIME.HHMMSS            00 000 000 000:  GT Time & Date
 GTDEPTH.m              00 000 000 000:  GT Depth
 GTPQH.psia             00 000 000 000:  GT HR Quartz Pressure
 GTTQ.degC              00 000 000 000:  GT Quartz Temperature
 GTTN.NONE              00 000 000 000:  GT Test Number
 GTET.sec               00 000 000 000:  GT Elapsed Test Time
 GTTVD.m                00 000 000 000:  GT True Vertical Depth
#Other Information
#
#WARRANTY: Halliburton will use its best efforts to furnish customers with 
#accurate information and interpretations that are part of, and incident to, the services 
#provided.  However, Halliburton cannot and does not warrant the accuracy 
#or correctness of such information and interpretations.  Under no circumstances should any 
#such information or interpretation be relied upon as the sole basis for any drilling, 
#completion, production, or financial decision or any procedure involving any risk to the 
#safety of any drilling venture, drilling rig or its crew or any other third party.  The 
#Customer has full responsibility for all drilling, completion and production operation.  
#Halliburton makes no representations or warranties, either expressed or 
#implied, including, but not limited to, the implied warranties of merchantability or fitness 
#for a particular purpose, with respect to the services rendered.  In no event will 
#Halliburton be liable for failure to obtain any particular results or for 
#any damages, including, but not limited to, indirect, special or consequential damages, 
#resulting from the use of any information or interpretation provided by Halliburton.
#
~A           TIME           GTDEPTH  GTPQH  GTTQ  GTTN  GTET   GTTVD  
   14:01:04.749.28-Jan-2021 4535.01 5561.01 72.47 3.00   0.00 2518.76
   14:01:04.949.28-Jan-2021 4535.01 5561.01 72.47 3.00   0.20 2518.76
   14:01:05.149.28-Jan-2021 4535.01 5563.78 72.46 3.00   0.40 2518.76
   14:01:05.349.28-Jan-2021 4535.01 5564.08 72.46 3.00   0.60 2518.76
   14:01:05.549.28-Jan-2021 4535.01 5564.19 72.46 3.00   0.80 2518.76
   14:01:05.749.28-Jan-2021 4535.01 5564.13 72.46 3.00   1.00 2518.76
   14:01:05.949.28-Jan-2021 4535.01 5564.13 72.46 3.00   1.20 2518.76
   14:01:06.149.28-Jan-2021 4535.01 5561.18 72.46 3.00   1.40 2518.76
   14:01:06.349.28-Jan-2021 4535.01 5563.66 72.46 3.00   1.60 2518.76
   14:01:06.549.28-Jan-2021 4535.01 5563.55 72.46 3.00   1.80 2518.76
   14:01:06.749.28-Jan-2021 4535.01 5566.02 72.46 3.00   2.00 2518.76
   14:01:06.949.28-Jan-2021 4535.01 5566.02 72.46 3.00   2.20 2518.76
   14:01:07.149.28-Jan-2021 4535.01 5564.51 72.46 3.00   2.40 2518.76
   14:01:07.349.28-Jan-2021 4535.01 5564.68 72.46 3.00   2.60 2518.76
   14:01:07.549.28-Jan-2021 4535.01 5564.10 72.46 3.00   2.80 2518.76
   14:01:07.749.28-Jan-2021 4535.01 5563.59 72.46 3.00   3.00 2518.76
   14:01:07.949.28-Jan-2021 4535.01 5563.59 72.46 3.00   3.20 2518.76
   14:01:08.149.28-Jan-2021 4535.01 5556.88 72.46 3.00   3.40 2518.76
   14:01:08.349.28-Jan-2021 4535.01 5560.10 72.46 3.00   3.60 2518.76
   14:01:08.550.28-Jan-2021 4535.01 5562.01 72.46 3.00   3.80 2518.76
   14:01:08.750.28-Jan-2021 4535.01 5561.31 72.46 3.00   4.00 2518.76
   14:01:08.950.28-Jan-2021 4535.01 5561.31 72.46 3.00   4.20 2518.76
   14:01:09.150.28-Jan-2021 4535.01 5563.11 72.45 3.00   4.40 2518.76
   14:01:09.350.28-Jan-2021 4535.01 5561.81 72.45 3.00   4.60 2518.76
   14:01:09.550.28-Jan-2021 4535.01 5562.51 72.45 3.00   4.80 2518.76
   14:01:09.750.28-Jan-2021 4535.01 5561.90 72.45 3.00   5.00 2518.76
   14:01:09.950.28-Jan-2021 4535.01 5561.90 72.45 3.00   5.20 2518.76
   14:01:10.150.28-Jan-2021 4535.01 5562.31 72.45 3.00   5.40 2518.76
   14:01:10.350.28-Jan-2021 4535.01 5562.31 72.45 3.00   5.60 2518.76
   14:01:10.550.28-Jan-2021 4535.01 5562.65 72.45 3.00   5.80 2518.76
   14:01:10.750.28-Jan-2021 4535.01 5562.79 72.45 3.00   6.00 2518.76
   14:01:10.950.28-Jan-2021 4535.01 5562.79 72.45 3.00   6.20 2518.76
   14:01:11.150.28-Jan-2021 4535.01 5563.45 72.45 3.00   6.40 2518.76
   14:01:11.350.28-Jan-2021 4535.01 5564.40 72.45 3.00   6.60 2518.76
   14:01:11.550.28-Jan-2021 4535.01 5563.64 72.45 3.00   6.80 2518.76
   14:01:11.750.28-Jan-2021 4535.01 5560.86 72.45 3.00   7.00 2518.76
   14:01:11.950.28-Jan-2021 4535.01 5560.86 72.45 3.00   7.20 2518.76
   14:01:12.150.28-Jan-2021 4535.01 5560.86 72.45 3.00   7.40 2518.76
   14:01:12.350.28-Jan-2021 4535.01 5564.02 72.45 3.00   7.60 2518.76
   14:01:12.550.28-Jan-2021 4535.01 5566.12 72.45 3.00   7.80 2518.76
   14:01:12.750.28-Jan-2021 4535.01 5565.08 72.45 3.00   8.00 2518.76
   14:01:12.950.28-Jan-2021 4535.01 5565.08 72.45 3.00   8.20 2518.76
   14:01:13.150.28-Jan-2021 4535.01 5564.48 72.44 3.00   8.40 2518.76
   14:01:13.351.28-Jan-2021 4535.01 5564.40 72.44 3.00   8.60 2518.76
   14:01:13.551.28-Jan-2021 4535.01 5564.14 72.44 3.00   8.80 2518.76
   14:01:13.751.28-Jan-2021 4535.01 5564.14 72.44 3.00   9.00 2518.76
   14:01:13.951.28-Jan-2021 4535.01 5564.14 72.44 3.00   9.20 2518.76
   14:01:14.151.28-Jan-2021 4535.01 5564.02 72.44 3.00   9.40 2518.76
   14:01:14.351.28-Jan-2021 4535.01 5563.76 72.44 3.00   9.60 2518.76
   14:01:14.551.28-Jan-2021 4535.01 5562.78 72.44 3.00   9.80 2518.76
   14:01:14.751.28-Jan-2021 4535.01 5563.19 72.44 3.00  10.00 2518.76
   14:01:14.951.28-Jan-2021 4535.01 5563.19 72.44 3.00  10.20 2518.76
   14:01:15.151.28-Jan-2021 4535.01 5563.52 72.44 3.00  10.40 2518.76
   14:01:15.351.28-Jan-2021 4535.01 5561.07 72.44 3.00  10.60 2518.76
   14:01:15.551.28-Jan-2021 4535.01 5561.63 72.44 3.00  10.80 2518.76
   14:01:15.751.28-Jan-2021 4535.01 5560.76 72.44 3.00  11.00 2518.76
   14:01:15.951.28-Jan-2021 4535.01 5560.76 72.44 3.00  11.20 2518.76
   14:01:16.151.28-Jan-2021 4535.01 5565.58 72.44 3.00  11.40 2518.76
   14:01:16.351.28-Jan-2021 4535.01 5565.37 72.44 3.00  11.60 2518.76
   14:01:16.551.28-Jan-2021 4535.01 5560.36 72.44 3.00  11.80 2518.76
   14:01:16.751.28-Jan-2021 4535.01 5561.00 72.44 3.00  12.00 2518.76
   14:01:16.951.28-Jan-2021 4535.01 5561.00 72.44 3.00  12.20 2518.76
   14:01:17.151.28-Jan-2021 4535.01 5561.00 72.44 3.00  12.40 2518.76
   14:01:17.351.28-Jan-2021 4535.01 5561.00 72.44 3.00  12.60 2518.76
   14:01:17.551.28-Jan-2021 4535.01 5561.00 72.44 3.00  12.80 2518.76
   14:01:17.751.28-Jan-2021 4535.01 5565.83 72.43 3.00  13.00 2518.76
   14:01:17.951.28-Jan-2021 4535.01 5561.53 72.43 3.00  13.20 2518.76
   14:01:18.152.28-Jan-2021 4535.01 5564.97 72.43 3.00  13.40 2518.76
   14:01:18.352.28-Jan-2021 4535.01 5562.92 72.43 3.00  13.60 2518.76
   14:01:18.552.28-Jan-2021 4535.01 5564.82 72.43 3.00  13.80 2518.76
   14:01:18.752.28-Jan-2021 4535.01 5558.94 72.43 3.00  14.00 2518.76
   14:01:18.952.28-Jan-2021 4535.01 5558.94 72.43 3.00  14.20 2518.76
   14:01:19.152.28-Jan-2021 4535.01 5564.93 72.43 3.00  14.40 2518.76
   14:01:19.352.28-Jan-2021 4535.01 5564.10 72.43 3.00  14.60 2518.76
   14:01:19.552.28-Jan-2021 4535.01 5565.78 72.43 3.00  14.80 2518.76
   14:01:19.752.28-Jan-2021 4535.01 5563.06 72.43 3.00  15.00 2518.76
   14:01:19.952.28-Jan-2021 4535.01 5563.06 72.43 3.00  15.20 2518.76
   14:01:20.152.28-Jan-2021 4535.01 5562.24 72.43 3.00  15.40 2518.76
   14:01:20.352.28-Jan-2021 4535.01 5563.21 72.43 3.00  15.60 2518.76
   14:01:20.552.28-Jan-2021 4535.01 5564.99 72.43 3.00  15.80 2518.76
   14:01:20.752.28-Jan-2021 4535.01 5564.23 72.43 3.00  16.00 2518.76
   14:01:20.952.28-Jan-2021 4535.01 5564.23 72.43 3.00  16.20 2518.76
   14:01:21.152.28-Jan-2021 4535.01 5565.21 72.42 3.00  16.40 2518.76
   14:01:21.352.28-Jan-2021 4535.01 5564.85 72.42 3.00  16.60 2518.76
   14:01:21.552.28-Jan-2021 4535.01 5566.09 72.42 3.00  16.80 2518.76
   14:01:21.752.28-Jan-2021 4535.01 5573.91 72.42 3.00  17.00 2518.76
   14:01:21.952.28-Jan-2021 4535.01 5573.91 72.42 3.00  17.20 2518.76
   14:01:22.152.28-Jan-2021 4535.01 5637.17 72.42 3.00  17.40 2518.76
   14:01:22.352.28-Jan-2021 4535.01 5662.96 72.42 3.00  17.60 2518.76
   14:01:22.552.28-Jan-2021 4535.01 5695.31 72.42 3.00  17.80 2518.76
   14:01:22.752.28-Jan-2021 4535.01 5731.60 72.42 3.00  18.00 2518.76
   14:01:22.953.28-Jan-2021 4535.01 5731.60 72.42 3.00  18.20 2518.76
   14:01:23.153.28-Jan-2021 4535.01 5819.09 72.42 3.00  18.40 2518.76
   14:01:23.353.28-Jan-2021 4535.01 6047.12 72.42 3.00  18.60 2518.76
   14:01:23.553.28-Jan-2021 4535.01 6187.99 72.42 3.00  18.80 2518.76
   14:01:23.753.28-Jan-2021 4535.01 6187.10 72.42 3.00  19.00 2518.76
   14:01:23.953.28-Jan-2021 4535.01 6187.10 72.42 3.00  19.20 2518.76
   14:01:24.153.28-Jan-2021 4535.01 6198.93 72.42 3.00  19.40 2518.76
   14:01:24.353.28-Jan-2021 4535.01 6194.45 72.42 3.00  19.60 2518.76
   14:01:24.553.28-Jan-2021 4535.01 6018.51 72.42 3.00  19.80 2518.76
   14:01:24.753.28-Jan-2021 4535.01 5989.89 72.42 3.00  20.00 2518.76
   14:01:24.953.28-Jan-2021 4535.01 5989.89 72.42 3.00  20.20 2518.76
   14:01:25.153.28-Jan-2021 4535.01 6082.27 72.41 3.00  20.40 2518.76
   14:01:25.353.28-Jan-2021 4535.01 6117.76 72.41 3.00  20.60 2518.76
   14:01:25.553.28-Jan-2021 4535.01 6151.45 72.41 3.00  20.80 2518.76
   14:01:25.753.28-Jan-2021 4535.01 6154.70 72.41 3.00  21.00 2518.76
   14:01:25.953.28-Jan-2021 4535.01 6154.70 72.41 3.00  21.20 2518.76
   14:01:26.153.28-Jan-2021 4535.01 6076.21 72.41 3.00  21.40 2518.76
   14:01:26.353.28-Jan-2021 4535.01 6072.13 72.41 3.00  21.60 2518.76
   14:01:26.553.28-Jan-2021 4535.01 5762.15 72.41 3.00  21.80 2518.76
   14:01:26.753.28-Jan-2021 4535.01 5971.41 72.41 3.00  22.00 2518.76
   14:01:26.953.28-Jan-2021 4535.01 5971.41 72.41 3.00  22.20 2518.76
   14:01:27.153.28-Jan-2021 4535.01 5861.23 72.41 3.00  22.40 2518.76
   14:01:27.353.28-Jan-2021 4535.01 5877.99 72.41 3.00  22.60 2518.76
   14:01:27.553.28-Jan-2021 4535.01 5894.39 72.41 3.00  22.80 2518.76
