~Version Information
 VERS.                  2.0:   CWLS log ASCII Standard -VERSION 2.0
 WRAP.                   NO:   One line per depth step
~Well Information Block
#MNEM.UNIT     VALUE/NAME     DESCRIPTION
#---------     -----------    ---------------------------
 STRT.S             01:29:12 30-Jan-21: START TIME 01:29:12 30-Jan-21
 STOP.S             01:35:33 30-Jan-21: STOP TIME  01:35:33 30-Jan-21
 STEP.S                   0.00: STEP TIME
 NULL.                 -999.25: NULL VALUE
 DFWT.                        :  DIST FWL TEXT
 DFST.                        :  DIST FSL TEXT
 DMF .             Drill Floor:  DRILL MEAS FROM
 STIM.      00.00.00 25-Sep-20:  START TIME
 DATE.      16.12.48 31-Jan-21:  END TIME
 SPUD.               20-Sep-20:  SPUD DATE
 NREF.                    Grid:  NORTH REFERENCE
 HPTY.       Minimum Curvature:  HOLE POS TYPE
 DMOD.             Drill Model:  DRILL MOD DESC
 SVYD.                  Survey:  SURVEY DESC
 ILTD.               Lithology:  INTERP LTH DESC
 FTOP.          Formation Tops:  FORM TOPS DESC
 RIG .              East Azeri:  RIG NAME
 PDAT.          Mean Sea Level:  PERMANENT DATUM
 FLD .                     ACG:  FIELD NAME
 SON .        AZ-XX-0906591820:  JOB NUMBER
 CTRY.              Azerbaijan:  COUNTRY NAME
 WELL.                     D37:  WELL NAME
 SRVC.     Turan Drilling & Engineering:  CONTRACTOR
 COMP.     BP Exploration (Caspian Sea) ltd.:  COMPANY
 WTYP.                Deviated:  WELL TYPE
 MDS .        Operator Entered:  MAG DATA SOURCE
 UWI .                     N/A:  UNIQUE WELL IDENTIFIER
 API .                     N/A:  API NUMBER
 BASE.              Azerbaijan:  LOGGING EQUIPMENT BASE LOCATION
 REGN.                   EESSA:  REGION
 PROV.                    Baku:  PROVINCE
 STAT.                    Baku:  STATE NAME
 MWDS.                    Baku:  MWD SHOP
 JOBN.        AZ-XX-0906591820:  JOB TICKET NUMB
 DOE .                     N/A:  DOE NUMBER
 DCON.         Sperry Drilling:  DIRECTNL CONTR
 UNIT.                     N/A:  LOGGING EQUIPMENT ID
 CNTY.                        :  COUNTY
 LOC .                        :  LOCATION
 LMF .             Drill Floor:  LOG MEASURED FROM
 TVDS.m                  43.60:  TVDSS CORRECTN
 LATI.deg                40.02:  LATITUDE
 LONG.deg                51.45:  LONGITUDE
 WHNS.m                  11.04:  WELL HEAD N/S
 WHEW.m                 -12.38:  WELL HEAD E/W
 UTMX.m              538763.98:  UTM X
 UTMY.m             4431880.20:  UTM Y
 DFWL.m                   0.00:  DISTANCE FWL
 DFSL.m                   0.00:  DISTANCE FSL
 SDEP.m                 300.00:  START DEPTH
 TDD .m                4900.01:  TOTAL DEPTH (DRILLER)
 VSDR.deg               185.64:  VERT SEC DIRECT
 GVFD.g                   1.00:  GRAVITY FIELD
 MFLD.nT              50301.00:  MAGNETIC FIELD
 MDIP.deg                59.46:  MAGNETIC DIP
 MDEC.deg                 6.43:  MAGNETIC DECL
 GRDC.deg                 0.29:  GRID CORRECTION
 AZTC.deg                 6.14:  AZM TOTAL CORR
 EPD .m                   0.00:  ELEVATION
 EGL .m                   0.00:  GROUND ELEVATION
 WDMS.m                 151.80:  WD ELEV
 APD .m                  43.60:  DEPTH ABOVE PD
 DEP .m                 571.69:  DEPTH
 AGAP.m                  43.60:  AIR GAP
 VSEW.m                 -12.38:  VERT SEC E/W
 VSNS.m                  11.04:  VERT SEC N/S
 EKB .m                  43.60:  KB ELEVATION
 EDF .m                  43.60:  DF ELEVATION
 TDL .m                 412.00:  TOTAL DEPTH (LOGGER)
 VSC .                       0:  VS TO CLOSURE
 MAGU.                 1849300:  MAGUTM CHECKSUM
~Parameter Information Block
#MNEM.UNIT       Value        Description
#---------     -----------    ---------------------------
 AV  .mps                 2.21:  Ann Velocity 
 AVMX.mps                 2.53:  Max Ann Veloc 
 AZIF.deg               144.83:  Azm, Final 
 BHAT.        Rotary Steerable:  BHA Type 
 BROT.°/30m              -0.52:  Build Rotating 
 BS  .in                  6.50:  Bit Size 
 BTPL.psig              209.00:  Bit Press Loss 
 CABU.                      No:  Customer Abuse 
 CGEO.        Ali Isfandiyarov:  Customer Geo 
 COMM.                     5j:  Run Comments 1 
 TCS .hr                 61.31:  Time Ciculation Ended 
 CV  .mps                 4.66:  Crit Velocity 
 CVMX.mps                 5.02:  Max Crit Veloc 
 DD1 .          Fariz Nahmatov:  Direct Drillr 1 
 DD2 .            Musa Ahmadov:  Direct Drillr 2 
 DDSV.               Geo-Pilot:  DD Service 
 DEFF.%                 100.00:  % Det Eff 
 DLRX.°/30m               1.44:  Dogleg Rot Max 
 DLSO.°/30m               0.83:  Dogleg Oriented 
 DLSX.°/30m               1.44:  Dogleg Str Max 
 DRET.      08.30.00 30-Jan-21:  Drill End Time 
 DRST.      21.15.00 27-Jan-21:  Drill Start Tim 
 DTIM.hr                 37.28:  Time Drilling 
 EDEP.m                4867.01:  End Depth 
 ENG1.          Rasim Hashimov:  Engineer 1 
 ENG2.         Almaz Almadatov:  Engineer 2 
 ENG3.        Tamerlan Ahmadov:  Engineer 3 
 ETIM.      22.41.04 31-Jan-21:  End Time 
 FLOI.gpm               400.00:  Flow In 
 FLON.gpm               300.00:  Flow In Min 
 FLOS.cptm                0.00:  Fluid Loss 
 FLOX.gpm               400.00:  Flow In Max 
 HFLO.                      No:  High Flow 
 HPRE.                      No:  High Pressure 
 HTEM.                      No:  High Temp 
 HYDO.m                   1.80:  Hydro Offset 
 IFIN.deg                65.63:  Inc, Final 
 IMAX.deg                66.77:  Inc Max 
 IMIN.deg                65.61:  Inc Min 
 IMND.m                4612.67:  Inc Min Depth 
 IMXD.m                4811.63:  Inc Max Depth 
 JARR.                      No:  Jarring 
 LETM.      08.30.00 30-Jan-21:  Log End Time 
 LOST.hr                     0:  Lost Rig Time 
 LSTM.      21.15.00 27-Jan-21:  Log Start Time 
 MDCL.ppm             41000.00:  Mud Chlorides 
 MDES.     Inversion Oil/Synthetic:  Mud Desc 
 DFD .sg                  1.40:  Mud Density 
 MDMN.sg                  1.40:  Dens Mud Min 
 MDMX.sg                  1.40:  Dens Mud Max 
 MOIL.                      53:  Run Mud Oil % 
 MOWR.                   66:34:  Run Mud OWR 
 MSND.                     0.2:  Run Mud Sand % 
 MSOL.                    17.9:  Run Mud Solids% 
 DFV .spqt               77.00:  Mud Viscosity 
 MWOD.in                  4.75:  MWD Tool OD 
 MWSI.                      No:  Serv Intrp, MWD 
 OTIM.hr                110.38:  Time Operating 
 PCON.           Look Like New:  Pad Condition 
 PMAX.psia             5300.00:  Press Op, Max 
 PV  .cP                 57.00:  Mud PV 
 RUN .                    1200:  Run Number 
 ROPA.m/hr               13.00:  ROP Avg 
 ROPN.m/hr                9.00:  ROP Min 
 ROPX.m/hr               15.00:  ROP Max 
 RPMA.rpm               120.00:  RPM Surface Avg 
 RPMN.rpm               100.00:  RPM Surface Min 
 RPMX.rpm               135.00:  RPM Surface Max 
 RRUN.                    1200:  Rig Run Number 
 RTIM.hr                  2.65:  Time Reaming 
 SAZI.deg               145.04:  Azm, Start 
 SDEP.m                4455.01:  Start Depth 
 SIDD.                      No:  Serv Intrp, DD 
 SINC.deg                65.83:  Inc, Start 
 SPPA.psig             5037.00:  SPP Avg 
 SPPN.psig             4430.00:  SPP Min 
 SPPX.psig             5300.00:  SPP Max 
 STIM.      22.41.04 26-Jan-21:  Start Time 
 SVCS.                 DD, MWD:  Services 
 SVER.                    9.20:  Sperry Version 
 TDAT.m                 412.00:  Tot Depth Attmp 
 TDDF.                      No:  Trip for DD 
 TDLG.m                 412.00:  Tot Depth Loggd 
 TFF .                      No:  Trip for Fail 
 TQAA.f-kp               15.00:  Torque Abs Avg 
 TQAN.f-kp               12.00:  Torque Abs Min 
 TQAX.f-kp               17.00:  Torque Abs Max 
 TRRT.°/30m               1.18:  Turn Rotating 
 MRT .                     ADR:  Maximum Recorded Temperature 
 TTMX.degC               88.24:  Max Tool Temp 
 VS01.                90619458:  Virtual Str1 SN 
 VS02.                90519326:  Virtual Str2 SN 
 VS03.                90522176:  Virtual Str3 SN 
 VS04.                90512683:  Virtual Str4 SN 
 WBMN.klb                 1.00:  WOB Min 
 WITN.           Murad Giluyev:  Customer Rep 
 WITN.     Kamran Kemberlinski:  Customer Rep 2 
 WOBA.klb                 5.00:  WOB Avg 
 WOBX.klb                 9.00:  WOB Max 
 YP  .lhf2               41.00:  Yield Point 
~Curve Information Block
#MNEM.UNIT                 API CODE     Curve Description
#---------               -----------    ---------------------------
 TIME.HHMMSS            00 000 000 000:  GT Time & Date
 GTDEPTH.m              00 000 000 000:  GT Depth
 GTPQH.psia             00 000 000 000:  GT HR Quartz Pressure
 GTTQ.degC              00 000 000 000:  GT Quartz Temperature
 GTTN.NONE              00 000 000 000:  GT Test Number
 GTET.sec               00 000 000 000:  GT Elapsed Test Time
 GTTVD.m                00 000 000 000:  GT True Vertical Depth
#Other Information
#
#WARRANTY: Halliburton will use its best efforts to furnish customers with 
#accurate information and interpretations that are part of, and incident to, the services 
#provided.  However, Halliburton cannot and does not warrant the accuracy 
#or correctness of such information and interpretations.  Under no circumstances should any 
#such information or interpretation be relied upon as the sole basis for any drilling, 
#completion, production, or financial decision or any procedure involving any risk to the 
#safety of any drilling venture, drilling rig or its crew or any other third party.  The 
#Customer has full responsibility for all drilling, completion and production operation.  
#Halliburton makes no representations or warranties, either expressed or 
#implied, including, but not limited to, the implied warranties of merchantability or fitness 
#for a particular purpose, with respect to the services rendered.  In no event will 
#Halliburton be liable for failure to obtain any particular results or for 
#any damages, including, but not limited to, indirect, special or consequential damages, 
#resulting from the use of any information or interpretation provided by Halliburton.
#
~A           TIME           GTDEPTH  GTPQH  GTTQ  GTTN   GTET   GTTVD  
# ...
   01:29:35.242.30-Jan-2021 4789.01 6086.24 82.43 15.00  22.60 2621.19
   01:29:35.442.30-Jan-2021 4789.01 6085.23 82.43 15.00  22.80 2621.19
   01:29:35.642.30-Jan-2021 4789.01 6084.08 82.43 15.00  23.00 2621.19
   01:29:35.842.30-Jan-2021 4789.01 6084.08 82.43 15.00  23.20 2621.19
   01:29:36.042.30-Jan-2021 4789.01 6081.91 82.42 15.00  23.40 2621.19
   01:29:36.242.30-Jan-2021 4789.01 6081.68 82.42 15.00  23.60 2621.19
   01:29:36.442.30-Jan-2021 4789.01 6081.71 82.42 15.00  23.80 2621.19
   01:29:36.642.30-Jan-2021 4789.01 6080.55 82.42 15.00  24.00 2621.19
   01:29:36.842.30-Jan-2021 4789.01 6080.55 82.42 15.00  24.20 2621.19
   01:29:37.042.30-Jan-2021 4789.01 6080.60 82.42 15.00  24.40 2621.19
   01:29:37.242.30-Jan-2021 4789.01 6080.02 82.42 15.00  24.60 2621.19
   01:29:37.442.30-Jan-2021 4789.01 6079.55 82.42 15.00  24.80 2621.19
   01:29:37.642.30-Jan-2021 4789.01 6079.36 82.42 15.00  25.00 2621.19
   01:29:37.842.30-Jan-2021 4789.01 6079.36 82.42 15.00  25.20 2621.19
   01:29:38.042.30-Jan-2021 4789.01 6077.22 82.42 15.00  25.40 2621.19
   01:29:38.242.30-Jan-2021 4789.01 6076.58 82.42 15.00  25.60 2621.19
   01:29:38.442.30-Jan-2021 4789.01 6075.62 82.42 15.00  25.80 2621.19
   01:29:38.642.30-Jan-2021 4789.01 6057.04 82.42 15.00  26.01 2621.19
   01:29:38.842.30-Jan-2021 4789.01 6057.04 82.42 15.00  26.21 2621.19
   01:29:39.042.30-Jan-2021 4789.01 5567.55 82.42 15.00  26.41 2621.19
   01:29:39.243.30-Jan-2021 4789.01 5347.51 82.41 15.00  26.61 2621.19
   01:29:39.443.30-Jan-2021 4789.01 4751.72 82.41 15.00  26.81 2621.19
   01:29:39.643.30-Jan-2021 4789.01 3907.87 82.41 15.00  27.01 2621.19
   01:29:39.843.30-Jan-2021 4789.01 3907.87 82.41 15.00  27.21 2621.19
   01:29:40.043.30-Jan-2021 4789.01 2295.62 82.41 15.00  27.41 2621.19
   01:29:40.243.30-Jan-2021 4789.01 1563.27 82.41 15.00  27.61 2621.19
   01:29:40.443.30-Jan-2021 4789.01  886.38 82.41 15.00  27.81 2621.19
   01:29:40.643.30-Jan-2021 4789.01  290.65 82.41 15.00  28.01 2621.19
   01:29:40.843.30-Jan-2021 4789.01  290.65 82.41 15.00  28.21 2621.19
   01:29:41.043.30-Jan-2021 4789.01   55.03 82.41 15.00  28.41 2621.19
   01:29:41.243.30-Jan-2021 4789.01   47.08 82.41 15.00  28.61 2621.19
   01:29:41.443.30-Jan-2021 4789.01   43.20 82.41 15.00  28.81 2621.19
   01:29:41.643.30-Jan-2021 4789.01   40.85 82.41 15.00  29.01 2621.19
   01:29:41.843.30-Jan-2021 4789.01   40.85 82.41 15.00  29.21 2621.19
   01:29:42.043.30-Jan-2021 4789.01   38.86 82.40 15.00  29.41 2621.19
   01:29:42.243.30-Jan-2021 4789.01   38.51 82.40 15.00  29.61 2621.19
   01:29:42.443.30-Jan-2021 4789.01   38.31 82.40 15.00  29.81 2621.19
   01:29:42.643.30-Jan-2021 4789.01   37.89 82.40 15.00  30.01 2621.19
   01:29:42.843.30-Jan-2021 4789.01   37.89 82.40 15.00  30.21 2621.19
   01:29:43.043.30-Jan-2021 4789.01   37.06 82.40 15.00  30.41 2621.19
   01:29:43.243.30-Jan-2021 4789.01   36.74 82.40 15.00  30.61 2621.19
   01:29:43.443.30-Jan-2021 4789.01   36.38 82.40 15.00  30.81 2621.19
   01:29:43.643.30-Jan-2021 4789.01   35.93 82.40 15.00  31.01 2621.19
   01:29:43.843.30-Jan-2021 4789.01   35.93 82.40 15.00  31.21 2621.19
   01:29:44.043.30-Jan-2021 4789.01   35.10 82.39 15.00  31.41 2621.19
   01:29:44.243.30-Jan-2021 4789.01   34.72 82.39 15.00  31.61 2621.19
   01:29:44.444.30-Jan-2021 4789.01   34.39 82.39 15.00  31.81 2621.19
   01:29:44.644.30-Jan-2021 4789.01   34.11 82.39 15.00  32.01 2621.19
   01:29:44.844.30-Jan-2021 4789.01   34.11 82.39 15.00  32.21 2621.19
   01:29:45.044.30-Jan-2021 4789.01   33.45 82.39 15.00  32.41 2621.19
   01:29:45.244.30-Jan-2021 4789.01   33.10 82.38 15.00  32.61 2621.19
   01:29:45.444.30-Jan-2021 4789.01   32.76 82.38 15.00  32.81 2621.19
   01:29:45.644.30-Jan-2021 4789.01   32.44 82.38 15.00  33.01 2621.19
   01:29:45.844.30-Jan-2021 4789.01   32.44 82.38 15.00  33.21 2621.19
   01:29:46.044.30-Jan-2021 4789.01   31.82 82.38 15.00  33.41 2621.19
   01:29:46.244.30-Jan-2021 4789.01   31.56 82.38 15.00  33.61 2621.19
   01:29:46.444.30-Jan-2021 4789.01   31.29 82.38 15.00  33.81 2621.19
   01:29:46.644.30-Jan-2021 4789.01   31.09 82.37 15.00  34.01 2621.19
   01:29:46.844.30-Jan-2021 4789.01   31.09 82.37 15.00  34.21 2621.19
   01:29:47.044.30-Jan-2021 4789.01   30.71 82.37 15.00  34.41 2621.19
   01:29:47.244.30-Jan-2021 4789.01   30.53 82.37 15.00  34.61 2621.19
   01:29:47.444.30-Jan-2021 4789.01   30.37 82.37 15.00  34.81 2621.19
   01:29:47.644.30-Jan-2021 4789.01   30.21 82.37 15.00  35.01 2621.19
   01:29:47.844.30-Jan-2021 4789.01   30.21 82.37 15.00  35.21 2621.19
   01:29:48.044.30-Jan-2021 4789.01   29.81 82.36 15.00  35.41 2621.19
   01:29:48.244.30-Jan-2021 4789.01   29.65 82.36 15.00  35.61 2621.19
   01:29:48.444.30-Jan-2021 4789.01   29.53 82.36 15.00  35.81 2621.19
   01:29:48.644.30-Jan-2021 4789.01   29.39 82.36 15.00  36.01 2621.19
   01:29:48.844.30-Jan-2021 4789.01   29.39 82.36 15.00  36.21 2621.19
   01:29:49.044.30-Jan-2021 4789.01   29.69 82.36 15.00  36.41 2621.19
   01:29:49.244.30-Jan-2021 4789.01   30.09 82.36 15.00  36.61 2621.19
   01:29:49.444.30-Jan-2021 4789.01   30.50 82.35 15.00  36.81 2621.19
   01:29:49.645.30-Jan-2021 4789.01   30.87 82.35 15.00  37.01 2621.19
   01:29:49.845.30-Jan-2021 4789.01   30.87 82.35 15.00  37.21 2621.19
   01:29:50.045.30-Jan-2021 4789.01   31.62 82.35 15.00  37.41 2621.19
   01:29:50.245.30-Jan-2021 4789.01   31.97 82.35 15.00  37.61 2621.19
   01:29:50.445.30-Jan-2021 4789.01   32.32 82.35 15.00  37.81 2621.19
   01:29:50.645.30-Jan-2021 4789.01   32.65 82.35 15.00  38.01 2621.19
   01:29:50.845.30-Jan-2021 4789.01   32.65 82.35 15.00  38.21 2621.19
   01:29:51.045.30-Jan-2021 4789.01   33.29 82.34 15.00  38.41 2621.19
   01:29:51.245.30-Jan-2021 4789.01   33.61 82.34 15.00  38.61 2621.19
   01:29:51.445.30-Jan-2021 4789.01   33.93 82.34 15.00  38.81 2621.19
   01:29:51.645.30-Jan-2021 4789.01   34.23 82.34 15.00  39.01 2621.19
   01:29:51.845.30-Jan-2021 4789.01   34.23 82.34 15.00  39.21 2621.19
   01:29:52.045.30-Jan-2021 4789.01   34.82 82.34 15.00  39.41 2621.19
   01:29:52.245.30-Jan-2021 4789.01   35.10 82.33 15.00  39.61 2621.19
   01:29:52.445.30-Jan-2021 4789.01   35.38 82.33 15.00  39.81 2621.19
   01:29:52.645.30-Jan-2021 4789.01   35.67 82.33 15.00  40.01 2621.19
   01:29:52.845.30-Jan-2021 4789.01   35.67 82.33 15.00  40.21 2621.19
   01:29:53.045.30-Jan-2021 4789.01   36.27 82.33 15.00  40.41 2621.19
   01:29:53.245.30-Jan-2021 4789.01   36.55 82.33 15.00  40.61 2621.19
   01:29:53.445.30-Jan-2021 4789.01   36.83 82.33 15.00  40.81 2621.19
   01:29:53.645.30-Jan-2021 4789.01   37.10 82.33 15.00  41.01 2621.19
   01:29:53.845.30-Jan-2021 4789.01   37.10 82.33 15.00  41.21 2621.19
   01:29:54.045.30-Jan-2021 4789.01   37.63 82.32 15.00  41.41 2621.19
   01:29:54.245.30-Jan-2021 4789.01   37.88 82.32 15.00  41.61 2621.19
   01:29:54.445.30-Jan-2021 4789.01   38.14 82.32 15.00  41.81 2621.19
   01:29:54.646.30-Jan-2021 4789.01   38.40 82.32 15.00  42.01 2621.19
   01:29:54.846.30-Jan-2021 4789.01   38.40 82.32 15.00  42.21 2621.19
   01:29:55.046.30-Jan-2021 4789.01   38.89 82.32 15.00  42.41 2621.19
   01:29:55.246.30-Jan-2021 4789.01   39.14 82.32 15.00  42.61 2621.19
   01:29:55.446.30-Jan-2021 4789.01   39.37 82.31 15.00  42.81 2621.19
   01:29:55.646.30-Jan-2021 4789.01   39.61 82.31 15.00  43.01 2621.19
   01:29:55.846.30-Jan-2021 4789.01   39.61 82.31 15.00  43.21 2621.19
   01:29:56.046.30-Jan-2021 4789.01   40.06 82.31 15.00  43.41 2621.19
   01:29:56.246.30-Jan-2021 4789.01   40.29 82.31 15.00  43.61 2621.19
   01:29:56.446.30-Jan-2021 4789.01   40.52 82.31 15.00  43.81 2621.19
   01:29:56.646.30-Jan-2021 4789.01   40.74 82.31 15.00  44.01 2621.19
   01:29:56.846.30-Jan-2021 4789.01   40.74 82.31 15.00  44.21 2621.19
   01:29:57.046.30-Jan-2021 4789.01   41.18 82.31 15.00  44.41 2621.19
   01:29:57.246.30-Jan-2021 4789.01   41.39 82.31 15.00  44.61 2621.19
   01:29:57.446.30-Jan-2021 4789.01   41.61 82.30 15.00  44.81 2621.19
   01:29:57.646.30-Jan-2021 4789.01   41.83 82.30 15.00  45.01 2621.19
