~Version Information
 VERS.                  2.0:   CWLS log ASCII Standard -VERSION 2.0
 WRAP.                   NO:   One line per depth step
~Well Information Block
#MNEM.UNIT     VALUE/NAME     DESCRIPTION
#---------     -----------    ---------------------------
 STRT.S             11:33:05 30-Jan-21: START TIME 11:33:05 30-Jan-21
 STOP.S             11:39:34 30-Jan-21: STOP TIME  11:39:34 30-Jan-21
 STEP.S                   0.00: STEP TIME
 NULL.                 -999.25: NULL VALUE
 DFWT.                        :  DIST FWL TEXT
 DFST.                        :  DIST FSL TEXT
 DMF .             Drill Floor:  DRILL MEAS FROM
 STIM.      00.00.00 25-Sep-20:  START TIME
 DATE.      16.12.48 31-Jan-21:  END TIME
 SPUD.               20-Sep-20:  SPUD DATE
 NREF.                    Grid:  NORTH REFERENCE
 HPTY.       Minimum Curvature:  HOLE POS TYPE
 DMOD.             Drill Model:  DRILL MOD DESC
 SVYD.                  Survey:  SURVEY DESC
 ILTD.               Lithology:  INTERP LTH DESC
 FTOP.          Formation Tops:  FORM TOPS DESC
 RIG .              East Azeri:  RIG NAME
 PDAT.          Mean Sea Level:  PERMANENT DATUM
 FLD .                     ACG:  FIELD NAME
 SON .        AZ-XX-0906591820:  JOB NUMBER
 CTRY.              Azerbaijan:  COUNTRY NAME
 WELL.                     D37:  WELL NAME
 SRVC.     Turan Drilling & Engineering:  CONTRACTOR
 COMP.     BP Exploration (Caspian Sea) ltd.:  COMPANY
 WTYP.                Deviated:  WELL TYPE
 MDS .        Operator Entered:  MAG DATA SOURCE
 UWI .                     N/A:  UNIQUE WELL IDENTIFIER
 API .                     N/A:  API NUMBER
 BASE.              Azerbaijan:  LOGGING EQUIPMENT BASE LOCATION
 REGN.                   EESSA:  REGION
 PROV.                    Baku:  PROVINCE
 STAT.                    Baku:  STATE NAME
 MWDS.                    Baku:  MWD SHOP
 JOBN.        AZ-XX-0906591820:  JOB TICKET NUMB
 DOE .                     N/A:  DOE NUMBER
 DCON.         Sperry Drilling:  DIRECTNL CONTR
 UNIT.                     N/A:  LOGGING EQUIPMENT ID
 CNTY.                        :  COUNTY
 LOC .                        :  LOCATION
 LMF .             Drill Floor:  LOG MEASURED FROM
 TVDS.m                  43.60:  TVDSS CORRECTN
 LATI.deg                40.02:  LATITUDE
 LONG.deg                51.45:  LONGITUDE
 WHNS.m                  11.04:  WELL HEAD N/S
 WHEW.m                 -12.38:  WELL HEAD E/W
 UTMX.m              538763.98:  UTM X
 UTMY.m             4431880.20:  UTM Y
 DFWL.m                   0.00:  DISTANCE FWL
 DFSL.m                   0.00:  DISTANCE FSL
 SDEP.m                 300.00:  START DEPTH
 TDD .m                4900.01:  TOTAL DEPTH (DRILLER)
 VSDR.deg               185.64:  VERT SEC DIRECT
 GVFD.g                   1.00:  GRAVITY FIELD
 MFLD.nT              50301.00:  MAGNETIC FIELD
 MDIP.deg                59.46:  MAGNETIC DIP
 MDEC.deg                 6.43:  MAGNETIC DECL
 GRDC.deg                 0.29:  GRID CORRECTION
 AZTC.deg                 6.14:  AZM TOTAL CORR
 EPD .m                   0.00:  ELEVATION
 EGL .m                   0.00:  GROUND ELEVATION
 WDMS.m                 151.80:  WD ELEV
 APD .m                  43.60:  DEPTH ABOVE PD
 DEP .m                 571.69:  DEPTH
 AGAP.m                  43.60:  AIR GAP
 VSEW.m                 -12.38:  VERT SEC E/W
 VSNS.m                  11.04:  VERT SEC N/S
 EKB .m                  43.60:  KB ELEVATION
 EDF .m                  43.60:  DF ELEVATION
 TDL .m                 412.00:  TOTAL DEPTH (LOGGER)
 VSC .                       0:  VS TO CLOSURE
 MAGU.                 1849300:  MAGUTM CHECKSUM
~Parameter Information Block
#MNEM.UNIT       Value        Description
#---------     -----------    ---------------------------
 AV  .mps                 2.21:  Ann Velocity 
 AVMX.mps                 2.53:  Max Ann Veloc 
 AZIF.deg               144.83:  Azm, Final 
 BHAT.        Rotary Steerable:  BHA Type 
 BROT.°/30m              -0.52:  Build Rotating 
 BS  .in                  6.50:  Bit Size 
 BTPL.psig              209.00:  Bit Press Loss 
 CABU.                      No:  Customer Abuse 
 CGEO.        Ali Isfandiyarov:  Customer Geo 
 COMM.                     <»c:  Run Comments 1 
 TCS .hr                 61.31:  Time Ciculation Ended 
 CV  .mps                 4.66:  Crit Velocity 
 CVMX.mps                 5.02:  Max Crit Veloc 
 DD1 .          Fariz Nahmatov:  Direct Drillr 1 
 DD2 .            Musa Ahmadov:  Direct Drillr 2 
 DDSV.               Geo-Pilot:  DD Service 
 DEFF.%                 100.00:  % Det Eff 
 DLRX.°/30m               1.44:  Dogleg Rot Max 
 DLSO.°/30m               0.83:  Dogleg Oriented 
 DLSX.°/30m               1.44:  Dogleg Str Max 
 DRET.      08.30.00 30-Jan-21:  Drill End Time 
 DRST.      21.15.00 27-Jan-21:  Drill Start Tim 
 DTIM.hr                 37.28:  Time Drilling 
 EDEP.m                4867.01:  End Depth 
 ENG1.          Rasim Hashimov:  Engineer 1 
 ENG2.         Almaz Almadatov:  Engineer 2 
 ENG3.        Tamerlan Ahmadov:  Engineer 3 
 ETIM.      22.41.04 31-Jan-21:  End Time 
 FLOI.gpm               400.00:  Flow In 
 FLON.gpm               300.00:  Flow In Min 
 FLOS.cptm                0.00:  Fluid Loss 
 FLOX.gpm               400.00:  Flow In Max 
 HFLO.                      No:  High Flow 
 HPRE.                      No:  High Pressure 
 HTEM.                      No:  High Temp 
 HYDO.m                   1.80:  Hydro Offset 
 IFIN.deg                65.63:  Inc, Final 
 IMAX.deg                66.77:  Inc Max 
 IMIN.deg                65.61:  Inc Min 
 IMND.m                4612.67:  Inc Min Depth 
 IMXD.m                4811.63:  Inc Max Depth 
 JARR.                      No:  Jarring 
 LETM.      08.30.00 30-Jan-21:  Log End Time 
 LOST.hr                     0:  Lost Rig Time 
 LSTM.      21.15.00 27-Jan-21:  Log Start Time 
 MDCL.ppm             41000.00:  Mud Chlorides 
 MDES.     Inversion Oil/Synthetic:  Mud Desc 
 DFD .sg                  1.40:  Mud Density 
 MDMN.sg                  1.40:  Dens Mud Min 
 MDMX.sg                  1.40:  Dens Mud Max 
 MOIL.                      53:  Run Mud Oil % 
 MOWR.                   66:34:  Run Mud OWR 
 MSND.                     0.2:  Run Mud Sand % 
 MSOL.                    17.9:  Run Mud Solids% 
 DFV .spqt               77.00:  Mud Viscosity 
 MWOD.in                  4.75:  MWD Tool OD 
 MWSI.                      No:  Serv Intrp, MWD 
 OTIM.hr                110.38:  Time Operating 
 PCON.           Look Like New:  Pad Condition 
 PMAX.psia             5300.00:  Press Op, Max 
 PV  .cP                 57.00:  Mud PV 
 RUN .                    1200:  Run Number 
 ROPA.m/hr               13.00:  ROP Avg 
 ROPN.m/hr                9.00:  ROP Min 
 ROPX.m/hr               15.00:  ROP Max 
 RPMA.rpm               120.00:  RPM Surface Avg 
 RPMN.rpm               100.00:  RPM Surface Min 
 RPMX.rpm               135.00:  RPM Surface Max 
 RRUN.                    1200:  Rig Run Number 
 RTIM.hr                  2.65:  Time Reaming 
 SAZI.deg               145.04:  Azm, Start 
 SDEP.m                4455.01:  Start Depth 
 SIDD.                      No:  Serv Intrp, DD 
 SINC.deg                65.83:  Inc, Start 
 SPPA.psig             5037.00:  SPP Avg 
 SPPN.psig             4430.00:  SPP Min 
 SPPX.psig             5300.00:  SPP Max 
 STIM.      22.41.04 26-Jan-21:  Start Time 
 SVCS.                 DD, MWD:  Services 
 SVER.                    9.20:  Sperry Version 
 TDAT.m                 412.00:  Tot Depth Attmp 
 TDDF.                      No:  Trip for DD 
 TDLG.m                 412.00:  Tot Depth Loggd 
 TFF .                      No:  Trip for Fail 
 TQAA.f-kp               15.00:  Torque Abs Avg 
 TQAN.f-kp               12.00:  Torque Abs Min 
 TQAX.f-kp               17.00:  Torque Abs Max 
 TRRT.°/30m               1.18:  Turn Rotating 
 MRT .                     ADR:  Maximum Recorded Temperature 
 TTMX.degC               88.24:  Max Tool Temp 
 VS01.                90619458:  Virtual Str1 SN 
 VS02.                90519326:  Virtual Str2 SN 
 VS03.                90522176:  Virtual Str3 SN 
 VS04.                90512683:  Virtual Str4 SN 
 WBMN.klb                 1.00:  WOB Min 
 WITN.           Murad Giluyev:  Customer Rep 
 WITN.     Kamran Kemberlinski:  Customer Rep 2 
 WOBA.klb                 5.00:  WOB Avg 
 WOBX.klb                 9.00:  WOB Max 
 YP  .lhf2               41.00:  Yield Point 
~Curve Information Block
#MNEM.UNIT                 API CODE     Curve Description
#---------               -----------    ---------------------------
 TIME.HHMMSS            00 000 000 000:  GT Time & Date
 GTDEPTH.m              00 000 000 000:  GT Depth
 GTPQH.psia             00 000 000 000:  GT HR Quartz Pressure
 GTTQ.degC              00 000 000 000:  GT Quartz Temperature
 GTTN.NONE              00 000 000 000:  GT Test Number
 GTET.sec               00 000 000 000:  GT Elapsed Test Time
 GTTVD.m                00 000 000 000:  GT True Vertical Depth
#Other Information
#
#WARRANTY: Halliburton will use its best efforts to furnish customers with 
#accurate information and interpretations that are part of, and incident to, the services 
#provided.  However, Halliburton cannot and does not warrant the accuracy 
#or correctness of such information and interpretations.  Under no circumstances should any 
#such information or interpretation be relied upon as the sole basis for any drilling, 
#completion, production, or financial decision or any procedure involving any risk to the 
#safety of any drilling venture, drilling rig or its crew or any other third party.  The 
#Customer has full responsibility for all drilling, completion and production operation.  
#Halliburton makes no representations or warranties, either expressed or 
#implied, including, but not limited to, the implied warranties of merchantability or fitness 
#for a particular purpose, with respect to the services rendered.  In no event will 
#Halliburton be liable for failure to obtain any particular results or for 
#any damages, including, but not limited to, indirect, special or consequential damages, 
#resulting from the use of any information or interpretation provided by Halliburton.
#
~A           TIME           GTDEPTH  GTPQH  GTTQ  GTTN   GTET   GTTVD  
# ...
   11:37:59.033.30-Jan-2021 4826.01 3154.19 84.23 18.00 293.85 2635.88
   11:37:59.233.30-Jan-2021 4826.01 3154.15 84.22 18.00 294.05 2635.88
   11:37:59.433.30-Jan-2021 4826.01 3154.15 84.22 18.00 294.25 2635.88
   11:37:59.633.30-Jan-2021 4826.01 3154.17 84.22 18.00 294.45 2635.88
   11:37:59.833.30-Jan-2021 4826.01 3154.20 84.22 18.00 294.65 2635.88
   11:38:00.033.30-Jan-2021 4826.01 3154.18 84.22 18.00 294.85 2635.88
   11:38:00.233.30-Jan-2021 4826.01 3154.17 84.22 18.00 295.05 2635.88
   11:38:00.433.30-Jan-2021 4826.01 3154.17 84.22 18.00 295.25 2635.88
   11:38:00.633.30-Jan-2021 4826.01 3154.17 84.22 18.00 295.45 2635.88
   11:38:00.833.30-Jan-2021 4826.01 3154.17 84.22 18.00 295.65 2635.88
   11:38:01.033.30-Jan-2021 4826.01 3154.25 84.22 18.00 295.85 2635.88
   11:38:01.233.30-Jan-2021 4826.01 3154.18 84.22 18.00 296.05 2635.88
   11:38:01.433.30-Jan-2021 4826.01 3154.18 84.22 18.00 296.25 2635.88
   11:38:01.633.30-Jan-2021 4826.01 3154.16 84.22 18.00 296.45 2635.88
   11:38:01.833.30-Jan-2021 4826.01 3154.17 84.22 18.00 296.65 2635.88
   11:38:02.033.30-Jan-2021 4826.01 3154.16 84.22 18.00 296.85 2635.88
   11:38:02.233.30-Jan-2021 4826.01 3154.16 84.22 18.00 297.05 2635.88
   11:38:02.433.30-Jan-2021 4826.01 3154.16 84.22 18.00 297.25 2635.88
   11:38:02.634.30-Jan-2021 4826.01 3154.16 84.22 18.00 297.45 2635.88
   11:38:02.834.30-Jan-2021 4826.01 3154.12 84.22 18.00 297.65 2635.88
   11:38:03.034.30-Jan-2021 4826.01 3154.18 84.22 18.00 297.85 2635.88
   11:38:03.234.30-Jan-2021 4826.01 3154.30 84.21 18.00 298.05 2635.88
   11:38:03.434.30-Jan-2021 4826.01 3154.30 84.21 18.00 298.25 2635.88
   11:38:03.634.30-Jan-2021 4826.01 3154.17 84.21 18.00 298.45 2635.88
   11:38:03.834.30-Jan-2021 4826.01 3154.17 84.21 18.00 298.65 2635.88
   11:38:04.034.30-Jan-2021 4826.01 3154.16 84.21 18.00 298.85 2635.88
   11:38:04.234.30-Jan-2021 4826.01 3154.18 84.21 18.00 299.05 2635.88
   11:38:04.434.30-Jan-2021 4826.01 3154.18 84.21 18.00 299.25 2635.88
   11:38:04.634.30-Jan-2021 4826.01 3154.17 84.21 18.00 299.45 2635.88
   11:38:04.834.30-Jan-2021 4826.01 3154.16 84.21 18.00 299.65 2635.88
   11:38:05.034.30-Jan-2021 4826.01 3154.16 84.21 18.00 299.85 2635.88
   11:38:05.234.30-Jan-2021 4826.01 3154.17 84.21 18.00 300.05 2635.88
   11:38:05.434.30-Jan-2021 4826.01 3154.17 84.21 18.00 300.25 2635.88
   11:38:05.634.30-Jan-2021 4826.01 3154.24 84.21 18.00 300.45 2635.88
   11:38:05.834.30-Jan-2021 4826.01 3154.17 84.21 18.00 300.65 2635.88
   11:38:06.034.30-Jan-2021 4826.01 3154.13 84.21 18.00 300.85 2635.88
   11:38:06.234.30-Jan-2021 4826.01 3154.18 84.21 18.00 301.05 2635.88
   11:38:06.434.30-Jan-2021 4826.01 3154.18 84.21 18.00 301.25 2635.88
   11:38:06.634.30-Jan-2021 4826.01 3154.18 84.21 18.00 301.45 2635.88
   11:38:06.834.30-Jan-2021 4826.01 3154.16 84.21 18.00 301.65 2635.88
   11:38:07.034.30-Jan-2021 4826.01 3154.13 84.21 18.00 301.85 2635.88
   11:38:07.234.30-Jan-2021 4826.01 3154.21 84.20 18.00 302.05 2635.88
   11:38:07.434.30-Jan-2021 4826.01 3154.21 84.20 18.00 302.25 2635.88
   11:38:07.634.30-Jan-2021 4826.01 3154.21 84.20 18.00 302.45 2635.88
   11:38:07.834.30-Jan-2021 4826.01 3154.19 84.20 18.00 302.65 2635.88
   11:38:08.034.30-Jan-2021 4826.01 3154.17 84.20 18.00 302.85 2635.88
   11:38:08.235.30-Jan-2021 4826.01 3154.19 84.20 18.00 303.05 2635.88
   11:38:08.435.30-Jan-2021 4826.01 3154.19 84.20 18.00 303.25 2635.88
   11:38:08.635.30-Jan-2021 4826.01 3154.24 84.20 18.00 303.45 2635.88
   11:38:08.835.30-Jan-2021 4826.01 3154.17 84.20 18.00 303.65 2635.88
   11:38:09.035.30-Jan-2021 4826.01 3154.12 84.20 18.00 303.85 2635.88
   11:38:09.235.30-Jan-2021 4826.01 3154.24 84.20 18.00 304.05 2635.88
   11:38:09.435.30-Jan-2021 4826.01 3154.24 84.20 18.00 304.25 2635.88
   11:38:09.635.30-Jan-2021 4826.01 3154.13 84.20 18.00 304.45 2635.88
   11:38:09.835.30-Jan-2021 4826.01 3154.19 84.20 18.00 304.65 2635.88
   11:38:10.035.30-Jan-2021 4826.01 3154.16 84.20 18.00 304.85 2635.88
   11:38:10.235.30-Jan-2021 4826.01 3154.20 84.20 18.00 305.05 2635.88
   11:38:10.435.30-Jan-2021 4826.01 3154.20 84.20 18.00 305.25 2635.88
   11:38:10.635.30-Jan-2021 4826.01 3154.17 84.20 18.00 305.45 2635.88
   11:38:10.835.30-Jan-2021 4826.01 3154.16 84.20 18.00 305.65 2635.88
   11:38:11.035.30-Jan-2021 4826.01 3154.17 84.20 18.00 305.85 2635.88
   11:38:11.235.30-Jan-2021 4826.01 3154.18 84.19 18.00 306.05 2635.88
   11:38:11.435.30-Jan-2021 4826.01 3154.18 84.19 18.00 306.25 2635.88
   11:38:11.635.30-Jan-2021 4826.01 3154.17 84.19 18.00 306.45 2635.88
   11:38:11.835.30-Jan-2021 4826.01 3154.15 84.19 18.00 306.65 2635.88
   11:38:12.035.30-Jan-2021 4826.01 3154.16 84.19 18.00 306.85 2635.88
   11:38:12.235.30-Jan-2021 4826.01 3154.16 84.19 18.00 307.05 2635.88
   11:38:12.435.30-Jan-2021 4826.01 3154.16 84.19 18.00 307.25 2635.88
   11:38:12.635.30-Jan-2021 4826.01 3154.14 84.19 18.00 307.45 2635.88
   11:38:12.835.30-Jan-2021 4826.01 3154.16 84.19 18.00 307.65 2635.88
   11:38:13.035.30-Jan-2021 4826.01 3154.14 84.19 18.00 307.85 2635.88
   11:38:13.235.30-Jan-2021 4826.01 3154.13 84.19 18.00 308.05 2635.88
   11:38:13.435.30-Jan-2021 4826.01 3154.13 84.19 18.00 308.25 2635.88
   11:38:13.635.30-Jan-2021 4826.01 3154.31 84.19 18.00 308.45 2635.88
   11:38:13.836.30-Jan-2021 4826.01 3154.18 84.19 18.00 308.65 2635.88
   11:38:14.036.30-Jan-2021 4826.01 3154.17 84.19 18.00 308.86 2635.88
   11:38:14.236.30-Jan-2021 4826.01 3154.16 84.19 18.00 309.06 2635.88
   11:38:14.436.30-Jan-2021 4826.01 3154.16 84.19 18.00 309.26 2635.88
   11:38:14.636.30-Jan-2021 4826.01 3154.18 84.19 18.00 309.46 2635.88
   11:38:14.836.30-Jan-2021 4826.01 3154.17 84.19 18.00 309.66 2635.88
   11:38:15.036.30-Jan-2021 4826.01 3154.16 84.19 18.00 309.86 2635.88
   11:38:15.236.30-Jan-2021 4826.01 3154.15 84.18 18.00 310.06 2635.88
   11:38:15.436.30-Jan-2021 4826.01 3154.15 84.18 18.00 310.26 2635.88
   11:38:15.636.30-Jan-2021 4826.01 3154.15 84.18 18.00 310.46 2635.88
   11:38:15.836.30-Jan-2021 4826.01 3154.16 84.18 18.00 310.66 2635.88
   11:38:16.036.30-Jan-2021 4826.01 3154.14 84.18 18.00 310.86 2635.88
   11:38:16.236.30-Jan-2021 4826.01 3154.23 84.18 18.00 311.06 2635.88
   11:38:16.436.30-Jan-2021 4826.01 3154.23 84.18 18.00 311.26 2635.88
   11:38:16.636.30-Jan-2021 4826.01 3154.17 84.18 18.00 311.46 2635.88
   11:38:16.836.30-Jan-2021 4826.01 3154.18 84.18 18.00 311.66 2635.88
   11:38:17.036.30-Jan-2021 4826.01 3154.16 84.18 18.00 311.86 2635.88
   11:38:17.236.30-Jan-2021 4826.01 3154.14 84.18 18.00 312.06 2635.88
   11:38:17.436.30-Jan-2021 4826.01 3154.14 84.18 18.00 312.26 2635.88
   11:38:17.636.30-Jan-2021 4826.01 3154.20 84.18 18.00 312.46 2635.88
   11:38:17.836.30-Jan-2021 4826.01 3154.18 84.18 18.00 312.66 2635.88
   11:38:18.036.30-Jan-2021 4826.01 3154.14 84.18 18.00 312.86 2635.88
   11:38:18.236.30-Jan-2021 4826.01 3154.19 84.18 18.00 313.06 2635.88
   11:38:18.436.30-Jan-2021 4826.01 3154.19 84.18 18.00 313.26 2635.88
   11:38:18.636.30-Jan-2021 4826.01 3154.19 84.18 18.00 313.46 2635.88
   11:38:18.836.30-Jan-2021 4826.01 3154.18 84.18 18.00 313.66 2635.88
   11:38:19.036.30-Jan-2021 4826.01 3154.16 84.18 18.00 313.86 2635.88
   11:38:19.236.30-Jan-2021 4826.01 3154.17 84.17 18.00 314.06 2635.88
   11:38:19.437.30-Jan-2021 4826.01 3154.17 84.17 18.00 314.26 2635.88
   11:38:19.637.30-Jan-2021 4826.01 3154.25 84.17 18.00 314.46 2635.88
   11:38:19.837.30-Jan-2021 4826.01 3154.16 84.17 18.00 314.66 2635.88
   11:38:20.037.30-Jan-2021 4826.01 3154.13 84.17 18.00 314.86 2635.88
   11:38:20.237.30-Jan-2021 4826.01 3154.18 84.17 18.00 315.06 2635.88
   11:38:20.437.30-Jan-2021 4826.01 3154.18 84.17 18.00 315.26 2635.88
   11:38:20.637.30-Jan-2021 4826.01 3154.18 84.17 18.00 315.46 2635.88
   11:38:20.837.30-Jan-2021 4826.01 3154.17 84.17 18.00 315.66 2635.88
   11:38:21.037.30-Jan-2021 4826.01 3154.23 84.17 18.00 315.86 2635.88
   11:38:21.237.30-Jan-2021 4826.01 3154.16 84.17 18.00 316.06 2635.88
   11:38:21.437.30-Jan-2021 4826.01 3154.16 84.17 18.00 316.26 2635.88
