~Version Information
 VERS.                  2.0:   CWLS log ASCII Standard -VERSION 2.0
 WRAP.                   NO:   One line per depth step
~Well Information Block
#MNEM.UNIT     VALUE/NAME     DESCRIPTION
#---------     -----------    ---------------------------
 STRT.S             20:27:59 28-Jan-21: START TIME 20:27:59 28-Jan-21
 STOP.S             20:34:29 28-Jan-21: STOP TIME  20:34:29 28-Jan-21
 STEP.S                   0.00: STEP TIME
 NULL.                 -999.25: NULL VALUE
 DFWT.                        :  DIST FWL TEXT
 DFST.                        :  DIST FSL TEXT
 DMF .             Drill Floor:  DRILL MEAS FROM
 STIM.      00.00.00 25-Sep-20:  START TIME
 DATE.      16.12.48 31-Jan-21:  END TIME
 SPUD.               20-Sep-20:  SPUD DATE
 NREF.                    Grid:  NORTH REFERENCE
 HPTY.       Minimum Curvature:  HOLE POS TYPE
 DMOD.             Drill Model:  DRILL MOD DESC
 SVYD.                  Survey:  SURVEY DESC
 ILTD.               Lithology:  INTERP LTH DESC
 FTOP.          Formation Tops:  FORM TOPS DESC
 RIG .              East Azeri:  RIG NAME
 PDAT.          Mean Sea Level:  PERMANENT DATUM
 FLD .                     ACG:  FIELD NAME
 SON .        AZ-XX-0906591820:  JOB NUMBER
 CTRY.              Azerbaijan:  COUNTRY NAME
 WELL.                     D37:  WELL NAME
 SRVC.     Turan Drilling & Engineering:  CONTRACTOR
 COMP.     BP Exploration (Caspian Sea) ltd.:  COMPANY
 WTYP.                Deviated:  WELL TYPE
 MDS .        Operator Entered:  MAG DATA SOURCE
 UWI .                     N/A:  UNIQUE WELL IDENTIFIER
 API .                     N/A:  API NUMBER
 BASE.              Azerbaijan:  LOGGING EQUIPMENT BASE LOCATION
 REGN.                   EESSA:  REGION
 PROV.                    Baku:  PROVINCE
 STAT.                    Baku:  STATE NAME
 MWDS.                    Baku:  MWD SHOP
 JOBN.        AZ-XX-0906591820:  JOB TICKET NUMB
 DOE .                     N/A:  DOE NUMBER
 DCON.         Sperry Drilling:  DIRECTNL CONTR
 UNIT.                     N/A:  LOGGING EQUIPMENT ID
 CNTY.                        :  COUNTY
 LOC .                        :  LOCATION
 LMF .             Drill Floor:  LOG MEASURED FROM
 TVDS.m                  43.60:  TVDSS CORRECTN
 LATI.deg                40.02:  LATITUDE
 LONG.deg                51.45:  LONGITUDE
 WHNS.m                  11.04:  WELL HEAD N/S
 WHEW.m                 -12.38:  WELL HEAD E/W
 UTMX.m              538763.98:  UTM X
 UTMY.m             4431880.20:  UTM Y
 DFWL.m                   0.00:  DISTANCE FWL
 DFSL.m                   0.00:  DISTANCE FSL
 SDEP.m                 300.00:  START DEPTH
 TDD .m                4900.01:  TOTAL DEPTH (DRILLER)
 VSDR.deg               185.64:  VERT SEC DIRECT
 GVFD.g                   1.00:  GRAVITY FIELD
 MFLD.nT              50301.00:  MAGNETIC FIELD
 MDIP.deg                59.46:  MAGNETIC DIP
 MDEC.deg                 6.43:  MAGNETIC DECL
 GRDC.deg                 0.29:  GRID CORRECTION
 AZTC.deg                 6.14:  AZM TOTAL CORR
 EPD .m                   0.00:  ELEVATION
 EGL .m                   0.00:  GROUND ELEVATION
 WDMS.m                 151.80:  WD ELEV
 APD .m                  43.60:  DEPTH ABOVE PD
 DEP .m                 571.69:  DEPTH
 AGAP.m                  43.60:  AIR GAP
 VSEW.m                 -12.38:  VERT SEC E/W
 VSNS.m                  11.04:  VERT SEC N/S
 EKB .m                  43.60:  KB ELEVATION
 EDF .m                  43.60:  DF ELEVATION
 TDL .m                 412.00:  TOTAL DEPTH (LOGGER)
 VSC .                       0:  VS TO CLOSURE
 MAGU.                 1849300:  MAGUTM CHECKSUM
~Parameter Information Block
#MNEM.UNIT       Value        Description
#---------     -----------    ---------------------------
 AV  .mps                 2.21:  Ann Velocity 
 AVMX.mps                 2.53:  Max Ann Veloc 
 AZIF.deg               144.83:  Azm, Final 
 BHAT.        Rotary Steerable:  BHA Type 
 BROT.°/30m              -0.52:  Build Rotating 
 BS  .in                  6.50:  Bit Size 
 BTPL.psig              209.00:  Bit Press Loss 
 CABU.                      No:  Customer Abuse 
 CGEO.        Ali Isfandiyarov:  Customer Geo 
 COMM.                     ,´U:  Run Comments 1 
 TCS .hr                 61.31:  Time Ciculation Ended 
 CV  .mps                 4.66:  Crit Velocity 
 CVMX.mps                 5.02:  Max Crit Veloc 
 DD1 .          Fariz Nahmatov:  Direct Drillr 1 
 DD2 .            Musa Ahmadov:  Direct Drillr 2 
 DDSV.               Geo-Pilot:  DD Service 
 DEFF.%                 100.00:  % Det Eff 
 DLRX.°/30m               1.44:  Dogleg Rot Max 
 DLSO.°/30m               0.83:  Dogleg Oriented 
 DLSX.°/30m               1.44:  Dogleg Str Max 
 DRET.      08.30.00 30-Jan-21:  Drill End Time 
 DRST.      21.15.00 27-Jan-21:  Drill Start Tim 
 DTIM.hr                 37.28:  Time Drilling 
 EDEP.m                4867.01:  End Depth 
 ENG1.          Rasim Hashimov:  Engineer 1 
 ENG2.         Almaz Almadatov:  Engineer 2 
 ENG3.        Tamerlan Ahmadov:  Engineer 3 
 ETIM.      22.41.04 31-Jan-21:  End Time 
 FLOI.gpm               400.00:  Flow In 
 FLON.gpm               300.00:  Flow In Min 
 FLOS.cptm                0.00:  Fluid Loss 
 FLOX.gpm               400.00:  Flow In Max 
 HFLO.                      No:  High Flow 
 HPRE.                      No:  High Pressure 
 HTEM.                      No:  High Temp 
 HYDO.m                   1.80:  Hydro Offset 
 IFIN.deg                65.63:  Inc, Final 
 IMAX.deg                66.77:  Inc Max 
 IMIN.deg                65.61:  Inc Min 
 IMND.m                4612.67:  Inc Min Depth 
 IMXD.m                4811.63:  Inc Max Depth 
 JARR.                      No:  Jarring 
 LETM.      08.30.00 30-Jan-21:  Log End Time 
 LOST.hr                     0:  Lost Rig Time 
 LSTM.      21.15.00 27-Jan-21:  Log Start Time 
 MDCL.ppm             41000.00:  Mud Chlorides 
 MDES.     Inversion Oil/Synthetic:  Mud Desc 
 DFD .sg                  1.40:  Mud Density 
 MDMN.sg                  1.40:  Dens Mud Min 
 MDMX.sg                  1.40:  Dens Mud Max 
 MOIL.                      53:  Run Mud Oil % 
 MOWR.                   66:34:  Run Mud OWR 
 MSND.                     0.2:  Run Mud Sand % 
 MSOL.                    17.9:  Run Mud Solids% 
 DFV .spqt               77.00:  Mud Viscosity 
 MWOD.in                  4.75:  MWD Tool OD 
 MWSI.                      No:  Serv Intrp, MWD 
 OTIM.hr                110.38:  Time Operating 
 PCON.           Look Like New:  Pad Condition 
 PMAX.psia             5300.00:  Press Op, Max 
 PV  .cP                 57.00:  Mud PV 
 RUN .                    1200:  Run Number 
 ROPA.m/hr               13.00:  ROP Avg 
 ROPN.m/hr                9.00:  ROP Min 
 ROPX.m/hr               15.00:  ROP Max 
 RPMA.rpm               120.00:  RPM Surface Avg 
 RPMN.rpm               100.00:  RPM Surface Min 
 RPMX.rpm               135.00:  RPM Surface Max 
 RRUN.                    1200:  Rig Run Number 
 RTIM.hr                  2.65:  Time Reaming 
 SAZI.deg               145.04:  Azm, Start 
 SDEP.m                4455.01:  Start Depth 
 SIDD.                      No:  Serv Intrp, DD 
 SINC.deg                65.83:  Inc, Start 
 SPPA.psig             5037.00:  SPP Avg 
 SPPN.psig             4430.00:  SPP Min 
 SPPX.psig             5300.00:  SPP Max 
 STIM.      22.41.04 26-Jan-21:  Start Time 
 SVCS.                 DD, MWD:  Services 
 SVER.                    9.20:  Sperry Version 
 TDAT.m                 412.00:  Tot Depth Attmp 
 TDDF.                      No:  Trip for DD 
 TDLG.m                 412.00:  Tot Depth Loggd 
 TFF .                      No:  Trip for Fail 
 TQAA.f-kp               15.00:  Torque Abs Avg 
 TQAN.f-kp               12.00:  Torque Abs Min 
 TQAX.f-kp               17.00:  Torque Abs Max 
 TRRT.°/30m               1.18:  Turn Rotating 
 MRT .                     ADR:  Maximum Recorded Temperature 
 TTMX.degC               88.24:  Max Tool Temp 
 VS01.                90619458:  Virtual Str1 SN 
 VS02.                90519326:  Virtual Str2 SN 
 VS03.                90522176:  Virtual Str3 SN 
 VS04.                90512683:  Virtual Str4 SN 
 WBMN.klb                 1.00:  WOB Min 
 WITN.           Murad Giluyev:  Customer Rep 
 WITN.     Kamran Kemberlinski:  Customer Rep 2 
 WOBA.klb                 5.00:  WOB Avg 
 WOBX.klb                 9.00:  WOB Max 
 YP  .lhf2               41.00:  Yield Point 
~Curve Information Block
#MNEM.UNIT                 API CODE     Curve Description
#---------               -----------    ---------------------------
 TIME.HHMMSS            00 000 000 000:  GT Time & Date
 GTDEPTH.m              00 000 000 000:  GT Depth
 GTPQH.psia             00 000 000 000:  GT HR Quartz Pressure
 GTTQ.degC              00 000 000 000:  GT Quartz Temperature
 GTTN.NONE              00 000 000 000:  GT Test Number
 GTET.sec               00 000 000 000:  GT Elapsed Test Time
 GTTVD.m                00 000 000 000:  GT True Vertical Depth
#Other Information
#
#WARRANTY: Halliburton will use its best efforts to furnish customers with 
#accurate information and interpretations that are part of, and incident to, the services 
#provided.  However, Halliburton cannot and does not warrant the accuracy 
#or correctness of such information and interpretations.  Under no circumstances should any 
#such information or interpretation be relied upon as the sole basis for any drilling, 
#completion, production, or financial decision or any procedure involving any risk to the 
#safety of any drilling venture, drilling rig or its crew or any other third party.  The 
#Customer has full responsibility for all drilling, completion and production operation.  
#Halliburton makes no representations or warranties, either expressed or 
#implied, including, but not limited to, the implied warranties of merchantability or fitness 
#for a particular purpose, with respect to the services rendered.  In no event will 
#Halliburton be liable for failure to obtain any particular results or for 
#any damages, including, but not limited to, indirect, special or consequential damages, 
#resulting from the use of any information or interpretation provided by Halliburton.
#
~A           TIME           GTDEPTH  GTPQH  GTTQ  GTTN  GTET   GTTVD  
# ...
   20:32:58.428.28-Jan-2021 4575.01 3008.85 74.31 6.00 299.06 2534.93
   20:32:58.628.28-Jan-2021 4575.01 3008.85 74.31 6.00 299.26 2534.93
   20:32:58.828.28-Jan-2021 4575.01 3008.86 74.31 6.00 299.46 2534.93
   20:32:59.028.28-Jan-2021 4575.01 3008.90 74.31 6.00 299.66 2534.93
   20:32:59.228.28-Jan-2021 4575.01 3008.87 74.31 6.00 299.86 2534.93
   20:32:59.428.28-Jan-2021 4575.01 3008.89 74.31 6.00 300.06 2534.93
   20:32:59.628.28-Jan-2021 4575.01 3008.89 74.31 6.00 300.26 2534.93
   20:32:59.828.28-Jan-2021 4575.01 3008.87 74.31 6.00 300.46 2534.93
   20:33:00.028.28-Jan-2021 4575.01 3008.88 74.31 6.00 300.66 2534.93
   20:33:00.228.28-Jan-2021 4575.01 3008.87 74.31 6.00 300.86 2534.93
   20:33:00.428.28-Jan-2021 4575.01 3008.87 74.31 6.00 301.06 2534.93
   20:33:00.628.28-Jan-2021 4575.01 3008.87 74.31 6.00 301.26 2534.93
   20:33:00.828.28-Jan-2021 4575.01 3008.83 74.31 6.00 301.46 2534.93
   20:33:01.028.28-Jan-2021 4575.01 3008.93 74.31 6.00 301.66 2534.93
   20:33:01.228.28-Jan-2021 4575.01 3008.87 74.31 6.00 301.86 2534.93
   20:33:01.428.28-Jan-2021 4575.01 3008.88 74.31 6.00 302.06 2534.93
   20:33:01.628.28-Jan-2021 4575.01 3008.88 74.31 6.00 302.26 2534.93
   20:33:01.828.28-Jan-2021 4575.01 3008.89 74.30 6.00 302.46 2534.93
   20:33:02.028.28-Jan-2021 4575.01 3008.86 74.30 6.00 302.66 2534.93
   20:33:02.228.28-Jan-2021 4575.01 3008.90 74.30 6.00 302.86 2534.93
   20:33:02.428.28-Jan-2021 4575.01 3008.89 74.30 6.00 303.06 2534.93
   20:33:02.628.28-Jan-2021 4575.01 3008.89 74.30 6.00 303.26 2534.93
   20:33:02.828.28-Jan-2021 4575.01 3008.79 74.30 6.00 303.46 2534.93
   20:33:03.028.28-Jan-2021 4575.01 3008.97 74.30 6.00 303.66 2534.93
   20:33:03.228.28-Jan-2021 4575.01 3008.86 74.30 6.00 303.86 2534.93
   20:33:03.429.28-Jan-2021 4575.01 3008.89 74.30 6.00 304.06 2534.93
   20:33:03.629.28-Jan-2021 4575.01 3008.89 74.30 6.00 304.26 2534.93
   20:33:03.829.28-Jan-2021 4575.01 3008.88 74.30 6.00 304.46 2534.93
   20:33:04.029.28-Jan-2021 4575.01 3008.88 74.30 6.00 304.66 2534.93
   20:33:04.229.28-Jan-2021 4575.01 3008.85 74.30 6.00 304.86 2534.93
   20:33:04.429.28-Jan-2021 4575.01 3008.93 74.30 6.00 305.06 2534.93
   20:33:04.629.28-Jan-2021 4575.01 3008.93 74.30 6.00 305.26 2534.93
   20:33:04.829.28-Jan-2021 4575.01 3008.89 74.30 6.00 305.46 2534.93
   20:33:05.029.28-Jan-2021 4575.01 3008.88 74.30 6.00 305.66 2534.93
   20:33:05.229.28-Jan-2021 4575.01 3008.88 74.30 6.00 305.86 2534.93
   20:33:05.429.28-Jan-2021 4575.01 3008.85 74.30 6.00 306.06 2534.93
   20:33:05.629.28-Jan-2021 4575.01 3008.85 74.30 6.00 306.26 2534.93
   20:33:05.829.28-Jan-2021 4575.01 3008.92 74.30 6.00 306.46 2534.93
   20:33:06.029.28-Jan-2021 4575.01 3008.84 74.30 6.00 306.66 2534.93
   20:33:06.229.28-Jan-2021 4575.01 3008.93 74.30 6.00 306.86 2534.93
   20:33:06.429.28-Jan-2021 4575.01 3008.87 74.30 6.00 307.06 2534.93
   20:33:06.629.28-Jan-2021 4575.01 3008.87 74.30 6.00 307.26 2534.93
   20:33:06.829.28-Jan-2021 4575.01 3008.87 74.30 6.00 307.46 2534.93
   20:33:07.029.28-Jan-2021 4575.01 3008.89 74.30 6.00 307.66 2534.93
   20:33:07.229.28-Jan-2021 4575.01 3008.88 74.30 6.00 307.86 2534.93
   20:33:07.429.28-Jan-2021 4575.01 3008.88 74.30 6.00 308.06 2534.93
   20:33:07.629.28-Jan-2021 4575.01 3008.88 74.30 6.00 308.26 2534.93
   20:33:07.829.28-Jan-2021 4575.01 3008.87 74.30 6.00 308.46 2534.93
   20:33:08.029.28-Jan-2021 4575.01 3008.88 74.30 6.00 308.66 2534.93
   20:33:08.229.28-Jan-2021 4575.01 3008.86 74.30 6.00 308.86 2534.93
   20:33:08.429.28-Jan-2021 4575.01 3008.90 74.30 6.00 309.06 2534.93
   20:33:08.630.28-Jan-2021 4575.01 3008.90 74.30 6.00 309.26 2534.93
   20:33:08.830.28-Jan-2021 4575.01 3008.88 74.29 6.00 309.46 2534.93
   20:33:09.030.28-Jan-2021 4575.01 3008.76 74.29 6.00 309.66 2534.93
   20:33:09.230.28-Jan-2021 4575.01 3008.96 74.29 6.00 309.86 2534.93
   20:33:09.430.28-Jan-2021 4575.01 3008.86 74.29 6.00 310.06 2534.93
   20:33:09.630.28-Jan-2021 4575.01 3008.86 74.29 6.00 310.26 2534.93
   20:33:09.830.28-Jan-2021 4575.01 3008.89 74.29 6.00 310.46 2534.93
   20:33:10.030.28-Jan-2021 4575.01 3008.87 74.29 6.00 310.66 2534.93
   20:33:10.230.28-Jan-2021 4575.01 3008.89 74.29 6.00 310.86 2534.93
   20:33:10.430.28-Jan-2021 4575.01 3008.86 74.29 6.00 311.06 2534.93
   20:33:10.630.28-Jan-2021 4575.01 3008.86 74.29 6.00 311.26 2534.93
   20:33:10.830.28-Jan-2021 4575.01 3008.86 74.29 6.00 311.46 2534.93
   20:33:11.030.28-Jan-2021 4575.01 3008.89 74.29 6.00 311.66 2534.93
   20:33:11.230.28-Jan-2021 4575.01 3008.85 74.29 6.00 311.86 2534.93
   20:33:11.430.28-Jan-2021 4575.01 3008.90 74.29 6.00 312.06 2534.93
   20:33:11.630.28-Jan-2021 4575.01 3008.90 74.29 6.00 312.26 2534.93
   20:33:11.830.28-Jan-2021 4575.01 3008.88 74.29 6.00 312.46 2534.93
   20:33:12.030.28-Jan-2021 4575.01 3008.86 74.29 6.00 312.66 2534.93
   20:33:12.230.28-Jan-2021 4575.01 3008.84 74.29 6.00 312.86 2534.93
   20:33:12.430.28-Jan-2021 4575.01 3008.85 74.29 6.00 313.06 2534.93
   20:33:12.630.28-Jan-2021 4575.01 3008.85 74.29 6.00 313.26 2534.93
   20:33:12.830.28-Jan-2021 4575.01 3008.85 74.29 6.00 313.46 2534.93
   20:33:13.030.28-Jan-2021 4575.01 3008.81 74.29 6.00 313.66 2534.93
   20:33:13.230.28-Jan-2021 4575.01 3008.95 74.29 6.00 313.86 2534.93
   20:33:13.430.28-Jan-2021 4575.01 3008.88 74.29 6.00 314.06 2534.93
   20:33:13.631.28-Jan-2021 4575.01 3008.88 74.29 6.00 314.26 2534.93
   20:33:13.831.28-Jan-2021 4575.01 3008.89 74.29 6.00 314.46 2534.93
   20:33:14.031.28-Jan-2021 4575.01 3008.87 74.29 6.00 314.66 2534.93
   20:33:14.231.28-Jan-2021 4575.01 3008.87 74.29 6.00 314.86 2534.93
   20:33:14.431.28-Jan-2021 4575.01 3008.83 74.29 6.00 315.06 2534.93
   20:33:14.631.28-Jan-2021 4575.01 3008.83 74.29 6.00 315.26 2534.93
   20:33:14.831.28-Jan-2021 4575.01 3008.87 74.29 6.00 315.46 2534.93
   20:33:15.031.28-Jan-2021 4575.01 3008.88 74.29 6.00 315.66 2534.93
   20:33:15.231.28-Jan-2021 4575.01 3008.77 74.29 6.00 315.86 2534.93
   20:33:15.431.28-Jan-2021 4575.01 3008.96 74.29 6.00 316.06 2534.93
   20:33:15.631.28-Jan-2021 4575.01 3008.96 74.29 6.00 316.26 2534.93
   20:33:15.831.28-Jan-2021 4575.01 3008.87 74.29 6.00 316.46 2534.93
   20:33:16.031.28-Jan-2021 4575.01 3008.89 74.29 6.00 316.66 2534.93
   20:33:16.231.28-Jan-2021 4575.01 3008.86 74.28 6.00 316.86 2534.93
   20:33:16.431.28-Jan-2021 4575.01 3008.88 74.28 6.00 317.06 2534.93
   20:33:16.631.28-Jan-2021 4575.01 3008.88 74.28 6.00 317.26 2534.93
   20:33:16.831.28-Jan-2021 4575.01 3008.94 74.28 6.00 317.46 2534.93
   20:33:17.031.28-Jan-2021 4575.01 3008.83 74.28 6.00 317.66 2534.93
   20:33:17.231.28-Jan-2021 4575.01 3008.88 74.28 6.00 317.86 2534.93
   20:33:17.431.28-Jan-2021 4575.01 3008.87 74.28 6.00 318.06 2534.93
   20:33:17.631.28-Jan-2021 4575.01 3008.87 74.28 6.00 318.26 2534.93
   20:33:17.831.28-Jan-2021 4575.01 3008.88 74.28 6.00 318.46 2534.93
   20:33:18.031.28-Jan-2021 4575.01 3008.85 74.28 6.00 318.66 2534.93
   20:33:18.231.28-Jan-2021 4575.01 3008.90 74.28 6.00 318.86 2534.93
   20:33:18.431.28-Jan-2021 4575.01 3008.85 74.28 6.00 319.06 2534.93
   20:33:18.631.28-Jan-2021 4575.01 3008.85 74.28 6.00 319.26 2534.93
   20:33:18.832.28-Jan-2021 4575.01 3008.85 74.28 6.00 319.46 2534.93
   20:33:19.032.28-Jan-2021 4575.01 3008.88 74.28 6.00 319.66 2534.93
   20:33:19.232.28-Jan-2021 4575.01 3008.86 74.28 6.00 319.86 2534.93
   20:33:19.432.28-Jan-2021 4575.01 3008.87 74.28 6.00 320.06 2534.93
   20:33:19.632.28-Jan-2021 4575.01 3008.87 74.28 6.00 320.26 2534.93
   20:33:19.832.28-Jan-2021 4575.01 3008.87 74.28 6.00 320.46 2534.93
   20:33:20.032.28-Jan-2021 4575.01 3008.87 74.28 6.00 320.66 2534.93
   20:33:20.232.28-Jan-2021 4575.01 3008.86 74.28 6.00 320.86 2534.93
   20:33:20.432.28-Jan-2021 4575.01 3008.87 74.28 6.00 321.06 2534.93
   20:33:20.632.28-Jan-2021 4575.01 3008.87 74.28 6.00 321.26 2534.93
   20:33:20.832.28-Jan-2021 4575.01 3008.92 74.28 6.00 321.46 2534.93
   20:33:21.032.28-Jan-2021 4575.01 3008.85 74.28 6.00 321.66 2534.93
   20:33:21.232.28-Jan-2021 4575.01 3008.91 74.28 6.00 321.86 2534.93
