~Version Information
 VERS.                  2.0:   CWLS log ASCII Standard -VERSION 2.0
 WRAP.                   NO:   One line per depth step
~Well Information Block
#MNEM.UNIT     VALUE/NAME     DESCRIPTION
#---------     -----------    ---------------------------
 STRT.S             05:51:52 30-Jan-21: START TIME 05:51:52 30-Jan-21
 STOP.S             05:58:20 30-Jan-21: STOP TIME  05:58:20 30-Jan-21
 STEP.S                   0.00: STEP TIME
 NULL.                 -999.25: NULL VALUE
 DFWT.                        :  DIST FWL TEXT
 DFST.                        :  DIST FSL TEXT
 DMF .             Drill Floor:  DRILL MEAS FROM
 STIM.      00.00.00 25-Sep-20:  START TIME
 DATE.      16.12.48 31-Jan-21:  END TIME
 SPUD.               20-Sep-20:  SPUD DATE
 NREF.                    Grid:  NORTH REFERENCE
 HPTY.       Minimum Curvature:  HOLE POS TYPE
 DMOD.             Drill Model:  DRILL MOD DESC
 SVYD.                  Survey:  SURVEY DESC
 ILTD.               Lithology:  INTERP LTH DESC
 FTOP.          Formation Tops:  FORM TOPS DESC
 RIG .              East Azeri:  RIG NAME
 PDAT.          Mean Sea Level:  PERMANENT DATUM
 FLD .                     ACG:  FIELD NAME
 SON .        AZ-XX-0906591820:  JOB NUMBER
 CTRY.              Azerbaijan:  COUNTRY NAME
 WELL.                     D37:  WELL NAME
 SRVC.     Turan Drilling & Engineering:  CONTRACTOR
 COMP.     BP Exploration (Caspian Sea) ltd.:  COMPANY
 WTYP.                Deviated:  WELL TYPE
 MDS .        Operator Entered:  MAG DATA SOURCE
 UWI .                     N/A:  UNIQUE WELL IDENTIFIER
 API .                     N/A:  API NUMBER
 BASE.              Azerbaijan:  LOGGING EQUIPMENT BASE LOCATION
 REGN.                   EESSA:  REGION
 PROV.                    Baku:  PROVINCE
 STAT.                    Baku:  STATE NAME
 MWDS.                    Baku:  MWD SHOP
 JOBN.        AZ-XX-0906591820:  JOB TICKET NUMB
 DOE .                     N/A:  DOE NUMBER
 DCON.         Sperry Drilling:  DIRECTNL CONTR
 UNIT.                     N/A:  LOGGING EQUIPMENT ID
 CNTY.                        :  COUNTY
 LOC .                        :  LOCATION
 LMF .             Drill Floor:  LOG MEASURED FROM
 TVDS.m                  43.60:  TVDSS CORRECTN
 LATI.deg                40.02:  LATITUDE
 LONG.deg                51.45:  LONGITUDE
 WHNS.m                  11.04:  WELL HEAD N/S
 WHEW.m                 -12.38:  WELL HEAD E/W
 UTMX.m              538763.98:  UTM X
 UTMY.m             4431880.20:  UTM Y
 DFWL.m                   0.00:  DISTANCE FWL
 DFSL.m                   0.00:  DISTANCE FSL
 SDEP.m                 300.00:  START DEPTH
 TDD .m                4900.01:  TOTAL DEPTH (DRILLER)
 VSDR.deg               185.64:  VERT SEC DIRECT
 GVFD.g                   1.00:  GRAVITY FIELD
 MFLD.nT              50301.00:  MAGNETIC FIELD
 MDIP.deg                59.46:  MAGNETIC DIP
 MDEC.deg                 6.43:  MAGNETIC DECL
 GRDC.deg                 0.29:  GRID CORRECTION
 AZTC.deg                 6.14:  AZM TOTAL CORR
 EPD .m                   0.00:  ELEVATION
 EGL .m                   0.00:  GROUND ELEVATION
 WDMS.m                 151.80:  WD ELEV
 APD .m                  43.60:  DEPTH ABOVE PD
 DEP .m                 571.69:  DEPTH
 AGAP.m                  43.60:  AIR GAP
 VSEW.m                 -12.38:  VERT SEC E/W
 VSNS.m                  11.04:  VERT SEC N/S
 EKB .m                  43.60:  KB ELEVATION
 EDF .m                  43.60:  DF ELEVATION
 TDL .m                 412.00:  TOTAL DEPTH (LOGGER)
 VSC .                       0:  VS TO CLOSURE
 MAGU.                 1849300:  MAGUTM CHECKSUM
~Parameter Information Block
#MNEM.UNIT       Value        Description
#---------     -----------    ---------------------------
 AV  .mps                 2.21:  Ann Velocity 
 AVMX.mps                 2.53:  Max Ann Veloc 
 AZIF.deg               144.83:  Azm, Final 
 BHAT.        Rotary Steerable:  BHA Type 
 BROT.°/30m              -0.52:  Build Rotating 
 BS  .in                  6.50:  Bit Size 
 BTPL.psig              209.00:  Bit Press Loss 
 CABU.                      No:  Customer Abuse 
 CGEO.        Ali Isfandiyarov:  Customer Geo 
 COMM.                     ü:x:  Run Comments 1 
 TCS .hr                 61.31:  Time Ciculation Ended 
 CV  .mps                 4.66:  Crit Velocity 
 CVMX.mps                 5.02:  Max Crit Veloc 
 DD1 .          Fariz Nahmatov:  Direct Drillr 1 
 DD2 .            Musa Ahmadov:  Direct Drillr 2 
 DDSV.               Geo-Pilot:  DD Service 
 DEFF.%                 100.00:  % Det Eff 
 DLRX.°/30m               1.44:  Dogleg Rot Max 
 DLSO.°/30m               0.83:  Dogleg Oriented 
 DLSX.°/30m               1.44:  Dogleg Str Max 
 DRET.      08.30.00 30-Jan-21:  Drill End Time 
 DRST.      21.15.00 27-Jan-21:  Drill Start Tim 
 DTIM.hr                 37.28:  Time Drilling 
 EDEP.m                4867.01:  End Depth 
 ENG1.          Rasim Hashimov:  Engineer 1 
 ENG2.         Almaz Almadatov:  Engineer 2 
 ENG3.        Tamerlan Ahmadov:  Engineer 3 
 ETIM.      22.41.04 31-Jan-21:  End Time 
 FLOI.gpm               400.00:  Flow In 
 FLON.gpm               300.00:  Flow In Min 
 FLOS.cptm                0.00:  Fluid Loss 
 FLOX.gpm               400.00:  Flow In Max 
 HFLO.                      No:  High Flow 
 HPRE.                      No:  High Pressure 
 HTEM.                      No:  High Temp 
 HYDO.m                   1.80:  Hydro Offset 
 IFIN.deg                65.63:  Inc, Final 
 IMAX.deg                66.77:  Inc Max 
 IMIN.deg                65.61:  Inc Min 
 IMND.m                4612.67:  Inc Min Depth 
 IMXD.m                4811.63:  Inc Max Depth 
 JARR.                      No:  Jarring 
 LETM.      08.30.00 30-Jan-21:  Log End Time 
 LOST.hr                     0:  Lost Rig Time 
 LSTM.      21.15.00 27-Jan-21:  Log Start Time 
 MDCL.ppm             41000.00:  Mud Chlorides 
 MDES.     Inversion Oil/Synthetic:  Mud Desc 
 DFD .sg                  1.40:  Mud Density 
 MDMN.sg                  1.40:  Dens Mud Min 
 MDMX.sg                  1.40:  Dens Mud Max 
 MOIL.                      53:  Run Mud Oil % 
 MOWR.                   66:34:  Run Mud OWR 
 MSND.                     0.2:  Run Mud Sand % 
 MSOL.                    17.9:  Run Mud Solids% 
 DFV .spqt               77.00:  Mud Viscosity 
 MWOD.in                  4.75:  MWD Tool OD 
 MWSI.                      No:  Serv Intrp, MWD 
 OTIM.hr                110.38:  Time Operating 
 PCON.           Look Like New:  Pad Condition 
 PMAX.psia             5300.00:  Press Op, Max 
 PV  .cP                 57.00:  Mud PV 
 RUN .                    1200:  Run Number 
 ROPA.m/hr               13.00:  ROP Avg 
 ROPN.m/hr                9.00:  ROP Min 
 ROPX.m/hr               15.00:  ROP Max 
 RPMA.rpm               120.00:  RPM Surface Avg 
 RPMN.rpm               100.00:  RPM Surface Min 
 RPMX.rpm               135.00:  RPM Surface Max 
 RRUN.                    1200:  Rig Run Number 
 RTIM.hr                  2.65:  Time Reaming 
 SAZI.deg               145.04:  Azm, Start 
 SDEP.m                4455.01:  Start Depth 
 SIDD.                      No:  Serv Intrp, DD 
 SINC.deg                65.83:  Inc, Start 
 SPPA.psig             5037.00:  SPP Avg 
 SPPN.psig             4430.00:  SPP Min 
 SPPX.psig             5300.00:  SPP Max 
 STIM.      22.41.04 26-Jan-21:  Start Time 
 SVCS.                 DD, MWD:  Services 
 SVER.                    9.20:  Sperry Version 
 TDAT.m                 412.00:  Tot Depth Attmp 
 TDDF.                      No:  Trip for DD 
 TDLG.m                 412.00:  Tot Depth Loggd 
 TFF .                      No:  Trip for Fail 
 TQAA.f-kp               15.00:  Torque Abs Avg 
 TQAN.f-kp               12.00:  Torque Abs Min 
 TQAX.f-kp               17.00:  Torque Abs Max 
 TRRT.°/30m               1.18:  Turn Rotating 
 MRT .                     ADR:  Maximum Recorded Temperature 
 TTMX.degC               88.24:  Max Tool Temp 
 VS01.                90619458:  Virtual Str1 SN 
 VS02.                90519326:  Virtual Str2 SN 
 VS03.                90522176:  Virtual Str3 SN 
 VS04.                90512683:  Virtual Str4 SN 
 WBMN.klb                 1.00:  WOB Min 
 WITN.           Murad Giluyev:  Customer Rep 
 WITN.     Kamran Kemberlinski:  Customer Rep 2 
 WOBA.klb                 5.00:  WOB Avg 
 WOBX.klb                 9.00:  WOB Max 
 YP  .lhf2               41.00:  Yield Point 
~Curve Information Block
#MNEM.UNIT                 API CODE     Curve Description
#---------               -----------    ---------------------------
 TIME.HHMMSS            00 000 000 000:  GT Time & Date
 GTDEPTH.m              00 000 000 000:  GT Depth
 GTPQH.psia             00 000 000 000:  GT HR Quartz Pressure
 GTTQ.degC              00 000 000 000:  GT Quartz Temperature
 GTTN.NONE              00 000 000 000:  GT Test Number
 GTET.sec               00 000 000 000:  GT Elapsed Test Time
 GTTVD.m                00 000 000 000:  GT True Vertical Depth
#Other Information
#
#WARRANTY: Halliburton will use its best efforts to furnish customers with 
#accurate information and interpretations that are part of, and incident to, the services 
#provided.  However, Halliburton cannot and does not warrant the accuracy 
#or correctness of such information and interpretations.  Under no circumstances should any 
#such information or interpretation be relied upon as the sole basis for any drilling, 
#completion, production, or financial decision or any procedure involving any risk to the 
#safety of any drilling venture, drilling rig or its crew or any other third party.  The 
#Customer has full responsibility for all drilling, completion and production operation.  
#Halliburton makes no representations or warranties, either expressed or 
#implied, including, but not limited to, the implied warranties of merchantability or fitness 
#for a particular purpose, with respect to the services rendered.  In no event will 
#Halliburton be liable for failure to obtain any particular results or for 
#any damages, including, but not limited to, indirect, special or consequential damages, 
#resulting from the use of any information or interpretation provided by Halliburton.
#
~A           TIME           GTDEPTH  GTPQH  GTTQ  GTTN   GTET   GTTVD  
# ...
   05:56:00.772.30-Jan-2021 4813.01 3134.26 83.86 17.00 248.63 2630.70
   05:56:00.972.30-Jan-2021 4813.01 3134.23 83.86 17.00 248.83 2630.70
   05:56:01.172.30-Jan-2021 4813.01 3134.26 83.86 17.00 249.03 2630.70
   05:56:01.372.30-Jan-2021 4813.01 3134.26 83.86 17.00 249.23 2630.70
   05:56:01.572.30-Jan-2021 4813.01 3136.25 83.86 17.00 249.43 2630.70
   05:56:01.772.30-Jan-2021 4813.01 3148.64 83.86 17.00 249.63 2630.70
   05:56:01.972.30-Jan-2021 4813.01 3148.77 83.85 17.00 249.83 2630.70
   05:56:02.172.30-Jan-2021 4813.01 3148.80 83.85 17.00 250.03 2630.70
   05:56:02.372.30-Jan-2021 4813.01 3148.80 83.85 17.00 250.23 2630.70
   05:56:02.572.30-Jan-2021 4813.01 3148.82 83.85 17.00 250.43 2630.70
   05:56:02.772.30-Jan-2021 4813.01 3148.84 83.85 17.00 250.63 2630.70
   05:56:02.972.30-Jan-2021 4813.01 3148.85 83.85 17.00 250.83 2630.70
   05:56:03.172.30-Jan-2021 4813.01 3148.85 83.85 17.00 251.03 2630.70
   05:56:03.372.30-Jan-2021 4813.01 3148.85 83.85 17.00 251.23 2630.70
   05:56:03.572.30-Jan-2021 4813.01 3148.87 83.85 17.00 251.43 2630.70
   05:56:03.772.30-Jan-2021 4813.01 3148.87 83.85 17.00 251.63 2630.70
   05:56:03.973.30-Jan-2021 4813.01 3148.82 83.85 17.00 251.83 2630.70
   05:56:04.173.30-Jan-2021 4813.01 3148.94 83.85 17.00 252.03 2630.70
   05:56:04.373.30-Jan-2021 4813.01 3148.94 83.85 17.00 252.23 2630.70
   05:56:04.573.30-Jan-2021 4813.01 3148.88 83.85 17.00 252.43 2630.70
   05:56:04.773.30-Jan-2021 4813.01 3148.90 83.85 17.00 252.63 2630.70
   05:56:04.973.30-Jan-2021 4813.01 3148.88 83.85 17.00 252.83 2630.70
   05:56:05.173.30-Jan-2021 4813.01 3148.90 83.85 17.00 253.03 2630.70
   05:56:05.373.30-Jan-2021 4813.01 3148.90 83.85 17.00 253.23 2630.70
   05:56:05.573.30-Jan-2021 4813.01 3148.90 83.85 17.00 253.43 2630.70
   05:56:05.773.30-Jan-2021 4813.01 3148.89 83.85 17.00 253.63 2630.70
   05:56:05.973.30-Jan-2021 4813.01 3148.90 83.84 17.00 253.83 2630.70
   05:56:06.173.30-Jan-2021 4813.01 3148.90 83.84 17.00 254.03 2630.70
   05:56:06.373.30-Jan-2021 4813.01 3148.90 83.84 17.00 254.23 2630.70
   05:56:06.573.30-Jan-2021 4813.01 3148.90 83.84 17.00 254.43 2630.70
   05:56:06.773.30-Jan-2021 4813.01 3148.89 83.84 17.00 254.63 2630.70
   05:56:06.973.30-Jan-2021 4813.01 3148.91 83.84 17.00 254.83 2630.70
   05:56:07.173.30-Jan-2021 4813.01 3148.84 83.84 17.00 255.03 2630.70
   05:56:07.373.30-Jan-2021 4813.01 3148.84 83.84 17.00 255.23 2630.70
   05:56:07.573.30-Jan-2021 4813.01 3148.91 83.84 17.00 255.43 2630.70
   05:56:07.773.30-Jan-2021 4813.01 3148.91 83.84 17.00 255.63 2630.70
   05:56:07.973.30-Jan-2021 4813.01 3148.89 83.84 17.00 255.83 2630.70
   05:56:08.173.30-Jan-2021 4813.01 3148.93 83.84 17.00 256.03 2630.70
   05:56:08.373.30-Jan-2021 4813.01 3148.93 83.84 17.00 256.23 2630.70
   05:56:08.573.30-Jan-2021 4813.01 3148.92 83.84 17.00 256.43 2630.70
   05:56:08.773.30-Jan-2021 4813.01 3148.92 83.84 17.00 256.63 2630.70
   05:56:08.973.30-Jan-2021 4813.01 3148.88 83.84 17.00 256.83 2630.70
   05:56:09.173.30-Jan-2021 4813.01 3148.92 83.84 17.00 257.03 2630.70
   05:56:09.373.30-Jan-2021 4813.01 3148.92 83.84 17.00 257.23 2630.70
   05:56:09.573.30-Jan-2021 4813.01 3148.94 83.84 17.00 257.43 2630.70
   05:56:09.773.30-Jan-2021 4813.01 3148.91 83.84 17.00 257.63 2630.70
   05:56:09.973.30-Jan-2021 4813.01 3148.89 83.83 17.00 257.83 2630.70
   05:56:10.173.30-Jan-2021 4813.01 3148.92 83.83 17.00 258.03 2630.70
   05:56:10.373.30-Jan-2021 4813.01 3148.92 83.83 17.00 258.23 2630.70
   05:56:10.573.30-Jan-2021 4813.01 3148.94 83.83 17.00 258.43 2630.70
   05:56:10.773.30-Jan-2021 4813.01 3148.91 83.83 17.00 258.63 2630.70
   05:56:10.973.30-Jan-2021 4813.01 3148.89 83.83 17.00 258.83 2630.70
   05:56:11.173.30-Jan-2021 4813.01 3148.94 83.83 17.00 259.03 2630.70
   05:56:11.373.30-Jan-2021 4813.01 3148.94 83.83 17.00 259.23 2630.70
   05:56:11.574.30-Jan-2021 4813.01 3148.99 83.83 17.00 259.43 2630.70
   05:56:11.774.30-Jan-2021 4813.01 3148.91 83.83 17.00 259.63 2630.70
   05:56:11.974.30-Jan-2021 4813.01 3148.90 83.83 17.00 259.83 2630.70
   05:56:12.174.30-Jan-2021 4813.01 3148.92 83.83 17.00 260.03 2630.70
   05:56:12.374.30-Jan-2021 4813.01 3148.92 83.83 17.00 260.23 2630.70
   05:56:12.574.30-Jan-2021 4813.01 3148.92 83.83 17.00 260.43 2630.70
   05:56:12.774.30-Jan-2021 4813.01 3148.91 83.83 17.00 260.63 2630.70
   05:56:12.974.30-Jan-2021 4813.01 3148.90 83.83 17.00 260.83 2630.70
   05:56:13.174.30-Jan-2021 4813.01 3148.90 83.83 17.00 261.03 2630.70
   05:56:13.374.30-Jan-2021 4813.01 3148.90 83.83 17.00 261.23 2630.70
   05:56:13.574.30-Jan-2021 4813.01 3148.90 83.83 17.00 261.43 2630.70
   05:56:13.774.30-Jan-2021 4813.01 3148.91 83.83 17.00 261.63 2630.70
   05:56:13.974.30-Jan-2021 4813.01 3148.90 83.82 17.00 261.83 2630.70
   05:56:14.174.30-Jan-2021 4813.01 3148.91 83.82 17.00 262.03 2630.70
   05:56:14.374.30-Jan-2021 4813.01 3148.91 83.82 17.00 262.23 2630.70
   05:56:14.574.30-Jan-2021 4813.01 3148.92 83.82 17.00 262.43 2630.70
   05:56:14.774.30-Jan-2021 4813.01 3148.90 83.82 17.00 262.63 2630.70
   05:56:14.974.30-Jan-2021 4813.01 3148.84 83.82 17.00 262.83 2630.70
   05:56:15.174.30-Jan-2021 4813.01 3148.97 83.82 17.00 263.03 2630.70
   05:56:15.374.30-Jan-2021 4813.01 3148.97 83.82 17.00 263.23 2630.70
   05:56:15.574.30-Jan-2021 4813.01 3148.90 83.82 17.00 263.43 2630.70
   05:56:15.774.30-Jan-2021 4813.01 3148.93 83.82 17.00 263.63 2630.70
   05:56:15.974.30-Jan-2021 4813.01 3148.89 83.82 17.00 263.83 2630.70
   05:56:16.174.30-Jan-2021 4813.01 3148.92 83.82 17.00 264.03 2630.70
   05:56:16.374.30-Jan-2021 4813.01 3148.92 83.82 17.00 264.23 2630.70
   05:56:16.574.30-Jan-2021 4813.01 3148.90 83.82 17.00 264.43 2630.70
   05:56:16.774.30-Jan-2021 4813.01 3148.91 83.82 17.00 264.63 2630.70
   05:56:16.974.30-Jan-2021 4813.01 3148.90 83.82 17.00 264.83 2630.70
   05:56:17.174.30-Jan-2021 4813.01 3148.91 83.82 17.00 265.03 2630.70
   05:56:17.374.30-Jan-2021 4813.01 3148.91 83.82 17.00 265.23 2630.70
   05:56:17.574.30-Jan-2021 4813.01 3148.90 83.82 17.00 265.43 2630.70
   05:56:17.774.30-Jan-2021 4813.01 3148.89 83.82 17.00 265.63 2630.70
   05:56:17.974.30-Jan-2021 4813.01 3148.90 83.82 17.00 265.83 2630.70
   05:56:18.174.30-Jan-2021 4813.01 3148.84 83.81 17.00 266.03 2630.70
   05:56:18.374.30-Jan-2021 4813.01 3148.84 83.81 17.00 266.23 2630.70
   05:56:18.574.30-Jan-2021 4813.01 3148.91 83.81 17.00 266.43 2630.70
   05:56:18.774.30-Jan-2021 4813.01 3148.90 83.81 17.00 266.64 2630.70
   05:56:18.974.30-Jan-2021 4813.01 3148.89 83.81 17.00 266.84 2630.70
   05:56:19.175.30-Jan-2021 4813.01 3148.92 83.81 17.00 267.04 2630.70
   05:56:19.375.30-Jan-2021 4813.01 3148.92 83.81 17.00 267.24 2630.70
   05:56:19.575.30-Jan-2021 4813.01 3148.93 83.81 17.00 267.44 2630.70
   05:56:19.775.30-Jan-2021 4813.01 3148.89 83.81 17.00 267.64 2630.70
   05:56:19.975.30-Jan-2021 4813.01 3148.91 83.81 17.00 267.84 2630.70
   05:56:20.175.30-Jan-2021 4813.01 3148.92 83.81 17.00 268.04 2630.70
   05:56:20.375.30-Jan-2021 4813.01 3148.92 83.81 17.00 268.24 2630.70
   05:56:20.575.30-Jan-2021 4813.01 3148.93 83.81 17.00 268.44 2630.70
   05:56:20.775.30-Jan-2021 4813.01 3148.88 83.81 17.00 268.64 2630.70
   05:56:20.975.30-Jan-2021 4813.01 3148.90 83.81 17.00 268.84 2630.70
   05:56:21.175.30-Jan-2021 4813.01 3148.94 83.81 17.00 269.04 2630.70
   05:56:21.375.30-Jan-2021 4813.01 3148.94 83.81 17.00 269.24 2630.70
   05:56:21.575.30-Jan-2021 4813.01 3148.92 83.81 17.00 269.44 2630.70
   05:56:21.775.30-Jan-2021 4813.01 3148.85 83.81 17.00 269.64 2630.70
   05:56:21.975.30-Jan-2021 4813.01 3148.94 83.81 17.00 269.84 2630.70
   05:56:22.175.30-Jan-2021 4813.01 3148.95 83.81 17.00 270.04 2630.70
   05:56:22.375.30-Jan-2021 4813.01 3148.95 83.81 17.00 270.24 2630.70
   05:56:22.575.30-Jan-2021 4813.01 3148.91 83.80 17.00 270.44 2630.70
   05:56:22.775.30-Jan-2021 4813.01 3148.91 83.80 17.00 270.64 2630.70
   05:56:22.975.30-Jan-2021 4813.01 3148.90 83.80 17.00 270.84 2630.70
   05:56:23.175.30-Jan-2021 4813.01 3148.93 83.80 17.00 271.04 2630.70
