~Version Information
 VERS.                  2.0:   CWLS log ASCII Standard -VERSION 2.0
 WRAP.                   NO:   One line per depth step
~Well Information Block
#MNEM.UNIT     VALUE/NAME     DESCRIPTION
#---------     -----------    ---------------------------
 STRT.S             13:18:38 29-Jan-21: START TIME 13:18:38 29-Jan-21
 STOP.S             13:25:08 29-Jan-21: STOP TIME  13:25:08 29-Jan-21
 STEP.S                   0.00: STEP TIME
 NULL.                 -999.25: NULL VALUE
 DFWT.                        :  DIST FWL TEXT
 DFST.                        :  DIST FSL TEXT
 DMF .             Drill Floor:  DRILL MEAS FROM
 STIM.      00.00.00 25-Sep-20:  START TIME
 DATE.      16.12.48 31-Jan-21:  END TIME
 SPUD.               20-Sep-20:  SPUD DATE
 NREF.                    Grid:  NORTH REFERENCE
 HPTY.       Minimum Curvature:  HOLE POS TYPE
 DMOD.             Drill Model:  DRILL MOD DESC
 SVYD.                  Survey:  SURVEY DESC
 ILTD.               Lithology:  INTERP LTH DESC
 FTOP.          Formation Tops:  FORM TOPS DESC
 RIG .              East Azeri:  RIG NAME
 PDAT.          Mean Sea Level:  PERMANENT DATUM
 FLD .                     ACG:  FIELD NAME
 SON .        AZ-XX-0906591820:  JOB NUMBER
 CTRY.              Azerbaijan:  COUNTRY NAME
 WELL.                     D37:  WELL NAME
 SRVC.     Turan Drilling & Engineering:  CONTRACTOR
 COMP.     BP Exploration (Caspian Sea) ltd.:  COMPANY
 WTYP.                Deviated:  WELL TYPE
 MDS .        Operator Entered:  MAG DATA SOURCE
 UWI .                     N/A:  UNIQUE WELL IDENTIFIER
 API .                     N/A:  API NUMBER
 BASE.              Azerbaijan:  LOGGING EQUIPMENT BASE LOCATION
 REGN.                   EESSA:  REGION
 PROV.                    Baku:  PROVINCE
 STAT.                    Baku:  STATE NAME
 MWDS.                    Baku:  MWD SHOP
 JOBN.        AZ-XX-0906591820:  JOB TICKET NUMB
 DOE .                     N/A:  DOE NUMBER
 DCON.         Sperry Drilling:  DIRECTNL CONTR
 UNIT.                     N/A:  LOGGING EQUIPMENT ID
 CNTY.                        :  COUNTY
 LOC .                        :  LOCATION
 LMF .             Drill Floor:  LOG MEASURED FROM
 TVDS.m                  43.60:  TVDSS CORRECTN
 LATI.deg                40.02:  LATITUDE
 LONG.deg                51.45:  LONGITUDE
 WHNS.m                  11.04:  WELL HEAD N/S
 WHEW.m                 -12.38:  WELL HEAD E/W
 UTMX.m              538763.98:  UTM X
 UTMY.m             4431880.20:  UTM Y
 DFWL.m                   0.00:  DISTANCE FWL
 DFSL.m                   0.00:  DISTANCE FSL
 SDEP.m                 300.00:  START DEPTH
 TDD .m                4900.01:  TOTAL DEPTH (DRILLER)
 VSDR.deg               185.64:  VERT SEC DIRECT
 GVFD.g                   1.00:  GRAVITY FIELD
 MFLD.nT              50301.00:  MAGNETIC FIELD
 MDIP.deg                59.46:  MAGNETIC DIP
 MDEC.deg                 6.43:  MAGNETIC DECL
 GRDC.deg                 0.29:  GRID CORRECTION
 AZTC.deg                 6.14:  AZM TOTAL CORR
 EPD .m                   0.00:  ELEVATION
 EGL .m                   0.00:  GROUND ELEVATION
 WDMS.m                 151.80:  WD ELEV
 APD .m                  43.60:  DEPTH ABOVE PD
 DEP .m                 571.69:  DEPTH
 AGAP.m                  43.60:  AIR GAP
 VSEW.m                 -12.38:  VERT SEC E/W
 VSNS.m                  11.04:  VERT SEC N/S
 EKB .m                  43.60:  KB ELEVATION
 EDF .m                  43.60:  DF ELEVATION
 TDL .m                 412.00:  TOTAL DEPTH (LOGGER)
 VSC .                       0:  VS TO CLOSURE
 MAGU.                 1849300:  MAGUTM CHECKSUM
~Parameter Information Block
#MNEM.UNIT       Value        Description
#---------     -----------    ---------------------------
 AV  .mps                 2.21:  Ann Velocity 
 AVMX.mps                 2.53:  Max Ann Veloc 
 AZIF.deg               144.83:  Azm, Final 
 BHAT.        Rotary Steerable:  BHA Type 
 BROT.°/30m              -0.52:  Build Rotating 
 BS  .in                  6.50:  Bit Size 
 BTPL.psig              209.00:  Bit Press Loss 
 CABU.                      No:  Customer Abuse 
 CGEO.        Ali Isfandiyarov:  Customer Geo 
 COMM.                     lÄt:  Run Comments 1 
 TCS .hr                 61.31:  Time Ciculation Ended 
 CV  .mps                 4.66:  Crit Velocity 
 CVMX.mps                 5.02:  Max Crit Veloc 
 DD1 .          Fariz Nahmatov:  Direct Drillr 1 
 DD2 .            Musa Ahmadov:  Direct Drillr 2 
 DDSV.               Geo-Pilot:  DD Service 
 DEFF.%                 100.00:  % Det Eff 
 DLRX.°/30m               1.44:  Dogleg Rot Max 
 DLSO.°/30m               0.83:  Dogleg Oriented 
 DLSX.°/30m               1.44:  Dogleg Str Max 
 DRET.      08.30.00 30-Jan-21:  Drill End Time 
 DRST.      21.15.00 27-Jan-21:  Drill Start Tim 
 DTIM.hr                 37.28:  Time Drilling 
 EDEP.m                4867.01:  End Depth 
 ENG1.          Rasim Hashimov:  Engineer 1 
 ENG2.         Almaz Almadatov:  Engineer 2 
 ENG3.        Tamerlan Ahmadov:  Engineer 3 
 ETIM.      22.41.04 31-Jan-21:  End Time 
 FLOI.gpm               400.00:  Flow In 
 FLON.gpm               300.00:  Flow In Min 
 FLOS.cptm                0.00:  Fluid Loss 
 FLOX.gpm               400.00:  Flow In Max 
 HFLO.                      No:  High Flow 
 HPRE.                      No:  High Pressure 
 HTEM.                      No:  High Temp 
 HYDO.m                   1.80:  Hydro Offset 
 IFIN.deg                65.63:  Inc, Final 
 IMAX.deg                66.77:  Inc Max 
 IMIN.deg                65.61:  Inc Min 
 IMND.m                4612.67:  Inc Min Depth 
 IMXD.m                4811.63:  Inc Max Depth 
 JARR.                      No:  Jarring 
 LETM.      08.30.00 30-Jan-21:  Log End Time 
 LOST.hr                     0:  Lost Rig Time 
 LSTM.      21.15.00 27-Jan-21:  Log Start Time 
 MDCL.ppm             41000.00:  Mud Chlorides 
 MDES.     Inversion Oil/Synthetic:  Mud Desc 
 DFD .sg                  1.40:  Mud Density 
 MDMN.sg                  1.40:  Dens Mud Min 
 MDMX.sg                  1.40:  Dens Mud Max 
 MOIL.                      53:  Run Mud Oil % 
 MOWR.                   66:34:  Run Mud OWR 
 MSND.                     0.2:  Run Mud Sand % 
 MSOL.                    17.9:  Run Mud Solids% 
 DFV .spqt               77.00:  Mud Viscosity 
 MWOD.in                  4.75:  MWD Tool OD 
 MWSI.                      No:  Serv Intrp, MWD 
 OTIM.hr                110.38:  Time Operating 
 PCON.           Look Like New:  Pad Condition 
 PMAX.psia             5300.00:  Press Op, Max 
 PV  .cP                 57.00:  Mud PV 
 RUN .                    1200:  Run Number 
 ROPA.m/hr               13.00:  ROP Avg 
 ROPN.m/hr                9.00:  ROP Min 
 ROPX.m/hr               15.00:  ROP Max 
 RPMA.rpm               120.00:  RPM Surface Avg 
 RPMN.rpm               100.00:  RPM Surface Min 
 RPMX.rpm               135.00:  RPM Surface Max 
 RRUN.                    1200:  Rig Run Number 
 RTIM.hr                  2.65:  Time Reaming 
 SAZI.deg               145.04:  Azm, Start 
 SDEP.m                4455.01:  Start Depth 
 SIDD.                      No:  Serv Intrp, DD 
 SINC.deg                65.83:  Inc, Start 
 SPPA.psig             5037.00:  SPP Avg 
 SPPN.psig             4430.00:  SPP Min 
 SPPX.psig             5300.00:  SPP Max 
 STIM.      22.41.04 26-Jan-21:  Start Time 
 SVCS.                 DD, MWD:  Services 
 SVER.                    9.20:  Sperry Version 
 TDAT.m                 412.00:  Tot Depth Attmp 
 TDDF.                      No:  Trip for DD 
 TDLG.m                 412.00:  Tot Depth Loggd 
 TFF .                      No:  Trip for Fail 
 TQAA.f-kp               15.00:  Torque Abs Avg 
 TQAN.f-kp               12.00:  Torque Abs Min 
 TQAX.f-kp               17.00:  Torque Abs Max 
 TRRT.°/30m               1.18:  Turn Rotating 
 MRT .                     ADR:  Maximum Recorded Temperature 
 TTMX.degC               88.24:  Max Tool Temp 
 VS01.                90619458:  Virtual Str1 SN 
 VS02.                90519326:  Virtual Str2 SN 
 VS03.                90522176:  Virtual Str3 SN 
 VS04.                90512683:  Virtual Str4 SN 
 WBMN.klb                 1.00:  WOB Min 
 WITN.           Murad Giluyev:  Customer Rep 
 WITN.     Kamran Kemberlinski:  Customer Rep 2 
 WOBA.klb                 5.00:  WOB Avg 
 WOBX.klb                 9.00:  WOB Max 
 YP  .lhf2               41.00:  Yield Point 
~Curve Information Block
#MNEM.UNIT                 API CODE     Curve Description
#---------               -----------    ---------------------------
 TIME.HHMMSS            00 000 000 000:  GT Time & Date
 GTDEPTH.m              00 000 000 000:  GT Depth
 GTPQH.psia             00 000 000 000:  GT HR Quartz Pressure
 GTTQ.degC              00 000 000 000:  GT Quartz Temperature
 GTTN.NONE              00 000 000 000:  GT Test Number
 GTET.sec               00 000 000 000:  GT Elapsed Test Time
 GTTVD.m                00 000 000 000:  GT True Vertical Depth
#Other Information
#
#WARRANTY: Halliburton will use its best efforts to furnish customers with 
#accurate information and interpretations that are part of, and incident to, the services 
#provided.  However, Halliburton cannot and does not warrant the accuracy 
#or correctness of such information and interpretations.  Under no circumstances should any 
#such information or interpretation be relied upon as the sole basis for any drilling, 
#completion, production, or financial decision or any procedure involving any risk to the 
#safety of any drilling venture, drilling rig or its crew or any other third party.  The 
#Customer has full responsibility for all drilling, completion and production operation.  
#Halliburton makes no representations or warranties, either expressed or 
#implied, including, but not limited to, the implied warranties of merchantability or fitness 
#for a particular purpose, with respect to the services rendered.  In no event will 
#Halliburton be liable for failure to obtain any particular results or for 
#any damages, including, but not limited to, indirect, special or consequential damages, 
#resulting from the use of any information or interpretation provided by Halliburton.
#
~A           TIME           GTDEPTH  GTPQH  GTTQ  GTTN   GTET   GTTVD  
# ...
   13:20:54.444.29-Jan-2021 4712.01 3031.77 81.94 11.00 135.61 2590.47
   13:20:54.644.29-Jan-2021 4712.01 3031.83 81.94 11.00 135.81 2590.47
   13:20:54.844.29-Jan-2021 4712.01 3030.16 81.94 11.00 136.01 2590.47
   13:20:55.044.29-Jan-2021 4712.01 3030.16 81.94 11.00 136.21 2590.47
   13:20:55.244.29-Jan-2021 4712.01 3031.28 81.94 11.00 136.41 2590.47
   13:20:55.444.29-Jan-2021 4712.01 3030.93 81.94 11.00 136.61 2590.47
   13:20:55.644.29-Jan-2021 4712.01 3031.67 81.94 11.00 136.81 2590.47
   13:20:55.844.29-Jan-2021 4712.01 3031.14 81.94 11.00 137.01 2590.47
   13:20:56.044.29-Jan-2021 4712.01 3031.14 81.94 11.00 137.21 2590.47
   13:20:56.244.29-Jan-2021 4712.01 3031.26 81.94 11.00 137.41 2590.47
   13:20:56.444.29-Jan-2021 4712.01 3031.36 81.94 11.00 137.61 2590.47
   13:20:56.644.29-Jan-2021 4712.01 3032.12 81.94 11.00 137.81 2590.47
   13:20:56.844.29-Jan-2021 4712.01 3031.39 81.93 11.00 138.01 2590.47
   13:20:57.044.29-Jan-2021 4712.01 3031.39 81.93 11.00 138.21 2590.47
   13:20:57.244.29-Jan-2021 4712.01 3030.69 81.93 11.00 138.41 2590.47
   13:20:57.444.29-Jan-2021 4712.01 3031.62 81.93 11.00 138.61 2590.47
   13:20:57.644.29-Jan-2021 4712.01 3030.63 81.93 11.00 138.81 2590.47
   13:20:57.844.29-Jan-2021 4712.01 3031.02 81.93 11.00 139.01 2590.47
   13:20:58.044.29-Jan-2021 4712.01 3031.02 81.93 11.00 139.21 2590.47
   13:20:58.244.29-Jan-2021 4712.01 3032.18 81.93 11.00 139.41 2590.47
   13:20:58.444.29-Jan-2021 4712.01 3031.94 81.93 11.00 139.61 2590.47
   13:20:58.644.29-Jan-2021 4712.01 3031.51 81.93 11.00 139.81 2590.47
   13:20:58.844.29-Jan-2021 4712.01 3030.99 81.93 11.00 140.01 2590.47
   13:20:59.044.29-Jan-2021 4712.01 3030.99 81.93 11.00 140.21 2590.47
   13:20:59.244.29-Jan-2021 4712.01 3031.28 81.93 11.00 140.41 2590.47
   13:20:59.444.29-Jan-2021 4712.01 3030.97 81.93 11.00 140.61 2590.47
   13:20:59.644.29-Jan-2021 4712.01 3030.73 81.92 11.00 140.81 2590.47
   13:20:59.844.29-Jan-2021 4712.01 3029.93 81.92 11.00 141.01 2590.47
   13:21:00.044.29-Jan-2021 4712.01 3029.93 81.92 11.00 141.21 2590.47
   13:21:00.244.29-Jan-2021 4712.01 3031.25 81.92 11.00 141.41 2590.47
   13:21:00.444.29-Jan-2021 4712.01 3031.13 81.92 11.00 141.61 2590.47
   13:21:00.644.29-Jan-2021 4712.01 3031.40 81.92 11.00 141.81 2590.47
   13:21:00.844.29-Jan-2021 4712.01 3031.36 81.92 11.00 142.01 2590.47
   13:21:01.044.29-Jan-2021 4712.01 3031.36 81.92 11.00 142.21 2590.47
   13:21:01.244.29-Jan-2021 4712.01 3030.83 81.92 11.00 142.41 2590.47
   13:21:01.444.29-Jan-2021 4712.01 3031.93 81.92 11.00 142.61 2590.47
   13:21:01.644.29-Jan-2021 4712.01 3046.57 81.92 11.00 142.81 2590.47
   13:21:01.844.29-Jan-2021 4712.01 3104.11 81.92 11.00 143.01 2590.47
   13:21:02.044.29-Jan-2021 4712.01 3104.11 81.92 11.00 143.21 2590.47
   13:21:02.244.29-Jan-2021 4712.01 3105.73 81.92 11.00 143.41 2590.47
   13:21:02.444.29-Jan-2021 4712.01 3106.00 81.91 11.00 143.61 2590.47
   13:21:02.644.29-Jan-2021 4712.01 3106.03 81.91 11.00 143.81 2590.47
   13:21:02.844.29-Jan-2021 4712.01 3106.15 81.91 11.00 144.01 2590.47
   13:21:03.044.29-Jan-2021 4712.01 3106.15 81.91 11.00 144.21 2590.47
   13:21:03.244.29-Jan-2021 4712.01 3106.25 81.91 11.00 144.41 2590.47
   13:21:03.444.29-Jan-2021 4712.01 3106.31 81.91 11.00 144.61 2590.47
   13:21:03.644.29-Jan-2021 4712.01 3106.35 81.91 11.00 144.81 2590.47
   13:21:03.844.29-Jan-2021 4712.01 3106.37 81.91 11.00 145.01 2590.47
   13:21:04.044.29-Jan-2021 4712.01 3106.37 81.91 11.00 145.21 2590.47
   13:21:04.244.29-Jan-2021 4712.01 3106.43 81.91 11.00 145.41 2590.47
   13:21:04.444.29-Jan-2021 4712.01 3106.46 81.91 11.00 145.61 2590.47
   13:21:04.644.29-Jan-2021 4712.01 3106.47 81.91 11.00 145.81 2590.47
   13:21:04.844.29-Jan-2021 4712.01 3106.51 81.91 11.00 146.01 2590.47
   13:21:05.044.29-Jan-2021 4712.01 3106.51 81.91 11.00 146.21 2590.47
   13:21:05.244.29-Jan-2021 4712.01 3106.43 81.90 11.00 146.41 2590.47
   13:21:05.444.29-Jan-2021 4712.01 3106.64 81.90 11.00 146.61 2590.47
   13:21:05.644.29-Jan-2021 4712.01 3106.57 81.90 11.00 146.81 2590.47
   13:21:05.844.29-Jan-2021 4712.01 3106.56 81.90 11.00 147.01 2590.47
   13:21:06.044.29-Jan-2021 4712.01 3106.56 81.90 11.00 147.21 2590.47
   13:21:06.244.29-Jan-2021 4712.01 3106.59 81.90 11.00 147.41 2590.47
   13:21:06.444.29-Jan-2021 4712.01 3106.63 81.90 11.00 147.61 2590.47
   13:21:06.644.29-Jan-2021 4712.01 3106.57 81.90 11.00 147.81 2590.47
   13:21:06.844.29-Jan-2021 4712.01 3106.61 81.90 11.00 148.01 2590.47
   13:21:07.044.29-Jan-2021 4712.01 3106.61 81.90 11.00 148.21 2590.47
   13:21:07.244.29-Jan-2021 4712.01 3106.62 81.90 11.00 148.41 2590.47
   13:21:07.444.29-Jan-2021 4712.01 3106.61 81.90 11.00 148.61 2590.47
   13:21:07.644.29-Jan-2021 4712.01 3106.62 81.90 11.00 148.81 2590.47
   13:21:07.844.29-Jan-2021 4712.01 3106.64 81.90 11.00 149.01 2590.47
   13:21:08.044.29-Jan-2021 4712.01 3106.64 81.90 11.00 149.21 2590.47
   13:21:08.244.29-Jan-2021 4712.01 3106.64 81.89 11.00 149.41 2590.47
   13:21:08.445.29-Jan-2021 4712.01 3106.49 81.89 11.00 149.61 2590.47
   13:21:08.645.29-Jan-2021 4712.01 3106.80 81.89 11.00 149.81 2590.47
   13:21:08.845.29-Jan-2021 4712.01 3106.67 81.89 11.00 150.01 2590.47
   13:21:09.045.29-Jan-2021 4712.01 3106.67 81.89 11.00 150.21 2590.47
   13:21:09.245.29-Jan-2021 4712.01 3106.60 81.89 11.00 150.41 2590.47
   13:21:09.445.29-Jan-2021 4712.01 3106.77 81.89 11.00 150.61 2590.47
   13:21:09.645.29-Jan-2021 4712.01 3106.68 81.89 11.00 150.81 2590.47
   13:21:09.845.29-Jan-2021 4712.01 3106.65 81.89 11.00 151.01 2590.47
   13:21:10.045.29-Jan-2021 4712.01 3106.65 81.89 11.00 151.21 2590.47
   13:21:10.245.29-Jan-2021 4712.01 3106.70 81.89 11.00 151.41 2590.47
   13:21:10.445.29-Jan-2021 4712.01 3106.54 81.89 11.00 151.61 2590.47
   13:21:10.645.29-Jan-2021 4712.01 3106.79 81.89 11.00 151.81 2590.47
   13:21:10.845.29-Jan-2021 4712.01 3106.71 81.88 11.00 152.01 2590.47
   13:21:11.045.29-Jan-2021 4712.01 3106.71 81.88 11.00 152.21 2590.47
   13:21:11.245.29-Jan-2021 4712.01 3106.73 81.88 11.00 152.41 2590.47
   13:21:11.445.29-Jan-2021 4712.01 3106.67 81.88 11.00 152.61 2590.47
   13:21:11.645.29-Jan-2021 4712.01 3106.71 81.88 11.00 152.81 2590.47
   13:21:11.845.29-Jan-2021 4712.01 3106.55 81.88 11.00 153.01 2590.47
   13:21:12.045.29-Jan-2021 4712.01 3106.55 81.88 11.00 153.21 2590.47
   13:21:12.245.29-Jan-2021 4712.01 3106.69 81.88 11.00 153.41 2590.47
   13:21:12.445.29-Jan-2021 4712.01 3106.69 81.88 11.00 153.61 2590.47
   13:21:12.645.29-Jan-2021 4712.01 3106.68 81.88 11.00 153.81 2590.47
   13:21:12.845.29-Jan-2021 4712.01 3106.54 81.88 11.00 154.01 2590.47
   13:21:13.045.29-Jan-2021 4712.01 3106.54 81.88 11.00 154.21 2590.47
   13:21:13.245.29-Jan-2021 4712.01 3106.69 81.88 11.00 154.41 2590.47
   13:21:13.445.29-Jan-2021 4712.01 3106.65 81.88 11.00 154.61 2590.47
   13:21:13.645.29-Jan-2021 4712.01 3106.75 81.88 11.00 154.81 2590.47
   13:21:13.845.29-Jan-2021 4712.01 3106.72 81.87 11.00 155.01 2590.47
   13:21:14.045.29-Jan-2021 4712.01 3106.72 81.87 11.00 155.21 2590.47
   13:21:14.245.29-Jan-2021 4712.01 3106.68 81.87 11.00 155.41 2590.47
   13:21:14.445.29-Jan-2021 4712.01 3106.71 81.87 11.00 155.61 2590.47
   13:21:14.645.29-Jan-2021 4712.01 3106.70 81.87 11.00 155.81 2590.47
   13:21:14.845.29-Jan-2021 4712.01 3106.68 81.87 11.00 156.01 2590.47
   13:21:15.045.29-Jan-2021 4712.01 3106.68 81.87 11.00 156.21 2590.47
   13:21:15.245.29-Jan-2021 4712.01 3106.68 81.87 11.00 156.41 2590.47
   13:21:15.445.29-Jan-2021 4712.01 3106.70 81.87 11.00 156.61 2590.47
   13:21:15.645.29-Jan-2021 4712.01 3106.68 81.87 11.00 156.81 2590.47
   13:21:15.845.29-Jan-2021 4712.01 3106.69 81.87 11.00 157.01 2590.47
   13:21:16.045.29-Jan-2021 4712.01 3106.69 81.87 11.00 157.21 2590.47
   13:21:16.245.29-Jan-2021 4712.01 3106.68 81.87 11.00 157.41 2590.47
   13:21:16.445.29-Jan-2021 4712.01 3106.55 81.87 11.00 157.61 2590.47
   13:21:16.645.29-Jan-2021 4712.01 3106.84 81.86 11.00 157.81 2590.47
   13:21:16.845.29-Jan-2021 4712.01 3106.73 81.86 11.00 158.01 2590.47
