~Version Information
 VERS.                  2.0:   CWLS log ASCII Standard -VERSION 2.0
 WRAP.                   NO:   One line per depth step
~Well Information Block
#MNEM.UNIT     VALUE/NAME     DESCRIPTION
#---------     -----------    ---------------------------
 STRT.S             17:31:15 28-Jan-21: START TIME 17:31:15 28-Jan-21
 STOP.S             17:37:46 28-Jan-21: STOP TIME  17:37:46 28-Jan-21
 STEP.S                   0.00: STEP TIME
 NULL.                 -999.25: NULL VALUE
 DFWT.                        :  DIST FWL TEXT
 DFST.                        :  DIST FSL TEXT
 DMF .             Drill Floor:  DRILL MEAS FROM
 STIM.      00.00.00 25-Sep-20:  START TIME
 DATE.      16.12.48 31-Jan-21:  END TIME
 SPUD.               20-Sep-20:  SPUD DATE
 NREF.                    Grid:  NORTH REFERENCE
 HPTY.       Minimum Curvature:  HOLE POS TYPE
 DMOD.             Drill Model:  DRILL MOD DESC
 SVYD.                  Survey:  SURVEY DESC
 ILTD.               Lithology:  INTERP LTH DESC
 FTOP.          Formation Tops:  FORM TOPS DESC
 RIG .              East Azeri:  RIG NAME
 PDAT.          Mean Sea Level:  PERMANENT DATUM
 FLD .                     ACG:  FIELD NAME
 SON .        AZ-XX-0906591820:  JOB NUMBER
 CTRY.              Azerbaijan:  COUNTRY NAME
 WELL.                     D37:  WELL NAME
 SRVC.     Turan Drilling & Engineering:  CONTRACTOR
 COMP.     BP Exploration (Caspian Sea) ltd.:  COMPANY
 WTYP.                Deviated:  WELL TYPE
 MDS .        Operator Entered:  MAG DATA SOURCE
 UWI .                     N/A:  UNIQUE WELL IDENTIFIER
 API .                     N/A:  API NUMBER
 BASE.              Azerbaijan:  LOGGING EQUIPMENT BASE LOCATION
 REGN.                   EESSA:  REGION
 PROV.                    Baku:  PROVINCE
 STAT.                    Baku:  STATE NAME
 MWDS.                    Baku:  MWD SHOP
 JOBN.        AZ-XX-0906591820:  JOB TICKET NUMB
 DOE .                     N/A:  DOE NUMBER
 DCON.         Sperry Drilling:  DIRECTNL CONTR
 UNIT.                     N/A:  LOGGING EQUIPMENT ID
 CNTY.                        :  COUNTY
 LOC .                        :  LOCATION
 LMF .             Drill Floor:  LOG MEASURED FROM
 TVDS.m                  43.60:  TVDSS CORRECTN
 LATI.deg                40.02:  LATITUDE
 LONG.deg                51.45:  LONGITUDE
 WHNS.m                  11.04:  WELL HEAD N/S
 WHEW.m                 -12.38:  WELL HEAD E/W
 UTMX.m              538763.98:  UTM X
 UTMY.m             4431880.20:  UTM Y
 DFWL.m                   0.00:  DISTANCE FWL
 DFSL.m                   0.00:  DISTANCE FSL
 SDEP.m                 300.00:  START DEPTH
 TDD .m                4900.01:  TOTAL DEPTH (DRILLER)
 VSDR.deg               185.64:  VERT SEC DIRECT
 GVFD.g                   1.00:  GRAVITY FIELD
 MFLD.nT              50301.00:  MAGNETIC FIELD
 MDIP.deg                59.46:  MAGNETIC DIP
 MDEC.deg                 6.43:  MAGNETIC DECL
 GRDC.deg                 0.29:  GRID CORRECTION
 AZTC.deg                 6.14:  AZM TOTAL CORR
 EPD .m                   0.00:  ELEVATION
 EGL .m                   0.00:  GROUND ELEVATION
 WDMS.m                 151.80:  WD ELEV
 APD .m                  43.60:  DEPTH ABOVE PD
 DEP .m                 571.69:  DEPTH
 AGAP.m                  43.60:  AIR GAP
 VSEW.m                 -12.38:  VERT SEC E/W
 VSNS.m                  11.04:  VERT SEC N/S
 EKB .m                  43.60:  KB ELEVATION
 EDF .m                  43.60:  DF ELEVATION
 TDL .m                 412.00:  TOTAL DEPTH (LOGGER)
 VSC .                       0:  VS TO CLOSURE
 MAGU.                 1849300:  MAGUTM CHECKSUM
~Parameter Information Block
#MNEM.UNIT       Value        Description
#---------     -----------    ---------------------------
 AV  .mps                 2.21:  Ann Velocity 
 AVMX.mps                 2.53:  Max Ann Veloc 
 AZIF.deg               144.83:  Azm, Final 
 BHAT.        Rotary Steerable:  BHA Type 
 BROT.°/30m              -0.52:  Build Rotating 
 BS  .in                  6.50:  Bit Size 
 BTPL.psig              209.00:  Bit Press Loss 
 CABU.                      No:  Customer Abuse 
 CGEO.        Ali Isfandiyarov:  Customer Geo 
 COMM.                     ¼¨M:  Run Comments 1 
 TCS .hr                 61.31:  Time Ciculation Ended 
 CV  .mps                 4.66:  Crit Velocity 
 CVMX.mps                 5.02:  Max Crit Veloc 
 DD1 .          Fariz Nahmatov:  Direct Drillr 1 
 DD2 .            Musa Ahmadov:  Direct Drillr 2 
 DDSV.               Geo-Pilot:  DD Service 
 DEFF.%                 100.00:  % Det Eff 
 DLRX.°/30m               1.44:  Dogleg Rot Max 
 DLSO.°/30m               0.83:  Dogleg Oriented 
 DLSX.°/30m               1.44:  Dogleg Str Max 
 DRET.      08.30.00 30-Jan-21:  Drill End Time 
 DRST.      21.15.00 27-Jan-21:  Drill Start Tim 
 DTIM.hr                 37.28:  Time Drilling 
 EDEP.m                4867.01:  End Depth 
 ENG1.          Rasim Hashimov:  Engineer 1 
 ENG2.         Almaz Almadatov:  Engineer 2 
 ENG3.        Tamerlan Ahmadov:  Engineer 3 
 ETIM.      22.41.04 31-Jan-21:  End Time 
 FLOI.gpm               400.00:  Flow In 
 FLON.gpm               300.00:  Flow In Min 
 FLOS.cptm                0.00:  Fluid Loss 
 FLOX.gpm               400.00:  Flow In Max 
 HFLO.                      No:  High Flow 
 HPRE.                      No:  High Pressure 
 HTEM.                      No:  High Temp 
 HYDO.m                   1.80:  Hydro Offset 
 IFIN.deg                65.63:  Inc, Final 
 IMAX.deg                66.77:  Inc Max 
 IMIN.deg                65.61:  Inc Min 
 IMND.m                4612.67:  Inc Min Depth 
 IMXD.m                4811.63:  Inc Max Depth 
 JARR.                      No:  Jarring 
 LETM.      08.30.00 30-Jan-21:  Log End Time 
 LOST.hr                     0:  Lost Rig Time 
 LSTM.      21.15.00 27-Jan-21:  Log Start Time 
 MDCL.ppm             41000.00:  Mud Chlorides 
 MDES.     Inversion Oil/Synthetic:  Mud Desc 
 DFD .sg                  1.40:  Mud Density 
 MDMN.sg                  1.40:  Dens Mud Min 
 MDMX.sg                  1.40:  Dens Mud Max 
 MOIL.                      53:  Run Mud Oil % 
 MOWR.                   66:34:  Run Mud OWR 
 MSND.                     0.2:  Run Mud Sand % 
 MSOL.                    17.9:  Run Mud Solids% 
 DFV .spqt               77.00:  Mud Viscosity 
 MWOD.in                  4.75:  MWD Tool OD 
 MWSI.                      No:  Serv Intrp, MWD 
 OTIM.hr                110.38:  Time Operating 
 PCON.           Look Like New:  Pad Condition 
 PMAX.psia             5300.00:  Press Op, Max 
 PV  .cP                 57.00:  Mud PV 
 RUN .                    1200:  Run Number 
 ROPA.m/hr               13.00:  ROP Avg 
 ROPN.m/hr                9.00:  ROP Min 
 ROPX.m/hr               15.00:  ROP Max 
 RPMA.rpm               120.00:  RPM Surface Avg 
 RPMN.rpm               100.00:  RPM Surface Min 
 RPMX.rpm               135.00:  RPM Surface Max 
 RRUN.                    1200:  Rig Run Number 
 RTIM.hr                  2.65:  Time Reaming 
 SAZI.deg               145.04:  Azm, Start 
 SDEP.m                4455.01:  Start Depth 
 SIDD.                      No:  Serv Intrp, DD 
 SINC.deg                65.83:  Inc, Start 
 SPPA.psig             5037.00:  SPP Avg 
 SPPN.psig             4430.00:  SPP Min 
 SPPX.psig             5300.00:  SPP Max 
 STIM.      22.41.04 26-Jan-21:  Start Time 
 SVCS.                 DD, MWD:  Services 
 SVER.                    9.20:  Sperry Version 
 TDAT.m                 412.00:  Tot Depth Attmp 
 TDDF.                      No:  Trip for DD 
 TDLG.m                 412.00:  Tot Depth Loggd 
 TFF .                      No:  Trip for Fail 
 TQAA.f-kp               15.00:  Torque Abs Avg 
 TQAN.f-kp               12.00:  Torque Abs Min 
 TQAX.f-kp               17.00:  Torque Abs Max 
 TRRT.°/30m               1.18:  Turn Rotating 
 MRT .                     ADR:  Maximum Recorded Temperature 
 TTMX.degC               88.24:  Max Tool Temp 
 VS01.                90619458:  Virtual Str1 SN 
 VS02.                90519326:  Virtual Str2 SN 
 VS03.                90522176:  Virtual Str3 SN 
 VS04.                90512683:  Virtual Str4 SN 
 WBMN.klb                 1.00:  WOB Min 
 WITN.           Murad Giluyev:  Customer Rep 
 WITN.     Kamran Kemberlinski:  Customer Rep 2 
 WOBA.klb                 5.00:  WOB Avg 
 WOBX.klb                 9.00:  WOB Max 
 YP  .lhf2               41.00:  Yield Point 
~Curve Information Block
#MNEM.UNIT                 API CODE     Curve Description
#---------               -----------    ---------------------------
 TIME.HHMMSS            00 000 000 000:  GT Time & Date
 GTDEPTH.m              00 000 000 000:  GT Depth
 GTPQH.psia             00 000 000 000:  GT HR Quartz Pressure
 GTTQ.degC              00 000 000 000:  GT Quartz Temperature
 GTTN.NONE              00 000 000 000:  GT Test Number
 GTET.sec               00 000 000 000:  GT Elapsed Test Time
 GTTVD.m                00 000 000 000:  GT True Vertical Depth
#Other Information
#
#WARRANTY: Halliburton will use its best efforts to furnish customers with 
#accurate information and interpretations that are part of, and incident to, the services 
#provided.  However, Halliburton cannot and does not warrant the accuracy 
#or correctness of such information and interpretations.  Under no circumstances should any 
#such information or interpretation be relied upon as the sole basis for any drilling, 
#completion, production, or financial decision or any procedure involving any risk to the 
#safety of any drilling venture, drilling rig or its crew or any other third party.  The 
#Customer has full responsibility for all drilling, completion and production operation.  
#Halliburton makes no representations or warranties, either expressed or 
#implied, including, but not limited to, the implied warranties of merchantability or fitness 
#for a particular purpose, with respect to the services rendered.  In no event will 
#Halliburton be liable for failure to obtain any particular results or for 
#any damages, including, but not limited to, indirect, special or consequential damages, 
#resulting from the use of any information or interpretation provided by Halliburton.
#
~A           TIME           GTDEPTH  GTPQH  GTTQ  GTTN  GTET   GTTVD  
# ...
   17:32:01.298.28-Jan-2021 4557.01 3086.31 74.92 5.00  46.01 2527.68
   17:32:01.498.28-Jan-2021 4557.01 3086.31 74.92 5.00  46.21 2527.68
   17:32:01.698.28-Jan-2021 4557.01 3086.58 74.92 5.00  46.41 2527.68
   17:32:01.898.28-Jan-2021 4557.01 3086.54 74.92 5.00  46.61 2527.68
   17:32:02.098.28-Jan-2021 4557.01 3086.61 74.92 5.00  46.81 2527.68
   17:32:02.298.28-Jan-2021 4557.01 3086.59 74.92 5.00  47.01 2527.68
   17:32:02.498.28-Jan-2021 4557.01 3086.59 74.92 5.00  47.21 2527.68
   17:32:02.698.28-Jan-2021 4557.01 3086.65 74.92 5.00  47.41 2527.68
   17:32:02.898.28-Jan-2021 4557.01 3086.62 74.92 5.00  47.61 2527.68
   17:32:03.098.28-Jan-2021 4557.01 3086.65 74.92 5.00  47.81 2527.68
   17:32:03.298.28-Jan-2021 4557.01 3086.67 74.92 5.00  48.01 2527.68
   17:32:03.498.28-Jan-2021 4557.01 3086.67 74.92 5.00  48.21 2527.68
   17:32:03.698.28-Jan-2021 4557.01 3086.71 74.91 5.00  48.41 2527.68
   17:32:03.898.28-Jan-2021 4557.01 3086.73 74.91 5.00  48.61 2527.68
   17:32:04.098.28-Jan-2021 4557.01 3086.73 74.91 5.00  48.81 2527.68
   17:32:04.298.28-Jan-2021 4557.01 3086.76 74.91 5.00  49.01 2527.68
   17:32:04.498.28-Jan-2021 4557.01 3086.76 74.91 5.00  49.21 2527.68
   17:32:04.698.28-Jan-2021 4557.01 3086.78 74.91 5.00  49.41 2527.68
   17:32:04.898.28-Jan-2021 4557.01 3086.82 74.91 5.00  49.61 2527.68
   17:32:05.099.28-Jan-2021 4557.01 3086.73 74.91 5.00  49.81 2527.68
   17:32:05.299.28-Jan-2021 4557.01 3086.83 74.91 5.00  50.01 2527.68
   17:32:05.499.28-Jan-2021 4557.01 3086.83 74.91 5.00  50.21 2527.68
   17:32:05.699.28-Jan-2021 4557.01 3086.84 74.91 5.00  50.41 2527.68
   17:32:05.899.28-Jan-2021 4557.01 3086.93 74.91 5.00  50.61 2527.68
   17:32:06.099.28-Jan-2021 4557.01 3086.72 74.91 5.00  50.81 2527.68
   17:32:06.299.28-Jan-2021 4557.01 3087.01 74.90 5.00  51.01 2527.68
   17:32:06.499.28-Jan-2021 4557.01 3087.01 74.90 5.00  51.21 2527.68
   17:32:06.699.28-Jan-2021 4557.01 3086.89 74.90 5.00  51.41 2527.68
   17:32:06.899.28-Jan-2021 4557.01 3086.90 74.90 5.00  51.61 2527.68
   17:32:07.099.28-Jan-2021 4557.01 3087.01 74.90 5.00  51.81 2527.68
   17:32:07.299.28-Jan-2021 4557.01 3086.92 74.90 5.00  52.01 2527.68
   17:32:07.499.28-Jan-2021 4557.01 3086.92 74.90 5.00  52.21 2527.68
   17:32:07.699.28-Jan-2021 4557.01 3086.93 74.90 5.00  52.41 2527.68
   17:32:07.899.28-Jan-2021 4557.01 3086.98 74.90 5.00  52.61 2527.68
   17:32:08.099.28-Jan-2021 4557.01 3087.06 74.90 5.00  52.81 2527.68
   17:32:08.299.28-Jan-2021 4557.01 3086.98 74.90 5.00  53.01 2527.68
   17:32:08.499.28-Jan-2021 4557.01 3086.98 74.90 5.00  53.21 2527.68
   17:32:08.699.28-Jan-2021 4557.01 3086.96 74.90 5.00  53.41 2527.68
   17:32:08.899.28-Jan-2021 4557.01 3087.08 74.90 5.00  53.61 2527.68
   17:32:09.099.28-Jan-2021 4557.01 3087.06 74.90 5.00  53.81 2527.68
   17:32:09.299.28-Jan-2021 4557.01 3087.09 74.89 5.00  54.01 2527.68
   17:32:09.499.28-Jan-2021 4557.01 3087.09 74.89 5.00  54.21 2527.68
   17:32:09.699.28-Jan-2021 4557.01 3087.06 74.89 5.00  54.41 2527.68
   17:32:09.899.28-Jan-2021 4557.01 3087.12 74.89 5.00  54.61 2527.68
   17:32:10.099.28-Jan-2021 4557.01 3087.05 74.89 5.00  54.81 2527.68
   17:32:10.300.28-Jan-2021 4557.01 3087.15 74.89 5.00  55.01 2527.68
   17:32:10.500.28-Jan-2021 4557.01 3087.15 74.89 5.00  55.21 2527.68
   17:32:10.700.28-Jan-2021 4557.01 3087.11 74.89 5.00  55.41 2527.68
   17:32:10.900.28-Jan-2021 4557.01 3087.17 74.89 5.00  55.61 2527.68
   17:32:11.100.28-Jan-2021 4557.01 3087.12 74.89 5.00  55.81 2527.68
   17:32:11.300.28-Jan-2021 4557.01 3087.16 74.89 5.00  56.01 2527.68
   17:32:11.500.28-Jan-2021 4557.01 3087.16 74.89 5.00  56.21 2527.68
   17:32:11.700.28-Jan-2021 4557.01 3087.14 74.89 5.00  56.41 2527.68
   17:32:11.900.28-Jan-2021 4557.01 3087.17 74.89 5.00  56.61 2527.68
   17:32:12.100.28-Jan-2021 4557.01 3087.19 74.88 5.00  56.81 2527.68
   17:32:12.300.28-Jan-2021 4557.01 3087.18 74.88 5.00  57.01 2527.68
   17:32:12.500.28-Jan-2021 4557.01 3087.18 74.88 5.00  57.21 2527.68
   17:32:12.700.28-Jan-2021 4557.01 3087.21 74.88 5.00  57.41 2527.68
   17:32:12.900.28-Jan-2021 4557.01 3087.21 74.88 5.00  57.61 2527.68
   17:32:13.100.28-Jan-2021 4557.01 3087.14 74.88 5.00  57.81 2527.68
   17:32:13.300.28-Jan-2021 4557.01 3087.21 74.88 5.00  58.01 2527.68
   17:32:13.500.28-Jan-2021 4557.01 3087.21 74.88 5.00  58.21 2527.68
   17:32:13.700.28-Jan-2021 4557.01 3087.21 74.88 5.00  58.41 2527.68
   17:32:13.900.28-Jan-2021 4557.01 3087.29 74.88 5.00  58.61 2527.68
   17:32:14.100.28-Jan-2021 4557.01 3087.25 74.88 5.00  58.81 2527.68
   17:32:14.300.28-Jan-2021 4557.01 3087.27 74.88 5.00  59.01 2527.68
   17:32:14.500.28-Jan-2021 4557.01 3087.27 74.88 5.00  59.21 2527.68
   17:32:14.700.28-Jan-2021 4557.01 3087.25 74.88 5.00  59.41 2527.68
   17:32:14.900.28-Jan-2021 4557.01 3087.29 74.88 5.00  59.61 2527.68
   17:32:15.100.28-Jan-2021 4557.01 3087.27 74.88 5.00  59.81 2527.68
   17:32:15.301.28-Jan-2021 4557.01 3087.30 74.87 5.00  60.01 2527.68
   17:32:15.501.28-Jan-2021 4557.01 3087.30 74.87 5.00  60.21 2527.68
   17:32:15.701.28-Jan-2021 4557.01 3087.31 74.87 5.00  60.41 2527.68
   17:32:15.901.28-Jan-2021 4557.01 3087.28 74.87 5.00  60.61 2527.68
   17:32:16.101.28-Jan-2021 4557.01 3087.31 74.87 5.00  60.81 2527.68
   17:32:16.301.28-Jan-2021 4557.01 3087.23 74.87 5.00  61.01 2527.68
   17:32:16.501.28-Jan-2021 4557.01 3087.23 74.87 5.00  61.21 2527.68
   17:32:16.701.28-Jan-2021 4557.01 3087.38 74.87 5.00  61.41 2527.68
   17:32:16.901.28-Jan-2021 4557.01 3087.30 74.87 5.00  61.61 2527.68
   17:32:17.101.28-Jan-2021 4557.01 3087.23 74.87 5.00  61.81 2527.68
   17:32:17.301.28-Jan-2021 4557.01 3087.41 74.87 5.00  62.01 2527.68
   17:32:17.501.28-Jan-2021 4557.01 3087.41 74.87 5.00  62.21 2527.68
   17:32:17.701.28-Jan-2021 4557.01 3087.32 74.87 5.00  62.41 2527.68
   17:32:17.901.28-Jan-2021 4557.01 3087.35 74.87 5.00  62.61 2527.68
   17:32:18.101.28-Jan-2021 4557.01 3087.39 74.87 5.00  62.81 2527.68
   17:32:18.301.28-Jan-2021 4557.01 3087.33 74.87 5.00  63.01 2527.68
   17:32:18.501.28-Jan-2021 4557.01 3087.33 74.87 5.00  63.21 2527.68
   17:32:18.701.28-Jan-2021 4557.01 3087.30 74.86 5.00  63.41 2527.68
   17:32:18.901.28-Jan-2021 4557.01 3087.44 74.86 5.00  63.61 2527.68
   17:32:19.101.28-Jan-2021 4557.01 3087.32 74.86 5.00  63.81 2527.68
   17:32:19.301.28-Jan-2021 4557.01 3087.39 74.86 5.00  64.01 2527.68
   17:32:19.501.28-Jan-2021 4557.01 3087.39 74.86 5.00  64.21 2527.68
   17:32:19.701.28-Jan-2021 4557.01 3087.23 74.86 5.00  64.41 2527.68
   17:32:19.901.28-Jan-2021 4557.01 3087.46 74.86 5.00  64.61 2527.68
   17:32:20.101.28-Jan-2021 4557.01 3087.40 74.86 5.00  64.81 2527.68
   17:32:20.301.28-Jan-2021 4557.01 3087.36 74.86 5.00  65.01 2527.68
   17:32:20.502.28-Jan-2021 4557.01 3087.36 74.86 5.00  65.21 2527.68
   17:32:20.702.28-Jan-2021 4557.01 3087.39 74.86 5.00  65.41 2527.68
   17:32:20.902.28-Jan-2021 4557.01 3087.43 74.86 5.00  65.61 2527.68
   17:32:21.102.28-Jan-2021 4557.01 3087.42 74.86 5.00  65.81 2527.68
   17:32:21.302.28-Jan-2021 4557.01 3087.41 74.86 5.00  66.01 2527.68
   17:32:21.502.28-Jan-2021 4557.01 3087.41 74.86 5.00  66.21 2527.68
   17:32:21.702.28-Jan-2021 4557.01 3087.42 74.85 5.00  66.41 2527.68
   17:32:21.902.28-Jan-2021 4557.01 3087.43 74.85 5.00  66.61 2527.68
   17:32:22.102.28-Jan-2021 4557.01 3087.44 74.85 5.00  66.81 2527.68
   17:32:22.302.28-Jan-2021 4557.01 3087.44 74.85 5.00  67.01 2527.68
   17:32:22.502.28-Jan-2021 4557.01 3087.44 74.85 5.00  67.21 2527.68
   17:32:22.702.28-Jan-2021 4557.01 3087.47 74.85 5.00  67.41 2527.68
   17:32:22.902.28-Jan-2021 4557.01 3087.46 74.85 5.00  67.61 2527.68
   17:32:23.102.28-Jan-2021 4557.01 3087.47 74.85 5.00  67.81 2527.68
   17:32:23.302.28-Jan-2021 4557.01 3087.31 74.85 5.00  68.01 2527.68
   17:32:23.502.28-Jan-2021 4557.01 3087.31 74.85 5.00  68.21 2527.68
   17:32:23.702.28-Jan-2021 4557.01 3087.46 74.85 5.00  68.41 2527.68
   17:32:23.902.28-Jan-2021 4557.01 3087.45 74.85 5.00  68.61 2527.68
   17:32:24.102.28-Jan-2021 4557.01 3087.50 74.85 5.00  68.81 2527.68
