~Version Information
 VERS.                  2.0:   CWLS log ASCII Standard -VERSION 2.0
 WRAP.                   NO:   One line per depth step
~Well Information Block
#MNEM.UNIT     VALUE/NAME     DESCRIPTION
#---------     -----------    ---------------------------
 STRT.S             02:23:02 28-Jan-21: START TIME 02:23:02 28-Jan-21
 STOP.S             02:29:37 28-Jan-21: STOP TIME  02:29:37 28-Jan-21
 STEP.S                   0.00: STEP TIME
 NULL.                 -999.25: NULL VALUE
 DFWT.                        :  DIST FWL TEXT
 DFST.                        :  DIST FSL TEXT
 DMF .             Drill Floor:  DRILL MEAS FROM
 STIM.      00.00.00 25-Sep-20:  START TIME
 DATE.      16.12.48 31-Jan-21:  END TIME
 SPUD.               20-Sep-20:  SPUD DATE
 NREF.                    Grid:  NORTH REFERENCE
 HPTY.       Minimum Curvature:  HOLE POS TYPE
 DMOD.             Drill Model:  DRILL MOD DESC
 SVYD.                  Survey:  SURVEY DESC
 ILTD.               Lithology:  INTERP LTH DESC
 FTOP.          Formation Tops:  FORM TOPS DESC
 RIG .              East Azeri:  RIG NAME
 PDAT.          Mean Sea Level:  PERMANENT DATUM
 FLD .                     ACG:  FIELD NAME
 SON .        AZ-XX-0906591820:  JOB NUMBER
 CTRY.              Azerbaijan:  COUNTRY NAME
 WELL.                     D37:  WELL NAME
 SRVC.     Turan Drilling & Engineering:  CONTRACTOR
 COMP.     BP Exploration (Caspian Sea) ltd.:  COMPANY
 WTYP.                Deviated:  WELL TYPE
 MDS .        Operator Entered:  MAG DATA SOURCE
 UWI .                     N/A:  UNIQUE WELL IDENTIFIER
 API .                     N/A:  API NUMBER
 BASE.              Azerbaijan:  LOGGING EQUIPMENT BASE LOCATION
 REGN.                   EESSA:  REGION
 PROV.                    Baku:  PROVINCE
 STAT.                    Baku:  STATE NAME
 MWDS.                    Baku:  MWD SHOP
 JOBN.        AZ-XX-0906591820:  JOB TICKET NUMB
 DOE .                     N/A:  DOE NUMBER
 DCON.         Sperry Drilling:  DIRECTNL CONTR
 UNIT.                     N/A:  LOGGING EQUIPMENT ID
 CNTY.                        :  COUNTY
 LOC .                        :  LOCATION
 LMF .             Drill Floor:  LOG MEASURED FROM
 TVDS.m                  43.60:  TVDSS CORRECTN
 LATI.deg                40.02:  LATITUDE
 LONG.deg                51.45:  LONGITUDE
 WHNS.m                  11.04:  WELL HEAD N/S
 WHEW.m                 -12.38:  WELL HEAD E/W
 UTMX.m              538763.98:  UTM X
 UTMY.m             4431880.20:  UTM Y
 DFWL.m                   0.00:  DISTANCE FWL
 DFSL.m                   0.00:  DISTANCE FSL
 SDEP.m                 300.00:  START DEPTH
 TDD .m                4900.01:  TOTAL DEPTH (DRILLER)
 VSDR.deg               185.64:  VERT SEC DIRECT
 GVFD.g                   1.00:  GRAVITY FIELD
 MFLD.nT              50301.00:  MAGNETIC FIELD
 MDIP.deg                59.46:  MAGNETIC DIP
 MDEC.deg                 6.43:  MAGNETIC DECL
 GRDC.deg                 0.29:  GRID CORRECTION
 AZTC.deg                 6.14:  AZM TOTAL CORR
 EPD .m                   0.00:  ELEVATION
 EGL .m                   0.00:  GROUND ELEVATION
 WDMS.m                 151.80:  WD ELEV
 APD .m                  43.60:  DEPTH ABOVE PD
 DEP .m                 571.69:  DEPTH
 AGAP.m                  43.60:  AIR GAP
 VSEW.m                 -12.38:  VERT SEC E/W
 VSNS.m                  11.04:  VERT SEC N/S
 EKB .m                  43.60:  KB ELEVATION
 EDF .m                  43.60:  DF ELEVATION
 TDL .m                 412.00:  TOTAL DEPTH (LOGGER)
 VSC .                       0:  VS TO CLOSURE
 MAGU.                 1849300:  MAGUTM CHECKSUM
~Parameter Information Block
#MNEM.UNIT       Value        Description
#---------     -----------    ---------------------------
 AV  .mps                 2.21:  Ann Velocity 
 AVMX.mps                 2.53:  Max Ann Veloc 
 AZIF.deg               144.83:  Azm, Final 
 BHAT.        Rotary Steerable:  BHA Type 
 BROT.°/30m              -0.52:  Build Rotating 
 BS  .in                  6.50:  Bit Size 
 BTPL.psig              209.00:  Bit Press Loss 
 CABU.                      No:  Customer Abuse 
 CGEO.        Ali Isfandiyarov:  Customer Geo 
 TCS .hr                 61.31:  Time Ciculation Ended 
 CV  .mps                 4.66:  Crit Velocity 
 CVMX.mps                 5.02:  Max Crit Veloc 
 DD1 .          Fariz Nahmatov:  Direct Drillr 1 
 DD2 .            Musa Ahmadov:  Direct Drillr 2 
 DDSV.               Geo-Pilot:  DD Service 
 DEFF.%                 100.00:  % Det Eff 
 DLRX.°/30m               1.44:  Dogleg Rot Max 
 DLSO.°/30m               0.83:  Dogleg Oriented 
 DLSX.°/30m               1.44:  Dogleg Str Max 
 DRET.      08.30.00 30-Jan-21:  Drill End Time 
 DRST.      21.15.00 27-Jan-21:  Drill Start Tim 
 DTIM.hr                 37.28:  Time Drilling 
 EDEP.m                4867.01:  End Depth 
 ENG1.          Rasim Hashimov:  Engineer 1 
 ENG2.         Almaz Almadatov:  Engineer 2 
 ENG3.        Tamerlan Ahmadov:  Engineer 3 
 ETIM.      22.41.04 31-Jan-21:  End Time 
 FLOI.gpm               400.00:  Flow In 
 FLON.gpm               300.00:  Flow In Min 
 FLOS.cptm                0.00:  Fluid Loss 
 FLOX.gpm               400.00:  Flow In Max 
 HFLO.                      No:  High Flow 
 HPRE.                      No:  High Pressure 
 HTEM.                      No:  High Temp 
 HYDO.m                   1.80:  Hydro Offset 
 IFIN.deg                65.63:  Inc, Final 
 IMAX.deg                66.77:  Inc Max 
 IMIN.deg                65.61:  Inc Min 
 IMND.m                4612.67:  Inc Min Depth 
 IMXD.m                4811.63:  Inc Max Depth 
 JARR.                      No:  Jarring 
 LETM.      08.30.00 30-Jan-21:  Log End Time 
 LOST.hr                     0:  Lost Rig Time 
 LSTM.      21.15.00 27-Jan-21:  Log Start Time 
 MDCL.ppm             41000.00:  Mud Chlorides 
 MDES.     Inversion Oil/Synthetic:  Mud Desc 
 DFD .sg                  1.40:  Mud Density 
 MDMN.sg                  1.40:  Dens Mud Min 
 MDMX.sg                  1.40:  Dens Mud Max 
 MOIL.                      53:  Run Mud Oil % 
 MOWR.                   66:34:  Run Mud OWR 
 MSND.                     0.2:  Run Mud Sand % 
 MSOL.                    17.9:  Run Mud Solids% 
 DFV .spqt               77.00:  Mud Viscosity 
 MWOD.in                  4.75:  MWD Tool OD 
 MWSI.                      No:  Serv Intrp, MWD 
 OTIM.hr                110.38:  Time Operating 
 PCON.           Look Like New:  Pad Condition 
 PMAX.psia             5300.00:  Press Op, Max 
 PV  .cP                 57.00:  Mud PV 
 RUN .                    1200:  Run Number 
 ROPA.m/hr               13.00:  ROP Avg 
 ROPN.m/hr                9.00:  ROP Min 
 ROPX.m/hr               15.00:  ROP Max 
 RPMA.rpm               120.00:  RPM Surface Avg 
 RPMN.rpm               100.00:  RPM Surface Min 
 RPMX.rpm               135.00:  RPM Surface Max 
 RRUN.                    1200:  Rig Run Number 
 RTIM.hr                  2.65:  Time Reaming 
 SAZI.deg               145.04:  Azm, Start 
 SDEP.m                4455.01:  Start Depth 
 SIDD.                      No:  Serv Intrp, DD 
 SINC.deg                65.83:  Inc, Start 
 SPPA.psig             5037.00:  SPP Avg 
 SPPN.psig             4430.00:  SPP Min 
 SPPX.psig             5300.00:  SPP Max 
 STIM.      22.41.04 26-Jan-21:  Start Time 
 SVCS.                 DD, MWD:  Services 
 SVER.                    9.20:  Sperry Version 
 TDAT.m                 412.00:  Tot Depth Attmp 
 TDDF.                      No:  Trip for DD 
 TDLG.m                 412.00:  Tot Depth Loggd 
 TFF .                      No:  Trip for Fail 
 TQAA.f-kp               15.00:  Torque Abs Avg 
 TQAN.f-kp               12.00:  Torque Abs Min 
 TQAX.f-kp               17.00:  Torque Abs Max 
 TRRT.°/30m               1.18:  Turn Rotating 
 MRT .                     ADR:  Maximum Recorded Temperature 
 TTMX.degC               88.24:  Max Tool Temp 
 VS01.                90619458:  Virtual Str1 SN 
 VS02.                90519326:  Virtual Str2 SN 
 VS03.                90522176:  Virtual Str3 SN 
 VS04.                90512683:  Virtual Str4 SN 
 WBMN.klb                 1.00:  WOB Min 
 WITN.           Murad Giluyev:  Customer Rep 
 WITN.     Kamran Kemberlinski:  Customer Rep 2 
 WOBA.klb                 5.00:  WOB Avg 
 WOBX.klb                 9.00:  WOB Max 
 YP  .lhf2               41.00:  Yield Point 
~Curve Information Block
#MNEM.UNIT                 API CODE     Curve Description
#---------               -----------    ---------------------------
 TIME.HHMMSS            00 000 000 000:  GT Time & Date
 GTDEPTH.m              00 000 000 000:  GT Depth
 GTPQH.psia             00 000 000 000:  GT HR Quartz Pressure
 GTTQ.degC              00 000 000 000:  GT Quartz Temperature
 GTTN.NONE              00 000 000 000:  GT Test Number
 GTET.sec               00 000 000 000:  GT Elapsed Test Time
 GTTVD.m                00 000 000 000:  GT True Vertical Depth
#Other Information
#
#WARRANTY: Halliburton will use its best efforts to furnish customers with 
#accurate information and interpretations that are part of, and incident to, the services 
#provided.  However, Halliburton cannot and does not warrant the accuracy 
#or correctness of such information and interpretations.  Under no circumstances should any 
#such information or interpretation be relied upon as the sole basis for any drilling, 
#completion, production, or financial decision or any procedure involving any risk to the 
#safety of any drilling venture, drilling rig or its crew or any other third party.  The 
#Customer has full responsibility for all drilling, completion and production operation.  
#Halliburton makes no representations or warranties, either expressed or 
#implied, including, but not limited to, the implied warranties of merchantability or fitness 
#for a particular purpose, with respect to the services rendered.  In no event will 
#Halliburton be liable for failure to obtain any particular results or for 
#any damages, including, but not limited to, indirect, special or consequential damages, 
#resulting from the use of any information or interpretation provided by Halliburton.
#
~A           TIME           GTDEPTH  GTPQH  GTTQ  GTTN  GTET   GTTVD  
# ...
   02:28:24.000.28-Jan-2021 4453.81 5412.39 60.63 1.00 322.00 2485.38
   02:28:24.200.28-Jan-2021 4453.81 5412.39 60.63 1.00 322.20 2485.38
   02:28:24.400.28-Jan-2021 4453.81 5410.51 60.63 1.00 322.40 2485.38
   02:28:24.600.28-Jan-2021 4453.81 5412.77 60.63 1.00 322.60 2485.38
   02:28:24.800.28-Jan-2021 4453.81 5410.98 60.63 1.00 322.80 2485.38
   02:28:25.000.28-Jan-2021 4453.81 5412.85 60.63 1.00 323.00 2485.38
   02:28:25.200.28-Jan-2021 4453.81 5412.85 60.63 1.00 323.20 2485.38
   02:28:25.400.28-Jan-2021 4453.81 5410.87 60.63 1.00 323.40 2485.38
   02:28:25.600.28-Jan-2021 4453.81 5412.76 60.63 1.00 323.60 2485.38
   02:28:25.800.28-Jan-2021 4453.81 5410.16 60.63 1.00 323.80 2485.38
   02:28:26.000.28-Jan-2021 4453.81 5411.51 60.63 1.00 324.00 2485.38
   02:28:26.200.28-Jan-2021 4453.81 5411.51 60.63 1.00 324.20 2485.38
   02:28:26.400.28-Jan-2021 4453.81 5411.92 60.63 1.00 324.40 2485.38
   02:28:26.600.28-Jan-2021 4453.81 5406.66 60.63 1.00 324.60 2485.38
   02:28:26.800.28-Jan-2021 4453.81 5410.57 60.63 1.00 324.80 2485.38
   02:28:27.000.28-Jan-2021 4453.81 5412.86 60.63 1.00 325.00 2485.38
   02:28:27.200.28-Jan-2021 4453.81 5412.86 60.63 1.00 325.20 2485.38
   02:28:27.400.28-Jan-2021 4453.81 5411.39 60.63 1.00 325.40 2485.38
   02:28:27.600.28-Jan-2021 4453.81 5412.35 60.63 1.00 325.60 2485.38
   02:28:27.800.28-Jan-2021 4453.81 5411.16 60.63 1.00 325.80 2485.38
   02:28:28.000.28-Jan-2021 4453.81 5411.07 60.63 1.00 326.00 2485.38
   02:28:28.200.28-Jan-2021 4453.81 5411.07 60.63 1.00 326.20 2485.38
   02:28:28.400.28-Jan-2021 4453.81 5410.72 60.63 1.00 326.40 2485.38
   02:28:28.600.28-Jan-2021 4453.81 5412.08 60.63 1.00 326.60 2485.38
   02:28:28.800.28-Jan-2021 4453.81 5411.68 60.63 1.00 326.80 2485.38
   02:28:29.000.28-Jan-2021 4453.81 5411.27 60.63 1.00 327.00 2485.38
   02:28:29.200.28-Jan-2021 4453.81 5411.27 60.63 1.00 327.20 2485.38
   02:28:29.400.28-Jan-2021 4453.81 5410.62 60.63 1.00 327.40 2485.38
   02:28:29.600.28-Jan-2021 4453.81 5412.00 60.63 1.00 327.60 2485.38
   02:28:29.800.28-Jan-2021 4453.81 5412.13 60.63 1.00 327.80 2485.38
   02:28:30.000.28-Jan-2021 4453.81 5403.47 60.63 1.00 328.00 2485.38
   02:28:30.200.28-Jan-2021 4453.81 5403.47 60.63 1.00 328.20 2485.38
   02:28:30.400.28-Jan-2021 4453.81 5411.32 60.63 1.00 328.40 2485.38
   02:28:30.600.28-Jan-2021 4453.81 5414.66 60.63 1.00 328.60 2485.38
   02:28:30.800.28-Jan-2021 4453.81 5405.24 60.63 1.00 328.80 2485.38
   02:28:31.000.28-Jan-2021 4453.81 5410.92 60.63 1.00 329.00 2485.38
   02:28:31.200.28-Jan-2021 4453.81 5410.92 60.63 1.00 329.20 2485.38
   02:28:31.400.28-Jan-2021 4453.81 5414.09 60.62 1.00 329.40 2485.38
   02:28:31.600.28-Jan-2021 4453.81 5412.33 60.62 1.00 329.60 2485.38
   02:28:31.800.28-Jan-2021 4453.81 5404.87 60.62 1.00 329.80 2485.38
   02:28:32.000.28-Jan-2021 4453.81 5410.79 60.62 1.00 330.00 2485.38
   02:28:32.200.28-Jan-2021 4453.81 5410.79 60.62 1.00 330.20 2485.38
   02:28:32.400.28-Jan-2021 4453.81 5411.83 60.62 1.00 330.40 2485.38
   02:28:32.600.28-Jan-2021 4453.81 5406.05 60.62 1.00 330.60 2485.38
   02:28:32.800.28-Jan-2021 4453.81 5412.78 60.62 1.00 330.80 2485.38
   02:28:33.000.28-Jan-2021 4453.81 5411.60 60.62 1.00 331.00 2485.38
   02:28:33.200.28-Jan-2021 4453.81 5411.60 60.62 1.00 331.20 2485.38
   02:28:33.400.28-Jan-2021 4453.81 5412.69 60.62 1.00 331.40 2485.38
   02:28:33.600.28-Jan-2021 4453.81 5410.35 60.62 1.00 331.60 2485.38
   02:28:33.800.28-Jan-2021 4453.81 5404.08 60.62 1.00 331.80 2485.38
   02:28:34.000.28-Jan-2021 4453.81 5409.41 60.62 1.00 332.00 2485.38
   02:28:34.200.28-Jan-2021 4453.81 5409.41 60.62 1.00 332.20 2485.38
   02:28:34.400.28-Jan-2021 4453.81 5415.34 60.62 1.00 332.40 2485.38
   02:28:34.600.28-Jan-2021 4453.81 5411.40 60.62 1.00 332.60 2485.38
   02:28:34.800.28-Jan-2021 4453.81 5412.36 60.62 1.00 332.80 2485.38
   02:28:35.000.28-Jan-2021 4453.81 5410.93 60.62 1.00 333.00 2485.38
   02:28:35.200.28-Jan-2021 4453.81 5410.93 60.62 1.00 333.20 2485.38
   02:28:35.400.28-Jan-2021 4453.81 5412.68 60.62 1.00 333.40 2485.38
   02:28:35.600.28-Jan-2021 4453.81 5410.83 60.62 1.00 333.60 2485.38
   02:28:35.800.28-Jan-2021 4453.81 5412.88 60.62 1.00 333.80 2485.38
   02:28:36.000.28-Jan-2021 4453.81 5411.29 60.62 1.00 334.00 2485.38
   02:28:36.200.28-Jan-2021 4453.81 5411.29 60.62 1.00 334.20 2485.38
   02:28:36.400.28-Jan-2021 4453.81 5412.28 60.62 1.00 334.40 2485.38
   02:28:36.600.28-Jan-2021 4453.81 5410.12 60.62 1.00 334.60 2485.38
   02:28:36.800.28-Jan-2021 4453.81 5411.87 60.62 1.00 334.80 2485.38
   02:28:37.000.28-Jan-2021 4453.81 5411.58 60.62 1.00 335.00 2485.38
   02:28:37.200.28-Jan-2021 4453.81 5411.58 60.62 1.00 335.20 2485.38
   02:28:37.400.28-Jan-2021 4453.81 5411.69 60.62 1.00 335.40 2485.38
   02:28:37.600.28-Jan-2021 4453.81 5410.16 60.62 1.00 335.60 2485.38
   02:28:37.800.28-Jan-2021 4453.81 5413.69 60.62 1.00 335.80 2485.38
   02:28:38.000.28-Jan-2021 4453.81 5413.86 60.62 1.00 336.00 2485.38
   02:28:38.200.28-Jan-2021 4453.81 5413.86 60.62 1.00 336.20 2485.38
   02:28:38.400.28-Jan-2021 4453.81 5410.59 60.62 1.00 336.40 2485.38
   02:28:38.600.28-Jan-2021 4453.81 5410.46 60.62 1.00 336.60 2485.38
   02:28:38.800.28-Jan-2021 4453.81 5411.67 60.62 1.00 336.80 2485.38
   02:28:39.000.28-Jan-2021 4453.81 5412.51 60.62 1.00 337.00 2485.38
   02:28:39.200.28-Jan-2021 4453.81 5412.51 60.62 1.00 337.20 2485.38
   02:28:39.400.28-Jan-2021 4453.81 5412.36 60.62 1.00 337.40 2485.38
   02:28:39.600.28-Jan-2021 4453.81 5411.78 60.61 1.00 337.60 2485.38
   02:28:39.800.28-Jan-2021 4453.81 5411.95 60.61 1.00 337.80 2485.38
   02:28:40.000.28-Jan-2021 4453.81 5412.61 60.61 1.00 338.00 2485.38
   02:28:40.200.28-Jan-2021 4453.81 5412.61 60.61 1.00 338.20 2485.38
   02:28:40.400.28-Jan-2021 4453.81 5412.50 60.61 1.00 338.40 2485.38
   02:28:40.600.28-Jan-2021 4453.81 5409.28 60.61 1.00 338.60 2485.38
   02:28:40.800.28-Jan-2021 4453.81 5405.69 60.61 1.00 338.80 2485.38
   02:28:41.000.28-Jan-2021 4453.81 5412.53 60.61 1.00 339.00 2485.38
   02:28:41.200.28-Jan-2021 4453.81 5412.53 60.61 1.00 339.20 2485.38
   02:28:41.400.28-Jan-2021 4453.81 5414.37 60.61 1.00 339.40 2485.38
   02:28:41.600.28-Jan-2021 4453.81 5404.64 60.61 1.00 339.60 2485.38
   02:28:41.800.28-Jan-2021 4453.81 5411.25 60.61 1.00 339.80 2485.38
   02:28:42.000.28-Jan-2021 4453.81 5413.19 60.61 1.00 340.00 2485.38
   02:28:42.200.28-Jan-2021 4453.81 5413.19 60.61 1.00 340.20 2485.38
   02:28:42.400.28-Jan-2021 4453.81 5413.88 60.61 1.00 340.40 2485.38
   02:28:42.600.28-Jan-2021 4453.81 5407.12 60.61 1.00 340.60 2485.38
   02:28:42.800.28-Jan-2021 4453.81 5410.98 60.61 1.00 340.80 2485.38
   02:28:43.000.28-Jan-2021 4453.81 5414.20 60.61 1.00 341.00 2485.38
   02:28:43.200.28-Jan-2021 4453.81 5414.20 60.61 1.00 341.20 2485.38
   02:28:43.400.28-Jan-2021 4453.81 5411.23 60.61 1.00 341.40 2485.38
   02:28:43.600.28-Jan-2021 4453.81 5412.06 60.61 1.00 341.60 2485.38
   02:28:43.800.28-Jan-2021 4453.81 5411.70 60.61 1.00 341.80 2485.38
   02:28:44.000.28-Jan-2021 4453.81 5414.49 60.61 1.00 342.00 2485.38
   02:28:44.200.28-Jan-2021 4453.81 5414.49 60.61 1.00 342.20 2485.38
   02:28:44.400.28-Jan-2021 4453.81 5408.07 60.61 1.00 342.40 2485.38
   02:28:44.600.28-Jan-2021 4453.81 5405.88 60.61 1.00 342.60 2485.38
   02:28:44.800.28-Jan-2021 4453.81 5409.15 60.61 1.00 342.80 2485.38
   02:28:45.000.28-Jan-2021 4453.81 5413.51 60.61 1.00 343.00 2485.38
   02:28:45.200.28-Jan-2021 4453.81 5413.51 60.61 1.00 343.20 2485.38
   02:28:45.400.28-Jan-2021 4453.81 5411.01 60.61 1.00 343.40 2485.38
   02:28:45.600.28-Jan-2021 4453.81 5412.31 60.61 1.00 343.60 2485.38
   02:28:45.800.28-Jan-2021 4453.81 5409.99 60.61 1.00 343.80 2485.38
   02:28:46.000.28-Jan-2021 4453.81 5411.28 60.61 1.00 344.00 2485.38
   02:28:46.200.28-Jan-2021 4453.81 5411.28 60.61 1.00 344.20 2485.38
   02:28:46.400.28-Jan-2021 4453.81 5412.20 60.61 1.00 344.40 2485.38
   02:28:46.600.28-Jan-2021 4453.81 5413.20 60.61 1.00 344.60 2485.38
   02:28:46.800.28-Jan-2021 4453.81 5410.73 60.61 1.00 344.80 2485.38
