~Version Information
 VERS.                  2.0:   CWLS log ASCII Standard -VERSION 2.0
 WRAP.                   NO:   One line per depth step
~Well Information Block
#MNEM.UNIT     VALUE/NAME     DESCRIPTION
#---------     -----------    ---------------------------
 STRT.S             02:23:02 28-Jan-21: START TIME 02:23:02 28-Jan-21
 STOP.S             02:29:37 28-Jan-21: STOP TIME  02:29:37 28-Jan-21
 STEP.S                   0.00: STEP TIME
 NULL.                 -999.25: NULL VALUE
 DFWT.                        :  DIST FWL TEXT
 DFST.                        :  DIST FSL TEXT
 DMF .             Drill Floor:  DRILL MEAS FROM
 STIM.      00.00.00 25-Sep-20:  START TIME
 DATE.      16.12.48 31-Jan-21:  END TIME
 SPUD.               20-Sep-20:  SPUD DATE
 NREF.                    Grid:  NORTH REFERENCE
 HPTY.       Minimum Curvature:  HOLE POS TYPE
 DMOD.             Drill Model:  DRILL MOD DESC
 SVYD.                  Survey:  SURVEY DESC
 ILTD.               Lithology:  INTERP LTH DESC
 FTOP.          Formation Tops:  FORM TOPS DESC
 RIG .              East Azeri:  RIG NAME
 PDAT.          Mean Sea Level:  PERMANENT DATUM
 FLD .                     ACG:  FIELD NAME
 SON .        AZ-XX-0906591820:  JOB NUMBER
 CTRY.              Azerbaijan:  COUNTRY NAME
 WELL.                     D37:  WELL NAME
 SRVC.     Turan Drilling & Engineering:  CONTRACTOR
 COMP.     BP Exploration (Caspian Sea) ltd.:  COMPANY
 WTYP.                Deviated:  WELL TYPE
 MDS .        Operator Entered:  MAG DATA SOURCE
 UWI .                     N/A:  UNIQUE WELL IDENTIFIER
 API .                     N/A:  API NUMBER
 BASE.              Azerbaijan:  LOGGING EQUIPMENT BASE LOCATION
 REGN.                   EESSA:  REGION
 PROV.                    Baku:  PROVINCE
 STAT.                    Baku:  STATE NAME
 MWDS.                    Baku:  MWD SHOP
 JOBN.        AZ-XX-0906591820:  JOB TICKET NUMB
 DOE .                     N/A:  DOE NUMBER
 DCON.         Sperry Drilling:  DIRECTNL CONTR
 UNIT.                     N/A:  LOGGING EQUIPMENT ID
 CNTY.                        :  COUNTY
 LOC .                        :  LOCATION
 LMF .             Drill Floor:  LOG MEASURED FROM
 TVDS.m                  43.60:  TVDSS CORRECTN
 LATI.deg                40.02:  LATITUDE
 LONG.deg                51.45:  LONGITUDE
 WHNS.m                  11.04:  WELL HEAD N/S
 WHEW.m                 -12.38:  WELL HEAD E/W
 UTMX.m              538763.98:  UTM X
 UTMY.m             4431880.20:  UTM Y
 DFWL.m                   0.00:  DISTANCE FWL
 DFSL.m                   0.00:  DISTANCE FSL
 SDEP.m                 300.00:  START DEPTH
 TDD .m                4900.01:  TOTAL DEPTH (DRILLER)
 VSDR.deg               185.64:  VERT SEC DIRECT
 GVFD.g                   1.00:  GRAVITY FIELD
 MFLD.nT              50301.00:  MAGNETIC FIELD
 MDIP.deg                59.46:  MAGNETIC DIP
 MDEC.deg                 6.43:  MAGNETIC DECL
 GRDC.deg                 0.29:  GRID CORRECTION
 AZTC.deg                 6.14:  AZM TOTAL CORR
 EPD .m                   0.00:  ELEVATION
 EGL .m                   0.00:  GROUND ELEVATION
 WDMS.m                 151.80:  WD ELEV
 APD .m                  43.60:  DEPTH ABOVE PD
 DEP .m                 571.69:  DEPTH
 AGAP.m                  43.60:  AIR GAP
 VSEW.m                 -12.38:  VERT SEC E/W
 VSNS.m                  11.04:  VERT SEC N/S
 EKB .m                  43.60:  KB ELEVATION
 EDF .m                  43.60:  DF ELEVATION
 TDL .m                 412.00:  TOTAL DEPTH (LOGGER)
 VSC .                       0:  VS TO CLOSURE
 MAGU.                 1849300:  MAGUTM CHECKSUM
~Parameter Information Block
#MNEM.UNIT       Value        Description
#---------     -----------    ---------------------------
 AV  .mps                 2.21:  Ann Velocity 
 AVMX.mps                 2.53:  Max Ann Veloc 
 AZIF.deg               144.83:  Azm, Final 
 BHAT.        Rotary Steerable:  BHA Type 
 BROT.°/30m              -0.52:  Build Rotating 
 BS  .in                  6.50:  Bit Size 
 BTPL.psig              209.00:  Bit Press Loss 
 CABU.                      No:  Customer Abuse 
 CGEO.        Ali Isfandiyarov:  Customer Geo 
 TCS .hr                 61.31:  Time Ciculation Ended 
 CV  .mps                 4.66:  Crit Velocity 
 CVMX.mps                 5.02:  Max Crit Veloc 
 DD1 .          Fariz Nahmatov:  Direct Drillr 1 
 DD2 .            Musa Ahmadov:  Direct Drillr 2 
 DDSV.               Geo-Pilot:  DD Service 
 DEFF.%                 100.00:  % Det Eff 
 DLRX.°/30m               1.44:  Dogleg Rot Max 
 DLSO.°/30m               0.83:  Dogleg Oriented 
 DLSX.°/30m               1.44:  Dogleg Str Max 
 DRET.      08.30.00 30-Jan-21:  Drill End Time 
 DRST.      21.15.00 27-Jan-21:  Drill Start Tim 
 DTIM.hr                 37.28:  Time Drilling 
 EDEP.m                4867.01:  End Depth 
 ENG1.          Rasim Hashimov:  Engineer 1 
 ENG2.         Almaz Almadatov:  Engineer 2 
 ENG3.        Tamerlan Ahmadov:  Engineer 3 
 ETIM.      22.41.04 31-Jan-21:  End Time 
 FLOI.gpm               400.00:  Flow In 
 FLON.gpm               300.00:  Flow In Min 
 FLOS.cptm                0.00:  Fluid Loss 
 FLOX.gpm               400.00:  Flow In Max 
 HFLO.                      No:  High Flow 
 HPRE.                      No:  High Pressure 
 HTEM.                      No:  High Temp 
 HYDO.m                   1.80:  Hydro Offset 
 IFIN.deg                65.63:  Inc, Final 
 IMAX.deg                66.77:  Inc Max 
 IMIN.deg                65.61:  Inc Min 
 IMND.m                4612.67:  Inc Min Depth 
 IMXD.m                4811.63:  Inc Max Depth 
 JARR.                      No:  Jarring 
 LETM.      08.30.00 30-Jan-21:  Log End Time 
 LOST.hr                     0:  Lost Rig Time 
 LSTM.      21.15.00 27-Jan-21:  Log Start Time 
 MDCL.ppm             41000.00:  Mud Chlorides 
 MDES.     Inversion Oil/Synthetic:  Mud Desc 
 DFD .sg                  1.40:  Mud Density 
 MDMN.sg                  1.40:  Dens Mud Min 
 MDMX.sg                  1.40:  Dens Mud Max 
 MOIL.                      53:  Run Mud Oil % 
 MOWR.                   66:34:  Run Mud OWR 
 MSND.                     0.2:  Run Mud Sand % 
 MSOL.                    17.9:  Run Mud Solids% 
 DFV .spqt               77.00:  Mud Viscosity 
 MWOD.in                  4.75:  MWD Tool OD 
 MWSI.                      No:  Serv Intrp, MWD 
 OTIM.hr                110.38:  Time Operating 
 PCON.           Look Like New:  Pad Condition 
 PMAX.psia             5300.00:  Press Op, Max 
 PV  .cP                 57.00:  Mud PV 
 RUN .                    1200:  Run Number 
 ROPA.m/hr               13.00:  ROP Avg 
 ROPN.m/hr                9.00:  ROP Min 
 ROPX.m/hr               15.00:  ROP Max 
 RPMA.rpm               120.00:  RPM Surface Avg 
 RPMN.rpm               100.00:  RPM Surface Min 
 RPMX.rpm               135.00:  RPM Surface Max 
 RRUN.                    1200:  Rig Run Number 
 RTIM.hr                  2.65:  Time Reaming 
 SAZI.deg               145.04:  Azm, Start 
 SDEP.m                4455.01:  Start Depth 
 SIDD.                      No:  Serv Intrp, DD 
 SINC.deg                65.83:  Inc, Start 
 SPPA.psig             5037.00:  SPP Avg 
 SPPN.psig             4430.00:  SPP Min 
 SPPX.psig             5300.00:  SPP Max 
 STIM.      22.41.04 26-Jan-21:  Start Time 
 SVCS.                 DD, MWD:  Services 
 SVER.                    9.20:  Sperry Version 
 TDAT.m                 412.00:  Tot Depth Attmp 
 TDDF.                      No:  Trip for DD 
 TDLG.m                 412.00:  Tot Depth Loggd 
 TFF .                      No:  Trip for Fail 
 TQAA.f-kp               15.00:  Torque Abs Avg 
 TQAN.f-kp               12.00:  Torque Abs Min 
 TQAX.f-kp               17.00:  Torque Abs Max 
 TRRT.°/30m               1.18:  Turn Rotating 
 MRT .                     ADR:  Maximum Recorded Temperature 
 TTMX.degC               88.24:  Max Tool Temp 
 VS01.                90619458:  Virtual Str1 SN 
 VS02.                90519326:  Virtual Str2 SN 
 VS03.                90522176:  Virtual Str3 SN 
 VS04.                90512683:  Virtual Str4 SN 
 WBMN.klb                 1.00:  WOB Min 
 WITN.           Murad Giluyev:  Customer Rep 
 WITN.     Kamran Kemberlinski:  Customer Rep 2 
 WOBA.klb                 5.00:  WOB Avg 
 WOBX.klb                 9.00:  WOB Max 
 YP  .lhf2               41.00:  Yield Point 
~Curve Information Block
#MNEM.UNIT                 API CODE     Curve Description
#---------               -----------    ---------------------------
 TIME.HHMMSS            00 000 000 000:  GT Time & Date
 GTDEPTH.m              00 000 000 000:  GT Depth
 GTPQH.psia             00 000 000 000:  GT HR Quartz Pressure
 GTTQ.degC              00 000 000 000:  GT Quartz Temperature
 GTTN.NONE              00 000 000 000:  GT Test Number
 GTET.sec               00 000 000 000:  GT Elapsed Test Time
 GTTVD.m                00 000 000 000:  GT True Vertical Depth
#Other Information
#
#WARRANTY: Halliburton will use its best efforts to furnish customers with 
#accurate information and interpretations that are part of, and incident to, the services 
#provided.  However, Halliburton cannot and does not warrant the accuracy 
#or correctness of such information and interpretations.  Under no circumstances should any 
#such information or interpretation be relied upon as the sole basis for any drilling, 
#completion, production, or financial decision or any procedure involving any risk to the 
#safety of any drilling venture, drilling rig or its crew or any other third party.  The 
#Customer has full responsibility for all drilling, completion and production operation.  
#Halliburton makes no representations or warranties, either expressed or 
#implied, including, but not limited to, the implied warranties of merchantability or fitness 
#for a particular purpose, with respect to the services rendered.  In no event will 
#Halliburton be liable for failure to obtain any particular results or for 
#any damages, including, but not limited to, indirect, special or consequential damages, 
#resulting from the use of any information or interpretation provided by Halliburton.
#
~A           TIME           GTDEPTH  GTPQH  GTTQ  GTTN  GTET   GTTVD  
# ...
   02:24:34.000.28-Jan-2021 4453.81 5404.70 60.94 1.00  92.00 2485.38
   02:24:34.200.28-Jan-2021 4453.81 5404.70 60.94 1.00  92.20 2485.38
   02:24:34.400.28-Jan-2021 4453.81 5412.10 60.94 1.00  92.40 2485.38
   02:24:34.600.28-Jan-2021 4453.81 5413.29 60.94 1.00  92.60 2485.38
   02:24:34.800.28-Jan-2021 4453.81 5409.42 60.94 1.00  92.80 2485.38
   02:24:35.000.28-Jan-2021 4453.81 5408.74 60.94 1.00  93.00 2485.38
   02:24:35.200.28-Jan-2021 4453.81 5408.74 60.94 1.00  93.20 2485.38
   02:24:35.400.28-Jan-2021 4453.81 5413.72 60.94 1.00  93.40 2485.38
   02:24:35.600.28-Jan-2021 4453.81 5414.04 60.94 1.00  93.60 2485.38
   02:24:35.800.28-Jan-2021 4453.81 5403.28 60.94 1.00  93.80 2485.38
   02:24:36.000.28-Jan-2021 4453.81 5412.69 60.94 1.00  94.00 2485.38
   02:24:36.200.28-Jan-2021 4453.81 5412.69 60.94 1.00  94.20 2485.38
   02:24:36.400.28-Jan-2021 4453.81 5413.98 60.94 1.00  94.40 2485.38
   02:24:36.600.28-Jan-2021 4453.81 5405.50 60.94 1.00  94.60 2485.38
   02:24:36.800.28-Jan-2021 4453.81 5410.74 60.94 1.00  94.80 2485.38
   02:24:37.000.28-Jan-2021 4453.81 5412.94 60.94 1.00  95.00 2485.38
   02:24:37.200.28-Jan-2021 4453.81 5412.94 60.94 1.00  95.20 2485.38
   02:24:37.400.28-Jan-2021 4453.81 5412.70 60.93 1.00  95.40 2485.38
   02:24:37.600.28-Jan-2021 4453.81 5408.29 60.93 1.00  95.60 2485.38
   02:24:37.800.28-Jan-2021 4453.81 5405.34 60.93 1.00  95.80 2485.38
   02:24:38.000.28-Jan-2021 4453.81 5411.02 60.93 1.00  96.00 2485.38
   02:24:38.200.28-Jan-2021 4453.81 5411.02 60.93 1.00  96.20 2485.38
   02:24:38.400.28-Jan-2021 4453.81 5413.95 60.93 1.00  96.40 2485.38
   02:24:38.600.28-Jan-2021 4453.81 5412.57 60.93 1.00  96.60 2485.38
   02:24:38.800.28-Jan-2021 4453.81 5410.23 60.93 1.00  96.80 2485.38
   02:24:39.000.28-Jan-2021 4453.81 5411.88 60.93 1.00  97.00 2485.38
   02:24:39.200.28-Jan-2021 4453.81 5411.88 60.93 1.00  97.20 2485.38
   02:24:39.400.28-Jan-2021 4453.81 5411.01 60.93 1.00  97.40 2485.38
   02:24:39.600.28-Jan-2021 4453.81 5412.63 60.93 1.00  97.60 2485.38
   02:24:39.800.28-Jan-2021 4453.81 5411.15 60.93 1.00  97.80 2485.38
   02:24:40.000.28-Jan-2021 4453.81 5412.22 60.93 1.00  98.00 2485.38
   02:24:40.200.28-Jan-2021 4453.81 5412.22 60.93 1.00  98.20 2485.38
   02:24:40.400.28-Jan-2021 4453.81 5410.63 60.93 1.00  98.40 2485.38
   02:24:40.600.28-Jan-2021 4453.81 5412.01 60.93 1.00  98.60 2485.38
   02:24:40.800.28-Jan-2021 4453.81 5410.28 60.93 1.00  98.80 2485.38
   02:24:41.000.28-Jan-2021 4453.81 5411.58 60.93 1.00  99.00 2485.38
   02:24:41.200.28-Jan-2021 4453.81 5411.58 60.93 1.00  99.20 2485.38
   02:24:41.400.28-Jan-2021 4453.81 5409.91 60.93 1.00  99.40 2485.38
   02:24:41.600.28-Jan-2021 4453.81 5411.87 60.93 1.00  99.60 2485.38
   02:24:41.800.28-Jan-2021 4453.81 5413.59 60.93 1.00  99.80 2485.38
   02:24:42.000.28-Jan-2021 4453.81 5412.63 60.93 1.00 100.00 2485.38
   02:24:42.200.28-Jan-2021 4453.81 5412.63 60.93 1.00 100.20 2485.38
   02:24:42.400.28-Jan-2021 4453.81 5410.16 60.93 1.00 100.40 2485.38
   02:24:42.600.28-Jan-2021 4453.81 5411.73 60.93 1.00 100.60 2485.38
   02:24:42.800.28-Jan-2021 4453.81 5411.38 60.93 1.00 100.80 2485.38
   02:24:43.000.28-Jan-2021 4453.81 5411.65 60.93 1.00 101.00 2485.38
   02:24:43.200.28-Jan-2021 4453.81 5411.65 60.93 1.00 101.20 2485.38
   02:24:43.400.28-Jan-2021 4453.81 5410.31 60.93 1.00 101.40 2485.38
   02:24:43.600.28-Jan-2021 4453.81 5412.50 60.93 1.00 101.60 2485.38
   02:24:43.800.28-Jan-2021 4453.81 5411.78 60.93 1.00 101.80 2485.38
   02:24:44.000.28-Jan-2021 4453.81 5410.83 60.93 1.00 102.00 2485.38
   02:24:44.200.28-Jan-2021 4453.81 5410.83 60.93 1.00 102.20 2485.38
   02:24:44.400.28-Jan-2021 4453.81 5410.79 60.92 1.00 102.40 2485.38
   02:24:44.600.28-Jan-2021 4453.81 5404.98 60.92 1.00 102.60 2485.38
   02:24:44.800.28-Jan-2021 4453.81 5412.47 60.92 1.00 102.80 2485.38
   02:24:45.000.28-Jan-2021 4453.81 5410.94 60.92 1.00 103.00 2485.38
   02:24:45.200.28-Jan-2021 4453.81 5410.94 60.92 1.00 103.20 2485.38
   02:24:45.400.28-Jan-2021 4453.81 5409.20 60.92 1.00 103.40 2485.38
   02:24:45.600.28-Jan-2021 4453.81 5408.24 60.92 1.00 103.60 2485.38
   02:24:45.800.28-Jan-2021 4453.81 5412.59 60.92 1.00 103.80 2485.38
   02:24:46.000.28-Jan-2021 4453.81 5412.48 60.92 1.00 104.00 2485.38
   02:24:46.200.28-Jan-2021 4453.81 5412.48 60.92 1.00 104.20 2485.38
   02:24:46.400.28-Jan-2021 4453.81 5403.50 60.92 1.00 104.40 2485.38
   02:24:46.600.28-Jan-2021 4453.81 5411.82 60.92 1.00 104.60 2485.38
   02:24:46.800.28-Jan-2021 4453.81 5412.23 60.92 1.00 104.80 2485.38
   02:24:47.000.28-Jan-2021 4453.81 5413.53 60.92 1.00 105.00 2485.38
   02:24:47.200.28-Jan-2021 4453.81 5413.53 60.92 1.00 105.20 2485.38
   02:24:47.400.28-Jan-2021 4453.81 5411.14 60.92 1.00 105.40 2485.38
   02:24:47.600.28-Jan-2021 4453.81 5411.04 60.92 1.00 105.60 2485.38
   02:24:47.800.28-Jan-2021 4453.81 5414.87 60.92 1.00 105.80 2485.38
   02:24:48.000.28-Jan-2021 4453.81 5412.33 60.92 1.00 106.00 2485.38
   02:24:48.200.28-Jan-2021 4453.81 5412.33 60.92 1.00 106.20 2485.38
   02:24:48.400.28-Jan-2021 4453.81 5403.57 60.92 1.00 106.40 2485.38
   02:24:48.600.28-Jan-2021 4453.81 5409.56 60.92 1.00 106.60 2485.38
   02:24:48.800.28-Jan-2021 4453.81 5411.77 60.92 1.00 106.80 2485.38
   02:24:49.000.28-Jan-2021 4453.81 5413.41 60.92 1.00 107.00 2485.38
   02:24:49.200.28-Jan-2021 4453.81 5413.41 60.92 1.00 107.20 2485.38
   02:24:49.400.28-Jan-2021 4453.81 5412.13 60.92 1.00 107.40 2485.38
   02:24:49.600.28-Jan-2021 4453.81 5410.64 60.92 1.00 107.60 2485.38
   02:24:49.800.28-Jan-2021 4453.81 5411.81 60.92 1.00 107.80 2485.38
   02:24:50.000.28-Jan-2021 4453.81 5410.91 60.92 1.00 108.00 2485.38
   02:24:50.200.28-Jan-2021 4453.81 5410.91 60.92 1.00 108.20 2485.38
   02:24:50.400.28-Jan-2021 4453.81 5413.02 60.92 1.00 108.40 2485.38
   02:24:50.600.28-Jan-2021 4453.81 5411.38 60.92 1.00 108.60 2485.38
   02:24:50.800.28-Jan-2021 4453.81 5412.71 60.92 1.00 108.80 2485.38
   02:24:51.000.28-Jan-2021 4453.81 5411.90 60.92 1.00 109.00 2485.38
   02:24:51.200.28-Jan-2021 4453.81 5411.90 60.92 1.00 109.20 2485.38
   02:24:51.400.28-Jan-2021 4453.81 5412.45 60.91 1.00 109.40 2485.38
   02:24:51.600.28-Jan-2021 4453.81 5410.56 60.91 1.00 109.60 2485.38
   02:24:51.800.28-Jan-2021 4453.81 5412.16 60.91 1.00 109.80 2485.38
   02:24:52.000.28-Jan-2021 4453.81 5404.06 60.91 1.00 110.00 2485.38
   02:24:52.200.28-Jan-2021 4453.81 5404.06 60.91 1.00 110.20 2485.38
   02:24:52.400.28-Jan-2021 4453.81 5412.88 60.91 1.00 110.40 2485.38
   02:24:52.600.28-Jan-2021 4453.81 5413.83 60.91 1.00 110.60 2485.38
   02:24:52.800.28-Jan-2021 4453.81 5412.69 60.91 1.00 110.80 2485.38
   02:24:53.000.28-Jan-2021 4453.81 5412.02 60.91 1.00 111.00 2485.38
   02:24:53.200.28-Jan-2021 4453.81 5412.02 60.91 1.00 111.20 2485.38
   02:24:53.400.28-Jan-2021 4453.81 5412.91 60.91 1.00 111.40 2485.38
   02:24:53.600.28-Jan-2021 4453.81 5411.92 60.91 1.00 111.60 2485.38
   02:24:53.800.28-Jan-2021 4453.81 5412.30 60.91 1.00 111.80 2485.38
   02:24:54.000.28-Jan-2021 4453.81 5412.50 60.91 1.00 112.00 2485.38
   02:24:54.200.28-Jan-2021 4453.81 5412.50 60.91 1.00 112.20 2485.38
   02:24:54.400.28-Jan-2021 4453.81 5413.44 60.91 1.00 112.40 2485.38
   02:24:54.600.28-Jan-2021 4453.81 5411.73 60.91 1.00 112.60 2485.38
   02:24:54.800.28-Jan-2021 4453.81 5411.83 60.91 1.00 112.80 2485.38
   02:24:55.000.28-Jan-2021 4453.81 5412.99 60.91 1.00 113.00 2485.38
   02:24:55.200.28-Jan-2021 4453.81 5412.99 60.91 1.00 113.20 2485.38
   02:24:55.400.28-Jan-2021 4453.81 5405.94 60.91 1.00 113.40 2485.38
   02:24:55.600.28-Jan-2021 4453.81 5411.73 60.91 1.00 113.60 2485.38
   02:24:55.800.28-Jan-2021 4453.81 5411.57 60.91 1.00 113.80 2485.38
   02:24:56.000.28-Jan-2021 4453.81 5415.61 60.91 1.00 114.00 2485.38
   02:24:56.200.28-Jan-2021 4453.81 5415.61 60.91 1.00 114.20 2485.38
   02:24:56.400.28-Jan-2021 4453.81 5412.95 60.91 1.00 114.40 2485.38
   02:24:56.600.28-Jan-2021 4453.81 5412.13 60.91 1.00 114.60 2485.38
   02:24:56.800.28-Jan-2021 4453.81 5413.53 60.91 1.00 114.80 2485.38
