~Version Information
 VERS.                  2.0:   CWLS log ASCII Standard -VERSION 2.0
 WRAP.                   NO:   One line per depth step
~Well Information Block
#MNEM.UNIT     VALUE/NAME     DESCRIPTION
#---------     -----------    ---------------------------
 STRT.S             20:27:59 28-Jan-21: START TIME 20:27:59 28-Jan-21
 STOP.S             20:34:29 28-Jan-21: STOP TIME  20:34:29 28-Jan-21
 STEP.S                   0.00: STEP TIME
 NULL.                 -999.25: NULL VALUE
 DFWT.                        :  DIST FWL TEXT
 DFST.                        :  DIST FSL TEXT
 DMF .             Drill Floor:  DRILL MEAS FROM
 STIM.      00.00.00 25-Sep-20:  START TIME
 DATE.      16.12.48 31-Jan-21:  END TIME
 SPUD.               20-Sep-20:  SPUD DATE
 NREF.                    Grid:  NORTH REFERENCE
 HPTY.       Minimum Curvature:  HOLE POS TYPE
 DMOD.             Drill Model:  DRILL MOD DESC
 SVYD.                  Survey:  SURVEY DESC
 ILTD.               Lithology:  INTERP LTH DESC
 FTOP.          Formation Tops:  FORM TOPS DESC
 RIG .              East Azeri:  RIG NAME
 PDAT.          Mean Sea Level:  PERMANENT DATUM
 FLD .                     ACG:  FIELD NAME
 SON .        AZ-XX-0906591820:  JOB NUMBER
 CTRY.              Azerbaijan:  COUNTRY NAME
 WELL.                     D37:  WELL NAME
 SRVC.     Turan Drilling & Engineering:  CONTRACTOR
 COMP.     BP Exploration (Caspian Sea) ltd.:  COMPANY
 WTYP.                Deviated:  WELL TYPE
 MDS .        Operator Entered:  MAG DATA SOURCE
 UWI .                     N/A:  UNIQUE WELL IDENTIFIER
 API .                     N/A:  API NUMBER
 BASE.              Azerbaijan:  LOGGING EQUIPMENT BASE LOCATION
 REGN.                   EESSA:  REGION
 PROV.                    Baku:  PROVINCE
 STAT.                    Baku:  STATE NAME
 MWDS.                    Baku:  MWD SHOP
 JOBN.        AZ-XX-0906591820:  JOB TICKET NUMB
 DOE .                     N/A:  DOE NUMBER
 DCON.         Sperry Drilling:  DIRECTNL CONTR
 UNIT.                     N/A:  LOGGING EQUIPMENT ID
 CNTY.                        :  COUNTY
 LOC .                        :  LOCATION
 LMF .             Drill Floor:  LOG MEASURED FROM
 TVDS.m                  43.60:  TVDSS CORRECTN
 LATI.deg                40.02:  LATITUDE
 LONG.deg                51.45:  LONGITUDE
 WHNS.m                  11.04:  WELL HEAD N/S
 WHEW.m                 -12.38:  WELL HEAD E/W
 UTMX.m              538763.98:  UTM X
 UTMY.m             4431880.20:  UTM Y
 DFWL.m                   0.00:  DISTANCE FWL
 DFSL.m                   0.00:  DISTANCE FSL
 SDEP.m                 300.00:  START DEPTH
 TDD .m                4900.01:  TOTAL DEPTH (DRILLER)
 VSDR.deg               185.64:  VERT SEC DIRECT
 GVFD.g                   1.00:  GRAVITY FIELD
 MFLD.nT              50301.00:  MAGNETIC FIELD
 MDIP.deg                59.46:  MAGNETIC DIP
 MDEC.deg                 6.43:  MAGNETIC DECL
 GRDC.deg                 0.29:  GRID CORRECTION
 AZTC.deg                 6.14:  AZM TOTAL CORR
 EPD .m                   0.00:  ELEVATION
 EGL .m                   0.00:  GROUND ELEVATION
 WDMS.m                 151.80:  WD ELEV
 APD .m                  43.60:  DEPTH ABOVE PD
 DEP .m                 571.69:  DEPTH
 AGAP.m                  43.60:  AIR GAP
 VSEW.m                 -12.38:  VERT SEC E/W
 VSNS.m                  11.04:  VERT SEC N/S
 EKB .m                  43.60:  KB ELEVATION
 EDF .m                  43.60:  DF ELEVATION
 TDL .m                 412.00:  TOTAL DEPTH (LOGGER)
 VSC .                       0:  VS TO CLOSURE
 MAGU.                 1849300:  MAGUTM CHECKSUM
~Parameter Information Block
#MNEM.UNIT       Value        Description
#---------     -----------    ---------------------------
 AV  .mps                 2.21:  Ann Velocity 
 AVMX.mps                 2.53:  Max Ann Veloc 
 AZIF.deg               144.83:  Azm, Final 
 BHAT.        Rotary Steerable:  BHA Type 
 BROT.°/30m              -0.52:  Build Rotating 
 BS  .in                  6.50:  Bit Size 
 BTPL.psig              209.00:  Bit Press Loss 
 CABU.                      No:  Customer Abuse 
 CGEO.        Ali Isfandiyarov:  Customer Geo 
 COMM.                     ,´U:  Run Comments 1 
 TCS .hr                 61.31:  Time Ciculation Ended 
 CV  .mps                 4.66:  Crit Velocity 
 CVMX.mps                 5.02:  Max Crit Veloc 
 DD1 .          Fariz Nahmatov:  Direct Drillr 1 
 DD2 .            Musa Ahmadov:  Direct Drillr 2 
 DDSV.               Geo-Pilot:  DD Service 
 DEFF.%                 100.00:  % Det Eff 
 DLRX.°/30m               1.44:  Dogleg Rot Max 
 DLSO.°/30m               0.83:  Dogleg Oriented 
 DLSX.°/30m               1.44:  Dogleg Str Max 
 DRET.      08.30.00 30-Jan-21:  Drill End Time 
 DRST.      21.15.00 27-Jan-21:  Drill Start Tim 
 DTIM.hr                 37.28:  Time Drilling 
 EDEP.m                4867.01:  End Depth 
 ENG1.          Rasim Hashimov:  Engineer 1 
 ENG2.         Almaz Almadatov:  Engineer 2 
 ENG3.        Tamerlan Ahmadov:  Engineer 3 
 ETIM.      22.41.04 31-Jan-21:  End Time 
 FLOI.gpm               400.00:  Flow In 
 FLON.gpm               300.00:  Flow In Min 
 FLOS.cptm                0.00:  Fluid Loss 
 FLOX.gpm               400.00:  Flow In Max 
 HFLO.                      No:  High Flow 
 HPRE.                      No:  High Pressure 
 HTEM.                      No:  High Temp 
 HYDO.m                   1.80:  Hydro Offset 
 IFIN.deg                65.63:  Inc, Final 
 IMAX.deg                66.77:  Inc Max 
 IMIN.deg                65.61:  Inc Min 
 IMND.m                4612.67:  Inc Min Depth 
 IMXD.m                4811.63:  Inc Max Depth 
 JARR.                      No:  Jarring 
 LETM.      08.30.00 30-Jan-21:  Log End Time 
 LOST.hr                     0:  Lost Rig Time 
 LSTM.      21.15.00 27-Jan-21:  Log Start Time 
 MDCL.ppm             41000.00:  Mud Chlorides 
 MDES.     Inversion Oil/Synthetic:  Mud Desc 
 DFD .sg                  1.40:  Mud Density 
 MDMN.sg                  1.40:  Dens Mud Min 
 MDMX.sg                  1.40:  Dens Mud Max 
 MOIL.                      53:  Run Mud Oil % 
 MOWR.                   66:34:  Run Mud OWR 
 MSND.                     0.2:  Run Mud Sand % 
 MSOL.                    17.9:  Run Mud Solids% 
 DFV .spqt               77.00:  Mud Viscosity 
 MWOD.in                  4.75:  MWD Tool OD 
 MWSI.                      No:  Serv Intrp, MWD 
 OTIM.hr                110.38:  Time Operating 
 PCON.           Look Like New:  Pad Condition 
 PMAX.psia             5300.00:  Press Op, Max 
 PV  .cP                 57.00:  Mud PV 
 RUN .                    1200:  Run Number 
 ROPA.m/hr               13.00:  ROP Avg 
 ROPN.m/hr                9.00:  ROP Min 
 ROPX.m/hr               15.00:  ROP Max 
 RPMA.rpm               120.00:  RPM Surface Avg 
 RPMN.rpm               100.00:  RPM Surface Min 
 RPMX.rpm               135.00:  RPM Surface Max 
 RRUN.                    1200:  Rig Run Number 
 RTIM.hr                  2.65:  Time Reaming 
 SAZI.deg               145.04:  Azm, Start 
 SDEP.m                4455.01:  Start Depth 
 SIDD.                      No:  Serv Intrp, DD 
 SINC.deg                65.83:  Inc, Start 
 SPPA.psig             5037.00:  SPP Avg 
 SPPN.psig             4430.00:  SPP Min 
 SPPX.psig             5300.00:  SPP Max 
 STIM.      22.41.04 26-Jan-21:  Start Time 
 SVCS.                 DD, MWD:  Services 
 SVER.                    9.20:  Sperry Version 
 TDAT.m                 412.00:  Tot Depth Attmp 
 TDDF.                      No:  Trip for DD 
 TDLG.m                 412.00:  Tot Depth Loggd 
 TFF .                      No:  Trip for Fail 
 TQAA.f-kp               15.00:  Torque Abs Avg 
 TQAN.f-kp               12.00:  Torque Abs Min 
 TQAX.f-kp               17.00:  Torque Abs Max 
 TRRT.°/30m               1.18:  Turn Rotating 
 MRT .                     ADR:  Maximum Recorded Temperature 
 TTMX.degC               88.24:  Max Tool Temp 
 VS01.                90619458:  Virtual Str1 SN 
 VS02.                90519326:  Virtual Str2 SN 
 VS03.                90522176:  Virtual Str3 SN 
 VS04.                90512683:  Virtual Str4 SN 
 WBMN.klb                 1.00:  WOB Min 
 WITN.           Murad Giluyev:  Customer Rep 
 WITN.     Kamran Kemberlinski:  Customer Rep 2 
 WOBA.klb                 5.00:  WOB Avg 
 WOBX.klb                 9.00:  WOB Max 
 YP  .lhf2               41.00:  Yield Point 
~Curve Information Block
#MNEM.UNIT                 API CODE     Curve Description
#---------               -----------    ---------------------------
 TIME.HHMMSS            00 000 000 000:  GT Time & Date
 GTDEPTH.m              00 000 000 000:  GT Depth
 GTPQH.psia             00 000 000 000:  GT HR Quartz Pressure
 GTTQ.degC              00 000 000 000:  GT Quartz Temperature
 GTTN.NONE              00 000 000 000:  GT Test Number
 GTET.sec               00 000 000 000:  GT Elapsed Test Time
 GTTVD.m                00 000 000 000:  GT True Vertical Depth
#Other Information
#
#WARRANTY: Halliburton will use its best efforts to furnish customers with 
#accurate information and interpretations that are part of, and incident to, the services 
#provided.  However, Halliburton cannot and does not warrant the accuracy 
#or correctness of such information and interpretations.  Under no circumstances should any 
#such information or interpretation be relied upon as the sole basis for any drilling, 
#completion, production, or financial decision or any procedure involving any risk to the 
#safety of any drilling venture, drilling rig or its crew or any other third party.  The 
#Customer has full responsibility for all drilling, completion and production operation.  
#Halliburton makes no representations or warranties, either expressed or 
#implied, including, but not limited to, the implied warranties of merchantability or fitness 
#for a particular purpose, with respect to the services rendered.  In no event will 
#Halliburton be liable for failure to obtain any particular results or for 
#any damages, including, but not limited to, indirect, special or consequential damages, 
#resulting from the use of any information or interpretation provided by Halliburton.
#
~A           TIME           GTDEPTH  GTPQH  GTTQ  GTTN  GTET   GTTVD  
# ...
   20:28:22.373.28-Jan-2021 4575.01 5837.53 74.89 6.00  23.00 2534.93
   20:28:22.573.28-Jan-2021 4575.01 5837.53 74.89 6.00  23.20 2534.93
   20:28:22.773.28-Jan-2021 4575.01 5839.75 74.89 6.00  23.40 2534.93
   20:28:22.974.28-Jan-2021 4575.01 5840.16 74.89 6.00  23.60 2534.93
   20:28:23.174.28-Jan-2021 4575.01 5841.63 74.89 6.00  23.80 2534.93
   20:28:23.374.28-Jan-2021 4575.01 5842.02 74.89 6.00  24.00 2534.93
   20:28:23.574.28-Jan-2021 4575.01 5842.02 74.89 6.00  24.20 2534.93
   20:28:23.774.28-Jan-2021 4575.01 5842.22 74.89 6.00  24.40 2534.93
   20:28:23.974.28-Jan-2021 4575.01 5843.19 74.89 6.00  24.60 2534.93
   20:28:24.174.28-Jan-2021 4575.01 5843.13 74.89 6.00  24.80 2534.93
   20:28:24.374.28-Jan-2021 4575.01 5843.47 74.88 6.00  25.00 2534.93
   20:28:24.574.28-Jan-2021 4575.01 5843.47 74.88 6.00  25.20 2534.93
   20:28:24.774.28-Jan-2021 4575.01 5844.36 74.88 6.00  25.40 2534.93
   20:28:24.974.28-Jan-2021 4575.01 5843.83 74.88 6.00  25.61 2534.93
   20:28:25.174.28-Jan-2021 4575.01 5590.02 74.88 6.00  25.81 2534.93
   20:28:25.374.28-Jan-2021 4575.01 5177.52 74.88 6.00  26.01 2534.93
   20:28:25.574.28-Jan-2021 4575.01 5177.52 74.88 6.00  26.21 2534.93
   20:28:25.774.28-Jan-2021 4575.01 3679.56 74.88 6.00  26.41 2534.93
   20:28:25.974.28-Jan-2021 4575.01 3018.92 74.88 6.00  26.61 2534.93
   20:28:26.174.28-Jan-2021 4575.01 2958.31 74.88 6.00  26.81 2534.93
   20:28:26.374.28-Jan-2021 4575.01 2960.96 74.88 6.00  27.01 2534.93
   20:28:26.574.28-Jan-2021 4575.01 2960.96 74.88 6.00  27.21 2534.93
   20:28:26.774.28-Jan-2021 4575.01 2962.08 74.88 6.00  27.41 2534.93
   20:28:26.974.28-Jan-2021 4575.01 2962.70 74.88 6.00  27.61 2534.93
   20:28:27.174.28-Jan-2021 4575.01 2963.11 74.88 6.00  27.81 2534.93
   20:28:27.374.28-Jan-2021 4575.01 2964.23 74.88 6.00  28.01 2534.93
   20:28:27.574.28-Jan-2021 4575.01 2964.23 74.88 6.00  28.21 2534.93
   20:28:27.774.28-Jan-2021 4575.01 2967.02 74.87 6.00  28.41 2534.93
   20:28:27.974.28-Jan-2021 4575.01 2968.11 74.87 6.00  28.61 2534.93
   20:28:28.175.28-Jan-2021 4575.01 2970.78 74.87 6.00  28.81 2534.93
   20:28:28.375.28-Jan-2021 4575.01 2977.92 74.87 6.00  29.01 2534.93
   20:28:28.575.28-Jan-2021 4575.01 2977.92 74.87 6.00  29.21 2534.93
   20:28:28.775.28-Jan-2021 4575.01 2972.04 74.87 6.00  29.41 2534.93
   20:28:28.975.28-Jan-2021 4575.01 2972.26 74.87 6.00  29.61 2534.93
   20:28:29.175.28-Jan-2021 4575.01 2971.82 74.87 6.00  29.81 2534.93
   20:28:29.375.28-Jan-2021 4575.01 2971.89 74.87 6.00  30.01 2534.93
   20:28:29.575.28-Jan-2021 4575.01 2971.89 74.87 6.00  30.21 2534.93
   20:28:29.775.28-Jan-2021 4575.01 2971.57 74.87 6.00  30.41 2534.93
   20:28:29.975.28-Jan-2021 4575.01 2972.13 74.87 6.00  30.61 2534.93
   20:28:30.175.28-Jan-2021 4575.01 2972.13 74.86 6.00  30.81 2534.93
   20:28:30.375.28-Jan-2021 4575.01 2972.17 74.86 6.00  31.01 2534.93
   20:28:30.575.28-Jan-2021 4575.01 2972.17 74.86 6.00  31.21 2534.93
   20:28:30.775.28-Jan-2021 4575.01 2972.31 74.86 6.00  31.41 2534.93
   20:28:30.975.28-Jan-2021 4575.01 2971.90 74.86 6.00  31.61 2534.93
   20:28:31.175.28-Jan-2021 4575.01 2972.15 74.86 6.00  31.81 2534.93
   20:28:31.375.28-Jan-2021 4575.01 2971.75 74.86 6.00  32.01 2534.93
   20:28:31.575.28-Jan-2021 4575.01 2971.75 74.86 6.00  32.21 2534.93
   20:28:31.775.28-Jan-2021 4575.01 2972.09 74.86 6.00  32.41 2534.93
   20:28:31.975.28-Jan-2021 4575.01 2972.29 74.86 6.00  32.61 2534.93
   20:28:32.175.28-Jan-2021 4575.01 2971.98 74.86 6.00  32.81 2534.93
   20:28:32.375.28-Jan-2021 4575.01 2972.40 74.85 6.00  33.01 2534.93
   20:28:32.575.28-Jan-2021 4575.01 2972.40 74.85 6.00  33.21 2534.93
   20:28:32.775.28-Jan-2021 4575.01 2972.17 74.85 6.00  33.41 2534.93
   20:28:32.975.28-Jan-2021 4575.01 2972.23 74.85 6.00  33.61 2534.93
   20:28:33.176.28-Jan-2021 4575.01 2971.75 74.85 6.00  33.81 2534.93
   20:28:33.376.28-Jan-2021 4575.01 2972.24 74.85 6.00  34.01 2534.93
   20:28:33.576.28-Jan-2021 4575.01 2972.24 74.85 6.00  34.21 2534.93
   20:28:33.776.28-Jan-2021 4575.01 2972.51 74.85 6.00  34.41 2534.93
   20:28:33.976.28-Jan-2021 4575.01 2972.02 74.85 6.00  34.61 2534.93
   20:28:34.176.28-Jan-2021 4575.01 2972.01 74.85 6.00  34.81 2534.93
   20:28:34.376.28-Jan-2021 4575.01 2972.38 74.85 6.00  35.01 2534.93
   20:28:34.576.28-Jan-2021 4575.01 2972.38 74.85 6.00  35.21 2534.93
   20:28:34.776.28-Jan-2021 4575.01 2972.54 74.84 6.00  35.41 2534.93
   20:28:34.976.28-Jan-2021 4575.01 2972.00 74.84 6.00  35.61 2534.93
   20:28:35.176.28-Jan-2021 4575.01 2983.82 74.84 6.00  35.81 2534.93
   20:28:35.376.28-Jan-2021 4575.01 3008.41 74.84 6.00  36.01 2534.93
   20:28:35.576.28-Jan-2021 4575.01 3008.41 74.84 6.00  36.21 2534.93
   20:28:35.776.28-Jan-2021 4575.01 3008.74 74.84 6.00  36.41 2534.93
   20:28:35.976.28-Jan-2021 4575.01 3008.77 74.84 6.00  36.61 2534.93
   20:28:36.176.28-Jan-2021 4575.01 3008.85 74.84 6.00  36.81 2534.93
   20:28:36.376.28-Jan-2021 4575.01 3008.84 74.84 6.00  37.01 2534.93
   20:28:36.576.28-Jan-2021 4575.01 3008.84 74.84 6.00  37.21 2534.93
   20:28:36.776.28-Jan-2021 4575.01 3008.93 74.83 6.00  37.41 2534.93
   20:28:36.976.28-Jan-2021 4575.01 3008.96 74.83 6.00  37.61 2534.93
   20:28:37.176.28-Jan-2021 4575.01 3008.98 74.83 6.00  37.81 2534.93
   20:28:37.376.28-Jan-2021 4575.01 3009.00 74.83 6.00  38.01 2534.93
   20:28:37.576.28-Jan-2021 4575.01 3009.00 74.83 6.00  38.21 2534.93
   20:28:37.776.28-Jan-2021 4575.01 3009.03 74.83 6.00  38.41 2534.93
   20:28:37.976.28-Jan-2021 4575.01 3009.05 74.83 6.00  38.61 2534.93
   20:28:38.176.28-Jan-2021 4575.01 3008.97 74.83 6.00  38.81 2534.93
   20:28:38.377.28-Jan-2021 4575.01 3009.16 74.83 6.00  39.01 2534.93
   20:28:38.577.28-Jan-2021 4575.01 3009.16 74.83 6.00  39.21 2534.93
   20:28:38.777.28-Jan-2021 4575.01 3009.12 74.83 6.00  39.41 2534.93
   20:28:38.977.28-Jan-2021 4575.01 3009.11 74.83 6.00  39.61 2534.93
   20:28:39.177.28-Jan-2021 4575.01 3009.14 74.82 6.00  39.81 2534.93
   20:28:39.377.28-Jan-2021 4575.01 3009.13 74.82 6.00  40.01 2534.93
   20:28:39.577.28-Jan-2021 4575.01 3009.13 74.82 6.00  40.21 2534.93
   20:28:39.777.28-Jan-2021 4575.01 3009.15 74.82 6.00  40.41 2534.93
   20:28:39.977.28-Jan-2021 4575.01 3009.17 74.82 6.00  40.61 2534.93
   20:28:40.177.28-Jan-2021 4575.01 3009.16 74.82 6.00  40.81 2534.93
   20:28:40.377.28-Jan-2021 4575.01 3009.19 74.82 6.00  41.01 2534.93
   20:28:40.577.28-Jan-2021 4575.01 3009.19 74.82 6.00  41.21 2534.93
   20:28:40.777.28-Jan-2021 4575.01 3009.20 74.82 6.00  41.41 2534.93
   20:28:40.977.28-Jan-2021 4575.01 3009.21 74.82 6.00  41.61 2534.93
   20:28:41.177.28-Jan-2021 4575.01 3009.22 74.82 6.00  41.81 2534.93
   20:28:41.377.28-Jan-2021 4575.01 3009.24 74.82 6.00  42.01 2534.93
   20:28:41.577.28-Jan-2021 4575.01 3009.24 74.82 6.00  42.21 2534.93
   20:28:41.777.28-Jan-2021 4575.01 3009.26 74.81 6.00  42.41 2534.93
   20:28:41.977.28-Jan-2021 4575.01 3009.20 74.81 6.00  42.61 2534.93
   20:28:42.177.28-Jan-2021 4575.01 3009.27 74.81 6.00  42.81 2534.93
   20:28:42.377.28-Jan-2021 4575.01 3009.27 74.81 6.00  43.01 2534.93
   20:28:42.577.28-Jan-2021 4575.01 3009.27 74.81 6.00  43.21 2534.93
   20:28:42.777.28-Jan-2021 4575.01 3009.31 74.81 6.00  43.41 2534.93
   20:28:42.977.28-Jan-2021 4575.01 3009.20 74.81 6.00  43.61 2534.93
   20:28:43.177.28-Jan-2021 4575.01 3009.37 74.81 6.00  43.81 2534.93
   20:28:43.378.28-Jan-2021 4575.01 3009.29 74.81 6.00  44.01 2534.93
   20:28:43.578.28-Jan-2021 4575.01 3009.29 74.81 6.00  44.21 2534.93
   20:28:43.778.28-Jan-2021 4575.01 3009.28 74.81 6.00  44.41 2534.93
   20:28:43.978.28-Jan-2021 4575.01 3009.38 74.81 6.00  44.61 2534.93
   20:28:44.178.28-Jan-2021 4575.01 3009.28 74.81 6.00  44.81 2534.93
   20:28:44.378.28-Jan-2021 4575.01 3009.36 74.81 6.00  45.01 2534.93
   20:28:44.578.28-Jan-2021 4575.01 3009.36 74.81 6.00  45.21 2534.93
   20:28:44.778.28-Jan-2021 4575.01 3009.37 74.80 6.00  45.41 2534.93
   20:28:44.978.28-Jan-2021 4575.01 3009.35 74.80 6.00  45.61 2534.93
   20:28:45.178.28-Jan-2021 4575.01 3009.36 74.80 6.00  45.81 2534.93
