~Version Information
 VERS.                  2.0:   CWLS log ASCII Standard -VERSION 2.0
 WRAP.                   NO:   One line per depth step
~Well Information Block
#MNEM.UNIT     VALUE/NAME     DESCRIPTION
#---------     -----------    ---------------------------
 STRT.S             17:31:15 28-Jan-21: START TIME 17:31:15 28-Jan-21
 STOP.S             17:37:46 28-Jan-21: STOP TIME  17:37:46 28-Jan-21
 STEP.S                   0.00: STEP TIME
 NULL.                 -999.25: NULL VALUE
 DFWT.                        :  DIST FWL TEXT
 DFST.                        :  DIST FSL TEXT
 DMF .             Drill Floor:  DRILL MEAS FROM
 STIM.      00.00.00 25-Sep-20:  START TIME
 DATE.      16.12.48 31-Jan-21:  END TIME
 SPUD.               20-Sep-20:  SPUD DATE
 NREF.                    Grid:  NORTH REFERENCE
 HPTY.       Minimum Curvature:  HOLE POS TYPE
 DMOD.             Drill Model:  DRILL MOD DESC
 SVYD.                  Survey:  SURVEY DESC
 ILTD.               Lithology:  INTERP LTH DESC
 FTOP.          Formation Tops:  FORM TOPS DESC
 RIG .              East Azeri:  RIG NAME
 PDAT.          Mean Sea Level:  PERMANENT DATUM
 FLD .                     ACG:  FIELD NAME
 SON .        AZ-XX-0906591820:  JOB NUMBER
 CTRY.              Azerbaijan:  COUNTRY NAME
 WELL.                     D37:  WELL NAME
 SRVC.     Turan Drilling & Engineering:  CONTRACTOR
 COMP.     BP Exploration (Caspian Sea) ltd.:  COMPANY
 WTYP.                Deviated:  WELL TYPE
 MDS .        Operator Entered:  MAG DATA SOURCE
 UWI .                     N/A:  UNIQUE WELL IDENTIFIER
 API .                     N/A:  API NUMBER
 BASE.              Azerbaijan:  LOGGING EQUIPMENT BASE LOCATION
 REGN.                   EESSA:  REGION
 PROV.                    Baku:  PROVINCE
 STAT.                    Baku:  STATE NAME
 MWDS.                    Baku:  MWD SHOP
 JOBN.        AZ-XX-0906591820:  JOB TICKET NUMB
 DOE .                     N/A:  DOE NUMBER
 DCON.         Sperry Drilling:  DIRECTNL CONTR
 UNIT.                     N/A:  LOGGING EQUIPMENT ID
 CNTY.                        :  COUNTY
 LOC .                        :  LOCATION
 LMF .             Drill Floor:  LOG MEASURED FROM
 TVDS.m                  43.60:  TVDSS CORRECTN
 LATI.deg                40.02:  LATITUDE
 LONG.deg                51.45:  LONGITUDE
 WHNS.m                  11.04:  WELL HEAD N/S
 WHEW.m                 -12.38:  WELL HEAD E/W
 UTMX.m              538763.98:  UTM X
 UTMY.m             4431880.20:  UTM Y
 DFWL.m                   0.00:  DISTANCE FWL
 DFSL.m                   0.00:  DISTANCE FSL
 SDEP.m                 300.00:  START DEPTH
 TDD .m                4900.01:  TOTAL DEPTH (DRILLER)
 VSDR.deg               185.64:  VERT SEC DIRECT
 GVFD.g                   1.00:  GRAVITY FIELD
 MFLD.nT              50301.00:  MAGNETIC FIELD
 MDIP.deg                59.46:  MAGNETIC DIP
 MDEC.deg                 6.43:  MAGNETIC DECL
 GRDC.deg                 0.29:  GRID CORRECTION
 AZTC.deg                 6.14:  AZM TOTAL CORR
 EPD .m                   0.00:  ELEVATION
 EGL .m                   0.00:  GROUND ELEVATION
 WDMS.m                 151.80:  WD ELEV
 APD .m                  43.60:  DEPTH ABOVE PD
 DEP .m                 571.69:  DEPTH
 AGAP.m                  43.60:  AIR GAP
 VSEW.m                 -12.38:  VERT SEC E/W
 VSNS.m                  11.04:  VERT SEC N/S
 EKB .m                  43.60:  KB ELEVATION
 EDF .m                  43.60:  DF ELEVATION
 TDL .m                 412.00:  TOTAL DEPTH (LOGGER)
 VSC .                       0:  VS TO CLOSURE
 MAGU.                 1849300:  MAGUTM CHECKSUM
~Parameter Information Block
#MNEM.UNIT       Value        Description
#---------     -----------    ---------------------------
 AV  .mps                 2.21:  Ann Velocity 
 AVMX.mps                 2.53:  Max Ann Veloc 
 AZIF.deg               144.83:  Azm, Final 
 BHAT.        Rotary Steerable:  BHA Type 
 BROT.°/30m              -0.52:  Build Rotating 
 BS  .in                  6.50:  Bit Size 
 BTPL.psig              209.00:  Bit Press Loss 
 CABU.                      No:  Customer Abuse 
 CGEO.        Ali Isfandiyarov:  Customer Geo 
 COMM.                     ¼¨M:  Run Comments 1 
 TCS .hr                 61.31:  Time Ciculation Ended 
 CV  .mps                 4.66:  Crit Velocity 
 CVMX.mps                 5.02:  Max Crit Veloc 
 DD1 .          Fariz Nahmatov:  Direct Drillr 1 
 DD2 .            Musa Ahmadov:  Direct Drillr 2 
 DDSV.               Geo-Pilot:  DD Service 
 DEFF.%                 100.00:  % Det Eff 
 DLRX.°/30m               1.44:  Dogleg Rot Max 
 DLSO.°/30m               0.83:  Dogleg Oriented 
 DLSX.°/30m               1.44:  Dogleg Str Max 
 DRET.      08.30.00 30-Jan-21:  Drill End Time 
 DRST.      21.15.00 27-Jan-21:  Drill Start Tim 
 DTIM.hr                 37.28:  Time Drilling 
 EDEP.m                4867.01:  End Depth 
 ENG1.          Rasim Hashimov:  Engineer 1 
 ENG2.         Almaz Almadatov:  Engineer 2 
 ENG3.        Tamerlan Ahmadov:  Engineer 3 
 ETIM.      22.41.04 31-Jan-21:  End Time 
 FLOI.gpm               400.00:  Flow In 
 FLON.gpm               300.00:  Flow In Min 
 FLOS.cptm                0.00:  Fluid Loss 
 FLOX.gpm               400.00:  Flow In Max 
 HFLO.                      No:  High Flow 
 HPRE.                      No:  High Pressure 
 HTEM.                      No:  High Temp 
 HYDO.m                   1.80:  Hydro Offset 
 IFIN.deg                65.63:  Inc, Final 
 IMAX.deg                66.77:  Inc Max 
 IMIN.deg                65.61:  Inc Min 
 IMND.m                4612.67:  Inc Min Depth 
 IMXD.m                4811.63:  Inc Max Depth 
 JARR.                      No:  Jarring 
 LETM.      08.30.00 30-Jan-21:  Log End Time 
 LOST.hr                     0:  Lost Rig Time 
 LSTM.      21.15.00 27-Jan-21:  Log Start Time 
 MDCL.ppm             41000.00:  Mud Chlorides 
 MDES.     Inversion Oil/Synthetic:  Mud Desc 
 DFD .sg                  1.40:  Mud Density 
 MDMN.sg                  1.40:  Dens Mud Min 
 MDMX.sg                  1.40:  Dens Mud Max 
 MOIL.                      53:  Run Mud Oil % 
 MOWR.                   66:34:  Run Mud OWR 
 MSND.                     0.2:  Run Mud Sand % 
 MSOL.                    17.9:  Run Mud Solids% 
 DFV .spqt               77.00:  Mud Viscosity 
 MWOD.in                  4.75:  MWD Tool OD 
 MWSI.                      No:  Serv Intrp, MWD 
 OTIM.hr                110.38:  Time Operating 
 PCON.           Look Like New:  Pad Condition 
 PMAX.psia             5300.00:  Press Op, Max 
 PV  .cP                 57.00:  Mud PV 
 RUN .                    1200:  Run Number 
 ROPA.m/hr               13.00:  ROP Avg 
 ROPN.m/hr                9.00:  ROP Min 
 ROPX.m/hr               15.00:  ROP Max 
 RPMA.rpm               120.00:  RPM Surface Avg 
 RPMN.rpm               100.00:  RPM Surface Min 
 RPMX.rpm               135.00:  RPM Surface Max 
 RRUN.                    1200:  Rig Run Number 
 RTIM.hr                  2.65:  Time Reaming 
 SAZI.deg               145.04:  Azm, Start 
 SDEP.m                4455.01:  Start Depth 
 SIDD.                      No:  Serv Intrp, DD 
 SINC.deg                65.83:  Inc, Start 
 SPPA.psig             5037.00:  SPP Avg 
 SPPN.psig             4430.00:  SPP Min 
 SPPX.psig             5300.00:  SPP Max 
 STIM.      22.41.04 26-Jan-21:  Start Time 
 SVCS.                 DD, MWD:  Services 
 SVER.                    9.20:  Sperry Version 
 TDAT.m                 412.00:  Tot Depth Attmp 
 TDDF.                      No:  Trip for DD 
 TDLG.m                 412.00:  Tot Depth Loggd 
 TFF .                      No:  Trip for Fail 
 TQAA.f-kp               15.00:  Torque Abs Avg 
 TQAN.f-kp               12.00:  Torque Abs Min 
 TQAX.f-kp               17.00:  Torque Abs Max 
 TRRT.°/30m               1.18:  Turn Rotating 
 MRT .                     ADR:  Maximum Recorded Temperature 
 TTMX.degC               88.24:  Max Tool Temp 
 VS01.                90619458:  Virtual Str1 SN 
 VS02.                90519326:  Virtual Str2 SN 
 VS03.                90522176:  Virtual Str3 SN 
 VS04.                90512683:  Virtual Str4 SN 
 WBMN.klb                 1.00:  WOB Min 
 WITN.           Murad Giluyev:  Customer Rep 
 WITN.     Kamran Kemberlinski:  Customer Rep 2 
 WOBA.klb                 5.00:  WOB Avg 
 WOBX.klb                 9.00:  WOB Max 
 YP  .lhf2               41.00:  Yield Point 
~Curve Information Block
#MNEM.UNIT                 API CODE     Curve Description
#---------               -----------    ---------------------------
 TIME.HHMMSS            00 000 000 000:  GT Time & Date
 GTDEPTH.m              00 000 000 000:  GT Depth
 GTPQH.psia             00 000 000 000:  GT HR Quartz Pressure
 GTTQ.degC              00 000 000 000:  GT Quartz Temperature
 GTTN.NONE              00 000 000 000:  GT Test Number
 GTET.sec               00 000 000 000:  GT Elapsed Test Time
 GTTVD.m                00 000 000 000:  GT True Vertical Depth
#Other Information
#
#WARRANTY: Halliburton will use its best efforts to furnish customers with 
#accurate information and interpretations that are part of, and incident to, the services 
#provided.  However, Halliburton cannot and does not warrant the accuracy 
#or correctness of such information and interpretations.  Under no circumstances should any 
#such information or interpretation be relied upon as the sole basis for any drilling, 
#completion, production, or financial decision or any procedure involving any risk to the 
#safety of any drilling venture, drilling rig or its crew or any other third party.  The 
#Customer has full responsibility for all drilling, completion and production operation.  
#Halliburton makes no representations or warranties, either expressed or 
#implied, including, but not limited to, the implied warranties of merchantability or fitness 
#for a particular purpose, with respect to the services rendered.  In no event will 
#Halliburton be liable for failure to obtain any particular results or for 
#any damages, including, but not limited to, indirect, special or consequential damages, 
#resulting from the use of any information or interpretation provided by Halliburton.
#
~A           TIME           GTDEPTH  GTPQH  GTTQ  GTTN  GTET   GTTVD  
# ...
   17:31:38.293.28-Jan-2021 4557.01 5847.90 75.02 5.00  23.00 2527.68
   17:31:38.493.28-Jan-2021 4557.01 5847.90 75.02 5.00  23.20 2527.68
   17:31:38.693.28-Jan-2021 4557.01 5849.42 75.02 5.00  23.40 2527.68
   17:31:38.893.28-Jan-2021 4557.01 5849.91 75.02 5.00  23.60 2527.68
   17:31:39.093.28-Jan-2021 4557.01 5850.84 75.02 5.00  23.80 2527.68
   17:31:39.293.28-Jan-2021 4557.01 5851.78 75.02 5.00  24.00 2527.68
   17:31:39.493.28-Jan-2021 4557.01 5851.78 75.02 5.00  24.20 2527.68
   17:31:39.694.28-Jan-2021 4557.01 5852.60 75.02 5.00  24.40 2527.68
   17:31:39.894.28-Jan-2021 4557.01 5852.70 75.02 5.00  24.60 2527.68
   17:31:40.094.28-Jan-2021 4557.01 5853.01 75.02 5.00  24.80 2527.68
   17:31:40.294.28-Jan-2021 4557.01 5852.96 75.02 5.00  25.00 2527.68
   17:31:40.494.28-Jan-2021 4557.01 5852.96 75.02 5.00  25.20 2527.68
   17:31:40.694.28-Jan-2021 4557.01 5852.95 75.01 5.00  25.40 2527.68
   17:31:40.894.28-Jan-2021 4557.01 5853.09 75.01 5.00  25.61 2527.68
   17:31:41.094.28-Jan-2021 4557.01 5853.03 75.01 5.00  25.81 2527.68
   17:31:41.294.28-Jan-2021 4557.01 5853.02 75.01 5.00  26.01 2527.68
   17:31:41.494.28-Jan-2021 4557.01 5853.02 75.01 5.00  26.21 2527.68
   17:31:41.694.28-Jan-2021 4557.01 5784.49 75.01 5.00  26.41 2527.68
   17:31:41.894.28-Jan-2021 4557.01 5312.70 75.01 5.00  26.61 2527.68
   17:31:42.094.28-Jan-2021 4557.01 4902.91 75.01 5.00  26.81 2527.68
   17:31:42.294.28-Jan-2021 4557.01 4286.12 75.01 5.00  27.01 2527.68
   17:31:42.494.28-Jan-2021 4557.01 4286.12 75.01 5.00  27.21 2527.68
   17:31:42.694.28-Jan-2021 4557.01 3244.10 75.01 5.00  27.41 2527.68
   17:31:42.894.28-Jan-2021 4557.01 2935.04 75.01 5.00  27.61 2527.68
   17:31:43.094.28-Jan-2021 4557.01 2834.79 75.01 5.00  27.81 2527.68
   17:31:43.294.28-Jan-2021 4557.01 2796.57 75.01 5.00  28.01 2527.68
   17:31:43.494.28-Jan-2021 4557.01 2796.57 75.01 5.00  28.21 2527.68
   17:31:43.694.28-Jan-2021 4557.01 2782.83 75.00 5.00  28.41 2527.68
   17:31:43.894.28-Jan-2021 4557.01 2782.20 75.00 5.00  28.61 2527.68
   17:31:44.094.28-Jan-2021 4557.01 2784.82 75.00 5.00  28.81 2527.68
   17:31:44.294.28-Jan-2021 4557.01 2786.95 75.00 5.00  29.01 2527.68
   17:31:44.494.28-Jan-2021 4557.01 2786.95 75.00 5.00  29.21 2527.68
   17:31:44.695.28-Jan-2021 4557.01 2792.72 75.00 5.00  29.41 2527.68
   17:31:44.895.28-Jan-2021 4557.01 2791.69 75.00 5.00  29.61 2527.68
   17:31:45.095.28-Jan-2021 4557.01 2791.03 75.00 5.00  29.81 2527.68
   17:31:45.295.28-Jan-2021 4557.01 2791.15 75.00 5.00  30.01 2527.68
   17:31:45.495.28-Jan-2021 4557.01 2791.15 75.00 5.00  30.21 2527.68
   17:31:45.695.28-Jan-2021 4557.01 2794.35 75.00 5.00  30.41 2527.68
   17:31:45.895.28-Jan-2021 4557.01 2796.26 74.99 5.00  30.61 2527.68
   17:31:46.095.28-Jan-2021 4557.01 2797.75 74.99 5.00  30.81 2527.68
   17:31:46.295.28-Jan-2021 4557.01 2799.52 74.99 5.00  31.01 2527.68
   17:31:46.495.28-Jan-2021 4557.01 2799.52 74.99 5.00  31.21 2527.68
   17:31:46.695.28-Jan-2021 4557.01 2804.48 74.99 5.00  31.41 2527.68
   17:31:46.895.28-Jan-2021 4557.01 2808.22 74.99 5.00  31.61 2527.68
   17:31:47.095.28-Jan-2021 4557.01 2810.45 74.99 5.00  31.81 2527.68
   17:31:47.295.28-Jan-2021 4557.01 2813.92 74.99 5.00  32.01 2527.68
   17:31:47.495.28-Jan-2021 4557.01 2813.92 74.99 5.00  32.21 2527.68
   17:31:47.695.28-Jan-2021 4557.01 2818.80 74.99 5.00  32.41 2527.68
   17:31:47.895.28-Jan-2021 4557.01 2820.58 74.99 5.00  32.61 2527.68
   17:31:48.095.28-Jan-2021 4557.01 2822.00 74.98 5.00  32.81 2527.68
   17:31:48.295.28-Jan-2021 4557.01 2821.51 74.98 5.00  33.01 2527.68
   17:31:48.495.28-Jan-2021 4557.01 2821.51 74.98 5.00  33.21 2527.68
   17:31:48.695.28-Jan-2021 4557.01 2822.71 74.98 5.00  33.41 2527.68
   17:31:48.895.28-Jan-2021 4557.01 2823.45 74.98 5.00  33.61 2527.68
   17:31:49.095.28-Jan-2021 4557.01 2822.82 74.98 5.00  33.81 2527.68
   17:31:49.295.28-Jan-2021 4557.01 2820.98 74.98 5.00  34.01 2527.68
   17:31:49.495.28-Jan-2021 4557.01 2820.98 74.98 5.00  34.21 2527.68
   17:31:49.695.28-Jan-2021 4557.01 2822.00 74.98 5.00  34.41 2527.68
   17:31:49.896.28-Jan-2021 4557.01 2820.61 74.97 5.00  34.61 2527.68
   17:31:50.096.28-Jan-2021 4557.01 2823.04 74.97 5.00  34.81 2527.68
   17:31:50.296.28-Jan-2021 4557.01 2823.28 74.97 5.00  35.01 2527.68
   17:31:50.496.28-Jan-2021 4557.01 2823.28 74.97 5.00  35.21 2527.68
   17:31:50.696.28-Jan-2021 4557.01 2829.04 74.97 5.00  35.41 2527.68
   17:31:50.896.28-Jan-2021 4557.01 2829.59 74.97 5.00  35.61 2527.68
   17:31:51.096.28-Jan-2021 4557.01 2830.64 74.97 5.00  35.81 2527.68
   17:31:51.296.28-Jan-2021 4557.01 2830.09 74.97 5.00  36.01 2527.68
   17:31:51.496.28-Jan-2021 4557.01 2830.09 74.97 5.00  36.21 2527.68
   17:31:51.696.28-Jan-2021 4557.01 2932.72 74.97 5.00  36.41 2527.68
   17:31:51.896.28-Jan-2021 4557.01 3053.97 74.96 5.00  36.61 2527.68
   17:31:52.096.28-Jan-2021 4557.01 3075.11 74.96 5.00  36.81 2527.68
   17:31:52.296.28-Jan-2021 4557.01 3079.38 74.96 5.00  37.01 2527.68
   17:31:52.496.28-Jan-2021 4557.01 3079.38 74.96 5.00  37.21 2527.68
   17:31:52.696.28-Jan-2021 4557.01 3081.65 74.96 5.00  37.41 2527.68
   17:31:52.896.28-Jan-2021 4557.01 3082.23 74.96 5.00  37.61 2527.68
   17:31:53.096.28-Jan-2021 4557.01 3082.71 74.96 5.00  37.81 2527.68
   17:31:53.296.28-Jan-2021 4557.01 3082.92 74.96 5.00  38.01 2527.68
   17:31:53.496.28-Jan-2021 4557.01 3082.92 74.96 5.00  38.21 2527.68
   17:31:53.696.28-Jan-2021 4557.01 3083.69 74.95 5.00  38.41 2527.68
   17:31:53.896.28-Jan-2021 4557.01 3083.89 74.95 5.00  38.61 2527.68
   17:31:54.096.28-Jan-2021 4557.01 3084.09 74.95 5.00  38.81 2527.68
   17:31:54.296.28-Jan-2021 4557.01 3084.36 74.95 5.00  39.01 2527.68
   17:31:54.496.28-Jan-2021 4557.01 3084.36 74.95 5.00  39.21 2527.68
   17:31:54.696.28-Jan-2021 4557.01 3084.62 74.95 5.00  39.41 2527.68
   17:31:54.897.28-Jan-2021 4557.01 3084.79 74.95 5.00  39.61 2527.68
   17:31:55.097.28-Jan-2021 4557.01 3084.92 74.95 5.00  39.81 2527.68
   17:31:55.297.28-Jan-2021 4557.01 3084.93 74.95 5.00  40.01 2527.68
   17:31:55.497.28-Jan-2021 4557.01 3084.93 74.95 5.00  40.21 2527.68
   17:31:55.697.28-Jan-2021 4557.01 3085.26 74.95 5.00  40.41 2527.68
   17:31:55.897.28-Jan-2021 4557.01 3085.29 74.94 5.00  40.61 2527.68
   17:31:56.097.28-Jan-2021 4557.01 3085.43 74.94 5.00  40.81 2527.68
   17:31:56.297.28-Jan-2021 4557.01 3085.38 74.94 5.00  41.01 2527.68
   17:31:56.497.28-Jan-2021 4557.01 3085.38 74.94 5.00  41.21 2527.68
   17:31:56.697.28-Jan-2021 4557.01 3085.55 74.94 5.00  41.41 2527.68
   17:31:56.897.28-Jan-2021 4557.01 3085.65 74.94 5.00  41.61 2527.68
   17:31:57.097.28-Jan-2021 4557.01 3085.73 74.94 5.00  41.81 2527.68
   17:31:57.297.28-Jan-2021 4557.01 3085.77 74.94 5.00  42.01 2527.68
   17:31:57.497.28-Jan-2021 4557.01 3085.77 74.94 5.00  42.21 2527.68
   17:31:57.697.28-Jan-2021 4557.01 3085.80 74.94 5.00  42.41 2527.68
   17:31:57.897.28-Jan-2021 4557.01 3085.96 74.94 5.00  42.61 2527.68
   17:31:58.097.28-Jan-2021 4557.01 3085.93 74.94 5.00  42.81 2527.68
   17:31:58.297.28-Jan-2021 4557.01 3086.00 74.93 5.00  43.01 2527.68
   17:31:58.497.28-Jan-2021 4557.01 3086.00 74.93 5.00  43.21 2527.68
   17:31:58.697.28-Jan-2021 4557.01 3086.09 74.93 5.00  43.41 2527.68
   17:31:58.897.28-Jan-2021 4557.01 3086.16 74.93 5.00  43.61 2527.68
   17:31:59.097.28-Jan-2021 4557.01 3086.16 74.93 5.00  43.81 2527.68
   17:31:59.297.28-Jan-2021 4557.01 3086.22 74.93 5.00  44.01 2527.68
   17:31:59.497.28-Jan-2021 4557.01 3086.22 74.93 5.00  44.21 2527.68
   17:31:59.697.28-Jan-2021 4557.01 3086.26 74.93 5.00  44.41 2527.68
   17:31:59.897.28-Jan-2021 4557.01 3086.28 74.93 5.00  44.61 2527.68
   17:32:00.098.28-Jan-2021 4557.01 3086.33 74.93 5.00  44.81 2527.68
   17:32:00.298.28-Jan-2021 4557.01 3086.36 74.93 5.00  45.01 2527.68
   17:32:00.498.28-Jan-2021 4557.01 3086.36 74.93 5.00  45.21 2527.68
   17:32:00.698.28-Jan-2021 4557.01 3086.42 74.92 5.00  45.41 2527.68
   17:32:00.898.28-Jan-2021 4557.01 3086.42 74.92 5.00  45.61 2527.68
   17:32:01.098.28-Jan-2021 4557.01 3086.45 74.92 5.00  45.81 2527.68
