~Version Information
 VERS.                  2.0:   CWLS log ASCII Standard -VERSION 2.0
 WRAP.                   NO:   One line per depth step
~Well Information Block
#MNEM.UNIT     VALUE/NAME     DESCRIPTION
#---------     -----------    ---------------------------
 STRT.S             13:18:38 29-Jan-21: START TIME 13:18:38 29-Jan-21
 STOP.S             13:25:08 29-Jan-21: STOP TIME  13:25:08 29-Jan-21
 STEP.S                   0.00: STEP TIME
 NULL.                 -999.25: NULL VALUE
 DFWT.                        :  DIST FWL TEXT
 DFST.                        :  DIST FSL TEXT
 DMF .             Drill Floor:  DRILL MEAS FROM
 STIM.      00.00.00 25-Sep-20:  START TIME
 DATE.      16.12.48 31-Jan-21:  END TIME
 SPUD.               20-Sep-20:  SPUD DATE
 NREF.                    Grid:  NORTH REFERENCE
 HPTY.       Minimum Curvature:  HOLE POS TYPE
 DMOD.             Drill Model:  DRILL MOD DESC
 SVYD.                  Survey:  SURVEY DESC
 ILTD.               Lithology:  INTERP LTH DESC
 FTOP.          Formation Tops:  FORM TOPS DESC
 RIG .              East Azeri:  RIG NAME
 PDAT.          Mean Sea Level:  PERMANENT DATUM
 FLD .                     ACG:  FIELD NAME
 SON .        AZ-XX-0906591820:  JOB NUMBER
 CTRY.              Azerbaijan:  COUNTRY NAME
 WELL.                     D37:  WELL NAME
 SRVC.     Turan Drilling & Engineering:  CONTRACTOR
 COMP.     BP Exploration (Caspian Sea) ltd.:  COMPANY
 WTYP.                Deviated:  WELL TYPE
 MDS .        Operator Entered:  MAG DATA SOURCE
 UWI .                     N/A:  UNIQUE WELL IDENTIFIER
 API .                     N/A:  API NUMBER
 BASE.              Azerbaijan:  LOGGING EQUIPMENT BASE LOCATION
 REGN.                   EESSA:  REGION
 PROV.                    Baku:  PROVINCE
 STAT.                    Baku:  STATE NAME
 MWDS.                    Baku:  MWD SHOP
 JOBN.        AZ-XX-0906591820:  JOB TICKET NUMB
 DOE .                     N/A:  DOE NUMBER
 DCON.         Sperry Drilling:  DIRECTNL CONTR
 UNIT.                     N/A:  LOGGING EQUIPMENT ID
 CNTY.                        :  COUNTY
 LOC .                        :  LOCATION
 LMF .             Drill Floor:  LOG MEASURED FROM
 TVDS.m                  43.60:  TVDSS CORRECTN
 LATI.deg                40.02:  LATITUDE
 LONG.deg                51.45:  LONGITUDE
 WHNS.m                  11.04:  WELL HEAD N/S
 WHEW.m                 -12.38:  WELL HEAD E/W
 UTMX.m              538763.98:  UTM X
 UTMY.m             4431880.20:  UTM Y
 DFWL.m                   0.00:  DISTANCE FWL
 DFSL.m                   0.00:  DISTANCE FSL
 SDEP.m                 300.00:  START DEPTH
 TDD .m                4900.01:  TOTAL DEPTH (DRILLER)
 VSDR.deg               185.64:  VERT SEC DIRECT
 GVFD.g                   1.00:  GRAVITY FIELD
 MFLD.nT              50301.00:  MAGNETIC FIELD
 MDIP.deg                59.46:  MAGNETIC DIP
 MDEC.deg                 6.43:  MAGNETIC DECL
 GRDC.deg                 0.29:  GRID CORRECTION
 AZTC.deg                 6.14:  AZM TOTAL CORR
 EPD .m                   0.00:  ELEVATION
 EGL .m                   0.00:  GROUND ELEVATION
 WDMS.m                 151.80:  WD ELEV
 APD .m                  43.60:  DEPTH ABOVE PD
 DEP .m                 571.69:  DEPTH
 AGAP.m                  43.60:  AIR GAP
 VSEW.m                 -12.38:  VERT SEC E/W
 VSNS.m                  11.04:  VERT SEC N/S
 EKB .m                  43.60:  KB ELEVATION
 EDF .m                  43.60:  DF ELEVATION
 TDL .m                 412.00:  TOTAL DEPTH (LOGGER)
 VSC .                       0:  VS TO CLOSURE
 MAGU.                 1849300:  MAGUTM CHECKSUM
~Parameter Information Block
#MNEM.UNIT       Value        Description
#---------     -----------    ---------------------------
 AV  .mps                 2.21:  Ann Velocity 
 AVMX.mps                 2.53:  Max Ann Veloc 
 AZIF.deg               144.83:  Azm, Final 
 BHAT.        Rotary Steerable:  BHA Type 
 BROT.°/30m              -0.52:  Build Rotating 
 BS  .in                  6.50:  Bit Size 
 BTPL.psig              209.00:  Bit Press Loss 
 CABU.                      No:  Customer Abuse 
 CGEO.        Ali Isfandiyarov:  Customer Geo 
 COMM.                     lÄt:  Run Comments 1 
 TCS .hr                 61.31:  Time Ciculation Ended 
 CV  .mps                 4.66:  Crit Velocity 
 CVMX.mps                 5.02:  Max Crit Veloc 
 DD1 .          Fariz Nahmatov:  Direct Drillr 1 
 DD2 .            Musa Ahmadov:  Direct Drillr 2 
 DDSV.               Geo-Pilot:  DD Service 
 DEFF.%                 100.00:  % Det Eff 
 DLRX.°/30m               1.44:  Dogleg Rot Max 
 DLSO.°/30m               0.83:  Dogleg Oriented 
 DLSX.°/30m               1.44:  Dogleg Str Max 
 DRET.      08.30.00 30-Jan-21:  Drill End Time 
 DRST.      21.15.00 27-Jan-21:  Drill Start Tim 
 DTIM.hr                 37.28:  Time Drilling 
 EDEP.m                4867.01:  End Depth 
 ENG1.          Rasim Hashimov:  Engineer 1 
 ENG2.         Almaz Almadatov:  Engineer 2 
 ENG3.        Tamerlan Ahmadov:  Engineer 3 
 ETIM.      22.41.04 31-Jan-21:  End Time 
 FLOI.gpm               400.00:  Flow In 
 FLON.gpm               300.00:  Flow In Min 
 FLOS.cptm                0.00:  Fluid Loss 
 FLOX.gpm               400.00:  Flow In Max 
 HFLO.                      No:  High Flow 
 HPRE.                      No:  High Pressure 
 HTEM.                      No:  High Temp 
 HYDO.m                   1.80:  Hydro Offset 
 IFIN.deg                65.63:  Inc, Final 
 IMAX.deg                66.77:  Inc Max 
 IMIN.deg                65.61:  Inc Min 
 IMND.m                4612.67:  Inc Min Depth 
 IMXD.m                4811.63:  Inc Max Depth 
 JARR.                      No:  Jarring 
 LETM.      08.30.00 30-Jan-21:  Log End Time 
 LOST.hr                     0:  Lost Rig Time 
 LSTM.      21.15.00 27-Jan-21:  Log Start Time 
 MDCL.ppm             41000.00:  Mud Chlorides 
 MDES.     Inversion Oil/Synthetic:  Mud Desc 
 DFD .sg                  1.40:  Mud Density 
 MDMN.sg                  1.40:  Dens Mud Min 
 MDMX.sg                  1.40:  Dens Mud Max 
 MOIL.                      53:  Run Mud Oil % 
 MOWR.                   66:34:  Run Mud OWR 
 MSND.                     0.2:  Run Mud Sand % 
 MSOL.                    17.9:  Run Mud Solids% 
 DFV .spqt               77.00:  Mud Viscosity 
 MWOD.in                  4.75:  MWD Tool OD 
 MWSI.                      No:  Serv Intrp, MWD 
 OTIM.hr                110.38:  Time Operating 
 PCON.           Look Like New:  Pad Condition 
 PMAX.psia             5300.00:  Press Op, Max 
 PV  .cP                 57.00:  Mud PV 
 RUN .                    1200:  Run Number 
 ROPA.m/hr               13.00:  ROP Avg 
 ROPN.m/hr                9.00:  ROP Min 
 ROPX.m/hr               15.00:  ROP Max 
 RPMA.rpm               120.00:  RPM Surface Avg 
 RPMN.rpm               100.00:  RPM Surface Min 
 RPMX.rpm               135.00:  RPM Surface Max 
 RRUN.                    1200:  Rig Run Number 
 RTIM.hr                  2.65:  Time Reaming 
 SAZI.deg               145.04:  Azm, Start 
 SDEP.m                4455.01:  Start Depth 
 SIDD.                      No:  Serv Intrp, DD 
 SINC.deg                65.83:  Inc, Start 
 SPPA.psig             5037.00:  SPP Avg 
 SPPN.psig             4430.00:  SPP Min 
 SPPX.psig             5300.00:  SPP Max 
 STIM.      22.41.04 26-Jan-21:  Start Time 
 SVCS.                 DD, MWD:  Services 
 SVER.                    9.20:  Sperry Version 
 TDAT.m                 412.00:  Tot Depth Attmp 
 TDDF.                      No:  Trip for DD 
 TDLG.m                 412.00:  Tot Depth Loggd 
 TFF .                      No:  Trip for Fail 
 TQAA.f-kp               15.00:  Torque Abs Avg 
 TQAN.f-kp               12.00:  Torque Abs Min 
 TQAX.f-kp               17.00:  Torque Abs Max 
 TRRT.°/30m               1.18:  Turn Rotating 
 MRT .                     ADR:  Maximum Recorded Temperature 
 TTMX.degC               88.24:  Max Tool Temp 
 VS01.                90619458:  Virtual Str1 SN 
 VS02.                90519326:  Virtual Str2 SN 
 VS03.                90522176:  Virtual Str3 SN 
 VS04.                90512683:  Virtual Str4 SN 
 WBMN.klb                 1.00:  WOB Min 
 WITN.           Murad Giluyev:  Customer Rep 
 WITN.     Kamran Kemberlinski:  Customer Rep 2 
 WOBA.klb                 5.00:  WOB Avg 
 WOBX.klb                 9.00:  WOB Max 
 YP  .lhf2               41.00:  Yield Point 
~Curve Information Block
#MNEM.UNIT                 API CODE     Curve Description
#---------               -----------    ---------------------------
 TIME.HHMMSS            00 000 000 000:  GT Time & Date
 GTDEPTH.m              00 000 000 000:  GT Depth
 GTPQH.psia             00 000 000 000:  GT HR Quartz Pressure
 GTTQ.degC              00 000 000 000:  GT Quartz Temperature
 GTTN.NONE              00 000 000 000:  GT Test Number
 GTET.sec               00 000 000 000:  GT Elapsed Test Time
 GTTVD.m                00 000 000 000:  GT True Vertical Depth
#Other Information
#
#WARRANTY: Halliburton will use its best efforts to furnish customers with 
#accurate information and interpretations that are part of, and incident to, the services 
#provided.  However, Halliburton cannot and does not warrant the accuracy 
#or correctness of such information and interpretations.  Under no circumstances should any 
#such information or interpretation be relied upon as the sole basis for any drilling, 
#completion, production, or financial decision or any procedure involving any risk to the 
#safety of any drilling venture, drilling rig or its crew or any other third party.  The 
#Customer has full responsibility for all drilling, completion and production operation.  
#Halliburton makes no representations or warranties, either expressed or 
#implied, including, but not limited to, the implied warranties of merchantability or fitness 
#for a particular purpose, with respect to the services rendered.  In no event will 
#Halliburton be liable for failure to obtain any particular results or for 
#any damages, including, but not limited to, indirect, special or consequential damages, 
#resulting from the use of any information or interpretation provided by Halliburton.
#
~A           TIME           GTDEPTH  GTPQH  GTTQ  GTTN   GTET   GTTVD  
# ...
   13:19:01.436.29-Jan-2021 4712.01 6042.30 82.41 11.00  22.60 2590.47
   13:19:01.636.29-Jan-2021 4712.01 6042.05 82.41 11.00  22.80 2590.47
   13:19:01.836.29-Jan-2021 4712.01 6041.66 82.41 11.00  23.00 2590.47
   13:19:02.036.29-Jan-2021 4712.01 6041.66 82.41 11.00  23.20 2590.47
   13:19:02.236.29-Jan-2021 4712.01 6041.02 82.41 11.00  23.40 2590.47
   13:19:02.436.29-Jan-2021 4712.01 6040.98 82.41 11.00  23.60 2590.47
   13:19:02.636.29-Jan-2021 4712.01 6039.84 82.41 11.00  23.80 2590.47
   13:19:02.836.29-Jan-2021 4712.01 6040.31 82.41 11.00  24.00 2590.47
   13:19:03.036.29-Jan-2021 4712.01 6040.31 82.41 11.00  24.20 2590.47
   13:19:03.236.29-Jan-2021 4712.01 6039.51 82.41 11.00  24.40 2590.47
   13:19:03.436.29-Jan-2021 4712.01 6039.35 82.40 11.00  24.60 2590.47
   13:19:03.636.29-Jan-2021 4712.01 6039.08 82.40 11.00  24.80 2590.47
   13:19:03.836.29-Jan-2021 4712.01 6039.39 82.40 11.00  25.00 2590.47
   13:19:04.036.29-Jan-2021 4712.01 6039.39 82.40 11.00  25.20 2590.47
   13:19:04.236.29-Jan-2021 4712.01 6037.41 82.40 11.00  25.40 2590.47
   13:19:04.436.29-Jan-2021 4712.01 5707.73 82.40 11.00  25.60 2590.47
   13:19:04.636.29-Jan-2021 4712.01 5522.30 82.40 11.00  25.80 2590.47
   13:19:04.836.29-Jan-2021 4712.01 5155.35 82.40 11.00  26.00 2590.47
   13:19:05.036.29-Jan-2021 4712.01 5155.35 82.40 11.00  26.20 2590.47
   13:19:05.236.29-Jan-2021 4712.01 3580.23 82.40 11.00  26.40 2590.47
   13:19:05.436.29-Jan-2021 4712.01 3042.26 82.40 11.00  26.60 2590.47
   13:19:05.636.29-Jan-2021 4712.01 3031.60 82.40 11.00  26.80 2590.47
   13:19:05.836.29-Jan-2021 4712.01 3032.46 82.39 11.00  27.00 2590.47
   13:19:06.036.29-Jan-2021 4712.01 3032.46 82.39 11.00  27.20 2590.47
   13:19:06.236.29-Jan-2021 4712.01 3032.57 82.39 11.00  27.40 2590.47
   13:19:06.436.29-Jan-2021 4712.01 3031.54 82.39 11.00  27.60 2590.47
   13:19:06.636.29-Jan-2021 4712.01 3031.68 82.39 11.00  27.80 2590.47
   13:19:06.836.29-Jan-2021 4712.01 3031.27 82.39 11.00  28.00 2590.47
   13:19:07.036.29-Jan-2021 4712.01 3031.27 82.39 11.00  28.20 2590.47
   13:19:07.236.29-Jan-2021 4712.01 3030.31 82.39 11.00  28.40 2590.47
   13:19:07.436.29-Jan-2021 4712.01 3029.75 82.39 11.00  28.60 2590.47
   13:19:07.636.29-Jan-2021 4712.01 3030.21 82.39 11.00  28.80 2590.47
   13:19:07.836.29-Jan-2021 4712.01 3029.65 82.39 11.00  29.00 2590.47
   13:19:08.036.29-Jan-2021 4712.01 3029.65 82.39 11.00  29.20 2590.47
   13:19:08.236.29-Jan-2021 4712.01 3029.73 82.38 11.00  29.40 2590.47
   13:19:08.436.29-Jan-2021 4712.01 3029.65 82.38 11.00  29.60 2590.47
   13:19:08.636.29-Jan-2021 4712.01 3030.02 82.38 11.00  29.80 2590.47
   13:19:08.836.29-Jan-2021 4712.01 3029.82 82.38 11.00  30.00 2590.47
   13:19:09.036.29-Jan-2021 4712.01 3029.82 82.38 11.00  30.20 2590.47
   13:19:09.236.29-Jan-2021 4712.01 3029.39 82.38 11.00  30.40 2590.47
   13:19:09.436.29-Jan-2021 4712.01 3029.50 82.38 11.00  30.60 2590.47
   13:19:09.636.29-Jan-2021 4712.01 3029.35 82.37 11.00  30.80 2590.47
   13:19:09.836.29-Jan-2021 4712.01 3029.89 82.37 11.00  31.00 2590.47
   13:19:10.036.29-Jan-2021 4712.01 3029.89 82.37 11.00  31.20 2590.47
   13:19:10.236.29-Jan-2021 4712.01 3029.49 82.37 11.00  31.40 2590.47
   13:19:10.436.29-Jan-2021 4712.01 3029.68 82.37 11.00  31.60 2590.47
   13:19:10.636.29-Jan-2021 4712.01 3029.68 82.37 11.00  31.80 2590.47
   13:19:10.836.29-Jan-2021 4712.01 3029.49 82.37 11.00  32.00 2590.47
   13:19:11.036.29-Jan-2021 4712.01 3029.49 82.37 11.00  32.20 2590.47
   13:19:11.236.29-Jan-2021 4712.01 3029.49 82.37 11.00  32.40 2590.47
   13:19:11.436.29-Jan-2021 4712.01 3029.30 82.36 11.00  32.60 2590.47
   13:19:11.636.29-Jan-2021 4712.01 3030.38 82.36 11.00  32.80 2590.47
   13:19:11.836.29-Jan-2021 4712.01 3030.00 82.36 11.00  33.00 2590.47
   13:19:12.036.29-Jan-2021 4712.01 3030.00 82.36 11.00  33.20 2590.47
   13:19:12.236.29-Jan-2021 4712.01 3029.49 82.36 11.00  33.40 2590.47
   13:19:12.436.29-Jan-2021 4712.01 3030.60 82.36 11.00  33.60 2590.47
   13:19:12.636.29-Jan-2021 4712.01 3029.88 82.36 11.00  33.80 2590.47
   13:19:12.836.29-Jan-2021 4712.01 3029.63 82.36 11.00  34.00 2590.47
   13:19:13.036.29-Jan-2021 4712.01 3029.63 82.36 11.00  34.20 2590.47
   13:19:13.236.29-Jan-2021 4712.01 3029.84 82.35 11.00  34.40 2590.47
   13:19:13.436.29-Jan-2021 4712.01 3029.38 82.35 11.00  34.60 2590.47
   13:19:13.636.29-Jan-2021 4712.01 3028.59 82.35 11.00  34.80 2590.47
   13:19:13.836.29-Jan-2021 4712.01 3030.22 82.35 11.00  35.00 2590.47
   13:19:14.036.29-Jan-2021 4712.01 3030.22 82.35 11.00  35.20 2590.47
   13:19:14.236.29-Jan-2021 4712.01 3029.44 82.35 11.00  35.40 2590.47
   13:19:14.437.29-Jan-2021 4712.01 3072.06 82.35 11.00  35.60 2590.47
   13:19:14.637.29-Jan-2021 4712.01 3104.71 82.34 11.00  35.80 2590.47
   13:19:14.837.29-Jan-2021 4712.01 3105.41 82.34 11.00  36.00 2590.47
   13:19:15.037.29-Jan-2021 4712.01 3105.41 82.34 11.00  36.20 2590.47
   13:19:15.237.29-Jan-2021 4712.01 3105.69 82.34 11.00  36.40 2590.47
   13:19:15.437.29-Jan-2021 4712.01 3105.81 82.34 11.00  36.60 2590.47
   13:19:15.637.29-Jan-2021 4712.01 3105.80 82.34 11.00  36.80 2590.47
   13:19:15.837.29-Jan-2021 4712.01 3105.98 82.34 11.00  37.00 2590.47
   13:19:16.037.29-Jan-2021 4712.01 3105.98 82.34 11.00  37.20 2590.47
   13:19:16.237.29-Jan-2021 4712.01 3106.04 82.34 11.00  37.40 2590.47
   13:19:16.437.29-Jan-2021 4712.01 3106.15 82.33 11.00  37.60 2590.47
   13:19:16.637.29-Jan-2021 4712.01 3106.19 82.33 11.00  37.80 2590.47
   13:19:16.837.29-Jan-2021 4712.01 3106.25 82.33 11.00  38.00 2590.47
   13:19:17.037.29-Jan-2021 4712.01 3106.25 82.33 11.00  38.20 2590.47
   13:19:17.237.29-Jan-2021 4712.01 3106.29 82.33 11.00  38.40 2590.47
   13:19:17.437.29-Jan-2021 4712.01 3106.33 82.33 11.00  38.60 2590.47
   13:19:17.637.29-Jan-2021 4712.01 3106.35 82.33 11.00  38.80 2590.47
   13:19:17.837.29-Jan-2021 4712.01 3106.37 82.33 11.00  39.00 2590.47
   13:19:18.037.29-Jan-2021 4712.01 3106.37 82.33 11.00  39.20 2590.47
   13:19:18.237.29-Jan-2021 4712.01 3106.43 82.32 11.00  39.40 2590.47
   13:19:18.437.29-Jan-2021 4712.01 3106.44 82.32 11.00  39.60 2590.47
   13:19:18.637.29-Jan-2021 4712.01 3106.44 82.32 11.00  39.80 2590.47
   13:19:18.837.29-Jan-2021 4712.01 3106.47 82.32 11.00  40.00 2590.47
   13:19:19.037.29-Jan-2021 4712.01 3106.47 82.32 11.00  40.20 2590.47
   13:19:19.237.29-Jan-2021 4712.01 3106.47 82.32 11.00  40.40 2590.47
   13:19:19.437.29-Jan-2021 4712.01 3106.49 82.32 11.00  40.60 2590.47
   13:19:19.637.29-Jan-2021 4712.01 3106.56 82.32 11.00  40.80 2590.47
   13:19:19.837.29-Jan-2021 4712.01 3106.48 82.32 11.00  41.00 2590.47
   13:19:20.037.29-Jan-2021 4712.01 3106.48 82.32 11.00  41.20 2590.47
   13:19:20.237.29-Jan-2021 4712.01 3106.59 82.31 11.00  41.40 2590.47
   13:19:20.437.29-Jan-2021 4712.01 3106.58 82.31 11.00  41.60 2590.47
   13:19:20.637.29-Jan-2021 4712.01 3106.60 82.31 11.00  41.80 2590.47
   13:19:20.837.29-Jan-2021 4712.01 3106.62 82.31 11.00  42.00 2590.47
   13:19:21.037.29-Jan-2021 4712.01 3106.62 82.31 11.00  42.20 2590.47
   13:19:21.237.29-Jan-2021 4712.01 3106.63 82.31 11.00  42.40 2590.47
   13:19:21.437.29-Jan-2021 4712.01 3106.65 82.31 11.00  42.60 2590.47
   13:19:21.637.29-Jan-2021 4712.01 3106.66 82.31 11.00  42.80 2590.47
   13:19:21.837.29-Jan-2021 4712.01 3106.67 82.30 11.00  43.00 2590.47
   13:19:22.037.29-Jan-2021 4712.01 3106.67 82.30 11.00  43.20 2590.47
   13:19:22.237.29-Jan-2021 4712.01 3106.69 82.30 11.00  43.40 2590.47
   13:19:22.437.29-Jan-2021 4712.01 3106.69 82.30 11.00  43.60 2590.47
   13:19:22.637.29-Jan-2021 4712.01 3106.71 82.30 11.00  43.80 2590.47
   13:19:22.837.29-Jan-2021 4712.01 3106.64 82.30 11.00  44.00 2590.47
   13:19:23.037.29-Jan-2021 4712.01 3106.64 82.30 11.00  44.20 2590.47
   13:19:23.237.29-Jan-2021 4712.01 3106.71 82.30 11.00  44.40 2590.47
   13:19:23.437.29-Jan-2021 4712.01 3106.75 82.30 11.00  44.60 2590.47
   13:19:23.637.29-Jan-2021 4712.01 3106.72 82.30 11.00  44.80 2590.47
   13:19:23.837.29-Jan-2021 4712.01 3106.78 82.29 11.00  45.00 2590.47
