~Version Information
 VERS.                  2.0:   CWLS log ASCII Standard -VERSION 2.0
 WRAP.                   NO:   One line per depth step
~Well Information Block
#MNEM.UNIT     VALUE/NAME     DESCRIPTION
#---------     -----------    ---------------------------
 STRT.S             20:27:59 28-Jan-21: START TIME 20:27:59 28-Jan-21
 STOP.S             20:34:29 28-Jan-21: STOP TIME  20:34:29 28-Jan-21
 STEP.S                   0.00: STEP TIME
 NULL.                 -999.25: NULL VALUE
 DFWT.                        :  DIST FWL TEXT
 DFST.                        :  DIST FSL TEXT
 DMF .             Drill Floor:  DRILL MEAS FROM
 STIM.      00.00.00 25-Sep-20:  START TIME
 DATE.      16.12.48 31-Jan-21:  END TIME
 SPUD.               20-Sep-20:  SPUD DATE
 NREF.                    Grid:  NORTH REFERENCE
 HPTY.       Minimum Curvature:  HOLE POS TYPE
 DMOD.             Drill Model:  DRILL MOD DESC
 SVYD.                  Survey:  SURVEY DESC
 ILTD.               Lithology:  INTERP LTH DESC
 FTOP.          Formation Tops:  FORM TOPS DESC
 RIG .              East Azeri:  RIG NAME
 PDAT.          Mean Sea Level:  PERMANENT DATUM
 FLD .                     ACG:  FIELD NAME
 SON .        AZ-XX-0906591820:  JOB NUMBER
 CTRY.              Azerbaijan:  COUNTRY NAME
 WELL.                     D37:  WELL NAME
 SRVC.     Turan Drilling & Engineering:  CONTRACTOR
 COMP.     BP Exploration (Caspian Sea) ltd.:  COMPANY
 WTYP.                Deviated:  WELL TYPE
 MDS .        Operator Entered:  MAG DATA SOURCE
 UWI .                     N/A:  UNIQUE WELL IDENTIFIER
 API .                     N/A:  API NUMBER
 BASE.              Azerbaijan:  LOGGING EQUIPMENT BASE LOCATION
 REGN.                   EESSA:  REGION
 PROV.                    Baku:  PROVINCE
 STAT.                    Baku:  STATE NAME
 MWDS.                    Baku:  MWD SHOP
 JOBN.        AZ-XX-0906591820:  JOB TICKET NUMB
 DOE .                     N/A:  DOE NUMBER
 DCON.         Sperry Drilling:  DIRECTNL CONTR
 UNIT.                     N/A:  LOGGING EQUIPMENT ID
 CNTY.                        :  COUNTY
 LOC .                        :  LOCATION
 LMF .             Drill Floor:  LOG MEASURED FROM
 TVDS.m                  43.60:  TVDSS CORRECTN
 LATI.deg                40.02:  LATITUDE
 LONG.deg                51.45:  LONGITUDE
 WHNS.m                  11.04:  WELL HEAD N/S
 WHEW.m                 -12.38:  WELL HEAD E/W
 UTMX.m              538763.98:  UTM X
 UTMY.m             4431880.20:  UTM Y
 DFWL.m                   0.00:  DISTANCE FWL
 DFSL.m                   0.00:  DISTANCE FSL
 SDEP.m                 300.00:  START DEPTH
 TDD .m                4900.01:  TOTAL DEPTH (DRILLER)
 VSDR.deg               185.64:  VERT SEC DIRECT
 GVFD.g                   1.00:  GRAVITY FIELD
 MFLD.nT              50301.00:  MAGNETIC FIELD
 MDIP.deg                59.46:  MAGNETIC DIP
 MDEC.deg                 6.43:  MAGNETIC DECL
 GRDC.deg                 0.29:  GRID CORRECTION
 AZTC.deg                 6.14:  AZM TOTAL CORR
 EPD .m                   0.00:  ELEVATION
 EGL .m                   0.00:  GROUND ELEVATION
 WDMS.m                 151.80:  WD ELEV
 APD .m                  43.60:  DEPTH ABOVE PD
 DEP .m                 571.69:  DEPTH
 AGAP.m                  43.60:  AIR GAP
 VSEW.m                 -12.38:  VERT SEC E/W
 VSNS.m                  11.04:  VERT SEC N/S
 EKB .m                  43.60:  KB ELEVATION
 EDF .m                  43.60:  DF ELEVATION
 TDL .m                 412.00:  TOTAL DEPTH (LOGGER)
 VSC .                       0:  VS TO CLOSURE
 MAGU.                 1849300:  MAGUTM CHECKSUM
~Parameter Information Block
#MNEM.UNIT       Value        Description
#---------     -----------    ---------------------------
 AV  .mps                 2.21:  Ann Velocity 
 AVMX.mps                 2.53:  Max Ann Veloc 
 AZIF.deg               144.83:  Azm, Final 
 BHAT.        Rotary Steerable:  BHA Type 
 BROT.°/30m              -0.52:  Build Rotating 
 BS  .in                  6.50:  Bit Size 
 BTPL.psig              209.00:  Bit Press Loss 
 CABU.                      No:  Customer Abuse 
 CGEO.        Ali Isfandiyarov:  Customer Geo 
 COMM.                     ,´U:  Run Comments 1 
 TCS .hr                 61.31:  Time Ciculation Ended 
 CV  .mps                 4.66:  Crit Velocity 
 CVMX.mps                 5.02:  Max Crit Veloc 
 DD1 .          Fariz Nahmatov:  Direct Drillr 1 
 DD2 .            Musa Ahmadov:  Direct Drillr 2 
 DDSV.               Geo-Pilot:  DD Service 
 DEFF.%                 100.00:  % Det Eff 
 DLRX.°/30m               1.44:  Dogleg Rot Max 
 DLSO.°/30m               0.83:  Dogleg Oriented 
 DLSX.°/30m               1.44:  Dogleg Str Max 
 DRET.      08.30.00 30-Jan-21:  Drill End Time 
 DRST.      21.15.00 27-Jan-21:  Drill Start Tim 
 DTIM.hr                 37.28:  Time Drilling 
 EDEP.m                4867.01:  End Depth 
 ENG1.          Rasim Hashimov:  Engineer 1 
 ENG2.         Almaz Almadatov:  Engineer 2 
 ENG3.        Tamerlan Ahmadov:  Engineer 3 
 ETIM.      22.41.04 31-Jan-21:  End Time 
 FLOI.gpm               400.00:  Flow In 
 FLON.gpm               300.00:  Flow In Min 
 FLOS.cptm                0.00:  Fluid Loss 
 FLOX.gpm               400.00:  Flow In Max 
 HFLO.                      No:  High Flow 
 HPRE.                      No:  High Pressure 
 HTEM.                      No:  High Temp 
 HYDO.m                   1.80:  Hydro Offset 
 IFIN.deg                65.63:  Inc, Final 
 IMAX.deg                66.77:  Inc Max 
 IMIN.deg                65.61:  Inc Min 
 IMND.m                4612.67:  Inc Min Depth 
 IMXD.m                4811.63:  Inc Max Depth 
 JARR.                      No:  Jarring 
 LETM.      08.30.00 30-Jan-21:  Log End Time 
 LOST.hr                     0:  Lost Rig Time 
 LSTM.      21.15.00 27-Jan-21:  Log Start Time 
 MDCL.ppm             41000.00:  Mud Chlorides 
 MDES.     Inversion Oil/Synthetic:  Mud Desc 
 DFD .sg                  1.40:  Mud Density 
 MDMN.sg                  1.40:  Dens Mud Min 
 MDMX.sg                  1.40:  Dens Mud Max 
 MOIL.                      53:  Run Mud Oil % 
 MOWR.                   66:34:  Run Mud OWR 
 MSND.                     0.2:  Run Mud Sand % 
 MSOL.                    17.9:  Run Mud Solids% 
 DFV .spqt               77.00:  Mud Viscosity 
 MWOD.in                  4.75:  MWD Tool OD 
 MWSI.                      No:  Serv Intrp, MWD 
 OTIM.hr                110.38:  Time Operating 
 PCON.           Look Like New:  Pad Condition 
 PMAX.psia             5300.00:  Press Op, Max 
 PV  .cP                 57.00:  Mud PV 
 RUN .                    1200:  Run Number 
 ROPA.m/hr               13.00:  ROP Avg 
 ROPN.m/hr                9.00:  ROP Min 
 ROPX.m/hr               15.00:  ROP Max 
 RPMA.rpm               120.00:  RPM Surface Avg 
 RPMN.rpm               100.00:  RPM Surface Min 
 RPMX.rpm               135.00:  RPM Surface Max 
 RRUN.                    1200:  Rig Run Number 
 RTIM.hr                  2.65:  Time Reaming 
 SAZI.deg               145.04:  Azm, Start 
 SDEP.m                4455.01:  Start Depth 
 SIDD.                      No:  Serv Intrp, DD 
 SINC.deg                65.83:  Inc, Start 
 SPPA.psig             5037.00:  SPP Avg 
 SPPN.psig             4430.00:  SPP Min 
 SPPX.psig             5300.00:  SPP Max 
 STIM.      22.41.04 26-Jan-21:  Start Time 
 SVCS.                 DD, MWD:  Services 
 SVER.                    9.20:  Sperry Version 
 TDAT.m                 412.00:  Tot Depth Attmp 
 TDDF.                      No:  Trip for DD 
 TDLG.m                 412.00:  Tot Depth Loggd 
 TFF .                      No:  Trip for Fail 
 TQAA.f-kp               15.00:  Torque Abs Avg 
 TQAN.f-kp               12.00:  Torque Abs Min 
 TQAX.f-kp               17.00:  Torque Abs Max 
 TRRT.°/30m               1.18:  Turn Rotating 
 MRT .                     ADR:  Maximum Recorded Temperature 
 TTMX.degC               88.24:  Max Tool Temp 
 VS01.                90619458:  Virtual Str1 SN 
 VS02.                90519326:  Virtual Str2 SN 
 VS03.                90522176:  Virtual Str3 SN 
 VS04.                90512683:  Virtual Str4 SN 
 WBMN.klb                 1.00:  WOB Min 
 WITN.           Murad Giluyev:  Customer Rep 
 WITN.     Kamran Kemberlinski:  Customer Rep 2 
 WOBA.klb                 5.00:  WOB Avg 
 WOBX.klb                 9.00:  WOB Max 
 YP  .lhf2               41.00:  Yield Point 
~Curve Information Block
#MNEM.UNIT                 API CODE     Curve Description
#---------               -----------    ---------------------------
 TIME.HHMMSS            00 000 000 000:  GT Time & Date
 GTDEPTH.m              00 000 000 000:  GT Depth
 GTPQH.psia             00 000 000 000:  GT HR Quartz Pressure
 GTTQ.degC              00 000 000 000:  GT Quartz Temperature
 GTTN.NONE              00 000 000 000:  GT Test Number
 GTET.sec               00 000 000 000:  GT Elapsed Test Time
 GTTVD.m                00 000 000 000:  GT True Vertical Depth
#Other Information
#
#WARRANTY: Halliburton will use its best efforts to furnish customers with 
#accurate information and interpretations that are part of, and incident to, the services 
#provided.  However, Halliburton cannot and does not warrant the accuracy 
#or correctness of such information and interpretations.  Under no circumstances should any 
#such information or interpretation be relied upon as the sole basis for any drilling, 
#completion, production, or financial decision or any procedure involving any risk to the 
#safety of any drilling venture, drilling rig or its crew or any other third party.  The 
#Customer has full responsibility for all drilling, completion and production operation.  
#Halliburton makes no representations or warranties, either expressed or 
#implied, including, but not limited to, the implied warranties of merchantability or fitness 
#for a particular purpose, with respect to the services rendered.  In no event will 
#Halliburton be liable for failure to obtain any particular results or for 
#any damages, including, but not limited to, indirect, special or consequential damages, 
#resulting from the use of any information or interpretation provided by Halliburton.
#
~A           TIME           GTDEPTH  GTPQH  GTTQ  GTTN  GTET   GTTVD  
# ...
   20:28:45.378.28-Jan-2021 4575.01 3009.37 74.80 6.00  46.01 2534.93
   20:28:45.578.28-Jan-2021 4575.01 3009.37 74.80 6.00  46.21 2534.93
   20:28:45.778.28-Jan-2021 4575.01 3009.41 74.80 6.00  46.41 2534.93
   20:28:45.978.28-Jan-2021 4575.01 3009.37 74.80 6.00  46.61 2534.93
   20:28:46.178.28-Jan-2021 4575.01 3009.41 74.80 6.00  46.81 2534.93
   20:28:46.378.28-Jan-2021 4575.01 3009.36 74.80 6.00  47.01 2534.93
   20:28:46.578.28-Jan-2021 4575.01 3009.36 74.80 6.00  47.21 2534.93
   20:28:46.778.28-Jan-2021 4575.01 3009.41 74.80 6.00  47.41 2534.93
   20:28:46.978.28-Jan-2021 4575.01 3009.39 74.80 6.00  47.61 2534.93
   20:28:47.178.28-Jan-2021 4575.01 3009.45 74.80 6.00  47.81 2534.93
   20:28:47.378.28-Jan-2021 4575.01 3009.41 74.80 6.00  48.01 2534.93
   20:28:47.578.28-Jan-2021 4575.01 3009.41 74.80 6.00  48.21 2534.93
   20:28:47.778.28-Jan-2021 4575.01 3009.43 74.79 6.00  48.41 2534.93
   20:28:47.978.28-Jan-2021 4575.01 3009.44 74.79 6.00  48.61 2534.93
   20:28:48.178.28-Jan-2021 4575.01 3009.44 74.79 6.00  48.81 2534.93
   20:28:48.378.28-Jan-2021 4575.01 3009.43 74.79 6.00  49.01 2534.93
   20:28:48.579.28-Jan-2021 4575.01 3009.43 74.79 6.00  49.21 2534.93
   20:28:48.779.28-Jan-2021 4575.01 3009.43 74.79 6.00  49.41 2534.93
   20:28:48.979.28-Jan-2021 4575.01 3009.47 74.79 6.00  49.61 2534.93
   20:28:49.179.28-Jan-2021 4575.01 3009.45 74.79 6.00  49.81 2534.93
   20:28:49.379.28-Jan-2021 4575.01 3009.48 74.79 6.00  50.01 2534.93
   20:28:49.579.28-Jan-2021 4575.01 3009.48 74.79 6.00  50.21 2534.93
   20:28:49.779.28-Jan-2021 4575.01 3009.48 74.79 6.00  50.41 2534.93
   20:28:49.979.28-Jan-2021 4575.01 3009.37 74.79 6.00  50.61 2534.93
   20:28:50.179.28-Jan-2021 4575.01 3009.56 74.79 6.00  50.81 2534.93
   20:28:50.379.28-Jan-2021 4575.01 3009.46 74.79 6.00  51.01 2534.93
   20:28:50.579.28-Jan-2021 4575.01 3009.46 74.79 6.00  51.21 2534.93
   20:28:50.779.28-Jan-2021 4575.01 3009.50 74.78 6.00  51.41 2534.93
   20:28:50.979.28-Jan-2021 4575.01 3009.48 74.78 6.00  51.61 2534.93
   20:28:51.179.28-Jan-2021 4575.01 3009.50 74.78 6.00  51.81 2534.93
   20:28:51.379.28-Jan-2021 4575.01 3009.48 74.78 6.00  52.01 2534.93
   20:28:51.579.28-Jan-2021 4575.01 3009.48 74.78 6.00  52.21 2534.93
   20:28:51.779.28-Jan-2021 4575.01 3009.47 74.78 6.00  52.41 2534.93
   20:28:51.979.28-Jan-2021 4575.01 3009.53 74.78 6.00  52.61 2534.93
   20:28:52.179.28-Jan-2021 4575.01 3009.48 74.78 6.00  52.81 2534.93
   20:28:52.379.28-Jan-2021 4575.01 3009.53 74.78 6.00  53.01 2534.93
   20:28:52.579.28-Jan-2021 4575.01 3009.53 74.78 6.00  53.21 2534.93
   20:28:52.779.28-Jan-2021 4575.01 3009.52 74.78 6.00  53.41 2534.93
   20:28:52.979.28-Jan-2021 4575.01 3009.50 74.78 6.00  53.61 2534.93
   20:28:53.179.28-Jan-2021 4575.01 3009.49 74.78 6.00  53.81 2534.93
   20:28:53.379.28-Jan-2021 4575.01 3009.51 74.78 6.00  54.01 2534.93
   20:28:53.580.28-Jan-2021 4575.01 3009.51 74.78 6.00  54.21 2534.93
   20:28:53.780.28-Jan-2021 4575.01 3009.50 74.78 6.00  54.41 2534.93
   20:28:53.980.28-Jan-2021 4575.01 3009.46 74.78 6.00  54.61 2534.93
   20:28:54.180.28-Jan-2021 4575.01 3009.60 74.77 6.00  54.81 2534.93
   20:28:54.380.28-Jan-2021 4575.01 3009.50 74.77 6.00  55.01 2534.93
   20:28:54.580.28-Jan-2021 4575.01 3009.50 74.77 6.00  55.21 2534.93
   20:28:54.780.28-Jan-2021 4575.01 3009.53 74.77 6.00  55.41 2534.93
   20:28:54.980.28-Jan-2021 4575.01 3009.55 74.77 6.00  55.61 2534.93
   20:28:55.180.28-Jan-2021 4575.01 3009.51 74.77 6.00  55.81 2534.93
   20:28:55.380.28-Jan-2021 4575.01 3009.50 74.77 6.00  56.01 2534.93
   20:28:55.580.28-Jan-2021 4575.01 3009.50 74.77 6.00  56.21 2534.93
   20:28:55.780.28-Jan-2021 4575.01 3009.53 74.77 6.00  56.41 2534.93
   20:28:55.980.28-Jan-2021 4575.01 3009.55 74.77 6.00  56.61 2534.93
   20:28:56.180.28-Jan-2021 4575.01 3009.50 74.77 6.00  56.81 2534.93
   20:28:56.380.28-Jan-2021 4575.01 3009.59 74.77 6.00  57.01 2534.93
   20:28:56.580.28-Jan-2021 4575.01 3009.59 74.77 6.00  57.21 2534.93
   20:28:56.780.28-Jan-2021 4575.01 3009.56 74.77 6.00  57.41 2534.93
   20:28:56.980.28-Jan-2021 4575.01 3009.55 74.77 6.00  57.61 2534.93
   20:28:57.180.28-Jan-2021 4575.01 3009.56 74.77 6.00  57.81 2534.93
   20:28:57.380.28-Jan-2021 4575.01 3009.54 74.77 6.00  58.01 2534.93
   20:28:57.580.28-Jan-2021 4575.01 3009.54 74.77 6.00  58.21 2534.93
   20:28:57.780.28-Jan-2021 4575.01 3009.62 74.76 6.00  58.41 2534.93
   20:28:57.980.28-Jan-2021 4575.01 3009.53 74.76 6.00  58.61 2534.93
   20:28:58.180.28-Jan-2021 4575.01 3009.55 74.76 6.00  58.81 2534.93
   20:28:58.380.28-Jan-2021 4575.01 3009.58 74.76 6.00  59.01 2534.93
   20:28:58.580.28-Jan-2021 4575.01 3009.58 74.76 6.00  59.21 2534.93
   20:28:58.781.28-Jan-2021 4575.01 3009.59 74.76 6.00  59.41 2534.93
   20:28:58.981.28-Jan-2021 4575.01 3009.54 74.76 6.00  59.61 2534.93
   20:28:59.181.28-Jan-2021 4575.01 3009.59 74.76 6.00  59.81 2534.93
   20:28:59.381.28-Jan-2021 4575.01 3009.55 74.76 6.00  60.01 2534.93
   20:28:59.581.28-Jan-2021 4575.01 3009.55 74.76 6.00  60.21 2534.93
   20:28:59.781.28-Jan-2021 4575.01 3009.56 74.76 6.00  60.41 2534.93
   20:28:59.981.28-Jan-2021 4575.01 3009.57 74.76 6.00  60.61 2534.93
   20:29:00.181.28-Jan-2021 4575.01 3009.56 74.76 6.00  60.81 2534.93
   20:29:00.381.28-Jan-2021 4575.01 3009.58 74.76 6.00  61.01 2534.93
   20:29:00.581.28-Jan-2021 4575.01 3009.58 74.76 6.00  61.21 2534.93
   20:29:00.781.28-Jan-2021 4575.01 3009.58 74.76 6.00  61.41 2534.93
   20:29:00.981.28-Jan-2021 4575.01 3009.57 74.76 6.00  61.61 2534.93
   20:29:01.181.28-Jan-2021 4575.01 3009.50 74.76 6.00  61.81 2534.93
   20:29:01.381.28-Jan-2021 4575.01 3009.63 74.75 6.00  62.01 2534.93
   20:29:01.581.28-Jan-2021 4575.01 3009.63 74.75 6.00  62.21 2534.93
   20:29:01.781.28-Jan-2021 4575.01 3009.61 74.75 6.00  62.41 2534.93
   20:29:01.981.28-Jan-2021 4575.01 3009.56 74.75 6.00  62.61 2534.93
   20:29:02.181.28-Jan-2021 4575.01 3009.61 74.75 6.00  62.81 2534.93
   20:29:02.381.28-Jan-2021 4575.01 3009.57 74.75 6.00  63.01 2534.93
   20:29:02.581.28-Jan-2021 4575.01 3009.57 74.75 6.00  63.21 2534.93
   20:29:02.781.28-Jan-2021 4575.01 3009.57 74.75 6.00  63.41 2534.93
   20:29:02.981.28-Jan-2021 4575.01 3009.58 74.75 6.00  63.61 2534.93
   20:29:03.181.28-Jan-2021 4575.01 3009.58 74.75 6.00  63.81 2534.93
   20:29:03.381.28-Jan-2021 4575.01 3009.58 74.75 6.00  64.01 2534.93
   20:29:03.581.28-Jan-2021 4575.01 3009.58 74.75 6.00  64.21 2534.93
   20:29:03.782.28-Jan-2021 4575.01 3009.59 74.75 6.00  64.41 2534.93
   20:29:03.982.28-Jan-2021 4575.01 3009.58 74.75 6.00  64.61 2534.93
   20:29:04.182.28-Jan-2021 4575.01 3009.57 74.75 6.00  64.81 2534.93
   20:29:04.382.28-Jan-2021 4575.01 3009.51 74.75 6.00  65.01 2534.93
   20:29:04.582.28-Jan-2021 4575.01 3009.51 74.75 6.00  65.21 2534.93
   20:29:04.782.28-Jan-2021 4575.01 3009.57 74.75 6.00  65.41 2534.93
   20:29:04.982.28-Jan-2021 4575.01 3009.57 74.75 6.00  65.61 2534.93
   20:29:05.182.28-Jan-2021 4575.01 3009.54 74.74 6.00  65.81 2534.93
   20:29:05.382.28-Jan-2021 4575.01 3009.61 74.74 6.00  66.01 2534.93
   20:29:05.582.28-Jan-2021 4575.01 3009.61 74.74 6.00  66.21 2534.93
   20:29:05.782.28-Jan-2021 4575.01 3009.58 74.74 6.00  66.41 2534.93
   20:29:05.982.28-Jan-2021 4575.01 3009.60 74.74 6.00  66.61 2534.93
   20:29:06.182.28-Jan-2021 4575.01 3009.59 74.74 6.00  66.81 2534.93
   20:29:06.382.28-Jan-2021 4575.01 3009.55 74.74 6.00  67.01 2534.93
   20:29:06.582.28-Jan-2021 4575.01 3009.55 74.74 6.00  67.21 2534.93
   20:29:06.782.28-Jan-2021 4575.01 3009.60 74.74 6.00  67.41 2534.93
   20:29:06.982.28-Jan-2021 4575.01 3009.55 74.74 6.00  67.61 2534.93
   20:29:07.182.28-Jan-2021 4575.01 3009.61 74.74 6.00  67.81 2534.93
   20:29:07.382.28-Jan-2021 4575.01 3009.57 74.74 6.00  68.01 2534.93
   20:29:07.582.28-Jan-2021 4575.01 3009.57 74.74 6.00  68.21 2534.93
   20:29:07.782.28-Jan-2021 4575.01 3009.55 74.74 6.00  68.41 2534.93
   20:29:07.982.28-Jan-2021 4575.01 3009.59 74.74 6.00  68.61 2534.93
   20:29:08.182.28-Jan-2021 4575.01 3009.58 74.74 6.00  68.81 2534.93
