~Version Information
 VERS.                  2.0:   CWLS log ASCII Standard -VERSION 2.0
 WRAP.                   NO:   One line per depth step
~Well Information Block
#MNEM.UNIT     VALUE/NAME     DESCRIPTION
#---------     -----------    ---------------------------
 STRT.S             11:33:05 30-Jan-21: START TIME 11:33:05 30-Jan-21
 STOP.S             11:39:34 30-Jan-21: STOP TIME  11:39:34 30-Jan-21
 STEP.S                   0.00: STEP TIME
 NULL.                 -999.25: NULL VALUE
 DFWT.                        :  DIST FWL TEXT
 DFST.                        :  DIST FSL TEXT
 DMF .             Drill Floor:  DRILL MEAS FROM
 STIM.      00.00.00 25-Sep-20:  START TIME
 DATE.      16.12.48 31-Jan-21:  END TIME
 SPUD.               20-Sep-20:  SPUD DATE
 NREF.                    Grid:  NORTH REFERENCE
 HPTY.       Minimum Curvature:  HOLE POS TYPE
 DMOD.             Drill Model:  DRILL MOD DESC
 SVYD.                  Survey:  SURVEY DESC
 ILTD.               Lithology:  INTERP LTH DESC
 FTOP.          Formation Tops:  FORM TOPS DESC
 RIG .              East Azeri:  RIG NAME
 PDAT.          Mean Sea Level:  PERMANENT DATUM
 FLD .                     ACG:  FIELD NAME
 SON .        AZ-XX-0906591820:  JOB NUMBER
 CTRY.              Azerbaijan:  COUNTRY NAME
 WELL.                     D37:  WELL NAME
 SRVC.     Turan Drilling & Engineering:  CONTRACTOR
 COMP.     BP Exploration (Caspian Sea) ltd.:  COMPANY
 WTYP.                Deviated:  WELL TYPE
 MDS .        Operator Entered:  MAG DATA SOURCE
 UWI .                     N/A:  UNIQUE WELL IDENTIFIER
 API .                     N/A:  API NUMBER
 BASE.              Azerbaijan:  LOGGING EQUIPMENT BASE LOCATION
 REGN.                   EESSA:  REGION
 PROV.                    Baku:  PROVINCE
 STAT.                    Baku:  STATE NAME
 MWDS.                    Baku:  MWD SHOP
 JOBN.        AZ-XX-0906591820:  JOB TICKET NUMB
 DOE .                     N/A:  DOE NUMBER
 DCON.         Sperry Drilling:  DIRECTNL CONTR
 UNIT.                     N/A:  LOGGING EQUIPMENT ID
 CNTY.                        :  COUNTY
 LOC .                        :  LOCATION
 LMF .             Drill Floor:  LOG MEASURED FROM
 TVDS.m                  43.60:  TVDSS CORRECTN
 LATI.deg                40.02:  LATITUDE
 LONG.deg                51.45:  LONGITUDE
 WHNS.m                  11.04:  WELL HEAD N/S
 WHEW.m                 -12.38:  WELL HEAD E/W
 UTMX.m              538763.98:  UTM X
 UTMY.m             4431880.20:  UTM Y
 DFWL.m                   0.00:  DISTANCE FWL
 DFSL.m                   0.00:  DISTANCE FSL
 SDEP.m                 300.00:  START DEPTH
 TDD .m                4900.01:  TOTAL DEPTH (DRILLER)
 VSDR.deg               185.64:  VERT SEC DIRECT
 GVFD.g                   1.00:  GRAVITY FIELD
 MFLD.nT              50301.00:  MAGNETIC FIELD
 MDIP.deg                59.46:  MAGNETIC DIP
 MDEC.deg                 6.43:  MAGNETIC DECL
 GRDC.deg                 0.29:  GRID CORRECTION
 AZTC.deg                 6.14:  AZM TOTAL CORR
 EPD .m                   0.00:  ELEVATION
 EGL .m                   0.00:  GROUND ELEVATION
 WDMS.m                 151.80:  WD ELEV
 APD .m                  43.60:  DEPTH ABOVE PD
 DEP .m                 571.69:  DEPTH
 AGAP.m                  43.60:  AIR GAP
 VSEW.m                 -12.38:  VERT SEC E/W
 VSNS.m                  11.04:  VERT SEC N/S
 EKB .m                  43.60:  KB ELEVATION
 EDF .m                  43.60:  DF ELEVATION
 TDL .m                 412.00:  TOTAL DEPTH (LOGGER)
 VSC .                       0:  VS TO CLOSURE
 MAGU.                 1849300:  MAGUTM CHECKSUM
~Parameter Information Block
#MNEM.UNIT       Value        Description
#---------     -----------    ---------------------------
 AV  .mps                 2.21:  Ann Velocity 
 AVMX.mps                 2.53:  Max Ann Veloc 
 AZIF.deg               144.83:  Azm, Final 
 BHAT.        Rotary Steerable:  BHA Type 
 BROT.°/30m              -0.52:  Build Rotating 
 BS  .in                  6.50:  Bit Size 
 BTPL.psig              209.00:  Bit Press Loss 
 CABU.                      No:  Customer Abuse 
 CGEO.        Ali Isfandiyarov:  Customer Geo 
 COMM.                     <»c:  Run Comments 1 
 TCS .hr                 61.31:  Time Ciculation Ended 
 CV  .mps                 4.66:  Crit Velocity 
 CVMX.mps                 5.02:  Max Crit Veloc 
 DD1 .          Fariz Nahmatov:  Direct Drillr 1 
 DD2 .            Musa Ahmadov:  Direct Drillr 2 
 DDSV.               Geo-Pilot:  DD Service 
 DEFF.%                 100.00:  % Det Eff 
 DLRX.°/30m               1.44:  Dogleg Rot Max 
 DLSO.°/30m               0.83:  Dogleg Oriented 
 DLSX.°/30m               1.44:  Dogleg Str Max 
 DRET.      08.30.00 30-Jan-21:  Drill End Time 
 DRST.      21.15.00 27-Jan-21:  Drill Start Tim 
 DTIM.hr                 37.28:  Time Drilling 
 EDEP.m                4867.01:  End Depth 
 ENG1.          Rasim Hashimov:  Engineer 1 
 ENG2.         Almaz Almadatov:  Engineer 2 
 ENG3.        Tamerlan Ahmadov:  Engineer 3 
 ETIM.      22.41.04 31-Jan-21:  End Time 
 FLOI.gpm               400.00:  Flow In 
 FLON.gpm               300.00:  Flow In Min 
 FLOS.cptm                0.00:  Fluid Loss 
 FLOX.gpm               400.00:  Flow In Max 
 HFLO.                      No:  High Flow 
 HPRE.                      No:  High Pressure 
 HTEM.                      No:  High Temp 
 HYDO.m                   1.80:  Hydro Offset 
 IFIN.deg                65.63:  Inc, Final 
 IMAX.deg                66.77:  Inc Max 
 IMIN.deg                65.61:  Inc Min 
 IMND.m                4612.67:  Inc Min Depth 
 IMXD.m                4811.63:  Inc Max Depth 
 JARR.                      No:  Jarring 
 LETM.      08.30.00 30-Jan-21:  Log End Time 
 LOST.hr                     0:  Lost Rig Time 
 LSTM.      21.15.00 27-Jan-21:  Log Start Time 
 MDCL.ppm             41000.00:  Mud Chlorides 
 MDES.     Inversion Oil/Synthetic:  Mud Desc 
 DFD .sg                  1.40:  Mud Density 
 MDMN.sg                  1.40:  Dens Mud Min 
 MDMX.sg                  1.40:  Dens Mud Max 
 MOIL.                      53:  Run Mud Oil % 
 MOWR.                   66:34:  Run Mud OWR 
 MSND.                     0.2:  Run Mud Sand % 
 MSOL.                    17.9:  Run Mud Solids% 
 DFV .spqt               77.00:  Mud Viscosity 
 MWOD.in                  4.75:  MWD Tool OD 
 MWSI.                      No:  Serv Intrp, MWD 
 OTIM.hr                110.38:  Time Operating 
 PCON.           Look Like New:  Pad Condition 
 PMAX.psia             5300.00:  Press Op, Max 
 PV  .cP                 57.00:  Mud PV 
 RUN .                    1200:  Run Number 
 ROPA.m/hr               13.00:  ROP Avg 
 ROPN.m/hr                9.00:  ROP Min 
 ROPX.m/hr               15.00:  ROP Max 
 RPMA.rpm               120.00:  RPM Surface Avg 
 RPMN.rpm               100.00:  RPM Surface Min 
 RPMX.rpm               135.00:  RPM Surface Max 
 RRUN.                    1200:  Rig Run Number 
 RTIM.hr                  2.65:  Time Reaming 
 SAZI.deg               145.04:  Azm, Start 
 SDEP.m                4455.01:  Start Depth 
 SIDD.                      No:  Serv Intrp, DD 
 SINC.deg                65.83:  Inc, Start 
 SPPA.psig             5037.00:  SPP Avg 
 SPPN.psig             4430.00:  SPP Min 
 SPPX.psig             5300.00:  SPP Max 
 STIM.      22.41.04 26-Jan-21:  Start Time 
 SVCS.                 DD, MWD:  Services 
 SVER.                    9.20:  Sperry Version 
 TDAT.m                 412.00:  Tot Depth Attmp 
 TDDF.                      No:  Trip for DD 
 TDLG.m                 412.00:  Tot Depth Loggd 
 TFF .                      No:  Trip for Fail 
 TQAA.f-kp               15.00:  Torque Abs Avg 
 TQAN.f-kp               12.00:  Torque Abs Min 
 TQAX.f-kp               17.00:  Torque Abs Max 
 TRRT.°/30m               1.18:  Turn Rotating 
 MRT .                     ADR:  Maximum Recorded Temperature 
 TTMX.degC               88.24:  Max Tool Temp 
 VS01.                90619458:  Virtual Str1 SN 
 VS02.                90519326:  Virtual Str2 SN 
 VS03.                90522176:  Virtual Str3 SN 
 VS04.                90512683:  Virtual Str4 SN 
 WBMN.klb                 1.00:  WOB Min 
 WITN.           Murad Giluyev:  Customer Rep 
 WITN.     Kamran Kemberlinski:  Customer Rep 2 
 WOBA.klb                 5.00:  WOB Avg 
 WOBX.klb                 9.00:  WOB Max 
 YP  .lhf2               41.00:  Yield Point 
~Curve Information Block
#MNEM.UNIT                 API CODE     Curve Description
#---------               -----------    ---------------------------
 TIME.HHMMSS            00 000 000 000:  GT Time & Date
 GTDEPTH.m              00 000 000 000:  GT Depth
 GTPQH.psia             00 000 000 000:  GT HR Quartz Pressure
 GTTQ.degC              00 000 000 000:  GT Quartz Temperature
 GTTN.NONE              00 000 000 000:  GT Test Number
 GTET.sec               00 000 000 000:  GT Elapsed Test Time
 GTTVD.m                00 000 000 000:  GT True Vertical Depth
#Other Information
#
#WARRANTY: Halliburton will use its best efforts to furnish customers with 
#accurate information and interpretations that are part of, and incident to, the services 
#provided.  However, Halliburton cannot and does not warrant the accuracy 
#or correctness of such information and interpretations.  Under no circumstances should any 
#such information or interpretation be relied upon as the sole basis for any drilling, 
#completion, production, or financial decision or any procedure involving any risk to the 
#safety of any drilling venture, drilling rig or its crew or any other third party.  The 
#Customer has full responsibility for all drilling, completion and production operation.  
#Halliburton makes no representations or warranties, either expressed or 
#implied, including, but not limited to, the implied warranties of merchantability or fitness 
#for a particular purpose, with respect to the services rendered.  In no event will 
#Halliburton be liable for failure to obtain any particular results or for 
#any damages, including, but not limited to, indirect, special or consequential damages, 
#resulting from the use of any information or interpretation provided by Halliburton.
#
~A           TIME           GTDEPTH  GTPQH  GTTQ  GTTN   GTET   GTTVD  
# ...
   11:35:20.805.30-Jan-2021 4826.01 3130.15 84.67 18.00 135.62 2635.88
   11:35:21.005.30-Jan-2021 4826.01 3130.11 84.67 18.00 135.82 2635.88
   11:35:21.205.30-Jan-2021 4826.01 3130.30 84.67 18.00 136.02 2635.88
   11:35:21.405.30-Jan-2021 4826.01 3130.30 84.67 18.00 136.22 2635.88
   11:35:21.605.30-Jan-2021 4826.01 3130.30 84.67 18.00 136.42 2635.88
   11:35:21.805.30-Jan-2021 4826.01 3130.19 84.67 18.00 136.62 2635.88
   11:35:22.005.30-Jan-2021 4826.01 3129.87 84.67 18.00 136.82 2635.88
   11:35:22.205.30-Jan-2021 4826.01 3130.76 84.67 18.00 137.02 2635.88
   11:35:22.405.30-Jan-2021 4826.01 3130.76 84.67 18.00 137.22 2635.88
   11:35:22.605.30-Jan-2021 4826.01 3129.92 84.66 18.00 137.42 2635.88
   11:35:22.805.30-Jan-2021 4826.01 3130.07 84.66 18.00 137.62 2635.88
   11:35:23.005.30-Jan-2021 4826.01 3130.14 84.66 18.00 137.82 2635.88
   11:35:23.205.30-Jan-2021 4826.01 3130.40 84.66 18.00 138.02 2635.88
   11:35:23.405.30-Jan-2021 4826.01 3130.40 84.66 18.00 138.22 2635.88
   11:35:23.605.30-Jan-2021 4826.01 3130.35 84.66 18.00 138.42 2635.88
   11:35:23.805.30-Jan-2021 4826.01 3130.35 84.66 18.00 138.62 2635.88
   11:35:24.005.30-Jan-2021 4826.01 3130.36 84.66 18.00 138.82 2635.88
   11:35:24.205.30-Jan-2021 4826.01 3130.52 84.66 18.00 139.02 2635.88
   11:35:24.405.30-Jan-2021 4826.01 3130.52 84.66 18.00 139.22 2635.88
   11:35:24.605.30-Jan-2021 4826.01 3130.18 84.66 18.00 139.42 2635.88
   11:35:24.805.30-Jan-2021 4826.01 3130.14 84.66 18.00 139.62 2635.88
   11:35:25.005.30-Jan-2021 4826.01 3130.06 84.66 18.00 139.82 2635.88
   11:35:25.205.30-Jan-2021 4826.01 3130.35 84.66 18.00 140.02 2635.88
   11:35:25.406.30-Jan-2021 4826.01 3130.35 84.66 18.00 140.22 2635.88
   11:35:25.606.30-Jan-2021 4826.01 3130.22 84.65 18.00 140.43 2635.88
   11:35:25.806.30-Jan-2021 4826.01 3130.29 84.65 18.00 140.63 2635.88
   11:35:26.006.30-Jan-2021 4826.01 3130.38 84.65 18.00 140.83 2635.88
   11:35:26.206.30-Jan-2021 4826.01 3130.28 84.65 18.00 141.03 2635.88
   11:35:26.406.30-Jan-2021 4826.01 3130.28 84.65 18.00 141.23 2635.88
   11:35:26.606.30-Jan-2021 4826.01 3130.29 84.65 18.00 141.43 2635.88
   11:35:26.806.30-Jan-2021 4826.01 3152.02 84.65 18.00 141.63 2635.88
   11:35:27.006.30-Jan-2021 4826.01 3154.20 84.65 18.00 141.83 2635.88
   11:35:27.206.30-Jan-2021 4826.01 3154.20 84.65 18.00 142.03 2635.88
   11:35:27.406.30-Jan-2021 4826.01 3154.20 84.65 18.00 142.23 2635.88
   11:35:27.606.30-Jan-2021 4826.01 3154.25 84.65 18.00 142.43 2635.88
   11:35:27.806.30-Jan-2021 4826.01 3154.26 84.65 18.00 142.63 2635.88
   11:35:28.006.30-Jan-2021 4826.01 3154.26 84.65 18.00 142.83 2635.88
   11:35:28.206.30-Jan-2021 4826.01 3154.28 84.65 18.00 143.03 2635.88
   11:35:28.406.30-Jan-2021 4826.01 3154.28 84.65 18.00 143.23 2635.88
   11:35:28.606.30-Jan-2021 4826.01 3154.29 84.65 18.00 143.43 2635.88
   11:35:28.806.30-Jan-2021 4826.01 3154.30 84.64 18.00 143.63 2635.88
   11:35:29.006.30-Jan-2021 4826.01 3154.31 84.64 18.00 143.83 2635.88
   11:35:29.206.30-Jan-2021 4826.01 3154.31 84.64 18.00 144.03 2635.88
   11:35:29.406.30-Jan-2021 4826.01 3154.31 84.64 18.00 144.23 2635.88
   11:35:29.606.30-Jan-2021 4826.01 3154.33 84.64 18.00 144.43 2635.88
   11:35:29.806.30-Jan-2021 4826.01 3154.34 84.64 18.00 144.63 2635.88
   11:35:30.006.30-Jan-2021 4826.01 3154.35 84.64 18.00 144.83 2635.88
   11:35:30.206.30-Jan-2021 4826.01 3154.35 84.64 18.00 145.03 2635.88
   11:35:30.406.30-Jan-2021 4826.01 3154.35 84.64 18.00 145.23 2635.88
   11:35:30.606.30-Jan-2021 4826.01 3154.37 84.64 18.00 145.43 2635.88
   11:35:30.806.30-Jan-2021 4826.01 3154.37 84.64 18.00 145.63 2635.88
   11:35:31.007.30-Jan-2021 4826.01 3154.36 84.64 18.00 145.83 2635.88
   11:35:31.207.30-Jan-2021 4826.01 3154.34 84.64 18.00 146.03 2635.88
   11:35:31.407.30-Jan-2021 4826.01 3154.34 84.64 18.00 146.23 2635.88
   11:35:31.607.30-Jan-2021 4826.01 3154.41 84.64 18.00 146.43 2635.88
   11:35:31.807.30-Jan-2021 4826.01 3154.37 84.64 18.00 146.63 2635.88
   11:35:32.007.30-Jan-2021 4826.01 3154.36 84.63 18.00 146.83 2635.88
   11:35:32.207.30-Jan-2021 4826.01 3154.34 84.63 18.00 147.03 2635.88
   11:35:32.407.30-Jan-2021 4826.01 3154.34 84.63 18.00 147.23 2635.88
   11:35:32.607.30-Jan-2021 4826.01 3154.38 84.63 18.00 147.43 2635.88
   11:35:32.807.30-Jan-2021 4826.01 3154.37 84.63 18.00 147.63 2635.88
   11:35:33.007.30-Jan-2021 4826.01 3154.37 84.63 18.00 147.83 2635.88
   11:35:33.207.30-Jan-2021 4826.01 3154.34 84.63 18.00 148.03 2635.88
   11:35:33.407.30-Jan-2021 4826.01 3154.34 84.63 18.00 148.23 2635.88
   11:35:33.607.30-Jan-2021 4826.01 3154.42 84.63 18.00 148.43 2635.88
   11:35:33.807.30-Jan-2021 4826.01 3154.37 84.63 18.00 148.63 2635.88
   11:35:34.007.30-Jan-2021 4826.01 3154.36 84.63 18.00 148.83 2635.88
   11:35:34.207.30-Jan-2021 4826.01 3154.35 84.63 18.00 149.03 2635.88
   11:35:34.407.30-Jan-2021 4826.01 3154.35 84.63 18.00 149.23 2635.88
   11:35:34.607.30-Jan-2021 4826.01 3154.37 84.63 18.00 149.43 2635.88
   11:35:34.807.30-Jan-2021 4826.01 3154.37 84.63 18.00 149.63 2635.88
   11:35:35.007.30-Jan-2021 4826.01 3154.36 84.63 18.00 149.83 2635.88
   11:35:35.207.30-Jan-2021 4826.01 3154.35 84.62 18.00 150.03 2635.88
   11:35:35.407.30-Jan-2021 4826.01 3154.35 84.62 18.00 150.23 2635.88
   11:35:35.607.30-Jan-2021 4826.01 3154.35 84.62 18.00 150.43 2635.88
   11:35:35.807.30-Jan-2021 4826.01 3154.34 84.62 18.00 150.63 2635.88
   11:35:36.007.30-Jan-2021 4826.01 3154.36 84.62 18.00 150.83 2635.88
   11:35:36.207.30-Jan-2021 4826.01 3154.34 84.62 18.00 151.03 2635.88
   11:35:36.407.30-Jan-2021 4826.01 3154.34 84.62 18.00 151.23 2635.88
   11:35:36.608.30-Jan-2021 4826.01 3154.35 84.62 18.00 151.43 2635.88
   11:35:36.808.30-Jan-2021 4826.01 3154.35 84.62 18.00 151.63 2635.88
   11:35:37.008.30-Jan-2021 4826.01 3154.30 84.62 18.00 151.83 2635.88
   11:35:37.208.30-Jan-2021 4826.01 3154.41 84.62 18.00 152.03 2635.88
   11:35:37.408.30-Jan-2021 4826.01 3154.41 84.62 18.00 152.23 2635.88
   11:35:37.608.30-Jan-2021 4826.01 3154.34 84.62 18.00 152.43 2635.88
   11:35:37.808.30-Jan-2021 4826.01 3154.36 84.62 18.00 152.63 2635.88
   11:35:38.008.30-Jan-2021 4826.01 3154.34 84.62 18.00 152.83 2635.88
   11:35:38.208.30-Jan-2021 4826.01 3154.36 84.62 18.00 153.03 2635.88
   11:35:38.408.30-Jan-2021 4826.01 3154.36 84.62 18.00 153.23 2635.88
   11:35:38.608.30-Jan-2021 4826.01 3154.35 84.61 18.00 153.43 2635.88
   11:35:38.808.30-Jan-2021 4826.01 3154.34 84.61 18.00 153.63 2635.88
   11:35:39.008.30-Jan-2021 4826.01 3154.34 84.61 18.00 153.83 2635.88
   11:35:39.208.30-Jan-2021 4826.01 3154.35 84.61 18.00 154.03 2635.88
   11:35:39.408.30-Jan-2021 4826.01 3154.35 84.61 18.00 154.23 2635.88
   11:35:39.608.30-Jan-2021 4826.01 3154.35 84.61 18.00 154.43 2635.88
   11:35:39.808.30-Jan-2021 4826.01 3154.33 84.61 18.00 154.63 2635.88
   11:35:40.008.30-Jan-2021 4826.01 3154.34 84.61 18.00 154.83 2635.88
   11:35:40.208.30-Jan-2021 4826.01 3154.29 84.61 18.00 155.03 2635.88
   11:35:40.408.30-Jan-2021 4826.01 3154.29 84.61 18.00 155.23 2635.88
   11:35:40.608.30-Jan-2021 4826.01 3154.35 84.61 18.00 155.43 2635.88
   11:35:40.808.30-Jan-2021 4826.01 3154.35 84.61 18.00 155.63 2635.88
   11:35:41.008.30-Jan-2021 4826.01 3154.30 84.61 18.00 155.83 2635.88
   11:35:41.208.30-Jan-2021 4826.01 3154.38 84.61 18.00 156.03 2635.88
   11:35:41.408.30-Jan-2021 4826.01 3154.38 84.61 18.00 156.23 2635.88
   11:35:41.608.30-Jan-2021 4826.01 3154.35 84.61 18.00 156.43 2635.88
   11:35:41.808.30-Jan-2021 4826.01 3154.31 84.60 18.00 156.63 2635.88
   11:35:42.008.30-Jan-2021 4826.01 3154.39 84.60 18.00 156.83 2635.88
   11:35:42.209.30-Jan-2021 4826.01 3154.35 84.60 18.00 157.03 2635.88
   11:35:42.409.30-Jan-2021 4826.01 3154.35 84.60 18.00 157.23 2635.88
   11:35:42.609.30-Jan-2021 4826.01 3154.36 84.60 18.00 157.43 2635.88
   11:35:42.809.30-Jan-2021 4826.01 3154.33 84.60 18.00 157.63 2635.88
   11:35:43.009.30-Jan-2021 4826.01 3154.34 84.60 18.00 157.83 2635.88
   11:35:43.209.30-Jan-2021 4826.01 3154.35 84.60 18.00 158.03 2635.88
