~Version Information
 VERS.                  2.0:   CWLS log ASCII Standard -VERSION 2.0
 WRAP.                   NO:   One line per depth step
~Well Information Block
#MNEM.UNIT     VALUE/NAME     DESCRIPTION
#---------     -----------    ---------------------------
 STRT.S             14:24:44 28-Jan-21: START TIME 14:24:44 28-Jan-21
 STOP.S             14:31:13 28-Jan-21: STOP TIME  14:31:13 28-Jan-21
 STEP.S                   0.00: STEP TIME
 NULL.                 -999.25: NULL VALUE
 DFWT.                        :  DIST FWL TEXT
 DFST.                        :  DIST FSL TEXT
 DMF .             Drill Floor:  DRILL MEAS FROM
 STIM.      00.00.00 25-Sep-20:  START TIME
 DATE.      16.12.48 31-Jan-21:  END TIME
 SPUD.               20-Sep-20:  SPUD DATE
 NREF.                    Grid:  NORTH REFERENCE
 HPTY.       Minimum Curvature:  HOLE POS TYPE
 DMOD.             Drill Model:  DRILL MOD DESC
 SVYD.                  Survey:  SURVEY DESC
 ILTD.               Lithology:  INTERP LTH DESC
 FTOP.          Formation Tops:  FORM TOPS DESC
 RIG .              East Azeri:  RIG NAME
 PDAT.          Mean Sea Level:  PERMANENT DATUM
 FLD .                     ACG:  FIELD NAME
 SON .        AZ-XX-0906591820:  JOB NUMBER
 CTRY.              Azerbaijan:  COUNTRY NAME
 WELL.                     D37:  WELL NAME
 SRVC.     Turan Drilling & Engineering:  CONTRACTOR
 COMP.     BP Exploration (Caspian Sea) ltd.:  COMPANY
 WTYP.                Deviated:  WELL TYPE
 MDS .        Operator Entered:  MAG DATA SOURCE
 UWI .                     N/A:  UNIQUE WELL IDENTIFIER
 API .                     N/A:  API NUMBER
 BASE.              Azerbaijan:  LOGGING EQUIPMENT BASE LOCATION
 REGN.                   EESSA:  REGION
 PROV.                    Baku:  PROVINCE
 STAT.                    Baku:  STATE NAME
 MWDS.                    Baku:  MWD SHOP
 JOBN.        AZ-XX-0906591820:  JOB TICKET NUMB
 DOE .                     N/A:  DOE NUMBER
 DCON.         Sperry Drilling:  DIRECTNL CONTR
 UNIT.                     N/A:  LOGGING EQUIPMENT ID
 CNTY.                        :  COUNTY
 LOC .                        :  LOCATION
 LMF .             Drill Floor:  LOG MEASURED FROM
 TVDS.m                  43.60:  TVDSS CORRECTN
 LATI.deg                40.02:  LATITUDE
 LONG.deg                51.45:  LONGITUDE
 WHNS.m                  11.04:  WELL HEAD N/S
 WHEW.m                 -12.38:  WELL HEAD E/W
 UTMX.m              538763.98:  UTM X
 UTMY.m             4431880.20:  UTM Y
 DFWL.m                   0.00:  DISTANCE FWL
 DFSL.m                   0.00:  DISTANCE FSL
 SDEP.m                 300.00:  START DEPTH
 TDD .m                4900.01:  TOTAL DEPTH (DRILLER)
 VSDR.deg               185.64:  VERT SEC DIRECT
 GVFD.g                   1.00:  GRAVITY FIELD
 MFLD.nT              50301.00:  MAGNETIC FIELD
 MDIP.deg                59.46:  MAGNETIC DIP
 MDEC.deg                 6.43:  MAGNETIC DECL
 GRDC.deg                 0.29:  GRID CORRECTION
 AZTC.deg                 6.14:  AZM TOTAL CORR
 EPD .m                   0.00:  ELEVATION
 EGL .m                   0.00:  GROUND ELEVATION
 WDMS.m                 151.80:  WD ELEV
 APD .m                  43.60:  DEPTH ABOVE PD
 DEP .m                 571.69:  DEPTH
 AGAP.m                  43.60:  AIR GAP
 VSEW.m                 -12.38:  VERT SEC E/W
 VSNS.m                  11.04:  VERT SEC N/S
 EKB .m                  43.60:  KB ELEVATION
 EDF .m                  43.60:  DF ELEVATION
 TDL .m                 412.00:  TOTAL DEPTH (LOGGER)
 VSC .                       0:  VS TO CLOSURE
 MAGU.                 1849300:  MAGUTM CHECKSUM
~Parameter Information Block
#MNEM.UNIT       Value        Description
#---------     -----------    ---------------------------
 AV  .mps                 2.21:  Ann Velocity 
 AVMX.mps                 2.53:  Max Ann Veloc 
 AZIF.deg               144.83:  Azm, Final 
 BHAT.        Rotary Steerable:  BHA Type 
 BROT.°/30m              -0.52:  Build Rotating 
 BS  .in                  6.50:  Bit Size 
 BTPL.psig              209.00:  Bit Press Loss 
 CABU.                      No:  Customer Abuse 
 CGEO.        Ali Isfandiyarov:  Customer Geo 
 COMM.                     Âh:  Run Comments 1 
 TCS .hr                 61.31:  Time Ciculation Ended 
 CV  .mps                 4.66:  Crit Velocity 
 CVMX.mps                 5.02:  Max Crit Veloc 
 DD1 .          Fariz Nahmatov:  Direct Drillr 1 
 DD2 .            Musa Ahmadov:  Direct Drillr 2 
 DDSV.               Geo-Pilot:  DD Service 
 DEFF.%                 100.00:  % Det Eff 
 DLRX.°/30m               1.44:  Dogleg Rot Max 
 DLSO.°/30m               0.83:  Dogleg Oriented 
 DLSX.°/30m               1.44:  Dogleg Str Max 
 DRET.      08.30.00 30-Jan-21:  Drill End Time 
 DRST.      21.15.00 27-Jan-21:  Drill Start Tim 
 DTIM.hr                 37.28:  Time Drilling 
 EDEP.m                4867.01:  End Depth 
 ENG1.          Rasim Hashimov:  Engineer 1 
 ENG2.         Almaz Almadatov:  Engineer 2 
 ENG3.        Tamerlan Ahmadov:  Engineer 3 
 ETIM.      22.41.04 31-Jan-21:  End Time 
 FLOI.gpm               400.00:  Flow In 
 FLON.gpm               300.00:  Flow In Min 
 FLOS.cptm                0.00:  Fluid Loss 
 FLOX.gpm               400.00:  Flow In Max 
 HFLO.                      No:  High Flow 
 HPRE.                      No:  High Pressure 
 HTEM.                      No:  High Temp 
 HYDO.m                   1.80:  Hydro Offset 
 IFIN.deg                65.63:  Inc, Final 
 IMAX.deg                66.77:  Inc Max 
 IMIN.deg                65.61:  Inc Min 
 IMND.m                4612.67:  Inc Min Depth 
 IMXD.m                4811.63:  Inc Max Depth 
 JARR.                      No:  Jarring 
 LETM.      08.30.00 30-Jan-21:  Log End Time 
 LOST.hr                     0:  Lost Rig Time 
 LSTM.      21.15.00 27-Jan-21:  Log Start Time 
 MDCL.ppm             41000.00:  Mud Chlorides 
 MDES.     Inversion Oil/Synthetic:  Mud Desc 
 DFD .sg                  1.40:  Mud Density 
 MDMN.sg                  1.40:  Dens Mud Min 
 MDMX.sg                  1.40:  Dens Mud Max 
 MOIL.                      53:  Run Mud Oil % 
 MOWR.                   66:34:  Run Mud OWR 
 MSND.                     0.2:  Run Mud Sand % 
 MSOL.                    17.9:  Run Mud Solids% 
 DFV .spqt               77.00:  Mud Viscosity 
 MWOD.in                  4.75:  MWD Tool OD 
 MWSI.                      No:  Serv Intrp, MWD 
 OTIM.hr                110.38:  Time Operating 
 PCON.           Look Like New:  Pad Condition 
 PMAX.psia             5300.00:  Press Op, Max 
 PV  .cP                 57.00:  Mud PV 
 RUN .                    1200:  Run Number 
 ROPA.m/hr               13.00:  ROP Avg 
 ROPN.m/hr                9.00:  ROP Min 
 ROPX.m/hr               15.00:  ROP Max 
 RPMA.rpm               120.00:  RPM Surface Avg 
 RPMN.rpm               100.00:  RPM Surface Min 
 RPMX.rpm               135.00:  RPM Surface Max 
 RRUN.                    1200:  Rig Run Number 
 RTIM.hr                  2.65:  Time Reaming 
 SAZI.deg               145.04:  Azm, Start 
 SDEP.m                4455.01:  Start Depth 
 SIDD.                      No:  Serv Intrp, DD 
 SINC.deg                65.83:  Inc, Start 
 SPPA.psig             5037.00:  SPP Avg 
 SPPN.psig             4430.00:  SPP Min 
 SPPX.psig             5300.00:  SPP Max 
 STIM.      22.41.04 26-Jan-21:  Start Time 
 SVCS.                 DD, MWD:  Services 
 SVER.                    9.20:  Sperry Version 
 TDAT.m                 412.00:  Tot Depth Attmp 
 TDDF.                      No:  Trip for DD 
 TDLG.m                 412.00:  Tot Depth Loggd 
 TFF .                      No:  Trip for Fail 
 TQAA.f-kp               15.00:  Torque Abs Avg 
 TQAN.f-kp               12.00:  Torque Abs Min 
 TQAX.f-kp               17.00:  Torque Abs Max 
 TRRT.°/30m               1.18:  Turn Rotating 
 MRT .                     ADR:  Maximum Recorded Temperature 
 TTMX.degC               88.24:  Max Tool Temp 
 VS01.                90619458:  Virtual Str1 SN 
 VS02.                90519326:  Virtual Str2 SN 
 VS03.                90522176:  Virtual Str3 SN 
 VS04.                90512683:  Virtual Str4 SN 
 WBMN.klb                 1.00:  WOB Min 
 WITN.           Murad Giluyev:  Customer Rep 
 WITN.     Kamran Kemberlinski:  Customer Rep 2 
 WOBA.klb                 5.00:  WOB Avg 
 WOBX.klb                 9.00:  WOB Max 
 YP  .lhf2               41.00:  Yield Point 
~Curve Information Block
#MNEM.UNIT                 API CODE     Curve Description
#---------               -----------    ---------------------------
 TIME.HHMMSS            00 000 000 000:  GT Time & Date
 GTDEPTH.m              00 000 000 000:  GT Depth
 GTPQH.psia             00 000 000 000:  GT HR Quartz Pressure
 GTTQ.degC              00 000 000 000:  GT Quartz Temperature
 GTTN.NONE              00 000 000 000:  GT Test Number
 GTET.sec               00 000 000 000:  GT Elapsed Test Time
 GTTVD.m                00 000 000 000:  GT True Vertical Depth
#Other Information
#
#WARRANTY: Halliburton will use its best efforts to furnish customers with 
#accurate information and interpretations that are part of, and incident to, the services 
#provided.  However, Halliburton cannot and does not warrant the accuracy 
#or correctness of such information and interpretations.  Under no circumstances should any 
#such information or interpretation be relied upon as the sole basis for any drilling, 
#completion, production, or financial decision or any procedure involving any risk to the 
#safety of any drilling venture, drilling rig or its crew or any other third party.  The 
#Customer has full responsibility for all drilling, completion and production operation.  
#Halliburton makes no representations or warranties, either expressed or 
#implied, including, but not limited to, the implied warranties of merchantability or fitness 
#for a particular purpose, with respect to the services rendered.  In no event will 
#Halliburton be liable for failure to obtain any particular results or for 
#any damages, including, but not limited to, indirect, special or consequential damages, 
#resulting from the use of any information or interpretation provided by Halliburton.
#
~A           TIME           GTDEPTH  GTPQH  GTTQ  GTTN  GTET   GTTVD  
# ...
   14:26:39.067.28-Jan-2021 4530.01 3137.71 71.27 4.00 115.02 2516.71
   14:26:39.267.28-Jan-2021 4530.01 3137.71 71.27 4.00 115.22 2516.71
   14:26:39.467.28-Jan-2021 4530.01 3137.71 71.27 4.00 115.42 2516.71
   14:26:39.667.28-Jan-2021 4530.01 3137.70 71.27 4.00 115.62 2516.71
   14:26:39.867.28-Jan-2021 4530.01 3137.70 71.27 4.00 115.82 2516.71
   14:26:40.067.28-Jan-2021 4530.01 3137.70 71.27 4.00 116.02 2516.71
   14:26:40.267.28-Jan-2021 4530.01 3137.70 71.27 4.00 116.22 2516.71
   14:26:40.467.28-Jan-2021 4530.01 3137.67 71.27 4.00 116.42 2516.71
   14:26:40.667.28-Jan-2021 4530.01 3137.70 71.27 4.00 116.62 2516.71
   14:26:40.867.28-Jan-2021 4530.01 3137.70 71.27 4.00 116.82 2516.71
   14:26:41.067.28-Jan-2021 4530.01 3137.70 71.27 4.00 117.02 2516.71
   14:26:41.267.28-Jan-2021 4530.01 3137.70 71.27 4.00 117.22 2516.71
   14:26:41.467.28-Jan-2021 4530.01 3137.69 71.27 4.00 117.42 2516.71
   14:26:41.667.28-Jan-2021 4530.01 3137.70 71.27 4.00 117.62 2516.71
   14:26:41.867.28-Jan-2021 4530.01 3137.70 71.27 4.00 117.82 2516.71
   14:26:42.067.28-Jan-2021 4530.01 3137.70 71.27 4.00 118.02 2516.71
   14:26:42.267.28-Jan-2021 4530.01 3137.70 71.27 4.00 118.22 2516.71
   14:26:42.467.28-Jan-2021 4530.01 3137.70 71.27 4.00 118.42 2516.71
   14:26:42.667.28-Jan-2021 4530.01 3137.70 71.27 4.00 118.62 2516.71
   14:26:42.867.28-Jan-2021 4530.01 3137.71 71.27 4.00 118.82 2516.71
   14:26:43.067.28-Jan-2021 4530.01 3137.69 71.27 4.00 119.02 2516.71
   14:26:43.267.28-Jan-2021 4530.01 3137.69 71.27 4.00 119.22 2516.71
   14:26:43.467.28-Jan-2021 4530.01 3137.70 71.27 4.00 119.42 2516.71
   14:26:43.668.28-Jan-2021 4530.01 3137.66 71.27 4.00 119.62 2516.71
   14:26:43.868.28-Jan-2021 4530.01 3137.68 71.27 4.00 119.82 2516.71
   14:26:44.068.28-Jan-2021 4530.01 3137.68 71.27 4.00 120.02 2516.71
   14:26:44.268.28-Jan-2021 4530.01 3137.68 71.27 4.00 120.22 2516.71
   14:26:44.468.28-Jan-2021 4530.01 3137.69 71.27 4.00 120.42 2516.71
   14:26:44.668.28-Jan-2021 4530.01 3137.66 71.27 4.00 120.62 2516.71
   14:26:44.868.28-Jan-2021 4530.01 3137.65 71.27 4.00 120.83 2516.71
   14:26:45.068.28-Jan-2021 4530.01 3137.68 71.27 4.00 121.03 2516.71
   14:26:45.268.28-Jan-2021 4530.01 3137.68 71.27 4.00 121.23 2516.71
   14:26:45.468.28-Jan-2021 4530.01 3137.70 71.27 4.00 121.43 2516.71
   14:26:45.668.28-Jan-2021 4530.01 3137.68 71.27 4.00 121.63 2516.71
   14:26:45.868.28-Jan-2021 4530.01 3137.66 71.27 4.00 121.83 2516.71
   14:26:46.068.28-Jan-2021 4530.01 3137.66 71.27 4.00 122.03 2516.71
   14:26:46.268.28-Jan-2021 4530.01 3137.66 71.27 4.00 122.23 2516.71
   14:26:46.468.28-Jan-2021 4530.01 3137.63 71.27 4.00 122.43 2516.71
   14:26:46.668.28-Jan-2021 4530.01 3137.67 71.27 4.00 122.63 2516.71
   14:26:46.868.28-Jan-2021 4530.01 3137.67 71.27 4.00 122.83 2516.71
   14:26:47.068.28-Jan-2021 4530.01 3137.67 71.27 4.00 123.03 2516.71
   14:26:47.268.28-Jan-2021 4530.01 3137.67 71.27 4.00 123.23 2516.71
   14:26:47.468.28-Jan-2021 4530.01 3137.67 71.27 4.00 123.43 2516.71
   14:26:47.668.28-Jan-2021 4530.01 3137.68 71.27 4.00 123.63 2516.71
   14:26:47.868.28-Jan-2021 4530.01 3137.63 71.27 4.00 123.83 2516.71
   14:26:48.068.28-Jan-2021 4530.01 3137.67 71.27 4.00 124.03 2516.71
   14:26:48.268.28-Jan-2021 4530.01 3137.67 71.27 4.00 124.23 2516.71
   14:26:48.469.28-Jan-2021 4530.01 3137.66 71.27 4.00 124.43 2516.71
   14:26:48.669.28-Jan-2021 4530.01 3137.66 71.27 4.00 124.63 2516.71
   14:26:48.869.28-Jan-2021 4530.01 3137.67 71.27 4.00 124.83 2516.71
   14:26:49.069.28-Jan-2021 4530.01 3137.66 71.27 4.00 125.03 2516.71
   14:26:49.269.28-Jan-2021 4530.01 3137.66 71.27 4.00 125.23 2516.71
   14:26:49.469.28-Jan-2021 4530.01 3137.66 71.27 4.00 125.43 2516.71
   14:26:49.669.28-Jan-2021 4530.01 3137.67 71.27 4.00 125.63 2516.71
   14:26:49.869.28-Jan-2021 4530.01 3137.67 71.27 4.00 125.83 2516.71
   14:26:50.069.28-Jan-2021 4530.01 3137.68 71.27 4.00 126.03 2516.71
   14:26:50.269.28-Jan-2021 4530.01 3137.68 71.27 4.00 126.23 2516.71
   14:26:50.469.28-Jan-2021 4530.01 3137.68 71.27 4.00 126.43 2516.71
   14:26:50.669.28-Jan-2021 4530.01 3137.66 71.26 4.00 126.63 2516.71
   14:26:50.869.28-Jan-2021 4530.01 3137.67 71.26 4.00 126.83 2516.71
   14:26:51.069.28-Jan-2021 4530.01 3137.67 71.26 4.00 127.03 2516.71
   14:26:51.269.28-Jan-2021 4530.01 3137.67 71.26 4.00 127.23 2516.71
   14:26:51.469.28-Jan-2021 4530.01 3137.63 71.26 4.00 127.43 2516.71
   14:26:51.669.28-Jan-2021 4530.01 3137.66 71.26 4.00 127.63 2516.71
   14:26:51.869.28-Jan-2021 4530.01 3137.66 71.26 4.00 127.83 2516.71
   14:26:52.069.28-Jan-2021 4530.01 3137.65 71.26 4.00 128.03 2516.71
   14:26:52.269.28-Jan-2021 4530.01 3137.65 71.26 4.00 128.23 2516.71
   14:26:52.469.28-Jan-2021 4530.01 3137.66 71.26 4.00 128.43 2516.71
   14:26:52.669.28-Jan-2021 4530.01 3137.66 71.26 4.00 128.63 2516.71
   14:26:52.869.28-Jan-2021 4530.01 3137.65 71.26 4.00 128.83 2516.71
   14:26:53.069.28-Jan-2021 4530.01 3137.66 71.26 4.00 129.03 2516.71
   14:26:53.270.28-Jan-2021 4530.01 3137.66 71.26 4.00 129.23 2516.71
   14:26:53.470.28-Jan-2021 4530.01 3137.67 71.26 4.00 129.43 2516.71
   14:26:53.670.28-Jan-2021 4530.01 3137.65 71.26 4.00 129.63 2516.71
   14:26:53.870.28-Jan-2021 4530.01 3137.66 71.26 4.00 129.83 2516.71
   14:26:54.070.28-Jan-2021 4530.01 3137.66 71.26 4.00 130.03 2516.71
   14:26:54.270.28-Jan-2021 4530.01 3137.66 71.26 4.00 130.23 2516.71
   14:26:54.470.28-Jan-2021 4530.01 3137.67 71.26 4.00 130.43 2516.71
   14:26:54.670.28-Jan-2021 4530.01 3137.61 71.26 4.00 130.63 2516.71
   14:26:54.870.28-Jan-2021 4530.01 3137.65 71.26 4.00 130.83 2516.71
   14:26:55.070.28-Jan-2021 4530.01 3137.64 71.26 4.00 131.03 2516.71
   14:26:55.270.28-Jan-2021 4530.01 3137.64 71.26 4.00 131.23 2516.71
   14:26:55.470.28-Jan-2021 4530.01 3137.57 71.26 4.00 131.43 2516.71
   14:26:55.670.28-Jan-2021 4530.01 3137.68 71.26 4.00 131.63 2516.71
   14:26:55.870.28-Jan-2021 4530.01 3137.65 71.26 4.00 131.83 2516.71
   14:26:56.070.28-Jan-2021 4530.01 3137.64 71.26 4.00 132.03 2516.71
   14:26:56.270.28-Jan-2021 4530.01 3137.64 71.26 4.00 132.23 2516.71
   14:26:56.470.28-Jan-2021 4530.01 3137.62 71.26 4.00 132.43 2516.71
   14:26:56.670.28-Jan-2021 4530.01 3137.62 71.26 4.00 132.63 2516.71
   14:26:56.870.28-Jan-2021 4530.01 3137.65 71.26 4.00 132.83 2516.71
   14:26:57.070.28-Jan-2021 4530.01 3137.62 71.26 4.00 133.03 2516.71
   14:26:57.270.28-Jan-2021 4530.01 3137.62 71.26 4.00 133.23 2516.71
   14:26:57.470.28-Jan-2021 4530.01 3106.56 71.26 4.00 133.43 2516.71
   14:26:57.670.28-Jan-2021 4530.01 3106.38 71.26 4.00 133.63 2516.71
   14:26:57.870.28-Jan-2021 4530.01 3106.60 71.26 4.00 133.83 2516.71
   14:26:58.070.28-Jan-2021 4530.01 3106.88 71.26 4.00 134.03 2516.71
   14:26:58.271.28-Jan-2021 4530.01 3106.88 71.26 4.00 134.23 2516.71
   14:26:58.471.28-Jan-2021 4530.01 3107.09 71.26 4.00 134.43 2516.71
   14:26:58.671.28-Jan-2021 4530.01 3107.04 71.26 4.00 134.63 2516.71
   14:26:58.871.28-Jan-2021 4530.01 3107.19 71.26 4.00 134.83 2516.71
   14:26:59.071.28-Jan-2021 4530.01 3107.53 71.26 4.00 135.03 2516.71
   14:26:59.271.28-Jan-2021 4530.01 3107.53 71.26 4.00 135.23 2516.71
   14:26:59.471.28-Jan-2021 4530.01 3107.88 71.26 4.00 135.43 2516.71
   14:26:59.671.28-Jan-2021 4530.01 3107.70 71.26 4.00 135.63 2516.71
   14:26:59.871.28-Jan-2021 4530.01 3107.84 71.26 4.00 135.83 2516.71
   14:27:00.071.28-Jan-2021 4530.01 3107.75 71.26 4.00 136.03 2516.71
   14:27:00.271.28-Jan-2021 4530.01 3107.75 71.26 4.00 136.23 2516.71
   14:27:00.471.28-Jan-2021 4530.01 3108.15 71.26 4.00 136.43 2516.71
   14:27:00.671.28-Jan-2021 4530.01 3108.12 71.26 4.00 136.63 2516.71
   14:27:00.871.28-Jan-2021 4530.01 3108.40 71.26 4.00 136.83 2516.71
   14:27:01.071.28-Jan-2021 4530.01 3108.47 71.26 4.00 137.03 2516.71
   14:27:01.271.28-Jan-2021 4530.01 3108.47 71.26 4.00 137.23 2516.71
   14:27:01.471.28-Jan-2021 4530.01 3108.49 71.26 4.00 137.43 2516.71
   14:27:01.671.28-Jan-2021 4530.01 3108.75 71.26 4.00 137.63 2516.71
   14:27:01.871.28-Jan-2021 4530.01 3108.86 71.26 4.00 137.83 2516.71
