~Version Information
 VERS.                  2.0:   CWLS log ASCII Standard -VERSION 2.0
 WRAP.                   NO:   One line per depth step
~Well Information Block
#MNEM.UNIT     VALUE/NAME     DESCRIPTION
#---------     -----------    ---------------------------
 STRT.S             02:23:02 28-Jan-21: START TIME 02:23:02 28-Jan-21
 STOP.S             02:29:37 28-Jan-21: STOP TIME  02:29:37 28-Jan-21
 STEP.S                   0.00: STEP TIME
 NULL.                 -999.25: NULL VALUE
 DFWT.                        :  DIST FWL TEXT
 DFST.                        :  DIST FSL TEXT
 DMF .             Drill Floor:  DRILL MEAS FROM
 STIM.      00.00.00 25-Sep-20:  START TIME
 DATE.      16.12.48 31-Jan-21:  END TIME
 SPUD.               20-Sep-20:  SPUD DATE
 NREF.                    Grid:  NORTH REFERENCE
 HPTY.       Minimum Curvature:  HOLE POS TYPE
 DMOD.             Drill Model:  DRILL MOD DESC
 SVYD.                  Survey:  SURVEY DESC
 ILTD.               Lithology:  INTERP LTH DESC
 FTOP.          Formation Tops:  FORM TOPS DESC
 RIG .              East Azeri:  RIG NAME
 PDAT.          Mean Sea Level:  PERMANENT DATUM
 FLD .                     ACG:  FIELD NAME
 SON .        AZ-XX-0906591820:  JOB NUMBER
 CTRY.              Azerbaijan:  COUNTRY NAME
 WELL.                     D37:  WELL NAME
 SRVC.     Turan Drilling & Engineering:  CONTRACTOR
 COMP.     BP Exploration (Caspian Sea) ltd.:  COMPANY
 WTYP.                Deviated:  WELL TYPE
 MDS .        Operator Entered:  MAG DATA SOURCE
 UWI .                     N/A:  UNIQUE WELL IDENTIFIER
 API .                     N/A:  API NUMBER
 BASE.              Azerbaijan:  LOGGING EQUIPMENT BASE LOCATION
 REGN.                   EESSA:  REGION
 PROV.                    Baku:  PROVINCE
 STAT.                    Baku:  STATE NAME
 MWDS.                    Baku:  MWD SHOP
 JOBN.        AZ-XX-0906591820:  JOB TICKET NUMB
 DOE .                     N/A:  DOE NUMBER
 DCON.         Sperry Drilling:  DIRECTNL CONTR
 UNIT.                     N/A:  LOGGING EQUIPMENT ID
 CNTY.                        :  COUNTY
 LOC .                        :  LOCATION
 LMF .             Drill Floor:  LOG MEASURED FROM
 TVDS.m                  43.60:  TVDSS CORRECTN
 LATI.deg                40.02:  LATITUDE
 LONG.deg                51.45:  LONGITUDE
 WHNS.m                  11.04:  WELL HEAD N/S
 WHEW.m                 -12.38:  WELL HEAD E/W
 UTMX.m              538763.98:  UTM X
 UTMY.m             4431880.20:  UTM Y
 DFWL.m                   0.00:  DISTANCE FWL
 DFSL.m                   0.00:  DISTANCE FSL
 SDEP.m                 300.00:  START DEPTH
 TDD .m                4900.01:  TOTAL DEPTH (DRILLER)
 VSDR.deg               185.64:  VERT SEC DIRECT
 GVFD.g                   1.00:  GRAVITY FIELD
 MFLD.nT              50301.00:  MAGNETIC FIELD
 MDIP.deg                59.46:  MAGNETIC DIP
 MDEC.deg                 6.43:  MAGNETIC DECL
 GRDC.deg                 0.29:  GRID CORRECTION
 AZTC.deg                 6.14:  AZM TOTAL CORR
 EPD .m                   0.00:  ELEVATION
 EGL .m                   0.00:  GROUND ELEVATION
 WDMS.m                 151.80:  WD ELEV
 APD .m                  43.60:  DEPTH ABOVE PD
 DEP .m                 571.69:  DEPTH
 AGAP.m                  43.60:  AIR GAP
 VSEW.m                 -12.38:  VERT SEC E/W
 VSNS.m                  11.04:  VERT SEC N/S
 EKB .m                  43.60:  KB ELEVATION
 EDF .m                  43.60:  DF ELEVATION
 TDL .m                 412.00:  TOTAL DEPTH (LOGGER)
 VSC .                       0:  VS TO CLOSURE
 MAGU.                 1849300:  MAGUTM CHECKSUM
~Parameter Information Block
#MNEM.UNIT       Value        Description
#---------     -----------    ---------------------------
 AV  .mps                 2.21:  Ann Velocity 
 AVMX.mps                 2.53:  Max Ann Veloc 
 AZIF.deg               144.83:  Azm, Final 
 BHAT.        Rotary Steerable:  BHA Type 
 BROT.°/30m              -0.52:  Build Rotating 
 BS  .in                  6.50:  Bit Size 
 BTPL.psig              209.00:  Bit Press Loss 
 CABU.                      No:  Customer Abuse 
 CGEO.        Ali Isfandiyarov:  Customer Geo 
 TCS .hr                 61.31:  Time Ciculation Ended 
 CV  .mps                 4.66:  Crit Velocity 
 CVMX.mps                 5.02:  Max Crit Veloc 
 DD1 .          Fariz Nahmatov:  Direct Drillr 1 
 DD2 .            Musa Ahmadov:  Direct Drillr 2 
 DDSV.               Geo-Pilot:  DD Service 
 DEFF.%                 100.00:  % Det Eff 
 DLRX.°/30m               1.44:  Dogleg Rot Max 
 DLSO.°/30m               0.83:  Dogleg Oriented 
 DLSX.°/30m               1.44:  Dogleg Str Max 
 DRET.      08.30.00 30-Jan-21:  Drill End Time 
 DRST.      21.15.00 27-Jan-21:  Drill Start Tim 
 DTIM.hr                 37.28:  Time Drilling 
 EDEP.m                4867.01:  End Depth 
 ENG1.          Rasim Hashimov:  Engineer 1 
 ENG2.         Almaz Almadatov:  Engineer 2 
 ENG3.        Tamerlan Ahmadov:  Engineer 3 
 ETIM.      22.41.04 31-Jan-21:  End Time 
 FLOI.gpm               400.00:  Flow In 
 FLON.gpm               300.00:  Flow In Min 
 FLOS.cptm                0.00:  Fluid Loss 
 FLOX.gpm               400.00:  Flow In Max 
 HFLO.                      No:  High Flow 
 HPRE.                      No:  High Pressure 
 HTEM.                      No:  High Temp 
 HYDO.m                   1.80:  Hydro Offset 
 IFIN.deg                65.63:  Inc, Final 
 IMAX.deg                66.77:  Inc Max 
 IMIN.deg                65.61:  Inc Min 
 IMND.m                4612.67:  Inc Min Depth 
 IMXD.m                4811.63:  Inc Max Depth 
 JARR.                      No:  Jarring 
 LETM.      08.30.00 30-Jan-21:  Log End Time 
 LOST.hr                     0:  Lost Rig Time 
 LSTM.      21.15.00 27-Jan-21:  Log Start Time 
 MDCL.ppm             41000.00:  Mud Chlorides 
 MDES.     Inversion Oil/Synthetic:  Mud Desc 
 DFD .sg                  1.40:  Mud Density 
 MDMN.sg                  1.40:  Dens Mud Min 
 MDMX.sg                  1.40:  Dens Mud Max 
 MOIL.                      53:  Run Mud Oil % 
 MOWR.                   66:34:  Run Mud OWR 
 MSND.                     0.2:  Run Mud Sand % 
 MSOL.                    17.9:  Run Mud Solids% 
 DFV .spqt               77.00:  Mud Viscosity 
 MWOD.in                  4.75:  MWD Tool OD 
 MWSI.                      No:  Serv Intrp, MWD 
 OTIM.hr                110.38:  Time Operating 
 PCON.           Look Like New:  Pad Condition 
 PMAX.psia             5300.00:  Press Op, Max 
 PV  .cP                 57.00:  Mud PV 
 RUN .                    1200:  Run Number 
 ROPA.m/hr               13.00:  ROP Avg 
 ROPN.m/hr                9.00:  ROP Min 
 ROPX.m/hr               15.00:  ROP Max 
 RPMA.rpm               120.00:  RPM Surface Avg 
 RPMN.rpm               100.00:  RPM Surface Min 
 RPMX.rpm               135.00:  RPM Surface Max 
 RRUN.                    1200:  Rig Run Number 
 RTIM.hr                  2.65:  Time Reaming 
 SAZI.deg               145.04:  Azm, Start 
 SDEP.m                4455.01:  Start Depth 
 SIDD.                      No:  Serv Intrp, DD 
 SINC.deg                65.83:  Inc, Start 
 SPPA.psig             5037.00:  SPP Avg 
 SPPN.psig             4430.00:  SPP Min 
 SPPX.psig             5300.00:  SPP Max 
 STIM.      22.41.04 26-Jan-21:  Start Time 
 SVCS.                 DD, MWD:  Services 
 SVER.                    9.20:  Sperry Version 
 TDAT.m                 412.00:  Tot Depth Attmp 
 TDDF.                      No:  Trip for DD 
 TDLG.m                 412.00:  Tot Depth Loggd 
 TFF .                      No:  Trip for Fail 
 TQAA.f-kp               15.00:  Torque Abs Avg 
 TQAN.f-kp               12.00:  Torque Abs Min 
 TQAX.f-kp               17.00:  Torque Abs Max 
 TRRT.°/30m               1.18:  Turn Rotating 
 MRT .                     ADR:  Maximum Recorded Temperature 
 TTMX.degC               88.24:  Max Tool Temp 
 VS01.                90619458:  Virtual Str1 SN 
 VS02.                90519326:  Virtual Str2 SN 
 VS03.                90522176:  Virtual Str3 SN 
 VS04.                90512683:  Virtual Str4 SN 
 WBMN.klb                 1.00:  WOB Min 
 WITN.           Murad Giluyev:  Customer Rep 
 WITN.     Kamran Kemberlinski:  Customer Rep 2 
 WOBA.klb                 5.00:  WOB Avg 
 WOBX.klb                 9.00:  WOB Max 
 YP  .lhf2               41.00:  Yield Point 
~Curve Information Block
#MNEM.UNIT                 API CODE     Curve Description
#---------               -----------    ---------------------------
 TIME.HHMMSS            00 000 000 000:  GT Time & Date
 GTDEPTH.m              00 000 000 000:  GT Depth
 GTPQH.psia             00 000 000 000:  GT HR Quartz Pressure
 GTTQ.degC              00 000 000 000:  GT Quartz Temperature
 GTTN.NONE              00 000 000 000:  GT Test Number
 GTET.sec               00 000 000 000:  GT Elapsed Test Time
 GTTVD.m                00 000 000 000:  GT True Vertical Depth
#Other Information
#
#WARRANTY: Halliburton will use its best efforts to furnish customers with 
#accurate information and interpretations that are part of, and incident to, the services 
#provided.  However, Halliburton cannot and does not warrant the accuracy 
#or correctness of such information and interpretations.  Under no circumstances should any 
#such information or interpretation be relied upon as the sole basis for any drilling, 
#completion, production, or financial decision or any procedure involving any risk to the 
#safety of any drilling venture, drilling rig or its crew or any other third party.  The 
#Customer has full responsibility for all drilling, completion and production operation.  
#Halliburton makes no representations or warranties, either expressed or 
#implied, including, but not limited to, the implied warranties of merchantability or fitness 
#for a particular purpose, with respect to the services rendered.  In no event will 
#Halliburton be liable for failure to obtain any particular results or for 
#any damages, including, but not limited to, indirect, special or consequential damages, 
#resulting from the use of any information or interpretation provided by Halliburton.
#
~A           TIME           GTDEPTH  GTPQH  GTTQ  GTTN  GTET   GTTVD  
# ...
   02:27:38.000.28-Jan-2021 4453.81 5415.77 60.69 1.00 276.00 2485.38
   02:27:38.200.28-Jan-2021 4453.81 5415.77 60.69 1.00 276.20 2485.38
   02:27:38.400.28-Jan-2021 4453.81 5409.23 60.69 1.00 276.40 2485.38
   02:27:38.600.28-Jan-2021 4453.81 5412.30 60.69 1.00 276.60 2485.38
   02:27:38.800.28-Jan-2021 4453.81 5412.95 60.69 1.00 276.80 2485.38
   02:27:39.000.28-Jan-2021 4453.81 5412.81 60.69 1.00 277.00 2485.38
   02:27:39.200.28-Jan-2021 4453.81 5412.81 60.69 1.00 277.20 2485.38
   02:27:39.400.28-Jan-2021 4453.81 5412.45 60.69 1.00 277.40 2485.38
   02:27:39.600.28-Jan-2021 4453.81 5412.43 60.69 1.00 277.60 2485.38
   02:27:39.800.28-Jan-2021 4453.81 5413.68 60.69 1.00 277.80 2485.38
   02:27:40.000.28-Jan-2021 4453.81 5413.44 60.69 1.00 278.00 2485.38
   02:27:40.200.28-Jan-2021 4453.81 5413.44 60.69 1.00 278.20 2485.38
   02:27:40.400.28-Jan-2021 4453.81 5410.98 60.69 1.00 278.40 2485.38
   02:27:40.600.28-Jan-2021 4453.81 5411.03 60.69 1.00 278.60 2485.38
   02:27:40.800.28-Jan-2021 4453.81 5413.55 60.69 1.00 278.80 2485.38
   02:27:41.000.28-Jan-2021 4453.81 5414.94 60.69 1.00 279.00 2485.38
   02:27:41.200.28-Jan-2021 4453.81 5414.94 60.69 1.00 279.20 2485.38
   02:27:41.400.28-Jan-2021 4453.81 5411.70 60.69 1.00 279.40 2485.38
   02:27:41.600.28-Jan-2021 4453.81 5412.31 60.69 1.00 279.60 2485.38
   02:27:41.800.28-Jan-2021 4453.81 5410.41 60.69 1.00 279.80 2485.38
   02:27:42.000.28-Jan-2021 4453.81 5413.11 60.69 1.00 280.00 2485.38
   02:27:42.200.28-Jan-2021 4453.81 5413.11 60.69 1.00 280.20 2485.38
   02:27:42.400.28-Jan-2021 4453.81 5411.98 60.69 1.00 280.40 2485.38
   02:27:42.600.28-Jan-2021 4453.81 5413.19 60.69 1.00 280.60 2485.38
   02:27:42.800.28-Jan-2021 4453.81 5411.40 60.69 1.00 280.80 2485.38
   02:27:43.000.28-Jan-2021 4453.81 5412.47 60.69 1.00 281.00 2485.38
   02:27:43.200.28-Jan-2021 4453.81 5412.47 60.69 1.00 281.20 2485.38
   02:27:43.400.28-Jan-2021 4453.81 5411.16 60.68 1.00 281.40 2485.38
   02:27:43.600.28-Jan-2021 4453.81 5412.72 60.68 1.00 281.60 2485.38
   02:27:43.800.28-Jan-2021 4453.81 5403.24 60.68 1.00 281.80 2485.38
   02:27:44.000.28-Jan-2021 4453.81 5411.77 60.68 1.00 282.00 2485.38
   02:27:44.200.28-Jan-2021 4453.81 5411.77 60.68 1.00 282.20 2485.38
   02:27:44.400.28-Jan-2021 4453.81 5413.94 60.68 1.00 282.40 2485.38
   02:27:44.600.28-Jan-2021 4453.81 5413.69 60.68 1.00 282.60 2485.38
   02:27:44.800.28-Jan-2021 4453.81 5411.13 60.68 1.00 282.80 2485.38
   02:27:45.000.28-Jan-2021 4453.81 5411.38 60.68 1.00 283.00 2485.38
   02:27:45.200.28-Jan-2021 4453.81 5411.38 60.68 1.00 283.20 2485.38
   02:27:45.400.28-Jan-2021 4453.81 5411.00 60.68 1.00 283.40 2485.38
   02:27:45.600.28-Jan-2021 4453.81 5413.22 60.68 1.00 283.60 2485.38
   02:27:45.800.28-Jan-2021 4453.81 5411.43 60.68 1.00 283.80 2485.38
   02:27:46.000.28-Jan-2021 4453.81 5411.46 60.68 1.00 284.00 2485.38
   02:27:46.200.28-Jan-2021 4453.81 5411.46 60.68 1.00 284.20 2485.38
   02:27:46.400.28-Jan-2021 4453.81 5413.28 60.68 1.00 284.40 2485.38
   02:27:46.600.28-Jan-2021 4453.81 5413.00 60.68 1.00 284.60 2485.38
   02:27:46.800.28-Jan-2021 4453.81 5411.59 60.68 1.00 284.80 2485.38
   02:27:47.000.28-Jan-2021 4453.81 5411.47 60.68 1.00 285.00 2485.38
   02:27:47.200.28-Jan-2021 4453.81 5411.47 60.68 1.00 285.20 2485.38
   02:27:47.400.28-Jan-2021 4453.81 5410.90 60.68 1.00 285.40 2485.38
   02:27:47.600.28-Jan-2021 4453.81 5412.66 60.68 1.00 285.60 2485.38
   02:27:47.800.28-Jan-2021 4453.81 5414.65 60.68 1.00 285.80 2485.38
   02:27:48.000.28-Jan-2021 4453.81 5404.68 60.68 1.00 286.00 2485.38
   02:27:48.200.28-Jan-2021 4453.81 5404.68 60.68 1.00 286.20 2485.38
   02:27:48.400.28-Jan-2021 4453.81 5411.23 60.68 1.00 286.40 2485.38
   02:27:48.600.28-Jan-2021 4453.81 5414.81 60.68 1.00 286.60 2485.38
   02:27:48.800.28-Jan-2021 4453.81 5414.14 60.68 1.00 286.80 2485.38
   02:27:49.000.28-Jan-2021 4453.81 5403.45 60.68 1.00 287.00 2485.38
   02:27:49.200.28-Jan-2021 4453.81 5403.45 60.68 1.00 287.20 2485.38
   02:27:49.400.28-Jan-2021 4453.81 5411.41 60.68 1.00 287.40 2485.38
   02:27:49.600.28-Jan-2021 4453.81 5415.34 60.68 1.00 287.60 2485.38
   02:27:49.800.28-Jan-2021 4453.81 5404.90 60.68 1.00 287.80 2485.38
   02:27:50.000.28-Jan-2021 4453.81 5410.68 60.68 1.00 288.00 2485.38
   02:27:50.200.28-Jan-2021 4453.81 5410.68 60.68 1.00 288.20 2485.38
   02:27:50.400.28-Jan-2021 4453.81 5414.34 60.68 1.00 288.40 2485.38
   02:27:50.600.28-Jan-2021 4453.81 5412.87 60.68 1.00 288.60 2485.38
   02:27:50.800.28-Jan-2021 4453.81 5410.03 60.68 1.00 288.80 2485.38
   02:27:51.000.28-Jan-2021 4453.81 5404.55 60.68 1.00 289.00 2485.38
   02:27:51.200.28-Jan-2021 4453.81 5404.55 60.68 1.00 289.20 2485.38
   02:27:51.400.28-Jan-2021 4453.81 5413.09 60.67 1.00 289.40 2485.38
   02:27:51.600.28-Jan-2021 4453.81 5413.87 60.67 1.00 289.60 2485.38
   02:27:51.800.28-Jan-2021 4453.81 5413.51 60.67 1.00 289.80 2485.38
   02:27:52.000.28-Jan-2021 4453.81 5410.55 60.67 1.00 290.00 2485.38
   02:27:52.200.28-Jan-2021 4453.81 5410.55 60.67 1.00 290.20 2485.38
   02:27:52.400.28-Jan-2021 4453.81 5411.64 60.67 1.00 290.40 2485.38
   02:27:52.600.28-Jan-2021 4453.81 5410.73 60.67 1.00 290.60 2485.38
   02:27:52.800.28-Jan-2021 4453.81 5413.09 60.67 1.00 290.80 2485.38
   02:27:53.000.28-Jan-2021 4453.81 5411.22 60.67 1.00 291.00 2485.38
   02:27:53.200.28-Jan-2021 4453.81 5411.22 60.67 1.00 291.20 2485.38
   02:27:53.400.28-Jan-2021 4453.81 5412.80 60.67 1.00 291.40 2485.38
   02:27:53.600.28-Jan-2021 4453.81 5410.59 60.67 1.00 291.60 2485.38
   02:27:53.800.28-Jan-2021 4453.81 5412.64 60.67 1.00 291.80 2485.38
   02:27:54.000.28-Jan-2021 4453.81 5411.04 60.67 1.00 292.00 2485.38
   02:27:54.200.28-Jan-2021 4453.81 5411.04 60.67 1.00 292.20 2485.38
   02:27:54.400.28-Jan-2021 4453.81 5404.72 60.67 1.00 292.40 2485.38
   02:27:54.600.28-Jan-2021 4453.81 5409.64 60.67 1.00 292.60 2485.38
   02:27:54.800.28-Jan-2021 4453.81 5412.29 60.67 1.00 292.80 2485.38
   02:27:55.000.28-Jan-2021 4453.81 5414.05 60.67 1.00 293.00 2485.38
   02:27:55.200.28-Jan-2021 4453.81 5414.05 60.67 1.00 293.20 2485.38
   02:27:55.400.28-Jan-2021 4453.81 5412.74 60.67 1.00 293.40 2485.38
   02:27:55.600.28-Jan-2021 4453.81 5410.26 60.67 1.00 293.60 2485.38
   02:27:55.800.28-Jan-2021 4453.81 5411.88 60.67 1.00 293.80 2485.38
   02:27:56.000.28-Jan-2021 4453.81 5412.01 60.67 1.00 294.00 2485.38
   02:27:56.200.28-Jan-2021 4453.81 5412.01 60.67 1.00 294.20 2485.38
   02:27:56.400.28-Jan-2021 4453.81 5413.10 60.67 1.00 294.40 2485.38
   02:27:56.600.28-Jan-2021 4453.81 5410.61 60.67 1.00 294.60 2485.38
   02:27:56.800.28-Jan-2021 4453.81 5412.77 60.67 1.00 294.80 2485.38
   02:27:57.000.28-Jan-2021 4453.81 5412.74 60.67 1.00 295.00 2485.38
   02:27:57.200.28-Jan-2021 4453.81 5412.74 60.67 1.00 295.20 2485.38
   02:27:57.400.28-Jan-2021 4453.81 5412.90 60.67 1.00 295.40 2485.38
   02:27:57.600.28-Jan-2021 4453.81 5411.24 60.67 1.00 295.60 2485.38
   02:27:57.800.28-Jan-2021 4453.81 5404.68 60.67 1.00 295.80 2485.38
   02:27:58.000.28-Jan-2021 4453.81 5412.52 60.67 1.00 296.00 2485.38
   02:27:58.200.28-Jan-2021 4453.81 5412.52 60.67 1.00 296.20 2485.38
   02:27:58.400.28-Jan-2021 4453.81 5410.60 60.67 1.00 296.40 2485.38
   02:27:58.600.28-Jan-2021 4453.81 5410.57 60.67 1.00 296.60 2485.38
   02:27:58.800.28-Jan-2021 4453.81 5407.06 60.67 1.00 296.80 2485.38
   02:27:59.000.28-Jan-2021 4453.81 5413.12 60.67 1.00 297.00 2485.38
   02:27:59.200.28-Jan-2021 4453.81 5413.12 60.67 1.00 297.20 2485.38
   02:27:59.400.28-Jan-2021 4453.81 5415.09 60.66 1.00 297.40 2485.38
   02:27:59.600.28-Jan-2021 4453.81 5404.21 60.66 1.00 297.60 2485.38
   02:27:59.800.28-Jan-2021 4453.81 5411.17 60.66 1.00 297.80 2485.38
   02:28:00.000.28-Jan-2021 4453.81 5412.98 60.66 1.00 298.00 2485.38
   02:28:00.200.28-Jan-2021 4453.81 5412.98 60.66 1.00 298.20 2485.38
   02:28:00.400.28-Jan-2021 4453.81 5405.89 60.66 1.00 298.40 2485.38
   02:28:00.600.28-Jan-2021 4453.81 5411.63 60.66 1.00 298.60 2485.38
   02:28:00.800.28-Jan-2021 4453.81 5410.50 60.66 1.00 298.80 2485.38
