~Version Information
 VERS.                  2.0:   CWLS log ASCII Standard -VERSION 2.0
 WRAP.                   NO:   One line per depth step
~Well Information Block
#MNEM.UNIT     VALUE/NAME     DESCRIPTION
#---------     -----------    ---------------------------
 STRT.S             10:42:31 29-Jan-21: START TIME 10:42:31 29-Jan-21
 STOP.S             10:49:01 29-Jan-21: STOP TIME  10:49:01 29-Jan-21
 STEP.S                   0.00: STEP TIME
 NULL.                 -999.25: NULL VALUE
 DFWT.                        :  DIST FWL TEXT
 DFST.                        :  DIST FSL TEXT
 DMF .             Drill Floor:  DRILL MEAS FROM
 STIM.      00.00.00 25-Sep-20:  START TIME
 DATE.      16.12.48 31-Jan-21:  END TIME
 SPUD.               20-Sep-20:  SPUD DATE
 NREF.                    Grid:  NORTH REFERENCE
 HPTY.       Minimum Curvature:  HOLE POS TYPE
 DMOD.             Drill Model:  DRILL MOD DESC
 SVYD.                  Survey:  SURVEY DESC
 ILTD.               Lithology:  INTERP LTH DESC
 FTOP.          Formation Tops:  FORM TOPS DESC
 RIG .              East Azeri:  RIG NAME
 PDAT.          Mean Sea Level:  PERMANENT DATUM
 FLD .                     ACG:  FIELD NAME
 SON .        AZ-XX-0906591820:  JOB NUMBER
 CTRY.              Azerbaijan:  COUNTRY NAME
 WELL.                     D37:  WELL NAME
 SRVC.     Turan Drilling & Engineering:  CONTRACTOR
 COMP.     BP Exploration (Caspian Sea) ltd.:  COMPANY
 WTYP.                Deviated:  WELL TYPE
 MDS .        Operator Entered:  MAG DATA SOURCE
 UWI .                     N/A:  UNIQUE WELL IDENTIFIER
 API .                     N/A:  API NUMBER
 BASE.              Azerbaijan:  LOGGING EQUIPMENT BASE LOCATION
 REGN.                   EESSA:  REGION
 PROV.                    Baku:  PROVINCE
 STAT.                    Baku:  STATE NAME
 MWDS.                    Baku:  MWD SHOP
 JOBN.        AZ-XX-0906591820:  JOB TICKET NUMB
 DOE .                     N/A:  DOE NUMBER
 DCON.         Sperry Drilling:  DIRECTNL CONTR
 UNIT.                     N/A:  LOGGING EQUIPMENT ID
 CNTY.                        :  COUNTY
 LOC .                        :  LOCATION
 LMF .             Drill Floor:  LOG MEASURED FROM
 TVDS.m                  43.60:  TVDSS CORRECTN
 LATI.deg                40.02:  LATITUDE
 LONG.deg                51.45:  LONGITUDE
 WHNS.m                  11.04:  WELL HEAD N/S
 WHEW.m                 -12.38:  WELL HEAD E/W
 UTMX.m              538763.98:  UTM X
 UTMY.m             4431880.20:  UTM Y
 DFWL.m                   0.00:  DISTANCE FWL
 DFSL.m                   0.00:  DISTANCE FSL
 SDEP.m                 300.00:  START DEPTH
 TDD .m                4900.01:  TOTAL DEPTH (DRILLER)
 VSDR.deg               185.64:  VERT SEC DIRECT
 GVFD.g                   1.00:  GRAVITY FIELD
 MFLD.nT              50301.00:  MAGNETIC FIELD
 MDIP.deg                59.46:  MAGNETIC DIP
 MDEC.deg                 6.43:  MAGNETIC DECL
 GRDC.deg                 0.29:  GRID CORRECTION
 AZTC.deg                 6.14:  AZM TOTAL CORR
 EPD .m                   0.00:  ELEVATION
 EGL .m                   0.00:  GROUND ELEVATION
 WDMS.m                 151.80:  WD ELEV
 APD .m                  43.60:  DEPTH ABOVE PD
 DEP .m                 571.69:  DEPTH
 AGAP.m                  43.60:  AIR GAP
 VSEW.m                 -12.38:  VERT SEC E/W
 VSNS.m                  11.04:  VERT SEC N/S
 EKB .m                  43.60:  KB ELEVATION
 EDF .m                  43.60:  DF ELEVATION
 TDL .m                 412.00:  TOTAL DEPTH (LOGGER)
 VSC .                       0:  VS TO CLOSURE
 MAGU.                 1849300:  MAGUTM CHECKSUM
~Parameter Information Block
#MNEM.UNIT       Value        Description
#---------     -----------    ---------------------------
 AV  .mps                 2.21:  Ann Velocity 
 AVMX.mps                 2.53:  Max Ann Veloc 
 AZIF.deg               144.83:  Azm, Final 
 BHAT.        Rotary Steerable:  BHA Type 
 BROT.°/30m              -0.52:  Build Rotating 
 BS  .in                  6.50:  Bit Size 
 BTPL.psig              209.00:  Bit Press Loss 
 CABU.                      No:  Customer Abuse 
 CGEO.        Ali Isfandiyarov:  Customer Geo 
 COMM.                     ,H:  Run Comments 1 
 TCS .hr                 61.31:  Time Ciculation Ended 
 CV  .mps                 4.66:  Crit Velocity 
 CVMX.mps                 5.02:  Max Crit Veloc 
 DD1 .          Fariz Nahmatov:  Direct Drillr 1 
 DD2 .            Musa Ahmadov:  Direct Drillr 2 
 DDSV.               Geo-Pilot:  DD Service 
 DEFF.%                 100.00:  % Det Eff 
 DLRX.°/30m               1.44:  Dogleg Rot Max 
 DLSO.°/30m               0.83:  Dogleg Oriented 
 DLSX.°/30m               1.44:  Dogleg Str Max 
 DRET.      08.30.00 30-Jan-21:  Drill End Time 
 DRST.      21.15.00 27-Jan-21:  Drill Start Tim 
 DTIM.hr                 37.28:  Time Drilling 
 EDEP.m                4867.01:  End Depth 
 ENG1.          Rasim Hashimov:  Engineer 1 
 ENG2.         Almaz Almadatov:  Engineer 2 
 ENG3.        Tamerlan Ahmadov:  Engineer 3 
 ETIM.      22.41.04 31-Jan-21:  End Time 
 FLOI.gpm               400.00:  Flow In 
 FLON.gpm               300.00:  Flow In Min 
 FLOS.cptm                0.00:  Fluid Loss 
 FLOX.gpm               400.00:  Flow In Max 
 HFLO.                      No:  High Flow 
 HPRE.                      No:  High Pressure 
 HTEM.                      No:  High Temp 
 HYDO.m                   1.80:  Hydro Offset 
 IFIN.deg                65.63:  Inc, Final 
 IMAX.deg                66.77:  Inc Max 
 IMIN.deg                65.61:  Inc Min 
 IMND.m                4612.67:  Inc Min Depth 
 IMXD.m                4811.63:  Inc Max Depth 
 JARR.                      No:  Jarring 
 LETM.      08.30.00 30-Jan-21:  Log End Time 
 LOST.hr                     0:  Lost Rig Time 
 LSTM.      21.15.00 27-Jan-21:  Log Start Time 
 MDCL.ppm             41000.00:  Mud Chlorides 
 MDES.     Inversion Oil/Synthetic:  Mud Desc 
 DFD .sg                  1.40:  Mud Density 
 MDMN.sg                  1.40:  Dens Mud Min 
 MDMX.sg                  1.40:  Dens Mud Max 
 MOIL.                      53:  Run Mud Oil % 
 MOWR.                   66:34:  Run Mud OWR 
 MSND.                     0.2:  Run Mud Sand % 
 MSOL.                    17.9:  Run Mud Solids% 
 DFV .spqt               77.00:  Mud Viscosity 
 MWOD.in                  4.75:  MWD Tool OD 
 MWSI.                      No:  Serv Intrp, MWD 
 OTIM.hr                110.38:  Time Operating 
 PCON.           Look Like New:  Pad Condition 
 PMAX.psia             5300.00:  Press Op, Max 
 PV  .cP                 57.00:  Mud PV 
 RUN .                    1200:  Run Number 
 ROPA.m/hr               13.00:  ROP Avg 
 ROPN.m/hr                9.00:  ROP Min 
 ROPX.m/hr               15.00:  ROP Max 
 RPMA.rpm               120.00:  RPM Surface Avg 
 RPMN.rpm               100.00:  RPM Surface Min 
 RPMX.rpm               135.00:  RPM Surface Max 
 RRUN.                    1200:  Rig Run Number 
 RTIM.hr                  2.65:  Time Reaming 
 SAZI.deg               145.04:  Azm, Start 
 SDEP.m                4455.01:  Start Depth 
 SIDD.                      No:  Serv Intrp, DD 
 SINC.deg                65.83:  Inc, Start 
 SPPA.psig             5037.00:  SPP Avg 
 SPPN.psig             4430.00:  SPP Min 
 SPPX.psig             5300.00:  SPP Max 
 STIM.      22.41.04 26-Jan-21:  Start Time 
 SVCS.                 DD, MWD:  Services 
 SVER.                    9.20:  Sperry Version 
 TDAT.m                 412.00:  Tot Depth Attmp 
 TDDF.                      No:  Trip for DD 
 TDLG.m                 412.00:  Tot Depth Loggd 
 TFF .                      No:  Trip for Fail 
 TQAA.f-kp               15.00:  Torque Abs Avg 
 TQAN.f-kp               12.00:  Torque Abs Min 
 TQAX.f-kp               17.00:  Torque Abs Max 
 TRRT.°/30m               1.18:  Turn Rotating 
 MRT .                     ADR:  Maximum Recorded Temperature 
 TTMX.degC               88.24:  Max Tool Temp 
 VS01.                90619458:  Virtual Str1 SN 
 VS02.                90519326:  Virtual Str2 SN 
 VS03.                90522176:  Virtual Str3 SN 
 VS04.                90512683:  Virtual Str4 SN 
 WBMN.klb                 1.00:  WOB Min 
 WITN.           Murad Giluyev:  Customer Rep 
 WITN.     Kamran Kemberlinski:  Customer Rep 2 
 WOBA.klb                 5.00:  WOB Avg 
 WOBX.klb                 9.00:  WOB Max 
 YP  .lhf2               41.00:  Yield Point 
~Curve Information Block
#MNEM.UNIT                 API CODE     Curve Description
#---------               -----------    ---------------------------
 TIME.HHMMSS            00 000 000 000:  GT Time & Date
 GTDEPTH.m              00 000 000 000:  GT Depth
 GTPQH.psia             00 000 000 000:  GT HR Quartz Pressure
 GTTQ.degC              00 000 000 000:  GT Quartz Temperature
 GTTN.NONE              00 000 000 000:  GT Test Number
 GTET.sec               00 000 000 000:  GT Elapsed Test Time
 GTTVD.m                00 000 000 000:  GT True Vertical Depth
#Other Information
#
#WARRANTY: Halliburton will use its best efforts to furnish customers with 
#accurate information and interpretations that are part of, and incident to, the services 
#provided.  However, Halliburton cannot and does not warrant the accuracy 
#or correctness of such information and interpretations.  Under no circumstances should any 
#such information or interpretation be relied upon as the sole basis for any drilling, 
#completion, production, or financial decision or any procedure involving any risk to the 
#safety of any drilling venture, drilling rig or its crew or any other third party.  The 
#Customer has full responsibility for all drilling, completion and production operation.  
#Halliburton makes no representations or warranties, either expressed or 
#implied, including, but not limited to, the implied warranties of merchantability or fitness 
#for a particular purpose, with respect to the services rendered.  In no event will 
#Halliburton be liable for failure to obtain any particular results or for 
#any damages, including, but not limited to, indirect, special or consequential damages, 
#resulting from the use of any information or interpretation provided by Halliburton.
#
~A           TIME           GTDEPTH  GTPQH  GTTQ  GTTN   GTET   GTTVD  
# ...
   10:45:09.387.29-Jan-2021 4690.01 3067.74 80.34 10.00 158.21 2581.69
   10:45:09.587.29-Jan-2021 4690.01 3067.73 80.34 10.00 158.41 2581.69
   10:45:09.787.29-Jan-2021 4690.01 3067.73 80.34 10.00 158.61 2581.69
   10:45:09.987.29-Jan-2021 4690.01 3067.73 80.34 10.00 158.81 2581.69
   10:45:10.187.29-Jan-2021 4690.01 3067.70 80.34 10.00 159.01 2581.69
   10:45:10.387.29-Jan-2021 4690.01 3067.70 80.34 10.00 159.21 2581.69
   10:45:10.587.29-Jan-2021 4690.01 3067.75 80.34 10.00 159.41 2581.69
   10:45:10.787.29-Jan-2021 4690.01 3067.73 80.34 10.00 159.61 2581.69
   10:45:10.987.29-Jan-2021 4690.01 3067.75 80.33 10.00 159.81 2581.69
   10:45:11.187.29-Jan-2021 4690.01 3067.74 80.33 10.00 160.01 2581.69
   10:45:11.387.29-Jan-2021 4690.01 3067.74 80.33 10.00 160.21 2581.69
   10:45:11.587.29-Jan-2021 4690.01 3067.74 80.33 10.00 160.41 2581.69
   10:45:11.787.29-Jan-2021 4690.01 3067.73 80.33 10.00 160.61 2581.69
   10:45:11.987.29-Jan-2021 4690.01 3067.74 80.33 10.00 160.81 2581.69
   10:45:12.187.29-Jan-2021 4690.01 3067.72 80.33 10.00 161.01 2581.69
   10:45:12.387.29-Jan-2021 4690.01 3067.72 80.33 10.00 161.21 2581.69
   10:45:12.587.29-Jan-2021 4690.01 3067.73 80.33 10.00 161.41 2581.69
   10:45:12.787.29-Jan-2021 4690.01 3067.73 80.33 10.00 161.61 2581.69
   10:45:12.987.29-Jan-2021 4690.01 3067.72 80.33 10.00 161.81 2581.69
   10:45:13.187.29-Jan-2021 4690.01 3067.72 80.33 10.00 162.01 2581.69
   10:45:13.387.29-Jan-2021 4690.01 3067.72 80.33 10.00 162.21 2581.69
   10:45:13.587.29-Jan-2021 4690.01 3067.74 80.33 10.00 162.41 2581.69
   10:45:13.787.29-Jan-2021 4690.01 3067.74 80.33 10.00 162.61 2581.69
   10:45:13.987.29-Jan-2021 4690.01 3067.72 80.32 10.00 162.81 2581.69
   10:45:14.187.29-Jan-2021 4690.01 3067.69 80.32 10.00 163.01 2581.69
   10:45:14.387.29-Jan-2021 4690.01 3067.69 80.32 10.00 163.21 2581.69
   10:45:14.588.29-Jan-2021 4690.01 3067.74 80.32 10.00 163.41 2581.69
   10:45:14.788.29-Jan-2021 4690.01 3067.71 80.32 10.00 163.61 2581.69
   10:45:14.988.29-Jan-2021 4690.01 3067.74 80.32 10.00 163.81 2581.69
   10:45:15.188.29-Jan-2021 4690.01 3067.73 80.32 10.00 164.01 2581.69
   10:45:15.388.29-Jan-2021 4690.01 3067.73 80.32 10.00 164.21 2581.69
   10:45:15.588.29-Jan-2021 4690.01 3067.69 80.32 10.00 164.41 2581.69
   10:45:15.788.29-Jan-2021 4690.01 3067.76 80.32 10.00 164.61 2581.69
   10:45:15.988.29-Jan-2021 4690.01 3067.73 80.32 10.00 164.81 2581.69
   10:45:16.188.29-Jan-2021 4690.01 3067.72 80.32 10.00 165.01 2581.69
   10:45:16.388.29-Jan-2021 4690.01 3067.72 80.32 10.00 165.21 2581.69
   10:45:16.588.29-Jan-2021 4690.01 3067.73 80.32 10.00 165.41 2581.69
   10:45:16.788.29-Jan-2021 4690.01 3067.72 80.32 10.00 165.61 2581.69
   10:45:16.988.29-Jan-2021 4690.01 3067.68 80.32 10.00 165.81 2581.69
   10:45:17.188.29-Jan-2021 4690.01 3067.76 80.31 10.00 166.01 2581.69
   10:45:17.388.29-Jan-2021 4690.01 3067.76 80.31 10.00 166.21 2581.69
   10:45:17.588.29-Jan-2021 4690.01 3067.70 80.31 10.00 166.41 2581.69
   10:45:17.788.29-Jan-2021 4690.01 3067.72 80.31 10.00 166.61 2581.69
   10:45:17.988.29-Jan-2021 4690.01 3067.71 80.31 10.00 166.81 2581.69
   10:45:18.188.29-Jan-2021 4690.01 3067.73 80.31 10.00 167.01 2581.69
   10:45:18.388.29-Jan-2021 4690.01 3067.73 80.31 10.00 167.21 2581.69
   10:45:18.588.29-Jan-2021 4690.01 3067.71 80.31 10.00 167.41 2581.69
   10:45:18.788.29-Jan-2021 4690.01 3067.72 80.31 10.00 167.61 2581.69
   10:45:18.988.29-Jan-2021 4690.01 3067.72 80.31 10.00 167.81 2581.69
   10:45:19.188.29-Jan-2021 4690.01 3067.72 80.31 10.00 168.01 2581.69
   10:45:19.388.29-Jan-2021 4690.01 3067.72 80.31 10.00 168.21 2581.69
   10:45:19.588.29-Jan-2021 4690.01 3067.71 80.31 10.00 168.41 2581.69
   10:45:19.788.29-Jan-2021 4690.01 3067.72 80.31 10.00 168.61 2581.69
   10:45:19.988.29-Jan-2021 4690.01 3067.71 80.31 10.00 168.81 2581.69
   10:45:20.188.29-Jan-2021 4690.01 3067.70 80.31 10.00 169.01 2581.69
   10:45:20.388.29-Jan-2021 4690.01 3067.70 80.31 10.00 169.21 2581.69
   10:45:20.588.29-Jan-2021 4690.01 3067.70 80.30 10.00 169.41 2581.69
   10:45:20.788.29-Jan-2021 4690.01 3067.70 80.30 10.00 169.61 2581.69
   10:45:20.988.29-Jan-2021 4690.01 3067.70 80.30 10.00 169.81 2581.69
   10:45:21.188.29-Jan-2021 4690.01 3067.70 80.30 10.00 170.01 2581.69
   10:45:21.388.29-Jan-2021 4690.01 3067.70 80.30 10.00 170.21 2581.69
   10:45:21.588.29-Jan-2021 4690.01 3067.70 80.30 10.00 170.41 2581.69
   10:45:21.788.29-Jan-2021 4690.01 3067.69 80.30 10.00 170.61 2581.69
   10:45:21.988.29-Jan-2021 4690.01 3067.72 80.30 10.00 170.81 2581.69
   10:45:22.188.29-Jan-2021 4690.01 3067.72 80.30 10.00 171.01 2581.69
   10:45:22.388.29-Jan-2021 4690.01 3067.72 80.30 10.00 171.21 2581.69
   10:45:22.588.29-Jan-2021 4690.01 3067.72 80.30 10.00 171.41 2581.69
   10:45:22.788.29-Jan-2021 4690.01 3067.71 80.30 10.00 171.61 2581.69
   10:45:22.988.29-Jan-2021 4690.01 3067.70 80.30 10.00 171.81 2581.69
   10:45:23.188.29-Jan-2021 4690.01 3067.70 80.30 10.00 172.01 2581.69
   10:45:23.388.29-Jan-2021 4690.01 3067.70 80.30 10.00 172.21 2581.69
   10:45:23.588.29-Jan-2021 4690.01 3067.70 80.29 10.00 172.41 2581.69
   10:45:23.788.29-Jan-2021 4690.01 3067.69 80.29 10.00 172.61 2581.69
   10:45:23.988.29-Jan-2021 4690.01 3067.70 80.29 10.00 172.81 2581.69
   10:45:24.188.29-Jan-2021 4690.01 3067.70 80.29 10.00 173.01 2581.69
   10:45:24.388.29-Jan-2021 4690.01 3067.70 80.29 10.00 173.21 2581.69
   10:45:24.588.29-Jan-2021 4690.01 3067.69 80.29 10.00 173.41 2581.69
   10:45:24.788.29-Jan-2021 4690.01 3067.67 80.29 10.00 173.61 2581.69
   10:45:24.988.29-Jan-2021 4690.01 3067.72 80.29 10.00 173.81 2581.69
   10:45:25.188.29-Jan-2021 4690.01 3067.71 80.29 10.00 174.01 2581.69
   10:45:25.388.29-Jan-2021 4690.01 3067.71 80.29 10.00 174.21 2581.69
   10:45:25.588.29-Jan-2021 4690.01 3067.70 80.29 10.00 174.41 2581.69
   10:45:25.788.29-Jan-2021 4690.01 3067.69 80.29 10.00 174.61 2581.69
   10:45:25.988.29-Jan-2021 4690.01 3067.72 80.29 10.00 174.81 2581.69
   10:45:26.188.29-Jan-2021 4690.01 3067.70 80.29 10.00 175.01 2581.69
   10:45:26.388.29-Jan-2021 4690.01 3067.70 80.29 10.00 175.21 2581.69
   10:45:26.588.29-Jan-2021 4690.01 3067.71 80.29 10.00 175.41 2581.69
   10:45:26.788.29-Jan-2021 4690.01 3067.70 80.28 10.00 175.61 2581.69
   10:45:26.988.29-Jan-2021 4690.01 3067.70 80.28 10.00 175.81 2581.69
   10:45:27.188.29-Jan-2021 4690.01 3067.65 80.28 10.00 176.01 2581.69
   10:45:27.388.29-Jan-2021 4690.01 3067.65 80.28 10.00 176.21 2581.69
   10:45:27.588.29-Jan-2021 4690.01 3067.71 80.28 10.00 176.41 2581.69
   10:45:27.788.29-Jan-2021 4690.01 3067.68 80.28 10.00 176.61 2581.69
   10:45:27.988.29-Jan-2021 4690.01 3067.70 80.28 10.00 176.81 2581.69
   10:45:28.188.29-Jan-2021 4690.01 3067.70 80.28 10.00 177.01 2581.69
   10:45:28.388.29-Jan-2021 4690.01 3067.70 80.28 10.00 177.21 2581.69
   10:45:28.588.29-Jan-2021 4690.01 3067.68 80.28 10.00 177.41 2581.69
   10:45:28.789.29-Jan-2021 4690.01 3067.70 80.28 10.00 177.61 2581.69
   10:45:28.989.29-Jan-2021 4690.01 3067.70 80.28 10.00 177.81 2581.69
   10:45:29.189.29-Jan-2021 4690.01 3067.67 80.28 10.00 178.01 2581.69
   10:45:29.389.29-Jan-2021 4690.01 3067.67 80.28 10.00 178.21 2581.69
   10:45:29.589.29-Jan-2021 4690.01 3067.65 80.28 10.00 178.41 2581.69
   10:45:29.789.29-Jan-2021 4690.01 3067.73 80.28 10.00 178.61 2581.69
   10:45:29.989.29-Jan-2021 4690.01 3067.69 80.27 10.00 178.81 2581.69
   10:45:30.189.29-Jan-2021 4690.01 3067.68 80.27 10.00 179.01 2581.69
   10:45:30.389.29-Jan-2021 4690.01 3067.68 80.27 10.00 179.21 2581.69
   10:45:30.589.29-Jan-2021 4690.01 3067.69 80.27 10.00 179.41 2581.69
   10:45:30.789.29-Jan-2021 4690.01 3067.68 80.27 10.00 179.61 2581.69
   10:45:30.989.29-Jan-2021 4690.01 3067.68 80.27 10.00 179.81 2581.69
   10:45:31.189.29-Jan-2021 4690.01 3067.68 80.27 10.00 180.01 2581.69
   10:45:31.389.29-Jan-2021 4690.01 3067.68 80.27 10.00 180.21 2581.69
   10:45:31.589.29-Jan-2021 4690.01 3067.68 80.27 10.00 180.41 2581.69
   10:45:31.789.29-Jan-2021 4690.01 3067.67 80.27 10.00 180.61 2581.69
