~Version Information
 VERS.                  2.0:   CWLS log ASCII Standard -VERSION 2.0
 WRAP.                   NO:   One line per depth step
~Well Information Block
#MNEM.UNIT     VALUE/NAME     DESCRIPTION
#---------     -----------    ---------------------------
 STRT.S             14:01:04 28-Jan-21: START TIME 14:01:04 28-Jan-21
 STOP.S             14:07:34 28-Jan-21: STOP TIME  14:07:34 28-Jan-21
 STEP.S                   0.00: STEP TIME
 NULL.                 -999.25: NULL VALUE
 DFWT.                        :  DIST FWL TEXT
 DFST.                        :  DIST FSL TEXT
 DMF .             Drill Floor:  DRILL MEAS FROM
 STIM.      00.00.00 25-Sep-20:  START TIME
 DATE.      16.12.48 31-Jan-21:  END TIME
 SPUD.               20-Sep-20:  SPUD DATE
 NREF.                    Grid:  NORTH REFERENCE
 HPTY.       Minimum Curvature:  HOLE POS TYPE
 DMOD.             Drill Model:  DRILL MOD DESC
 SVYD.                  Survey:  SURVEY DESC
 ILTD.               Lithology:  INTERP LTH DESC
 FTOP.          Formation Tops:  FORM TOPS DESC
 RIG .              East Azeri:  RIG NAME
 PDAT.          Mean Sea Level:  PERMANENT DATUM
 FLD .                     ACG:  FIELD NAME
 SON .        AZ-XX-0906591820:  JOB NUMBER
 CTRY.              Azerbaijan:  COUNTRY NAME
 WELL.                     D37:  WELL NAME
 SRVC.     Turan Drilling & Engineering:  CONTRACTOR
 COMP.     BP Exploration (Caspian Sea) ltd.:  COMPANY
 WTYP.                Deviated:  WELL TYPE
 MDS .        Operator Entered:  MAG DATA SOURCE
 UWI .                     N/A:  UNIQUE WELL IDENTIFIER
 API .                     N/A:  API NUMBER
 BASE.              Azerbaijan:  LOGGING EQUIPMENT BASE LOCATION
 REGN.                   EESSA:  REGION
 PROV.                    Baku:  PROVINCE
 STAT.                    Baku:  STATE NAME
 MWDS.                    Baku:  MWD SHOP
 JOBN.        AZ-XX-0906591820:  JOB TICKET NUMB
 DOE .                     N/A:  DOE NUMBER
 DCON.         Sperry Drilling:  DIRECTNL CONTR
 UNIT.                     N/A:  LOGGING EQUIPMENT ID
 CNTY.                        :  COUNTY
 LOC .                        :  LOCATION
 LMF .             Drill Floor:  LOG MEASURED FROM
 TVDS.m                  43.60:  TVDSS CORRECTN
 LATI.deg                40.02:  LATITUDE
 LONG.deg                51.45:  LONGITUDE
 WHNS.m                  11.04:  WELL HEAD N/S
 WHEW.m                 -12.38:  WELL HEAD E/W
 UTMX.m              538763.98:  UTM X
 UTMY.m             4431880.20:  UTM Y
 DFWL.m                   0.00:  DISTANCE FWL
 DFSL.m                   0.00:  DISTANCE FSL
 SDEP.m                 300.00:  START DEPTH
 TDD .m                4900.01:  TOTAL DEPTH (DRILLER)
 VSDR.deg               185.64:  VERT SEC DIRECT
 GVFD.g                   1.00:  GRAVITY FIELD
 MFLD.nT              50301.00:  MAGNETIC FIELD
 MDIP.deg                59.46:  MAGNETIC DIP
 MDEC.deg                 6.43:  MAGNETIC DECL
 GRDC.deg                 0.29:  GRID CORRECTION
 AZTC.deg                 6.14:  AZM TOTAL CORR
 EPD .m                   0.00:  ELEVATION
 EGL .m                   0.00:  GROUND ELEVATION
 WDMS.m                 151.80:  WD ELEV
 APD .m                  43.60:  DEPTH ABOVE PD
 DEP .m                 571.69:  DEPTH
 AGAP.m                  43.60:  AIR GAP
 VSEW.m                 -12.38:  VERT SEC E/W
 VSNS.m                  11.04:  VERT SEC N/S
 EKB .m                  43.60:  KB ELEVATION
 EDF .m                  43.60:  DF ELEVATION
 TDL .m                 412.00:  TOTAL DEPTH (LOGGER)
 VSC .                       0:  VS TO CLOSURE
 MAGU.                 1849300:  MAGUTM CHECKSUM
~Parameter Information Block
#MNEM.UNIT       Value        Description
#---------     -----------    ---------------------------
 AV  .mps                 2.21:  Ann Velocity 
 AVMX.mps                 2.53:  Max Ann Veloc 
 AZIF.deg               144.83:  Azm, Final 
 BHAT.        Rotary Steerable:  BHA Type 
 BROT.°/30m              -0.52:  Build Rotating 
 BS  .in                  6.50:  Bit Size 
 BTPL.psig              209.00:  Bit Press Loss 
 CABU.                      No:  Customer Abuse 
 CGEO.        Ali Isfandiyarov:  Customer Geo 
 COMM.                     T´U:  Run Comments 1 
 TCS .hr                 61.31:  Time Ciculation Ended 
 CV  .mps                 4.66:  Crit Velocity 
 CVMX.mps                 5.02:  Max Crit Veloc 
 DD1 .          Fariz Nahmatov:  Direct Drillr 1 
 DD2 .            Musa Ahmadov:  Direct Drillr 2 
 DDSV.               Geo-Pilot:  DD Service 
 DEFF.%                 100.00:  % Det Eff 
 DLRX.°/30m               1.44:  Dogleg Rot Max 
 DLSO.°/30m               0.83:  Dogleg Oriented 
 DLSX.°/30m               1.44:  Dogleg Str Max 
 DRET.      08.30.00 30-Jan-21:  Drill End Time 
 DRST.      21.15.00 27-Jan-21:  Drill Start Tim 
 DTIM.hr                 37.28:  Time Drilling 
 EDEP.m                4867.01:  End Depth 
 ENG1.          Rasim Hashimov:  Engineer 1 
 ENG2.         Almaz Almadatov:  Engineer 2 
 ENG3.        Tamerlan Ahmadov:  Engineer 3 
 ETIM.      22.41.04 31-Jan-21:  End Time 
 FLOI.gpm               400.00:  Flow In 
 FLON.gpm               300.00:  Flow In Min 
 FLOS.cptm                0.00:  Fluid Loss 
 FLOX.gpm               400.00:  Flow In Max 
 HFLO.                      No:  High Flow 
 HPRE.                      No:  High Pressure 
 HTEM.                      No:  High Temp 
 HYDO.m                   1.80:  Hydro Offset 
 IFIN.deg                65.63:  Inc, Final 
 IMAX.deg                66.77:  Inc Max 
 IMIN.deg                65.61:  Inc Min 
 IMND.m                4612.67:  Inc Min Depth 
 IMXD.m                4811.63:  Inc Max Depth 
 JARR.                      No:  Jarring 
 LETM.      08.30.00 30-Jan-21:  Log End Time 
 LOST.hr                     0:  Lost Rig Time 
 LSTM.      21.15.00 27-Jan-21:  Log Start Time 
 MDCL.ppm             41000.00:  Mud Chlorides 
 MDES.     Inversion Oil/Synthetic:  Mud Desc 
 DFD .sg                  1.40:  Mud Density 
 MDMN.sg                  1.40:  Dens Mud Min 
 MDMX.sg                  1.40:  Dens Mud Max 
 MOIL.                      53:  Run Mud Oil % 
 MOWR.                   66:34:  Run Mud OWR 
 MSND.                     0.2:  Run Mud Sand % 
 MSOL.                    17.9:  Run Mud Solids% 
 DFV .spqt               77.00:  Mud Viscosity 
 MWOD.in                  4.75:  MWD Tool OD 
 MWSI.                      No:  Serv Intrp, MWD 
 OTIM.hr                110.38:  Time Operating 
 PCON.           Look Like New:  Pad Condition 
 PMAX.psia             5300.00:  Press Op, Max 
 PV  .cP                 57.00:  Mud PV 
 RUN .                    1200:  Run Number 
 ROPA.m/hr               13.00:  ROP Avg 
 ROPN.m/hr                9.00:  ROP Min 
 ROPX.m/hr               15.00:  ROP Max 
 RPMA.rpm               120.00:  RPM Surface Avg 
 RPMN.rpm               100.00:  RPM Surface Min 
 RPMX.rpm               135.00:  RPM Surface Max 
 RRUN.                    1200:  Rig Run Number 
 RTIM.hr                  2.65:  Time Reaming 
 SAZI.deg               145.04:  Azm, Start 
 SDEP.m                4455.01:  Start Depth 
 SIDD.                      No:  Serv Intrp, DD 
 SINC.deg                65.83:  Inc, Start 
 SPPA.psig             5037.00:  SPP Avg 
 SPPN.psig             4430.00:  SPP Min 
 SPPX.psig             5300.00:  SPP Max 
 STIM.      22.41.04 26-Jan-21:  Start Time 
 SVCS.                 DD, MWD:  Services 
 SVER.                    9.20:  Sperry Version 
 TDAT.m                 412.00:  Tot Depth Attmp 
 TDDF.                      No:  Trip for DD 
 TDLG.m                 412.00:  Tot Depth Loggd 
 TFF .                      No:  Trip for Fail 
 TQAA.f-kp               15.00:  Torque Abs Avg 
 TQAN.f-kp               12.00:  Torque Abs Min 
 TQAX.f-kp               17.00:  Torque Abs Max 
 TRRT.°/30m               1.18:  Turn Rotating 
 MRT .                     ADR:  Maximum Recorded Temperature 
 TTMX.degC               88.24:  Max Tool Temp 
 VS01.                90619458:  Virtual Str1 SN 
 VS02.                90519326:  Virtual Str2 SN 
 VS03.                90522176:  Virtual Str3 SN 
 VS04.                90512683:  Virtual Str4 SN 
 WBMN.klb                 1.00:  WOB Min 
 WITN.           Murad Giluyev:  Customer Rep 
 WITN.     Kamran Kemberlinski:  Customer Rep 2 
 WOBA.klb                 5.00:  WOB Avg 
 WOBX.klb                 9.00:  WOB Max 
 YP  .lhf2               41.00:  Yield Point 
~Curve Information Block
#MNEM.UNIT                 API CODE     Curve Description
#---------               -----------    ---------------------------
 TIME.HHMMSS            00 000 000 000:  GT Time & Date
 GTDEPTH.m              00 000 000 000:  GT Depth
 GTPQH.psia             00 000 000 000:  GT HR Quartz Pressure
 GTTQ.degC              00 000 000 000:  GT Quartz Temperature
 GTTN.NONE              00 000 000 000:  GT Test Number
 GTET.sec               00 000 000 000:  GT Elapsed Test Time
 GTTVD.m                00 000 000 000:  GT True Vertical Depth
#Other Information
#
#WARRANTY: Halliburton will use its best efforts to furnish customers with 
#accurate information and interpretations that are part of, and incident to, the services 
#provided.  However, Halliburton cannot and does not warrant the accuracy 
#or correctness of such information and interpretations.  Under no circumstances should any 
#such information or interpretation be relied upon as the sole basis for any drilling, 
#completion, production, or financial decision or any procedure involving any risk to the 
#safety of any drilling venture, drilling rig or its crew or any other third party.  The 
#Customer has full responsibility for all drilling, completion and production operation.  
#Halliburton makes no representations or warranties, either expressed or 
#implied, including, but not limited to, the implied warranties of merchantability or fitness 
#for a particular purpose, with respect to the services rendered.  In no event will 
#Halliburton be liable for failure to obtain any particular results or for 
#any damages, including, but not limited to, indirect, special or consequential damages, 
#resulting from the use of any information or interpretation provided by Halliburton.
#
~A           TIME           GTDEPTH  GTPQH  GTTQ  GTTN  GTET   GTTVD  
# ...
   14:01:27.754.28-Jan-2021 4535.01 5904.13 72.41 3.00  23.00 2518.76
   14:01:27.954.28-Jan-2021 4535.01 5904.13 72.41 3.00  23.20 2518.76
   14:01:28.154.28-Jan-2021 4535.01 5922.79 72.41 3.00  23.40 2518.76
   14:01:28.354.28-Jan-2021 4535.01 5930.77 72.41 3.00  23.60 2518.76
   14:01:28.554.28-Jan-2021 4535.01 5937.49 72.41 3.00  23.80 2518.76
   14:01:28.754.28-Jan-2021 4535.01 5943.15 72.41 3.00  24.00 2518.76
   14:01:28.954.28-Jan-2021 4535.01 5943.15 72.41 3.00  24.21 2518.76
   14:01:29.154.28-Jan-2021 4535.01 5951.76 72.41 3.00  24.41 2518.76
   14:01:29.354.28-Jan-2021 4535.01 5955.08 72.41 3.00  24.61 2518.76
   14:01:29.554.28-Jan-2021 4535.01 5959.34 72.41 3.00  24.81 2518.76
   14:01:29.754.28-Jan-2021 4535.01 5962.78 72.41 3.00  25.01 2518.76
   14:01:29.954.28-Jan-2021 4535.01 5962.78 72.41 3.00  25.21 2518.76
   14:01:30.154.28-Jan-2021 4535.01 5968.54 72.40 3.00  25.41 2518.76
   14:01:30.354.28-Jan-2021 4535.01 5921.84 72.40 3.00  25.61 2518.76
   14:01:30.554.28-Jan-2021 4535.01 5494.42 72.40 3.00  25.81 2518.76
   14:01:30.754.28-Jan-2021 4535.01 5296.79 72.40 3.00  26.01 2518.76
   14:01:30.954.28-Jan-2021 4535.01 5296.79 72.40 3.00  26.21 2518.76
   14:01:31.154.28-Jan-2021 4535.01 4166.42 72.40 3.00  26.41 2518.76
   14:01:31.354.28-Jan-2021 4535.01 3340.50 72.40 3.00  26.61 2518.76
   14:01:31.554.28-Jan-2021 4535.01 3091.05 72.40 3.00  26.81 2518.76
   14:01:31.754.28-Jan-2021 4535.01 3092.73 72.40 3.00  27.01 2518.76
   14:01:31.954.28-Jan-2021 4535.01 3092.73 72.40 3.00  27.21 2518.76
   14:01:32.154.28-Jan-2021 4535.01 3095.14 72.40 3.00  27.41 2518.76
   14:01:32.354.28-Jan-2021 4535.01 3095.68 72.40 3.00  27.61 2518.76
   14:01:32.555.28-Jan-2021 4535.01 3096.09 72.40 3.00  27.81 2518.76
   14:01:32.755.28-Jan-2021 4535.01 3096.31 72.40 3.00  28.01 2518.76
   14:01:32.955.28-Jan-2021 4535.01 3096.31 72.40 3.00  28.21 2518.76
   14:01:33.155.28-Jan-2021 4535.01 3096.49 72.40 3.00  28.41 2518.76
   14:01:33.355.28-Jan-2021 4535.01 3096.90 72.40 3.00  28.61 2518.76
   14:01:33.555.28-Jan-2021 4535.01 3096.66 72.40 3.00  28.81 2518.76
   14:01:33.755.28-Jan-2021 4535.01 3097.61 72.39 3.00  29.01 2518.76
   14:01:33.955.28-Jan-2021 4535.01 3097.61 72.39 3.00  29.21 2518.76
   14:01:34.155.28-Jan-2021 4535.01 3098.73 72.39 3.00  29.41 2518.76
   14:01:34.355.28-Jan-2021 4535.01 3099.58 72.39 3.00  29.61 2518.76
   14:01:34.555.28-Jan-2021 4535.01 3100.10 72.39 3.00  29.81 2518.76
   14:01:34.755.28-Jan-2021 4535.01 3103.29 72.39 3.00  30.01 2518.76
   14:01:34.955.28-Jan-2021 4535.01 3103.29 72.39 3.00  30.21 2518.76
   14:01:35.155.28-Jan-2021 4535.01 3104.84 72.39 3.00  30.41 2518.76
   14:01:35.355.28-Jan-2021 4535.01 3104.86 72.39 3.00  30.61 2518.76
   14:01:35.555.28-Jan-2021 4535.01 3105.34 72.39 3.00  30.81 2518.76
   14:01:35.755.28-Jan-2021 4535.01 3104.94 72.39 3.00  31.01 2518.76
   14:01:35.955.28-Jan-2021 4535.01 3104.94 72.39 3.00  31.21 2518.76
   14:01:36.155.28-Jan-2021 4535.01 3104.79 72.39 3.00  31.41 2518.76
   14:01:36.355.28-Jan-2021 4535.01 3104.68 72.39 3.00  31.61 2518.76
   14:01:36.555.28-Jan-2021 4535.01 3105.08 72.38 3.00  31.81 2518.76
   14:01:36.755.28-Jan-2021 4535.01 3104.91 72.38 3.00  32.01 2518.76
   14:01:36.955.28-Jan-2021 4535.01 3104.91 72.38 3.00  32.21 2518.76
   14:01:37.155.28-Jan-2021 4535.01 3105.01 72.38 3.00  32.41 2518.76
   14:01:37.355.28-Jan-2021 4535.01 3105.46 72.38 3.00  32.61 2518.76
   14:01:37.556.28-Jan-2021 4535.01 3105.11 72.38 3.00  32.81 2518.76
   14:01:37.756.28-Jan-2021 4535.01 3105.24 72.38 3.00  33.01 2518.76
   14:01:37.956.28-Jan-2021 4535.01 3105.24 72.38 3.00  33.21 2518.76
   14:01:38.156.28-Jan-2021 4535.01 3105.52 72.38 3.00  33.41 2518.76
   14:01:38.356.28-Jan-2021 4535.01 3105.93 72.38 3.00  33.61 2518.76
   14:01:38.556.28-Jan-2021 4535.01 3106.05 72.38 3.00  33.81 2518.76
   14:01:38.756.28-Jan-2021 4535.01 3105.77 72.37 3.00  34.01 2518.76
   14:01:38.956.28-Jan-2021 4535.01 3105.77 72.37 3.00  34.21 2518.76
   14:01:39.156.28-Jan-2021 4535.01 3106.44 72.37 3.00  34.41 2518.76
   14:01:39.356.28-Jan-2021 4535.01 3106.43 72.37 3.00  34.61 2518.76
   14:01:39.556.28-Jan-2021 4535.01 3106.11 72.37 3.00  34.81 2518.76
   14:01:39.756.28-Jan-2021 4535.01 3106.13 72.37 3.00  35.01 2518.76
   14:01:39.956.28-Jan-2021 4535.01 3106.13 72.37 3.00  35.21 2518.76
   14:01:40.156.28-Jan-2021 4535.01 3106.38 72.37 3.00  35.41 2518.76
   14:01:40.356.28-Jan-2021 4535.01 3106.53 72.37 3.00  35.61 2518.76
   14:01:40.556.28-Jan-2021 4535.01 3136.36 72.37 3.00  35.81 2518.76
   14:01:40.756.28-Jan-2021 4535.01 3138.72 72.37 3.00  36.01 2518.76
   14:01:40.956.28-Jan-2021 4535.01 3138.72 72.37 3.00  36.21 2518.76
   14:01:41.156.28-Jan-2021 4535.01 3138.95 72.37 3.00  36.41 2518.76
   14:01:41.356.28-Jan-2021 4535.01 3138.98 72.36 3.00  36.61 2518.76
   14:01:41.556.28-Jan-2021 4535.01 3138.93 72.36 3.00  36.81 2518.76
   14:01:41.756.28-Jan-2021 4535.01 3139.07 72.36 3.00  37.01 2518.76
   14:01:41.956.28-Jan-2021 4535.01 3139.07 72.36 3.00  37.21 2518.76
   14:01:42.156.28-Jan-2021 4535.01 3139.07 72.36 3.00  37.41 2518.76
   14:01:42.357.28-Jan-2021 4535.01 3139.13 72.36 3.00  37.61 2518.76
   14:01:42.557.28-Jan-2021 4535.01 3139.12 72.36 3.00  37.81 2518.76
   14:01:42.757.28-Jan-2021 4535.01 3139.15 72.36 3.00  38.01 2518.76
   14:01:42.957.28-Jan-2021 4535.01 3139.15 72.36 3.00  38.21 2518.76
   14:01:43.157.28-Jan-2021 4535.01 3139.17 72.36 3.00  38.41 2518.76
   14:01:43.357.28-Jan-2021 4535.01 3139.17 72.36 3.00  38.61 2518.76
   14:01:43.557.28-Jan-2021 4535.01 3139.21 72.36 3.00  38.81 2518.76
   14:01:43.757.28-Jan-2021 4535.01 3139.21 72.36 3.00  39.01 2518.76
   14:01:43.957.28-Jan-2021 4535.01 3139.21 72.36 3.00  39.21 2518.76
   14:01:44.157.28-Jan-2021 4535.01 3139.24 72.35 3.00  39.41 2518.76
   14:01:44.357.28-Jan-2021 4535.01 3139.24 72.35 3.00  39.61 2518.76
   14:01:44.557.28-Jan-2021 4535.01 3139.26 72.35 3.00  39.81 2518.76
   14:01:44.757.28-Jan-2021 4535.01 3139.26 72.35 3.00  40.01 2518.76
   14:01:44.957.28-Jan-2021 4535.01 3139.26 72.35 3.00  40.21 2518.76
   14:01:45.157.28-Jan-2021 4535.01 3139.25 72.35 3.00  40.41 2518.76
   14:01:45.357.28-Jan-2021 4535.01 3139.27 72.35 3.00  40.61 2518.76
   14:01:45.557.28-Jan-2021 4535.01 3139.31 72.35 3.00  40.81 2518.76
   14:01:45.757.28-Jan-2021 4535.01 3139.32 72.35 3.00  41.01 2518.76
   14:01:45.957.28-Jan-2021 4535.01 3139.32 72.35 3.00  41.21 2518.76
   14:01:46.157.28-Jan-2021 4535.01 3139.35 72.35 3.00  41.41 2518.76
   14:01:46.357.28-Jan-2021 4535.01 3139.33 72.35 3.00  41.61 2518.76
   14:01:46.557.28-Jan-2021 4535.01 3139.36 72.35 3.00  41.81 2518.76
   14:01:46.757.28-Jan-2021 4535.01 3139.35 72.34 3.00  42.01 2518.76
   14:01:46.957.28-Jan-2021 4535.01 3139.35 72.34 3.00  42.21 2518.76
   14:01:47.158.28-Jan-2021 4535.01 3139.37 72.34 3.00  42.41 2518.76
   14:01:47.358.28-Jan-2021 4535.01 3139.38 72.34 3.00  42.61 2518.76
   14:01:47.558.28-Jan-2021 4535.01 3139.40 72.34 3.00  42.81 2518.76
   14:01:47.758.28-Jan-2021 4535.01 3139.40 72.34 3.00  43.01 2518.76
   14:01:47.958.28-Jan-2021 4535.01 3139.40 72.34 3.00  43.21 2518.76
   14:01:48.158.28-Jan-2021 4535.01 3139.42 72.34 3.00  43.41 2518.76
   14:01:48.358.28-Jan-2021 4535.01 3139.44 72.34 3.00  43.61 2518.76
   14:01:48.558.28-Jan-2021 4535.01 3139.43 72.34 3.00  43.81 2518.76
   14:01:48.758.28-Jan-2021 4535.01 3139.43 72.34 3.00  44.01 2518.76
   14:01:48.958.28-Jan-2021 4535.01 3139.43 72.34 3.00  44.21 2518.76
   14:01:49.158.28-Jan-2021 4535.01 3139.41 72.34 3.00  44.41 2518.76
   14:01:49.358.28-Jan-2021 4535.01 3139.47 72.34 3.00  44.61 2518.76
   14:01:49.558.28-Jan-2021 4535.01 3139.48 72.34 3.00  44.81 2518.76
   14:01:49.758.28-Jan-2021 4535.01 3139.47 72.34 3.00  45.01 2518.76
   14:01:49.958.28-Jan-2021 4535.01 3139.47 72.34 3.00  45.21 2518.76
   14:01:50.158.28-Jan-2021 4535.01 3139.45 72.33 3.00  45.41 2518.76
   14:01:50.358.28-Jan-2021 4535.01 3139.49 72.33 3.00  45.61 2518.76
   14:01:50.558.28-Jan-2021 4535.01 3139.51 72.33 3.00  45.81 2518.76
