~Version Information
 VERS.                  2.0:   CWLS log ASCII Standard -VERSION 2.0
 WRAP.                   NO:   One line per depth step
~Well Information Block
#MNEM.UNIT     VALUE/NAME     DESCRIPTION
#---------     -----------    ---------------------------
 STRT.S             05:51:52 30-Jan-21: START TIME 05:51:52 30-Jan-21
 STOP.S             05:58:20 30-Jan-21: STOP TIME  05:58:20 30-Jan-21
 STEP.S                   0.00: STEP TIME
 NULL.                 -999.25: NULL VALUE
 DFWT.                        :  DIST FWL TEXT
 DFST.                        :  DIST FSL TEXT
 DMF .             Drill Floor:  DRILL MEAS FROM
 STIM.      00.00.00 25-Sep-20:  START TIME
 DATE.      16.12.48 31-Jan-21:  END TIME
 SPUD.               20-Sep-20:  SPUD DATE
 NREF.                    Grid:  NORTH REFERENCE
 HPTY.       Minimum Curvature:  HOLE POS TYPE
 DMOD.             Drill Model:  DRILL MOD DESC
 SVYD.                  Survey:  SURVEY DESC
 ILTD.               Lithology:  INTERP LTH DESC
 FTOP.          Formation Tops:  FORM TOPS DESC
 RIG .              East Azeri:  RIG NAME
 PDAT.          Mean Sea Level:  PERMANENT DATUM
 FLD .                     ACG:  FIELD NAME
 SON .        AZ-XX-0906591820:  JOB NUMBER
 CTRY.              Azerbaijan:  COUNTRY NAME
 WELL.                     D37:  WELL NAME
 SRVC.     Turan Drilling & Engineering:  CONTRACTOR
 COMP.     BP Exploration (Caspian Sea) ltd.:  COMPANY
 WTYP.                Deviated:  WELL TYPE
 MDS .        Operator Entered:  MAG DATA SOURCE
 UWI .                     N/A:  UNIQUE WELL IDENTIFIER
 API .                     N/A:  API NUMBER
 BASE.              Azerbaijan:  LOGGING EQUIPMENT BASE LOCATION
 REGN.                   EESSA:  REGION
 PROV.                    Baku:  PROVINCE
 STAT.                    Baku:  STATE NAME
 MWDS.                    Baku:  MWD SHOP
 JOBN.        AZ-XX-0906591820:  JOB TICKET NUMB
 DOE .                     N/A:  DOE NUMBER
 DCON.         Sperry Drilling:  DIRECTNL CONTR
 UNIT.                     N/A:  LOGGING EQUIPMENT ID
 CNTY.                        :  COUNTY
 LOC .                        :  LOCATION
 LMF .             Drill Floor:  LOG MEASURED FROM
 TVDS.m                  43.60:  TVDSS CORRECTN
 LATI.deg                40.02:  LATITUDE
 LONG.deg                51.45:  LONGITUDE
 WHNS.m                  11.04:  WELL HEAD N/S
 WHEW.m                 -12.38:  WELL HEAD E/W
 UTMX.m              538763.98:  UTM X
 UTMY.m             4431880.20:  UTM Y
 DFWL.m                   0.00:  DISTANCE FWL
 DFSL.m                   0.00:  DISTANCE FSL
 SDEP.m                 300.00:  START DEPTH
 TDD .m                4900.01:  TOTAL DEPTH (DRILLER)
 VSDR.deg               185.64:  VERT SEC DIRECT
 GVFD.g                   1.00:  GRAVITY FIELD
 MFLD.nT              50301.00:  MAGNETIC FIELD
 MDIP.deg                59.46:  MAGNETIC DIP
 MDEC.deg                 6.43:  MAGNETIC DECL
 GRDC.deg                 0.29:  GRID CORRECTION
 AZTC.deg                 6.14:  AZM TOTAL CORR
 EPD .m                   0.00:  ELEVATION
 EGL .m                   0.00:  GROUND ELEVATION
 WDMS.m                 151.80:  WD ELEV
 APD .m                  43.60:  DEPTH ABOVE PD
 DEP .m                 571.69:  DEPTH
 AGAP.m                  43.60:  AIR GAP
 VSEW.m                 -12.38:  VERT SEC E/W
 VSNS.m                  11.04:  VERT SEC N/S
 EKB .m                  43.60:  KB ELEVATION
 EDF .m                  43.60:  DF ELEVATION
 TDL .m                 412.00:  TOTAL DEPTH (LOGGER)
 VSC .                       0:  VS TO CLOSURE
 MAGU.                 1849300:  MAGUTM CHECKSUM
~Parameter Information Block
#MNEM.UNIT       Value        Description
#---------     -----------    ---------------------------
 AV  .mps                 2.21:  Ann Velocity 
 AVMX.mps                 2.53:  Max Ann Veloc 
 AZIF.deg               144.83:  Azm, Final 
 BHAT.        Rotary Steerable:  BHA Type 
 BROT.°/30m              -0.52:  Build Rotating 
 BS  .in                  6.50:  Bit Size 
 BTPL.psig              209.00:  Bit Press Loss 
 CABU.                      No:  Customer Abuse 
 CGEO.        Ali Isfandiyarov:  Customer Geo 
 COMM.                     ü:x:  Run Comments 1 
 TCS .hr                 61.31:  Time Ciculation Ended 
 CV  .mps                 4.66:  Crit Velocity 
 CVMX.mps                 5.02:  Max Crit Veloc 
 DD1 .          Fariz Nahmatov:  Direct Drillr 1 
 DD2 .            Musa Ahmadov:  Direct Drillr 2 
 DDSV.               Geo-Pilot:  DD Service 
 DEFF.%                 100.00:  % Det Eff 
 DLRX.°/30m               1.44:  Dogleg Rot Max 
 DLSO.°/30m               0.83:  Dogleg Oriented 
 DLSX.°/30m               1.44:  Dogleg Str Max 
 DRET.      08.30.00 30-Jan-21:  Drill End Time 
 DRST.      21.15.00 27-Jan-21:  Drill Start Tim 
 DTIM.hr                 37.28:  Time Drilling 
 EDEP.m                4867.01:  End Depth 
 ENG1.          Rasim Hashimov:  Engineer 1 
 ENG2.         Almaz Almadatov:  Engineer 2 
 ENG3.        Tamerlan Ahmadov:  Engineer 3 
 ETIM.      22.41.04 31-Jan-21:  End Time 
 FLOI.gpm               400.00:  Flow In 
 FLON.gpm               300.00:  Flow In Min 
 FLOS.cptm                0.00:  Fluid Loss 
 FLOX.gpm               400.00:  Flow In Max 
 HFLO.                      No:  High Flow 
 HPRE.                      No:  High Pressure 
 HTEM.                      No:  High Temp 
 HYDO.m                   1.80:  Hydro Offset 
 IFIN.deg                65.63:  Inc, Final 
 IMAX.deg                66.77:  Inc Max 
 IMIN.deg                65.61:  Inc Min 
 IMND.m                4612.67:  Inc Min Depth 
 IMXD.m                4811.63:  Inc Max Depth 
 JARR.                      No:  Jarring 
 LETM.      08.30.00 30-Jan-21:  Log End Time 
 LOST.hr                     0:  Lost Rig Time 
 LSTM.      21.15.00 27-Jan-21:  Log Start Time 
 MDCL.ppm             41000.00:  Mud Chlorides 
 MDES.     Inversion Oil/Synthetic:  Mud Desc 
 DFD .sg                  1.40:  Mud Density 
 MDMN.sg                  1.40:  Dens Mud Min 
 MDMX.sg                  1.40:  Dens Mud Max 
 MOIL.                      53:  Run Mud Oil % 
 MOWR.                   66:34:  Run Mud OWR 
 MSND.                     0.2:  Run Mud Sand % 
 MSOL.                    17.9:  Run Mud Solids% 
 DFV .spqt               77.00:  Mud Viscosity 
 MWOD.in                  4.75:  MWD Tool OD 
 MWSI.                      No:  Serv Intrp, MWD 
 OTIM.hr                110.38:  Time Operating 
 PCON.           Look Like New:  Pad Condition 
 PMAX.psia             5300.00:  Press Op, Max 
 PV  .cP                 57.00:  Mud PV 
 RUN .                    1200:  Run Number 
 ROPA.m/hr               13.00:  ROP Avg 
 ROPN.m/hr                9.00:  ROP Min 
 ROPX.m/hr               15.00:  ROP Max 
 RPMA.rpm               120.00:  RPM Surface Avg 
 RPMN.rpm               100.00:  RPM Surface Min 
 RPMX.rpm               135.00:  RPM Surface Max 
 RRUN.                    1200:  Rig Run Number 
 RTIM.hr                  2.65:  Time Reaming 
 SAZI.deg               145.04:  Azm, Start 
 SDEP.m                4455.01:  Start Depth 
 SIDD.                      No:  Serv Intrp, DD 
 SINC.deg                65.83:  Inc, Start 
 SPPA.psig             5037.00:  SPP Avg 
 SPPN.psig             4430.00:  SPP Min 
 SPPX.psig             5300.00:  SPP Max 
 STIM.      22.41.04 26-Jan-21:  Start Time 
 SVCS.                 DD, MWD:  Services 
 SVER.                    9.20:  Sperry Version 
 TDAT.m                 412.00:  Tot Depth Attmp 
 TDDF.                      No:  Trip for DD 
 TDLG.m                 412.00:  Tot Depth Loggd 
 TFF .                      No:  Trip for Fail 
 TQAA.f-kp               15.00:  Torque Abs Avg 
 TQAN.f-kp               12.00:  Torque Abs Min 
 TQAX.f-kp               17.00:  Torque Abs Max 
 TRRT.°/30m               1.18:  Turn Rotating 
 MRT .                     ADR:  Maximum Recorded Temperature 
 TTMX.degC               88.24:  Max Tool Temp 
 VS01.                90619458:  Virtual Str1 SN 
 VS02.                90519326:  Virtual Str2 SN 
 VS03.                90522176:  Virtual Str3 SN 
 VS04.                90512683:  Virtual Str4 SN 
 WBMN.klb                 1.00:  WOB Min 
 WITN.           Murad Giluyev:  Customer Rep 
 WITN.     Kamran Kemberlinski:  Customer Rep 2 
 WOBA.klb                 5.00:  WOB Avg 
 WOBX.klb                 9.00:  WOB Max 
 YP  .lhf2               41.00:  Yield Point 
~Curve Information Block
#MNEM.UNIT                 API CODE     Curve Description
#---------               -----------    ---------------------------
 TIME.HHMMSS            00 000 000 000:  GT Time & Date
 GTDEPTH.m              00 000 000 000:  GT Depth
 GTPQH.psia             00 000 000 000:  GT HR Quartz Pressure
 GTTQ.degC              00 000 000 000:  GT Quartz Temperature
 GTTN.NONE              00 000 000 000:  GT Test Number
 GTET.sec               00 000 000 000:  GT Elapsed Test Time
 GTTVD.m                00 000 000 000:  GT True Vertical Depth
#Other Information
#
#WARRANTY: Halliburton will use its best efforts to furnish customers with 
#accurate information and interpretations that are part of, and incident to, the services 
#provided.  However, Halliburton cannot and does not warrant the accuracy 
#or correctness of such information and interpretations.  Under no circumstances should any 
#such information or interpretation be relied upon as the sole basis for any drilling, 
#completion, production, or financial decision or any procedure involving any risk to the 
#safety of any drilling venture, drilling rig or its crew or any other third party.  The 
#Customer has full responsibility for all drilling, completion and production operation.  
#Halliburton makes no representations or warranties, either expressed or 
#implied, including, but not limited to, the implied warranties of merchantability or fitness 
#for a particular purpose, with respect to the services rendered.  In no event will 
#Halliburton be liable for failure to obtain any particular results or for 
#any damages, including, but not limited to, indirect, special or consequential damages, 
#resulting from the use of any information or interpretation provided by Halliburton.
#
~A           TIME           GTDEPTH  GTPQH  GTTQ  GTTN   GTET   GTTVD  
# ...
   05:57:31.184.30-Jan-2021 4813.01 3148.86 83.64 17.00 339.04 2630.70
   05:57:31.384.30-Jan-2021 4813.01 3148.86 83.64 17.00 339.24 2630.70
   05:57:31.584.30-Jan-2021 4813.01 3148.81 83.64 17.00 339.44 2630.70
   05:57:31.784.30-Jan-2021 4813.01 3148.88 83.64 17.00 339.64 2630.70
   05:57:31.984.30-Jan-2021 4813.01 3148.86 83.64 17.00 339.84 2630.70
   05:57:32.184.30-Jan-2021 4813.01 3148.86 83.64 17.00 340.04 2630.70
   05:57:32.384.30-Jan-2021 4813.01 3148.86 83.64 17.00 340.24 2630.70
   05:57:32.584.30-Jan-2021 4813.01 3148.88 83.64 17.00 340.44 2630.70
   05:57:32.784.30-Jan-2021 4813.01 3148.85 83.64 17.00 340.64 2630.70
   05:57:32.984.30-Jan-2021 4813.01 3148.87 83.64 17.00 340.84 2630.70
   05:57:33.184.30-Jan-2021 4813.01 3148.83 83.64 17.00 341.04 2630.70
   05:57:33.384.30-Jan-2021 4813.01 3148.83 83.64 17.00 341.24 2630.70
   05:57:33.584.30-Jan-2021 4813.01 3148.83 83.64 17.00 341.44 2630.70
   05:57:33.784.30-Jan-2021 4813.01 3148.87 83.64 17.00 341.64 2630.70
   05:57:33.984.30-Jan-2021 4813.01 3148.86 83.64 17.00 341.84 2630.70
   05:57:34.184.30-Jan-2021 4813.01 3148.78 83.64 17.00 342.04 2630.70
   05:57:34.384.30-Jan-2021 4813.01 3148.78 83.64 17.00 342.24 2630.70
   05:57:34.584.30-Jan-2021 4813.01 3148.86 83.64 17.00 342.44 2630.70
   05:57:34.784.30-Jan-2021 4813.01 3148.85 83.64 17.00 342.64 2630.70
   05:57:34.984.30-Jan-2021 4813.01 3148.87 83.64 17.00 342.85 2630.70
   05:57:35.184.30-Jan-2021 4813.01 3148.83 83.64 17.00 343.05 2630.70
   05:57:35.385.30-Jan-2021 4813.01 3148.83 83.64 17.00 343.25 2630.70
   05:57:35.585.30-Jan-2021 4813.01 3148.87 83.63 17.00 343.45 2630.70
   05:57:35.785.30-Jan-2021 4813.01 3148.84 83.63 17.00 343.65 2630.70
   05:57:35.985.30-Jan-2021 4813.01 3148.84 83.63 17.00 343.85 2630.70
   05:57:36.185.30-Jan-2021 4813.01 3148.84 83.63 17.00 344.05 2630.70
   05:57:36.385.30-Jan-2021 4813.01 3148.84 83.63 17.00 344.25 2630.70
   05:57:36.585.30-Jan-2021 4813.01 3148.84 83.63 17.00 344.45 2630.70
   05:57:36.785.30-Jan-2021 4813.01 3148.85 83.63 17.00 344.65 2630.70
   05:57:36.985.30-Jan-2021 4813.01 3148.83 83.63 17.00 344.85 2630.70
   05:57:37.185.30-Jan-2021 4813.01 3148.83 83.63 17.00 345.05 2630.70
   05:57:37.385.30-Jan-2021 4813.01 3148.83 83.63 17.00 345.25 2630.70
   05:57:37.585.30-Jan-2021 4813.01 3148.84 83.63 17.00 345.45 2630.70
   05:57:37.785.30-Jan-2021 4813.01 3148.77 83.63 17.00 345.65 2630.70
   05:57:37.985.30-Jan-2021 4813.01 3148.91 83.63 17.00 345.85 2630.70
   05:57:38.185.30-Jan-2021 4813.01 3148.85 83.63 17.00 346.05 2630.70
   05:57:38.385.30-Jan-2021 4813.01 3148.85 83.63 17.00 346.25 2630.70
   05:57:38.585.30-Jan-2021 4813.01 3150.48 83.63 17.00 346.45 2630.70
   05:57:38.785.30-Jan-2021 4813.01 3160.35 83.63 17.00 346.65 2630.70
   05:57:38.985.30-Jan-2021 4813.01 4428.18 83.63 17.00 346.85 2630.70
   05:57:39.185.30-Jan-2021 4813.01 5757.23 83.63 17.00 347.05 2630.70
   05:57:39.385.30-Jan-2021 4813.01 5757.23 83.63 17.00 347.25 2630.70
   05:57:39.585.30-Jan-2021 4813.01 5757.12 83.63 17.00 347.45 2630.70
   05:57:39.785.30-Jan-2021 4813.01 5756.19 83.63 17.00 347.65 2630.70
   05:57:39.985.30-Jan-2021 4813.01 5757.56 83.62 17.00 347.85 2630.70
   05:57:40.185.30-Jan-2021 4813.01 5758.28 83.62 17.00 348.05 2630.70
   05:57:40.385.30-Jan-2021 4813.01 5758.28 83.62 17.00 348.25 2630.70
   05:57:40.585.30-Jan-2021 4813.01 5758.94 83.62 17.00 348.45 2630.70
   05:57:40.785.30-Jan-2021 4813.01 5759.52 83.62 17.00 348.65 2630.70
   05:57:40.985.30-Jan-2021 4813.01 5756.61 83.62 17.00 348.85 2630.70
   05:57:41.185.30-Jan-2021 4813.01 5759.77 83.62 17.00 349.05 2630.70
   05:57:41.385.30-Jan-2021 4813.01 5759.77 83.62 17.00 349.25 2630.70
   05:57:41.585.30-Jan-2021 4813.01 5762.49 83.62 17.00 349.45 2630.70
   05:57:41.785.30-Jan-2021 4813.01 5761.57 83.62 17.00 349.65 2630.70
   05:57:41.985.30-Jan-2021 4813.01 5753.32 83.62 17.00 349.85 2630.70
   05:57:42.185.30-Jan-2021 4813.01 5762.17 83.62 17.00 350.05 2630.70
   05:57:42.385.30-Jan-2021 4813.01 5762.17 83.62 17.00 350.25 2630.70
   05:57:42.585.30-Jan-2021 4813.01 5763.46 83.62 17.00 350.45 2630.70
   05:57:42.785.30-Jan-2021 4813.01 5754.93 83.62 17.00 350.65 2630.70
   05:57:42.986.30-Jan-2021 4813.01 5761.67 83.62 17.00 350.85 2630.70
   05:57:43.186.30-Jan-2021 4813.01 5764.42 83.62 17.00 351.05 2630.70
   05:57:43.386.30-Jan-2021 4813.01 5764.42 83.62 17.00 351.25 2630.70
   05:57:43.586.30-Jan-2021 4813.01 5761.61 83.62 17.00 351.45 2630.70
   05:57:43.786.30-Jan-2021 4813.01 5762.24 83.62 17.00 351.65 2630.70
   05:57:43.986.30-Jan-2021 4813.01 5757.02 83.62 17.00 351.85 2630.70
   05:57:44.186.30-Jan-2021 4813.01 5765.56 83.62 17.00 352.05 2630.70
   05:57:44.386.30-Jan-2021 4813.01 5765.56 83.62 17.00 352.25 2630.70
   05:57:44.586.30-Jan-2021 4813.01 5756.64 83.62 17.00 352.45 2630.70
   05:57:44.786.30-Jan-2021 4813.01 5763.19 83.62 17.00 352.65 2630.70
   05:57:44.986.30-Jan-2021 4813.01 5764.21 83.62 17.00 352.85 2630.70
   05:57:45.186.30-Jan-2021 4813.01 5763.88 83.62 17.00 353.05 2630.70
   05:57:45.386.30-Jan-2021 4813.01 5763.88 83.62 17.00 353.25 2630.70
   05:57:45.586.30-Jan-2021 4813.01 5760.67 83.62 17.00 353.45 2630.70
   05:57:45.786.30-Jan-2021 4813.01 5763.18 83.62 17.00 353.65 2630.70
   05:57:45.986.30-Jan-2021 4813.01 5764.72 83.62 17.00 353.85 2630.70
   05:57:46.186.30-Jan-2021 4813.01 5765.65 83.62 17.00 354.05 2630.70
   05:57:46.386.30-Jan-2021 4813.01 5765.65 83.62 17.00 354.25 2630.70
   05:57:46.586.30-Jan-2021 4813.01 5763.78 83.62 17.00 354.45 2630.70
   05:57:46.786.30-Jan-2021 4813.01 5763.28 83.62 17.00 354.65 2630.70
   05:57:46.986.30-Jan-2021 4813.01 5763.89 83.62 17.00 354.85 2630.70
   05:57:47.186.30-Jan-2021 4813.01 5764.88 83.62 17.00 355.05 2630.70
   05:57:47.386.30-Jan-2021 4813.01 5764.88 83.62 17.00 355.25 2630.70
   05:57:47.586.30-Jan-2021 4813.01 5763.48 83.62 17.00 355.45 2630.70
   05:57:47.786.30-Jan-2021 4813.01 5763.07 83.62 17.00 355.65 2630.70
   05:57:47.986.30-Jan-2021 4813.01 5764.38 83.62 17.00 355.85 2630.70
   05:57:48.186.30-Jan-2021 4813.01 5756.80 83.62 17.00 356.05 2630.70
   05:57:48.386.30-Jan-2021 4813.01 5756.80 83.62 17.00 356.25 2630.70
   05:57:48.586.30-Jan-2021 4813.01 5764.12 83.62 17.00 356.45 2630.70
   05:57:48.786.30-Jan-2021 4813.01 5763.83 83.62 17.00 356.65 2630.70
   05:57:48.986.30-Jan-2021 4813.01 5762.75 83.62 17.00 356.85 2630.70
   05:57:49.186.30-Jan-2021 4813.01 5762.50 83.62 17.00 357.05 2630.70
   05:57:49.386.30-Jan-2021 4813.01 5762.50 83.62 17.00 357.25 2630.70
   05:57:49.586.30-Jan-2021 4813.01 5765.06 83.62 17.00 357.45 2630.70
   05:57:49.786.30-Jan-2021 4813.01 5763.95 83.62 17.00 357.65 2630.70
   05:57:49.986.30-Jan-2021 4813.01 5762.54 83.62 17.00 357.85 2630.70
   05:57:50.186.30-Jan-2021 4813.01 5763.29 83.62 17.00 358.05 2630.70
   05:57:50.386.30-Jan-2021 4813.01 5763.29 83.62 17.00 358.25 2630.70
   05:57:50.587.30-Jan-2021 4813.01 5763.86 83.62 17.00 358.45 2630.70
   05:57:50.787.30-Jan-2021 4813.01 5762.93 83.62 17.00 358.65 2630.70
   05:57:50.987.30-Jan-2021 4813.01 5763.21 83.62 17.00 358.85 2630.70
   05:57:51.187.30-Jan-2021 4813.01 5762.73 83.62 17.00 359.05 2630.70
   05:57:51.387.30-Jan-2021 4813.01 5762.73 83.62 17.00 359.25 2630.70
   05:57:51.587.30-Jan-2021 4813.01 5756.34 83.62 17.00 359.45 2630.70
   05:57:51.787.30-Jan-2021 4813.01 5765.69 83.62 17.00 359.65 2630.70
   05:57:51.987.30-Jan-2021 4813.01 5763.97 83.62 17.00 359.85 2630.70
   05:57:52.187.30-Jan-2021 4813.01 5763.53 83.62 17.00 360.05 2630.70
   05:57:52.387.30-Jan-2021 4813.01 5763.53 83.62 17.00 360.25 2630.70
   05:57:52.587.30-Jan-2021 4813.01 5765.01 83.62 17.00 360.45 2630.70
   05:57:52.787.30-Jan-2021 4813.01 5763.20 83.62 17.00 360.65 2630.70
   05:57:52.987.30-Jan-2021 4813.01 5764.99 83.62 17.00 360.85 2630.70
   05:57:53.187.30-Jan-2021 4813.01 5764.99 83.62 17.00 361.05 2630.70
   05:57:53.387.30-Jan-2021 4813.01 5764.99 83.62 17.00 361.25 2630.70
   05:57:53.587.30-Jan-2021 4813.01 5766.20 83.62 17.00 361.45 2630.70
