~Version Information
 VERS.                  2.0:   CWLS log ASCII Standard -VERSION 2.0
 WRAP.                   NO:   One line per depth step
~Well Information Block
#MNEM.UNIT     VALUE/NAME     DESCRIPTION
#---------     -----------    ---------------------------
 STRT.S             13:18:38 29-Jan-21: START TIME 13:18:38 29-Jan-21
 STOP.S             13:25:08 29-Jan-21: STOP TIME  13:25:08 29-Jan-21
 STEP.S                   0.00: STEP TIME
 NULL.                 -999.25: NULL VALUE
 DFWT.                        :  DIST FWL TEXT
 DFST.                        :  DIST FSL TEXT
 DMF .             Drill Floor:  DRILL MEAS FROM
 STIM.      00.00.00 25-Sep-20:  START TIME
 DATE.      16.12.48 31-Jan-21:  END TIME
 SPUD.               20-Sep-20:  SPUD DATE
 NREF.                    Grid:  NORTH REFERENCE
 HPTY.       Minimum Curvature:  HOLE POS TYPE
 DMOD.             Drill Model:  DRILL MOD DESC
 SVYD.                  Survey:  SURVEY DESC
 ILTD.               Lithology:  INTERP LTH DESC
 FTOP.          Formation Tops:  FORM TOPS DESC
 RIG .              East Azeri:  RIG NAME
 PDAT.          Mean Sea Level:  PERMANENT DATUM
 FLD .                     ACG:  FIELD NAME
 SON .        AZ-XX-0906591820:  JOB NUMBER
 CTRY.              Azerbaijan:  COUNTRY NAME
 WELL.                     D37:  WELL NAME
 SRVC.     Turan Drilling & Engineering:  CONTRACTOR
 COMP.     BP Exploration (Caspian Sea) ltd.:  COMPANY
 WTYP.                Deviated:  WELL TYPE
 MDS .        Operator Entered:  MAG DATA SOURCE
 UWI .                     N/A:  UNIQUE WELL IDENTIFIER
 API .                     N/A:  API NUMBER
 BASE.              Azerbaijan:  LOGGING EQUIPMENT BASE LOCATION
 REGN.                   EESSA:  REGION
 PROV.                    Baku:  PROVINCE
 STAT.                    Baku:  STATE NAME
 MWDS.                    Baku:  MWD SHOP
 JOBN.        AZ-XX-0906591820:  JOB TICKET NUMB
 DOE .                     N/A:  DOE NUMBER
 DCON.         Sperry Drilling:  DIRECTNL CONTR
 UNIT.                     N/A:  LOGGING EQUIPMENT ID
 CNTY.                        :  COUNTY
 LOC .                        :  LOCATION
 LMF .             Drill Floor:  LOG MEASURED FROM
 TVDS.m                  43.60:  TVDSS CORRECTN
 LATI.deg                40.02:  LATITUDE
 LONG.deg                51.45:  LONGITUDE
 WHNS.m                  11.04:  WELL HEAD N/S
 WHEW.m                 -12.38:  WELL HEAD E/W
 UTMX.m              538763.98:  UTM X
 UTMY.m             4431880.20:  UTM Y
 DFWL.m                   0.00:  DISTANCE FWL
 DFSL.m                   0.00:  DISTANCE FSL
 SDEP.m                 300.00:  START DEPTH
 TDD .m                4900.01:  TOTAL DEPTH (DRILLER)
 VSDR.deg               185.64:  VERT SEC DIRECT
 GVFD.g                   1.00:  GRAVITY FIELD
 MFLD.nT              50301.00:  MAGNETIC FIELD
 MDIP.deg                59.46:  MAGNETIC DIP
 MDEC.deg                 6.43:  MAGNETIC DECL
 GRDC.deg                 0.29:  GRID CORRECTION
 AZTC.deg                 6.14:  AZM TOTAL CORR
 EPD .m                   0.00:  ELEVATION
 EGL .m                   0.00:  GROUND ELEVATION
 WDMS.m                 151.80:  WD ELEV
 APD .m                  43.60:  DEPTH ABOVE PD
 DEP .m                 571.69:  DEPTH
 AGAP.m                  43.60:  AIR GAP
 VSEW.m                 -12.38:  VERT SEC E/W
 VSNS.m                  11.04:  VERT SEC N/S
 EKB .m                  43.60:  KB ELEVATION
 EDF .m                  43.60:  DF ELEVATION
 TDL .m                 412.00:  TOTAL DEPTH (LOGGER)
 VSC .                       0:  VS TO CLOSURE
 MAGU.                 1849300:  MAGUTM CHECKSUM
~Parameter Information Block
#MNEM.UNIT       Value        Description
#---------     -----------    ---------------------------
 AV  .mps                 2.21:  Ann Velocity 
 AVMX.mps                 2.53:  Max Ann Veloc 
 AZIF.deg               144.83:  Azm, Final 
 BHAT.        Rotary Steerable:  BHA Type 
 BROT.°/30m              -0.52:  Build Rotating 
 BS  .in                  6.50:  Bit Size 
 BTPL.psig              209.00:  Bit Press Loss 
 CABU.                      No:  Customer Abuse 
 CGEO.        Ali Isfandiyarov:  Customer Geo 
 COMM.                     lÄt:  Run Comments 1 
 TCS .hr                 61.31:  Time Ciculation Ended 
 CV  .mps                 4.66:  Crit Velocity 
 CVMX.mps                 5.02:  Max Crit Veloc 
 DD1 .          Fariz Nahmatov:  Direct Drillr 1 
 DD2 .            Musa Ahmadov:  Direct Drillr 2 
 DDSV.               Geo-Pilot:  DD Service 
 DEFF.%                 100.00:  % Det Eff 
 DLRX.°/30m               1.44:  Dogleg Rot Max 
 DLSO.°/30m               0.83:  Dogleg Oriented 
 DLSX.°/30m               1.44:  Dogleg Str Max 
 DRET.      08.30.00 30-Jan-21:  Drill End Time 
 DRST.      21.15.00 27-Jan-21:  Drill Start Tim 
 DTIM.hr                 37.28:  Time Drilling 
 EDEP.m                4867.01:  End Depth 
 ENG1.          Rasim Hashimov:  Engineer 1 
 ENG2.         Almaz Almadatov:  Engineer 2 
 ENG3.        Tamerlan Ahmadov:  Engineer 3 
 ETIM.      22.41.04 31-Jan-21:  End Time 
 FLOI.gpm               400.00:  Flow In 
 FLON.gpm               300.00:  Flow In Min 
 FLOS.cptm                0.00:  Fluid Loss 
 FLOX.gpm               400.00:  Flow In Max 
 HFLO.                      No:  High Flow 
 HPRE.                      No:  High Pressure 
 HTEM.                      No:  High Temp 
 HYDO.m                   1.80:  Hydro Offset 
 IFIN.deg                65.63:  Inc, Final 
 IMAX.deg                66.77:  Inc Max 
 IMIN.deg                65.61:  Inc Min 
 IMND.m                4612.67:  Inc Min Depth 
 IMXD.m                4811.63:  Inc Max Depth 
 JARR.                      No:  Jarring 
 LETM.      08.30.00 30-Jan-21:  Log End Time 
 LOST.hr                     0:  Lost Rig Time 
 LSTM.      21.15.00 27-Jan-21:  Log Start Time 
 MDCL.ppm             41000.00:  Mud Chlorides 
 MDES.     Inversion Oil/Synthetic:  Mud Desc 
 DFD .sg                  1.40:  Mud Density 
 MDMN.sg                  1.40:  Dens Mud Min 
 MDMX.sg                  1.40:  Dens Mud Max 
 MOIL.                      53:  Run Mud Oil % 
 MOWR.                   66:34:  Run Mud OWR 
 MSND.                     0.2:  Run Mud Sand % 
 MSOL.                    17.9:  Run Mud Solids% 
 DFV .spqt               77.00:  Mud Viscosity 
 MWOD.in                  4.75:  MWD Tool OD 
 MWSI.                      No:  Serv Intrp, MWD 
 OTIM.hr                110.38:  Time Operating 
 PCON.           Look Like New:  Pad Condition 
 PMAX.psia             5300.00:  Press Op, Max 
 PV  .cP                 57.00:  Mud PV 
 RUN .                    1200:  Run Number 
 ROPA.m/hr               13.00:  ROP Avg 
 ROPN.m/hr                9.00:  ROP Min 
 ROPX.m/hr               15.00:  ROP Max 
 RPMA.rpm               120.00:  RPM Surface Avg 
 RPMN.rpm               100.00:  RPM Surface Min 
 RPMX.rpm               135.00:  RPM Surface Max 
 RRUN.                    1200:  Rig Run Number 
 RTIM.hr                  2.65:  Time Reaming 
 SAZI.deg               145.04:  Azm, Start 
 SDEP.m                4455.01:  Start Depth 
 SIDD.                      No:  Serv Intrp, DD 
 SINC.deg                65.83:  Inc, Start 
 SPPA.psig             5037.00:  SPP Avg 
 SPPN.psig             4430.00:  SPP Min 
 SPPX.psig             5300.00:  SPP Max 
 STIM.      22.41.04 26-Jan-21:  Start Time 
 SVCS.                 DD, MWD:  Services 
 SVER.                    9.20:  Sperry Version 
 TDAT.m                 412.00:  Tot Depth Attmp 
 TDDF.                      No:  Trip for DD 
 TDLG.m                 412.00:  Tot Depth Loggd 
 TFF .                      No:  Trip for Fail 
 TQAA.f-kp               15.00:  Torque Abs Avg 
 TQAN.f-kp               12.00:  Torque Abs Min 
 TQAX.f-kp               17.00:  Torque Abs Max 
 TRRT.°/30m               1.18:  Turn Rotating 
 MRT .                     ADR:  Maximum Recorded Temperature 
 TTMX.degC               88.24:  Max Tool Temp 
 VS01.                90619458:  Virtual Str1 SN 
 VS02.                90519326:  Virtual Str2 SN 
 VS03.                90522176:  Virtual Str3 SN 
 VS04.                90512683:  Virtual Str4 SN 
 WBMN.klb                 1.00:  WOB Min 
 WITN.           Murad Giluyev:  Customer Rep 
 WITN.     Kamran Kemberlinski:  Customer Rep 2 
 WOBA.klb                 5.00:  WOB Avg 
 WOBX.klb                 9.00:  WOB Max 
 YP  .lhf2               41.00:  Yield Point 
~Curve Information Block
#MNEM.UNIT                 API CODE     Curve Description
#---------               -----------    ---------------------------
 TIME.HHMMSS            00 000 000 000:  GT Time & Date
 GTDEPTH.m              00 000 000 000:  GT Depth
 GTPQH.psia             00 000 000 000:  GT HR Quartz Pressure
 GTTQ.degC              00 000 000 000:  GT Quartz Temperature
 GTTN.NONE              00 000 000 000:  GT Test Number
 GTET.sec               00 000 000 000:  GT Elapsed Test Time
 GTTVD.m                00 000 000 000:  GT True Vertical Depth
#Other Information
#
#WARRANTY: Halliburton will use its best efforts to furnish customers with 
#accurate information and interpretations that are part of, and incident to, the services 
#provided.  However, Halliburton cannot and does not warrant the accuracy 
#or correctness of such information and interpretations.  Under no circumstances should any 
#such information or interpretation be relied upon as the sole basis for any drilling, 
#completion, production, or financial decision or any procedure involving any risk to the 
#safety of any drilling venture, drilling rig or its crew or any other third party.  The 
#Customer has full responsibility for all drilling, completion and production operation.  
#Halliburton makes no representations or warranties, either expressed or 
#implied, including, but not limited to, the implied warranties of merchantability or fitness 
#for a particular purpose, with respect to the services rendered.  In no event will 
#Halliburton be liable for failure to obtain any particular results or for 
#any damages, including, but not limited to, indirect, special or consequential damages, 
#resulting from the use of any information or interpretation provided by Halliburton.
#
~A           TIME           GTDEPTH  GTPQH  GTTQ  GTTN   GTET   GTTVD  
# ...
   13:20:09.240.29-Jan-2021 4712.01 3107.06 82.11 11.00  90.41 2590.47
   13:20:09.440.29-Jan-2021 4712.01 3107.13 82.11 11.00  90.61 2590.47
   13:20:09.640.29-Jan-2021 4712.01 3107.11 82.11 11.00  90.81 2590.47
   13:20:09.840.29-Jan-2021 4712.01 3107.06 82.11 11.00  91.01 2590.47
   13:20:10.040.29-Jan-2021 4712.01 3107.06 82.11 11.00  91.21 2590.47
   13:20:10.240.29-Jan-2021 4712.01 3107.09 82.11 11.00  91.41 2590.47
   13:20:10.440.29-Jan-2021 4712.01 3107.13 82.10 11.00  91.61 2590.47
   13:20:10.640.29-Jan-2021 4712.01 3107.08 82.10 11.00  91.81 2590.47
   13:20:10.840.29-Jan-2021 4712.01 3107.09 82.10 11.00  92.01 2590.47
   13:20:11.040.29-Jan-2021 4712.01 3107.09 82.10 11.00  92.21 2590.47
   13:20:11.240.29-Jan-2021 4712.01 3107.10 82.10 11.00  92.41 2590.47
   13:20:11.441.29-Jan-2021 4712.01 3107.07 82.10 11.00  92.61 2590.47
   13:20:11.641.29-Jan-2021 4712.01 3107.10 82.10 11.00  92.81 2590.47
   13:20:11.841.29-Jan-2021 4712.01 3107.09 82.10 11.00  93.01 2590.47
   13:20:12.041.29-Jan-2021 4712.01 3107.09 82.10 11.00  93.21 2590.47
   13:20:12.241.29-Jan-2021 4712.01 3107.08 82.10 11.00  93.41 2590.47
   13:20:12.441.29-Jan-2021 4712.01 3107.10 82.10 11.00  93.61 2590.47
   13:20:12.641.29-Jan-2021 4712.01 3107.09 82.10 11.00  93.81 2590.47
   13:20:12.841.29-Jan-2021 4712.01 3107.04 82.10 11.00  94.01 2590.47
   13:20:13.041.29-Jan-2021 4712.01 3107.04 82.10 11.00  94.21 2590.47
   13:20:13.241.29-Jan-2021 4712.01 3107.11 82.09 11.00  94.41 2590.47
   13:20:13.441.29-Jan-2021 4712.01 3107.02 82.09 11.00  94.61 2590.47
   13:20:13.641.29-Jan-2021 4712.01 3107.12 82.09 11.00  94.81 2590.47
   13:20:13.841.29-Jan-2021 4712.01 3107.08 82.09 11.00  95.01 2590.47
   13:20:14.041.29-Jan-2021 4712.01 3107.08 82.09 11.00  95.21 2590.47
   13:20:14.241.29-Jan-2021 4712.01 3107.06 82.09 11.00  95.41 2590.47
   13:20:14.441.29-Jan-2021 4712.01 3107.08 82.09 11.00  95.61 2590.47
   13:20:14.641.29-Jan-2021 4712.01 3107.09 82.09 11.00  95.81 2590.47
   13:20:14.841.29-Jan-2021 4712.01 3107.07 82.09 11.00  96.01 2590.47
   13:20:15.041.29-Jan-2021 4712.01 3107.07 82.09 11.00  96.21 2590.47
   13:20:15.241.29-Jan-2021 4712.01 3107.07 82.09 11.00  96.41 2590.47
   13:20:15.441.29-Jan-2021 4712.01 3107.09 82.09 11.00  96.61 2590.47
   13:20:15.641.29-Jan-2021 4712.01 3107.06 82.09 11.00  96.81 2590.47
   13:20:15.841.29-Jan-2021 4712.01 3107.08 82.08 11.00  97.01 2590.47
   13:20:16.041.29-Jan-2021 4712.01 3107.08 82.08 11.00  97.21 2590.47
   13:20:16.241.29-Jan-2021 4712.01 3107.11 82.08 11.00  97.41 2590.47
   13:20:16.441.29-Jan-2021 4712.01 3107.09 82.08 11.00  97.61 2590.47
   13:20:16.641.29-Jan-2021 4712.01 3107.02 82.08 11.00  97.81 2590.47
   13:20:16.841.29-Jan-2021 4712.01 3106.98 82.08 11.00  98.01 2590.47
   13:20:17.041.29-Jan-2021 4712.01 3106.98 82.08 11.00  98.21 2590.47
   13:20:17.241.29-Jan-2021 4712.01 3107.09 82.08 11.00  98.41 2590.47
   13:20:17.441.29-Jan-2021 4712.01 3107.01 82.08 11.00  98.61 2590.47
   13:20:17.641.29-Jan-2021 4712.01 3107.11 82.08 11.00  98.81 2590.47
   13:20:17.841.29-Jan-2021 4712.01 3107.02 82.08 11.00  99.01 2590.47
   13:20:18.041.29-Jan-2021 4712.01 3107.02 82.08 11.00  99.21 2590.47
   13:20:18.241.29-Jan-2021 4712.01 3107.06 82.08 11.00  99.41 2590.47
   13:20:18.441.29-Jan-2021 4712.01 3107.00 82.07 11.00  99.61 2590.47
   13:20:18.641.29-Jan-2021 4712.01 3107.09 82.07 11.00  99.81 2590.47
   13:20:18.841.29-Jan-2021 4712.01 3107.06 82.07 11.00 100.01 2590.47
   13:20:19.041.29-Jan-2021 4712.01 3107.06 82.07 11.00 100.21 2590.47
   13:20:19.241.29-Jan-2021 4712.01 3107.00 82.07 11.00 100.41 2590.47
   13:20:19.441.29-Jan-2021 4712.01 3107.10 82.07 11.00 100.61 2590.47
   13:20:19.641.29-Jan-2021 4712.01 3107.07 82.07 11.00 100.81 2590.47
   13:20:19.841.29-Jan-2021 4712.01 3107.02 82.07 11.00 101.01 2590.47
   13:20:20.041.29-Jan-2021 4712.01 3107.02 82.07 11.00 101.21 2590.47
   13:20:20.241.29-Jan-2021 4712.01 3107.07 82.07 11.00 101.41 2590.47
   13:20:20.441.29-Jan-2021 4712.01 3107.02 82.07 11.00 101.61 2590.47
   13:20:20.641.29-Jan-2021 4712.01 3107.06 82.07 11.00 101.81 2590.47
   13:20:20.841.29-Jan-2021 4712.01 3107.06 82.07 11.00 102.01 2590.47
   13:20:21.041.29-Jan-2021 4712.01 3107.06 82.07 11.00 102.21 2590.47
   13:20:21.241.29-Jan-2021 4712.01 3107.04 82.06 11.00 102.41 2590.47
   13:20:21.441.29-Jan-2021 4712.01 3107.05 82.06 11.00 102.61 2590.47
   13:20:21.641.29-Jan-2021 4712.01 3107.05 82.06 11.00 102.81 2590.47
   13:20:21.841.29-Jan-2021 4712.01 3107.05 82.06 11.00 103.01 2590.47
   13:20:22.041.29-Jan-2021 4712.01 3107.05 82.06 11.00 103.21 2590.47
   13:20:22.241.29-Jan-2021 4712.01 3107.05 82.06 11.00 103.41 2590.47
   13:20:22.441.29-Jan-2021 4712.01 3107.04 82.06 11.00 103.61 2590.47
   13:20:22.641.29-Jan-2021 4712.01 3107.03 82.06 11.00 103.81 2590.47
   13:20:22.841.29-Jan-2021 4712.01 3107.05 82.06 11.00 104.01 2590.47
   13:20:23.041.29-Jan-2021 4712.01 3107.05 82.06 11.00 104.21 2590.47
   13:20:23.241.29-Jan-2021 4712.01 3107.03 82.06 11.00 104.41 2590.47
   13:20:23.441.29-Jan-2021 4712.01 3107.02 82.06 11.00 104.61 2590.47
   13:20:23.641.29-Jan-2021 4712.01 3107.04 82.06 11.00 104.81 2590.47
   13:20:23.841.29-Jan-2021 4712.01 3107.05 82.05 11.00 105.01 2590.47
   13:20:24.041.29-Jan-2021 4712.01 3107.05 82.05 11.00 105.21 2590.47
   13:20:24.241.29-Jan-2021 4712.01 3107.05 82.05 11.00 105.41 2590.47
   13:20:24.441.29-Jan-2021 4712.01 3107.05 82.05 11.00 105.61 2590.47
   13:20:24.641.29-Jan-2021 4712.01 3107.02 82.05 11.00 105.81 2590.47
   13:20:24.841.29-Jan-2021 4712.01 3107.03 82.05 11.00 106.01 2590.47
   13:20:25.041.29-Jan-2021 4712.01 3107.03 82.05 11.00 106.21 2590.47
   13:20:25.241.29-Jan-2021 4712.01 3107.04 82.05 11.00 106.41 2590.47
   13:20:25.441.29-Jan-2021 4712.01 3107.01 82.05 11.00 106.61 2590.47
   13:20:25.642.29-Jan-2021 4712.01 3107.03 82.05 11.00 106.81 2590.47
   13:20:25.842.29-Jan-2021 4712.01 3107.03 82.05 11.00 107.01 2590.47
   13:20:26.042.29-Jan-2021 4712.01 3107.03 82.05 11.00 107.21 2590.47
   13:20:26.242.29-Jan-2021 4712.01 3107.01 82.05 11.00 107.41 2590.47
   13:20:26.442.29-Jan-2021 4712.01 3107.00 82.04 11.00 107.61 2590.47
   13:20:26.642.29-Jan-2021 4712.01 3107.01 82.04 11.00 107.81 2590.47
   13:20:26.842.29-Jan-2021 4712.01 3107.02 82.04 11.00 108.01 2590.47
   13:20:27.042.29-Jan-2021 4712.01 3107.02 82.04 11.00 108.21 2590.47
   13:20:27.242.29-Jan-2021 4712.01 3106.97 82.04 11.00 108.41 2590.47
   13:20:27.442.29-Jan-2021 4712.01 3107.01 82.04 11.00 108.61 2590.47
   13:20:27.642.29-Jan-2021 4712.01 3107.05 82.04 11.00 108.81 2590.47
   13:20:27.842.29-Jan-2021 4712.01 3107.03 82.04 11.00 109.01 2590.47
   13:20:28.042.29-Jan-2021 4712.01 3107.03 82.04 11.00 109.21 2590.47
   13:20:28.242.29-Jan-2021 4712.01 3107.05 82.04 11.00 109.41 2590.47
   13:20:28.442.29-Jan-2021 4712.01 3107.00 82.04 11.00 109.61 2590.47
   13:20:28.642.29-Jan-2021 4712.01 3107.03 82.04 11.00 109.81 2590.47
   13:20:28.842.29-Jan-2021 4712.01 3107.01 82.04 11.00 110.01 2590.47
   13:20:29.042.29-Jan-2021 4712.01 3107.01 82.04 11.00 110.21 2590.47
   13:20:29.242.29-Jan-2021 4712.01 3107.12 82.03 11.00 110.41 2590.47
   13:20:29.442.29-Jan-2021 4712.01 3107.00 82.03 11.00 110.61 2590.47
   13:20:29.642.29-Jan-2021 4712.01 3106.99 82.03 11.00 110.81 2590.47
   13:20:29.842.29-Jan-2021 4712.01 3107.02 82.03 11.00 111.01 2590.47
   13:20:30.042.29-Jan-2021 4712.01 3107.02 82.03 11.00 111.21 2590.47
   13:20:30.242.29-Jan-2021 4712.01 3106.94 82.03 11.00 111.41 2590.47
   13:20:30.442.29-Jan-2021 4712.01 3107.06 82.03 11.00 111.61 2590.47
   13:20:30.642.29-Jan-2021 4712.01 3107.01 82.03 11.00 111.81 2590.47
   13:20:30.842.29-Jan-2021 4712.01 3107.00 82.03 11.00 112.01 2590.47
   13:20:31.042.29-Jan-2021 4712.01 3107.00 82.03 11.00 112.21 2590.47
   13:20:31.242.29-Jan-2021 4712.01 3107.00 82.03 11.00 112.41 2590.47
   13:20:31.442.29-Jan-2021 4712.01 3107.01 82.03 11.00 112.61 2590.47
   13:20:31.642.29-Jan-2021 4712.01 3106.99 82.03 11.00 112.81 2590.47
