~Version Information
 VERS.                  2.0:   CWLS log ASCII Standard -VERSION 2.0
 WRAP.                   NO:   One line per depth step
~Well Information Block
#MNEM.UNIT     VALUE/NAME     DESCRIPTION
#---------     -----------    ---------------------------
 STRT.S             02:23:02 28-Jan-21: START TIME 02:23:02 28-Jan-21
 STOP.S             02:29:37 28-Jan-21: STOP TIME  02:29:37 28-Jan-21
 STEP.S                   0.00: STEP TIME
 NULL.                 -999.25: NULL VALUE
 DFWT.                        :  DIST FWL TEXT
 DFST.                        :  DIST FSL TEXT
 DMF .             Drill Floor:  DRILL MEAS FROM
 STIM.      00.00.00 25-Sep-20:  START TIME
 DATE.      16.12.48 31-Jan-21:  END TIME
 SPUD.               20-Sep-20:  SPUD DATE
 NREF.                    Grid:  NORTH REFERENCE
 HPTY.       Minimum Curvature:  HOLE POS TYPE
 DMOD.             Drill Model:  DRILL MOD DESC
 SVYD.                  Survey:  SURVEY DESC
 ILTD.               Lithology:  INTERP LTH DESC
 FTOP.          Formation Tops:  FORM TOPS DESC
 RIG .              East Azeri:  RIG NAME
 PDAT.          Mean Sea Level:  PERMANENT DATUM
 FLD .                     ACG:  FIELD NAME
 SON .        AZ-XX-0906591820:  JOB NUMBER
 CTRY.              Azerbaijan:  COUNTRY NAME
 WELL.                     D37:  WELL NAME
 SRVC.     Turan Drilling & Engineering:  CONTRACTOR
 COMP.     BP Exploration (Caspian Sea) ltd.:  COMPANY
 WTYP.                Deviated:  WELL TYPE
 MDS .        Operator Entered:  MAG DATA SOURCE
 UWI .                     N/A:  UNIQUE WELL IDENTIFIER
 API .                     N/A:  API NUMBER
 BASE.              Azerbaijan:  LOGGING EQUIPMENT BASE LOCATION
 REGN.                   EESSA:  REGION
 PROV.                    Baku:  PROVINCE
 STAT.                    Baku:  STATE NAME
 MWDS.                    Baku:  MWD SHOP
 JOBN.        AZ-XX-0906591820:  JOB TICKET NUMB
 DOE .                     N/A:  DOE NUMBER
 DCON.         Sperry Drilling:  DIRECTNL CONTR
 UNIT.                     N/A:  LOGGING EQUIPMENT ID
 CNTY.                        :  COUNTY
 LOC .                        :  LOCATION
 LMF .             Drill Floor:  LOG MEASURED FROM
 TVDS.m                  43.60:  TVDSS CORRECTN
 LATI.deg                40.02:  LATITUDE
 LONG.deg                51.45:  LONGITUDE
 WHNS.m                  11.04:  WELL HEAD N/S
 WHEW.m                 -12.38:  WELL HEAD E/W
 UTMX.m              538763.98:  UTM X
 UTMY.m             4431880.20:  UTM Y
 DFWL.m                   0.00:  DISTANCE FWL
 DFSL.m                   0.00:  DISTANCE FSL
 SDEP.m                 300.00:  START DEPTH
 TDD .m                4900.01:  TOTAL DEPTH (DRILLER)
 VSDR.deg               185.64:  VERT SEC DIRECT
 GVFD.g                   1.00:  GRAVITY FIELD
 MFLD.nT              50301.00:  MAGNETIC FIELD
 MDIP.deg                59.46:  MAGNETIC DIP
 MDEC.deg                 6.43:  MAGNETIC DECL
 GRDC.deg                 0.29:  GRID CORRECTION
 AZTC.deg                 6.14:  AZM TOTAL CORR
 EPD .m                   0.00:  ELEVATION
 EGL .m                   0.00:  GROUND ELEVATION
 WDMS.m                 151.80:  WD ELEV
 APD .m                  43.60:  DEPTH ABOVE PD
 DEP .m                 571.69:  DEPTH
 AGAP.m                  43.60:  AIR GAP
 VSEW.m                 -12.38:  VERT SEC E/W
 VSNS.m                  11.04:  VERT SEC N/S
 EKB .m                  43.60:  KB ELEVATION
 EDF .m                  43.60:  DF ELEVATION
 TDL .m                 412.00:  TOTAL DEPTH (LOGGER)
 VSC .                       0:  VS TO CLOSURE
 MAGU.                 1849300:  MAGUTM CHECKSUM
~Parameter Information Block
#MNEM.UNIT       Value        Description
#---------     -----------    ---------------------------
 AV  .mps                 2.21:  Ann Velocity 
 AVMX.mps                 2.53:  Max Ann Veloc 
 AZIF.deg               144.83:  Azm, Final 
 BHAT.        Rotary Steerable:  BHA Type 
 BROT.°/30m              -0.52:  Build Rotating 
 BS  .in                  6.50:  Bit Size 
 BTPL.psig              209.00:  Bit Press Loss 
 CABU.                      No:  Customer Abuse 
 CGEO.        Ali Isfandiyarov:  Customer Geo 
 TCS .hr                 61.31:  Time Ciculation Ended 
 CV  .mps                 4.66:  Crit Velocity 
 CVMX.mps                 5.02:  Max Crit Veloc 
 DD1 .          Fariz Nahmatov:  Direct Drillr 1 
 DD2 .            Musa Ahmadov:  Direct Drillr 2 
 DDSV.               Geo-Pilot:  DD Service 
 DEFF.%                 100.00:  % Det Eff 
 DLRX.°/30m               1.44:  Dogleg Rot Max 
 DLSO.°/30m               0.83:  Dogleg Oriented 
 DLSX.°/30m               1.44:  Dogleg Str Max 
 DRET.      08.30.00 30-Jan-21:  Drill End Time 
 DRST.      21.15.00 27-Jan-21:  Drill Start Tim 
 DTIM.hr                 37.28:  Time Drilling 
 EDEP.m                4867.01:  End Depth 
 ENG1.          Rasim Hashimov:  Engineer 1 
 ENG2.         Almaz Almadatov:  Engineer 2 
 ENG3.        Tamerlan Ahmadov:  Engineer 3 
 ETIM.      22.41.04 31-Jan-21:  End Time 
 FLOI.gpm               400.00:  Flow In 
 FLON.gpm               300.00:  Flow In Min 
 FLOS.cptm                0.00:  Fluid Loss 
 FLOX.gpm               400.00:  Flow In Max 
 HFLO.                      No:  High Flow 
 HPRE.                      No:  High Pressure 
 HTEM.                      No:  High Temp 
 HYDO.m                   1.80:  Hydro Offset 
 IFIN.deg                65.63:  Inc, Final 
 IMAX.deg                66.77:  Inc Max 
 IMIN.deg                65.61:  Inc Min 
 IMND.m                4612.67:  Inc Min Depth 
 IMXD.m                4811.63:  Inc Max Depth 
 JARR.                      No:  Jarring 
 LETM.      08.30.00 30-Jan-21:  Log End Time 
 LOST.hr                     0:  Lost Rig Time 
 LSTM.      21.15.00 27-Jan-21:  Log Start Time 
 MDCL.ppm             41000.00:  Mud Chlorides 
 MDES.     Inversion Oil/Synthetic:  Mud Desc 
 DFD .sg                  1.40:  Mud Density 
 MDMN.sg                  1.40:  Dens Mud Min 
 MDMX.sg                  1.40:  Dens Mud Max 
 MOIL.                      53:  Run Mud Oil % 
 MOWR.                   66:34:  Run Mud OWR 
 MSND.                     0.2:  Run Mud Sand % 
 MSOL.                    17.9:  Run Mud Solids% 
 DFV .spqt               77.00:  Mud Viscosity 
 MWOD.in                  4.75:  MWD Tool OD 
 MWSI.                      No:  Serv Intrp, MWD 
 OTIM.hr                110.38:  Time Operating 
 PCON.           Look Like New:  Pad Condition 
 PMAX.psia             5300.00:  Press Op, Max 
 PV  .cP                 57.00:  Mud PV 
 RUN .                    1200:  Run Number 
 ROPA.m/hr               13.00:  ROP Avg 
 ROPN.m/hr                9.00:  ROP Min 
 ROPX.m/hr               15.00:  ROP Max 
 RPMA.rpm               120.00:  RPM Surface Avg 
 RPMN.rpm               100.00:  RPM Surface Min 
 RPMX.rpm               135.00:  RPM Surface Max 
 RRUN.                    1200:  Rig Run Number 
 RTIM.hr                  2.65:  Time Reaming 
 SAZI.deg               145.04:  Azm, Start 
 SDEP.m                4455.01:  Start Depth 
 SIDD.                      No:  Serv Intrp, DD 
 SINC.deg                65.83:  Inc, Start 
 SPPA.psig             5037.00:  SPP Avg 
 SPPN.psig             4430.00:  SPP Min 
 SPPX.psig             5300.00:  SPP Max 
 STIM.      22.41.04 26-Jan-21:  Start Time 
 SVCS.                 DD, MWD:  Services 
 SVER.                    9.20:  Sperry Version 
 TDAT.m                 412.00:  Tot Depth Attmp 
 TDDF.                      No:  Trip for DD 
 TDLG.m                 412.00:  Tot Depth Loggd 
 TFF .                      No:  Trip for Fail 
 TQAA.f-kp               15.00:  Torque Abs Avg 
 TQAN.f-kp               12.00:  Torque Abs Min 
 TQAX.f-kp               17.00:  Torque Abs Max 
 TRRT.°/30m               1.18:  Turn Rotating 
 MRT .                     ADR:  Maximum Recorded Temperature 
 TTMX.degC               88.24:  Max Tool Temp 
 VS01.                90619458:  Virtual Str1 SN 
 VS02.                90519326:  Virtual Str2 SN 
 VS03.                90522176:  Virtual Str3 SN 
 VS04.                90512683:  Virtual Str4 SN 
 WBMN.klb                 1.00:  WOB Min 
 WITN.           Murad Giluyev:  Customer Rep 
 WITN.     Kamran Kemberlinski:  Customer Rep 2 
 WOBA.klb                 5.00:  WOB Avg 
 WOBX.klb                 9.00:  WOB Max 
 YP  .lhf2               41.00:  Yield Point 
~Curve Information Block
#MNEM.UNIT                 API CODE     Curve Description
#---------               -----------    ---------------------------
 TIME.HHMMSS            00 000 000 000:  GT Time & Date
 GTDEPTH.m              00 000 000 000:  GT Depth
 GTPQH.psia             00 000 000 000:  GT HR Quartz Pressure
 GTTQ.degC              00 000 000 000:  GT Quartz Temperature
 GTTN.NONE              00 000 000 000:  GT Test Number
 GTET.sec               00 000 000 000:  GT Elapsed Test Time
 GTTVD.m                00 000 000 000:  GT True Vertical Depth
#Other Information
#
#WARRANTY: Halliburton will use its best efforts to furnish customers with 
#accurate information and interpretations that are part of, and incident to, the services 
#provided.  However, Halliburton cannot and does not warrant the accuracy 
#or correctness of such information and interpretations.  Under no circumstances should any 
#such information or interpretation be relied upon as the sole basis for any drilling, 
#completion, production, or financial decision or any procedure involving any risk to the 
#safety of any drilling venture, drilling rig or its crew or any other third party.  The 
#Customer has full responsibility for all drilling, completion and production operation.  
#Halliburton makes no representations or warranties, either expressed or 
#implied, including, but not limited to, the implied warranties of merchantability or fitness 
#for a particular purpose, with respect to the services rendered.  In no event will 
#Halliburton be liable for failure to obtain any particular results or for 
#any damages, including, but not limited to, indirect, special or consequential damages, 
#resulting from the use of any information or interpretation provided by Halliburton.
#
~A           TIME           GTDEPTH  GTPQH  GTTQ  GTTN  GTET   GTTVD  
# ...
   02:23:48.000.28-Jan-2021 4453.81 5408.15 61.01 1.00  46.00 2485.38
   02:23:48.200.28-Jan-2021 4453.81 5408.15 61.01 1.00  46.20 2485.38
   02:23:48.400.28-Jan-2021 4453.81 5409.33 61.01 1.00  46.40 2485.38
   02:23:48.600.28-Jan-2021 4453.81 5408.13 61.01 1.00  46.60 2485.38
   02:23:48.800.28-Jan-2021 4453.81 5409.93 61.01 1.00  46.80 2485.38
   02:23:49.000.28-Jan-2021 4453.81 5408.91 61.01 1.00  47.00 2485.38
   02:23:49.200.28-Jan-2021 4453.81 5408.91 61.01 1.00  47.20 2485.38
   02:23:49.400.28-Jan-2021 4453.81 5410.21 61.01 1.00  47.40 2485.38
   02:23:49.600.28-Jan-2021 4453.81 5408.21 61.01 1.00  47.60 2485.38
   02:23:49.800.28-Jan-2021 4453.81 5409.29 61.01 1.00  47.80 2485.38
   02:23:50.000.28-Jan-2021 4453.81 5409.21 61.01 1.00  48.00 2485.38
   02:23:50.200.28-Jan-2021 4453.81 5409.21 61.01 1.00  48.20 2485.38
   02:23:50.400.28-Jan-2021 4453.81 5409.31 61.01 1.00  48.40 2485.38
   02:23:50.600.28-Jan-2021 4453.81 5408.40 61.01 1.00  48.60 2485.38
   02:23:50.800.28-Jan-2021 4453.81 5401.98 61.01 1.00  48.80 2485.38
   02:23:51.000.28-Jan-2021 4453.81 5409.12 61.01 1.00  49.00 2485.38
   02:23:51.200.28-Jan-2021 4453.81 5409.12 61.01 1.00  49.20 2485.38
   02:23:51.400.28-Jan-2021 4453.81 5413.70 61.01 1.00  49.40 2485.38
   02:23:51.600.28-Jan-2021 4453.81 5409.79 61.01 1.00  49.60 2485.38
   02:23:51.800.28-Jan-2021 4453.81 5402.18 61.01 1.00  49.80 2485.38
   02:23:52.000.28-Jan-2021 4453.81 5408.88 61.01 1.00  50.00 2485.38
   02:23:52.200.28-Jan-2021 4453.81 5408.88 61.01 1.00  50.20 2485.38
   02:23:52.400.28-Jan-2021 4453.81 5413.29 61.01 1.00  50.40 2485.38
   02:23:52.600.28-Jan-2021 4453.81 5402.01 61.00 1.00  50.60 2485.38
   02:23:52.800.28-Jan-2021 4453.81 5409.67 61.00 1.00  50.80 2485.38
   02:23:53.000.28-Jan-2021 4453.81 5409.52 61.00 1.00  51.00 2485.38
   02:23:53.200.28-Jan-2021 4453.81 5409.52 61.00 1.00  51.20 2485.38
   02:23:53.400.28-Jan-2021 4453.81 5403.25 61.00 1.00  51.40 2485.38
   02:23:53.600.28-Jan-2021 4453.81 5408.90 61.00 1.00  51.60 2485.38
   02:23:53.800.28-Jan-2021 4453.81 5409.33 61.00 1.00  51.80 2485.38
   02:23:54.000.28-Jan-2021 4453.81 5408.23 61.00 1.00  52.00 2485.38
   02:23:54.200.28-Jan-2021 4453.81 5408.23 61.00 1.00  52.20 2485.38
   02:23:54.400.28-Jan-2021 4453.81 5409.33 61.00 1.00  52.40 2485.38
   02:23:54.600.28-Jan-2021 4453.81 5410.01 61.00 1.00  52.60 2485.38
   02:23:54.800.28-Jan-2021 4453.81 5410.94 61.00 1.00  52.80 2485.38
   02:23:55.000.28-Jan-2021 4453.81 5410.52 61.00 1.00  53.00 2485.38
   02:23:55.200.28-Jan-2021 4453.81 5410.52 61.00 1.00  53.20 2485.38
   02:23:55.400.28-Jan-2021 4453.81 5408.77 61.00 1.00  53.40 2485.38
   02:23:55.600.28-Jan-2021 4453.81 5409.11 61.00 1.00  53.60 2485.38
   02:23:55.800.28-Jan-2021 4453.81 5411.89 61.00 1.00  53.80 2485.38
   02:23:56.000.28-Jan-2021 4453.81 5411.47 61.00 1.00  54.00 2485.38
   02:23:56.200.28-Jan-2021 4453.81 5411.47 61.00 1.00  54.20 2485.38
   02:23:56.400.28-Jan-2021 4453.81 5409.15 61.00 1.00  54.40 2485.38
   02:23:56.600.28-Jan-2021 4453.81 5409.86 61.00 1.00  54.60 2485.38
   02:23:56.800.28-Jan-2021 4453.81 5407.99 61.00 1.00  54.80 2485.38
   02:23:57.000.28-Jan-2021 4453.81 5410.11 61.00 1.00  55.00 2485.38
   02:23:57.200.28-Jan-2021 4453.81 5410.11 61.00 1.00  55.20 2485.38
   02:23:57.400.28-Jan-2021 4453.81 5409.08 61.00 1.00  55.40 2485.38
   02:23:57.600.28-Jan-2021 4453.81 5410.53 61.00 1.00  55.60 2485.38
   02:23:57.800.28-Jan-2021 4453.81 5408.41 61.00 1.00  55.80 2485.38
   02:23:58.000.28-Jan-2021 4453.81 5409.80 61.00 1.00  56.00 2485.38
   02:23:58.200.28-Jan-2021 4453.81 5409.80 61.00 1.00  56.20 2485.38
   02:23:58.400.28-Jan-2021 4453.81 5408.73 61.00 1.00  56.40 2485.38
   02:23:58.600.28-Jan-2021 4453.81 5402.83 61.00 1.00  56.60 2485.38
   02:23:58.800.28-Jan-2021 4453.81 5408.52 60.99 1.00  56.80 2485.38
   02:23:59.000.28-Jan-2021 4453.81 5409.80 60.99 1.00  57.00 2485.38
   02:23:59.200.28-Jan-2021 4453.81 5409.80 60.99 1.00  57.20 2485.38
   02:23:59.400.28-Jan-2021 4453.81 5410.35 60.99 1.00  57.40 2485.38
   02:23:59.600.28-Jan-2021 4453.81 5411.08 60.99 1.00  57.60 2485.38
   02:23:59.800.28-Jan-2021 4453.81 5409.26 60.99 1.00  57.80 2485.38
   02:24:00.000.28-Jan-2021 4453.81 5409.72 60.99 1.00  58.00 2485.38
   02:24:00.200.28-Jan-2021 4453.81 5409.72 60.99 1.00  58.20 2485.38
   02:24:00.400.28-Jan-2021 4453.81 5408.90 60.99 1.00  58.40 2485.38
   02:24:00.600.28-Jan-2021 4453.81 5410.83 60.99 1.00  58.60 2485.38
   02:24:00.800.28-Jan-2021 4453.81 5409.24 60.99 1.00  58.80 2485.38
   02:24:01.000.28-Jan-2021 4453.81 5410.24 60.99 1.00  59.00 2485.38
   02:24:01.200.28-Jan-2021 4453.81 5410.24 60.99 1.00  59.20 2485.38
   02:24:01.400.28-Jan-2021 4453.81 5408.88 60.99 1.00  59.40 2485.38
   02:24:01.600.28-Jan-2021 4453.81 5410.99 60.99 1.00  59.60 2485.38
   02:24:01.800.28-Jan-2021 4453.81 5410.08 60.99 1.00  59.80 2485.38
   02:24:02.000.28-Jan-2021 4453.81 5407.36 60.99 1.00  60.00 2485.38
   02:24:02.200.28-Jan-2021 4453.81 5407.36 60.99 1.00  60.20 2485.38
   02:24:02.400.28-Jan-2021 4453.81 5409.57 60.99 1.00  60.40 2485.38
   02:24:02.600.28-Jan-2021 4453.81 5412.15 60.99 1.00  60.60 2485.38
   02:24:02.800.28-Jan-2021 4453.81 5412.25 60.99 1.00  60.80 2485.38
   02:24:03.000.28-Jan-2021 4453.81 5402.80 60.99 1.00  61.00 2485.38
   02:24:03.200.28-Jan-2021 4453.81 5402.80 60.99 1.00  61.20 2485.38
   02:24:03.400.28-Jan-2021 4453.81 5410.33 60.99 1.00  61.40 2485.38
   02:24:03.600.28-Jan-2021 4453.81 5413.75 60.99 1.00  61.60 2485.38
   02:24:03.800.28-Jan-2021 4453.81 5403.03 60.99 1.00  61.80 2485.38
   02:24:04.000.28-Jan-2021 4453.81 5409.49 60.99 1.00  62.00 2485.38
   02:24:04.200.28-Jan-2021 4453.81 5409.49 60.99 1.00  62.20 2485.38
   02:24:04.400.28-Jan-2021 4453.81 5411.38 60.99 1.00  62.40 2485.38
   02:24:04.600.28-Jan-2021 4453.81 5404.39 60.99 1.00  62.60 2485.38
   02:24:04.800.28-Jan-2021 4453.81 5410.84 60.99 1.00  62.80 2485.38
   02:24:05.000.28-Jan-2021 4453.81 5410.11 60.98 1.00  63.00 2485.38
   02:24:05.200.28-Jan-2021 4453.81 5410.11 60.98 1.00  63.20 2485.38
   02:24:05.400.28-Jan-2021 4453.81 5410.78 60.98 1.00  63.40 2485.38
   02:24:05.600.28-Jan-2021 4453.81 5409.94 60.98 1.00  63.60 2485.38
   02:24:05.800.28-Jan-2021 4453.81 5407.17 60.98 1.00  63.80 2485.38
   02:24:06.000.28-Jan-2021 4453.81 5403.39 60.98 1.00  64.00 2485.38
   02:24:06.200.28-Jan-2021 4453.81 5403.39 60.98 1.00  64.20 2485.38
   02:24:06.400.28-Jan-2021 4453.81 5411.55 60.98 1.00  64.40 2485.38
   02:24:06.600.28-Jan-2021 4453.81 5411.89 60.98 1.00  64.60 2485.38
   02:24:06.800.28-Jan-2021 4453.81 5411.19 60.98 1.00  64.80 2485.38
   02:24:07.000.28-Jan-2021 4453.81 5409.83 60.98 1.00  65.00 2485.38
   02:24:07.200.28-Jan-2021 4453.81 5409.83 60.98 1.00  65.20 2485.38
   02:24:07.400.28-Jan-2021 4453.81 5410.38 60.98 1.00  65.40 2485.38
   02:24:07.600.28-Jan-2021 4453.81 5409.94 60.98 1.00  65.60 2485.38
   02:24:07.800.28-Jan-2021 4453.81 5411.73 60.98 1.00  65.80 2485.38
   02:24:08.000.28-Jan-2021 4453.81 5410.13 60.98 1.00  66.00 2485.38
   02:24:08.200.28-Jan-2021 4453.81 5410.13 60.98 1.00  66.20 2485.38
   02:24:08.400.28-Jan-2021 4453.81 5411.19 60.98 1.00  66.40 2485.38
   02:24:08.600.28-Jan-2021 4453.81 5408.91 60.98 1.00  66.60 2485.38
   02:24:08.800.28-Jan-2021 4453.81 5410.81 60.98 1.00  66.80 2485.38
   02:24:09.000.28-Jan-2021 4453.81 5409.54 60.98 1.00  67.00 2485.38
   02:24:09.200.28-Jan-2021 4453.81 5409.54 60.98 1.00  67.20 2485.38
   02:24:09.400.28-Jan-2021 4453.81 5403.20 60.98 1.00  67.40 2485.38
   02:24:09.600.28-Jan-2021 4453.81 5408.65 60.98 1.00  67.60 2485.38
   02:24:09.800.28-Jan-2021 4453.81 5411.02 60.98 1.00  67.80 2485.38
   02:24:10.000.28-Jan-2021 4453.81 5413.04 60.98 1.00  68.00 2485.38
   02:24:10.200.28-Jan-2021 4453.81 5413.04 60.98 1.00  68.20 2485.38
   02:24:10.400.28-Jan-2021 4453.81 5411.32 60.98 1.00  68.40 2485.38
   02:24:10.600.28-Jan-2021 4453.81 5409.28 60.98 1.00  68.60 2485.38
   02:24:10.800.28-Jan-2021 4453.81 5410.84 60.98 1.00  68.80 2485.38
