~Version Information
 VERS.                  2.0:   CWLS log ASCII Standard -VERSION 2.0
 WRAP.                   NO:   One line per depth step
~Well Information Block
#MNEM.UNIT     VALUE/NAME     DESCRIPTION
#---------     -----------    ---------------------------
 STRT.S             02:23:02 28-Jan-21: START TIME 02:23:02 28-Jan-21
 STOP.S             02:29:37 28-Jan-21: STOP TIME  02:29:37 28-Jan-21
 STEP.S                   0.00: STEP TIME
 NULL.                 -999.25: NULL VALUE
 DFWT.                        :  DIST FWL TEXT
 DFST.                        :  DIST FSL TEXT
 DMF .             Drill Floor:  DRILL MEAS FROM
 STIM.      00.00.00 25-Sep-20:  START TIME
 DATE.      16.12.48 31-Jan-21:  END TIME
 SPUD.               20-Sep-20:  SPUD DATE
 NREF.                    Grid:  NORTH REFERENCE
 HPTY.       Minimum Curvature:  HOLE POS TYPE
 DMOD.             Drill Model:  DRILL MOD DESC
 SVYD.                  Survey:  SURVEY DESC
 ILTD.               Lithology:  INTERP LTH DESC
 FTOP.          Formation Tops:  FORM TOPS DESC
 RIG .              East Azeri:  RIG NAME
 PDAT.          Mean Sea Level:  PERMANENT DATUM
 FLD .                     ACG:  FIELD NAME
 SON .        AZ-XX-0906591820:  JOB NUMBER
 CTRY.              Azerbaijan:  COUNTRY NAME
 WELL.                     D37:  WELL NAME
 SRVC.     Turan Drilling & Engineering:  CONTRACTOR
 COMP.     BP Exploration (Caspian Sea) ltd.:  COMPANY
 WTYP.                Deviated:  WELL TYPE
 MDS .        Operator Entered:  MAG DATA SOURCE
 UWI .                     N/A:  UNIQUE WELL IDENTIFIER
 API .                     N/A:  API NUMBER
 BASE.              Azerbaijan:  LOGGING EQUIPMENT BASE LOCATION
 REGN.                   EESSA:  REGION
 PROV.                    Baku:  PROVINCE
 STAT.                    Baku:  STATE NAME
 MWDS.                    Baku:  MWD SHOP
 JOBN.        AZ-XX-0906591820:  JOB TICKET NUMB
 DOE .                     N/A:  DOE NUMBER
 DCON.         Sperry Drilling:  DIRECTNL CONTR
 UNIT.                     N/A:  LOGGING EQUIPMENT ID
 CNTY.                        :  COUNTY
 LOC .                        :  LOCATION
 LMF .             Drill Floor:  LOG MEASURED FROM
 TVDS.m                  43.60:  TVDSS CORRECTN
 LATI.deg                40.02:  LATITUDE
 LONG.deg                51.45:  LONGITUDE
 WHNS.m                  11.04:  WELL HEAD N/S
 WHEW.m                 -12.38:  WELL HEAD E/W
 UTMX.m              538763.98:  UTM X
 UTMY.m             4431880.20:  UTM Y
 DFWL.m                   0.00:  DISTANCE FWL
 DFSL.m                   0.00:  DISTANCE FSL
 SDEP.m                 300.00:  START DEPTH
 TDD .m                4900.01:  TOTAL DEPTH (DRILLER)
 VSDR.deg               185.64:  VERT SEC DIRECT
 GVFD.g                   1.00:  GRAVITY FIELD
 MFLD.nT              50301.00:  MAGNETIC FIELD
 MDIP.deg                59.46:  MAGNETIC DIP
 MDEC.deg                 6.43:  MAGNETIC DECL
 GRDC.deg                 0.29:  GRID CORRECTION
 AZTC.deg                 6.14:  AZM TOTAL CORR
 EPD .m                   0.00:  ELEVATION
 EGL .m                   0.00:  GROUND ELEVATION
 WDMS.m                 151.80:  WD ELEV
 APD .m                  43.60:  DEPTH ABOVE PD
 DEP .m                 571.69:  DEPTH
 AGAP.m                  43.60:  AIR GAP
 VSEW.m                 -12.38:  VERT SEC E/W
 VSNS.m                  11.04:  VERT SEC N/S
 EKB .m                  43.60:  KB ELEVATION
 EDF .m                  43.60:  DF ELEVATION
 TDL .m                 412.00:  TOTAL DEPTH (LOGGER)
 VSC .                       0:  VS TO CLOSURE
 MAGU.                 1849300:  MAGUTM CHECKSUM
~Parameter Information Block
#MNEM.UNIT       Value        Description
#---------     -----------    ---------------------------
 AV  .mps                 2.21:  Ann Velocity 
 AVMX.mps                 2.53:  Max Ann Veloc 
 AZIF.deg               144.83:  Azm, Final 
 BHAT.        Rotary Steerable:  BHA Type 
 BROT.°/30m              -0.52:  Build Rotating 
 BS  .in                  6.50:  Bit Size 
 BTPL.psig              209.00:  Bit Press Loss 
 CABU.                      No:  Customer Abuse 
 CGEO.        Ali Isfandiyarov:  Customer Geo 
 TCS .hr                 61.31:  Time Ciculation Ended 
 CV  .mps                 4.66:  Crit Velocity 
 CVMX.mps                 5.02:  Max Crit Veloc 
 DD1 .          Fariz Nahmatov:  Direct Drillr 1 
 DD2 .            Musa Ahmadov:  Direct Drillr 2 
 DDSV.               Geo-Pilot:  DD Service 
 DEFF.%                 100.00:  % Det Eff 
 DLRX.°/30m               1.44:  Dogleg Rot Max 
 DLSO.°/30m               0.83:  Dogleg Oriented 
 DLSX.°/30m               1.44:  Dogleg Str Max 
 DRET.      08.30.00 30-Jan-21:  Drill End Time 
 DRST.      21.15.00 27-Jan-21:  Drill Start Tim 
 DTIM.hr                 37.28:  Time Drilling 
 EDEP.m                4867.01:  End Depth 
 ENG1.          Rasim Hashimov:  Engineer 1 
 ENG2.         Almaz Almadatov:  Engineer 2 
 ENG3.        Tamerlan Ahmadov:  Engineer 3 
 ETIM.      22.41.04 31-Jan-21:  End Time 
 FLOI.gpm               400.00:  Flow In 
 FLON.gpm               300.00:  Flow In Min 
 FLOS.cptm                0.00:  Fluid Loss 
 FLOX.gpm               400.00:  Flow In Max 
 HFLO.                      No:  High Flow 
 HPRE.                      No:  High Pressure 
 HTEM.                      No:  High Temp 
 HYDO.m                   1.80:  Hydro Offset 
 IFIN.deg                65.63:  Inc, Final 
 IMAX.deg                66.77:  Inc Max 
 IMIN.deg                65.61:  Inc Min 
 IMND.m                4612.67:  Inc Min Depth 
 IMXD.m                4811.63:  Inc Max Depth 
 JARR.                      No:  Jarring 
 LETM.      08.30.00 30-Jan-21:  Log End Time 
 LOST.hr                     0:  Lost Rig Time 
 LSTM.      21.15.00 27-Jan-21:  Log Start Time 
 MDCL.ppm             41000.00:  Mud Chlorides 
 MDES.     Inversion Oil/Synthetic:  Mud Desc 
 DFD .sg                  1.40:  Mud Density 
 MDMN.sg                  1.40:  Dens Mud Min 
 MDMX.sg                  1.40:  Dens Mud Max 
 MOIL.                      53:  Run Mud Oil % 
 MOWR.                   66:34:  Run Mud OWR 
 MSND.                     0.2:  Run Mud Sand % 
 MSOL.                    17.9:  Run Mud Solids% 
 DFV .spqt               77.00:  Mud Viscosity 
 MWOD.in                  4.75:  MWD Tool OD 
 MWSI.                      No:  Serv Intrp, MWD 
 OTIM.hr                110.38:  Time Operating 
 PCON.           Look Like New:  Pad Condition 
 PMAX.psia             5300.00:  Press Op, Max 
 PV  .cP                 57.00:  Mud PV 
 RUN .                    1200:  Run Number 
 ROPA.m/hr               13.00:  ROP Avg 
 ROPN.m/hr                9.00:  ROP Min 
 ROPX.m/hr               15.00:  ROP Max 
 RPMA.rpm               120.00:  RPM Surface Avg 
 RPMN.rpm               100.00:  RPM Surface Min 
 RPMX.rpm               135.00:  RPM Surface Max 
 RRUN.                    1200:  Rig Run Number 
 RTIM.hr                  2.65:  Time Reaming 
 SAZI.deg               145.04:  Azm, Start 
 SDEP.m                4455.01:  Start Depth 
 SIDD.                      No:  Serv Intrp, DD 
 SINC.deg                65.83:  Inc, Start 
 SPPA.psig             5037.00:  SPP Avg 
 SPPN.psig             4430.00:  SPP Min 
 SPPX.psig             5300.00:  SPP Max 
 STIM.      22.41.04 26-Jan-21:  Start Time 
 SVCS.                 DD, MWD:  Services 
 SVER.                    9.20:  Sperry Version 
 TDAT.m                 412.00:  Tot Depth Attmp 
 TDDF.                      No:  Trip for DD 
 TDLG.m                 412.00:  Tot Depth Loggd 
 TFF .                      No:  Trip for Fail 
 TQAA.f-kp               15.00:  Torque Abs Avg 
 TQAN.f-kp               12.00:  Torque Abs Min 
 TQAX.f-kp               17.00:  Torque Abs Max 
 TRRT.°/30m               1.18:  Turn Rotating 
 MRT .                     ADR:  Maximum Recorded Temperature 
 TTMX.degC               88.24:  Max Tool Temp 
 VS01.                90619458:  Virtual Str1 SN 
 VS02.                90519326:  Virtual Str2 SN 
 VS03.                90522176:  Virtual Str3 SN 
 VS04.                90512683:  Virtual Str4 SN 
 WBMN.klb                 1.00:  WOB Min 
 WITN.           Murad Giluyev:  Customer Rep 
 WITN.     Kamran Kemberlinski:  Customer Rep 2 
 WOBA.klb                 5.00:  WOB Avg 
 WOBX.klb                 9.00:  WOB Max 
 YP  .lhf2               41.00:  Yield Point 
~Curve Information Block
#MNEM.UNIT                 API CODE     Curve Description
#---------               -----------    ---------------------------
 TIME.HHMMSS            00 000 000 000:  GT Time & Date
 GTDEPTH.m              00 000 000 000:  GT Depth
 GTPQH.psia             00 000 000 000:  GT HR Quartz Pressure
 GTTQ.degC              00 000 000 000:  GT Quartz Temperature
 GTTN.NONE              00 000 000 000:  GT Test Number
 GTET.sec               00 000 000 000:  GT Elapsed Test Time
 GTTVD.m                00 000 000 000:  GT True Vertical Depth
#Other Information
#
#WARRANTY: Halliburton will use its best efforts to furnish customers with 
#accurate information and interpretations that are part of, and incident to, the services 
#provided.  However, Halliburton cannot and does not warrant the accuracy 
#or correctness of such information and interpretations.  Under no circumstances should any 
#such information or interpretation be relied upon as the sole basis for any drilling, 
#completion, production, or financial decision or any procedure involving any risk to the 
#safety of any drilling venture, drilling rig or its crew or any other third party.  The 
#Customer has full responsibility for all drilling, completion and production operation.  
#Halliburton makes no representations or warranties, either expressed or 
#implied, including, but not limited to, the implied warranties of merchantability or fitness 
#for a particular purpose, with respect to the services rendered.  In no event will 
#Halliburton be liable for failure to obtain any particular results or for 
#any damages, including, but not limited to, indirect, special or consequential damages, 
#resulting from the use of any information or interpretation provided by Halliburton.
#
~A           TIME           GTDEPTH  GTPQH  GTTQ  GTTN  GTET   GTTVD  
# ...
   02:29:10.000.28-Jan-2021 4453.81 5412.81 60.58 1.00 368.00 2485.38
   02:29:10.200.28-Jan-2021 4453.81 5412.81 60.58 1.00 368.20 2485.38
   02:29:10.400.28-Jan-2021 4453.81 5409.86 60.58 1.00 368.40 2485.38
   02:29:10.600.28-Jan-2021 4453.81 5410.46 60.58 1.00 368.60 2485.38
   02:29:10.800.28-Jan-2021 4453.81 5410.95 60.58 1.00 368.80 2485.38
   02:29:11.000.28-Jan-2021 4453.81 5409.76 60.58 1.00 369.00 2485.38
   02:29:11.200.28-Jan-2021 4453.81 5409.76 60.58 1.00 369.20 2485.38
   02:29:11.400.28-Jan-2021 4453.81 5410.31 60.58 1.00 369.40 2485.38
   02:29:11.600.28-Jan-2021 4453.81 5410.14 60.58 1.00 369.60 2485.38
   02:29:11.800.28-Jan-2021 4453.81 5412.24 60.58 1.00 369.80 2485.38
   02:29:12.000.28-Jan-2021 4453.81 5409.65 60.57 1.00 370.00 2485.38
   02:29:12.200.28-Jan-2021 4453.81 5409.65 60.57 1.00 370.20 2485.38
   02:29:12.400.28-Jan-2021 4453.81 5410.52 60.57 1.00 370.40 2485.38
   02:29:12.600.28-Jan-2021 4453.81 5410.44 60.57 1.00 370.60 2485.38
   02:29:12.800.28-Jan-2021 4453.81 5404.79 60.57 1.00 370.80 2485.38
   02:29:13.000.28-Jan-2021 4453.81 5409.71 60.57 1.00 371.00 2485.38
   02:29:13.200.28-Jan-2021 4453.81 5409.71 60.57 1.00 371.20 2485.38
   02:29:13.400.28-Jan-2021 4453.81 5413.45 60.57 1.00 371.40 2485.38
   02:29:13.600.28-Jan-2021 4453.81 5403.55 60.57 1.00 371.60 2485.38
   02:29:13.800.28-Jan-2021 4453.81 5412.47 60.57 1.00 371.80 2485.38
   02:29:14.000.28-Jan-2021 4453.81 5409.85 60.57 1.00 372.00 2485.38
   02:29:14.200.28-Jan-2021 4453.81 5409.85 60.57 1.00 372.20 2485.38
   02:29:14.400.28-Jan-2021 4453.81 5413.11 60.57 1.00 372.40 2485.38
   02:29:14.600.28-Jan-2021 4453.81 5402.02 60.57 1.00 372.60 2485.38
   02:29:14.800.28-Jan-2021 4453.81 5411.88 60.57 1.00 372.80 2485.38
   02:29:15.000.28-Jan-2021 4453.81 5409.83 60.57 1.00 373.00 2485.38
   02:29:15.200.28-Jan-2021 4453.81 5409.83 60.57 1.00 373.20 2485.38
   02:29:15.400.28-Jan-2021 4453.81 5404.44 60.57 1.00 373.40 2485.38
   02:29:15.600.28-Jan-2021 4453.81 5409.75 60.57 1.00 373.60 2485.38
   02:29:15.800.28-Jan-2021 4453.81 5411.69 60.57 1.00 373.80 2485.38
   02:29:16.000.28-Jan-2021 4453.81 5412.78 60.57 1.00 374.00 2485.38
   02:29:16.200.28-Jan-2021 4453.81 5412.78 60.57 1.00 374.20 2485.38
   02:29:16.400.28-Jan-2021 4453.81 5411.39 60.57 1.00 374.40 2485.38
   02:29:16.600.28-Jan-2021 4453.81 5402.31 60.57 1.00 374.60 2485.38
   02:29:16.800.28-Jan-2021 4453.81 5410.88 60.57 1.00 374.80 2485.38
   02:29:17.000.28-Jan-2021 4453.81 5411.35 60.57 1.00 375.00 2485.38
   02:29:17.200.28-Jan-2021 4453.81 5411.35 60.57 1.00 375.20 2485.38
   02:29:17.400.28-Jan-2021 4453.81 5414.17 60.57 1.00 375.40 2485.38
   02:29:17.600.28-Jan-2021 4453.81 5410.51 60.57 1.00 375.60 2485.38
   02:29:17.800.28-Jan-2021 4453.81 5412.34 60.57 1.00 375.80 2485.38
   02:29:18.000.28-Jan-2021 4453.81 5411.34 60.57 1.00 376.00 2485.38
   02:29:18.200.28-Jan-2021 4453.81 5411.34 60.57 1.00 376.20 2485.38
   02:29:18.400.28-Jan-2021 4453.81 5413.26 60.57 1.00 376.40 2485.38
   02:29:18.600.28-Jan-2021 4453.81 5411.32 60.57 1.00 376.60 2485.38
   02:29:18.800.28-Jan-2021 4453.81 5411.95 60.57 1.00 376.80 2485.38
   02:29:19.000.28-Jan-2021 4453.81 5412.59 60.57 1.00 377.00 2485.38
   02:29:19.200.28-Jan-2021 4453.81 5412.59 60.57 1.00 377.20 2485.38
   02:29:19.400.28-Jan-2021 4453.81 5412.45 60.57 1.00 377.40 2485.38
   02:29:19.600.28-Jan-2021 4453.81 5410.78 60.57 1.00 377.60 2485.38
   02:29:19.800.28-Jan-2021 4453.81 5411.38 60.57 1.00 377.80 2485.38
   02:29:20.000.28-Jan-2021 4453.81 5409.86 60.57 1.00 378.00 2485.38
   02:29:20.200.28-Jan-2021 4453.81 5409.86 60.57 1.00 378.20 2485.38
   02:29:20.400.28-Jan-2021 4453.81 5412.08 60.56 1.00 378.40 2485.38
   02:29:20.600.28-Jan-2021 4453.81 5412.50 60.56 1.00 378.60 2485.38
   02:29:20.800.28-Jan-2021 4453.81 5413.45 60.56 1.00 378.80 2485.38
   02:29:21.000.28-Jan-2021 4453.81 5412.95 60.56 1.00 379.00 2485.38
   02:29:21.200.28-Jan-2021 4453.81 5412.95 60.56 1.00 379.20 2485.38
   02:29:21.400.28-Jan-2021 4453.81 5411.97 60.56 1.00 379.40 2485.38
   02:29:21.600.28-Jan-2021 4453.81 5411.72 60.56 1.00 379.60 2485.38
   02:29:21.800.28-Jan-2021 4453.81 5411.14 60.56 1.00 379.80 2485.38
   02:29:22.000.28-Jan-2021 4453.81 5412.81 60.56 1.00 380.00 2485.38
   02:29:22.200.28-Jan-2021 4453.81 5412.81 60.56 1.00 380.20 2485.38
   02:29:22.400.28-Jan-2021 4453.81 5410.46 60.56 1.00 380.40 2485.38
   02:29:22.600.28-Jan-2021 4453.81 5412.55 60.56 1.00 380.60 2485.38
   02:29:22.800.28-Jan-2021 4453.81 5410.40 60.56 1.00 380.80 2485.38
   02:29:23.000.28-Jan-2021 4453.81 5412.70 60.56 1.00 381.00 2485.38
   02:29:23.200.28-Jan-2021 4453.81 5412.70 60.56 1.00 381.20 2485.38
   02:29:23.400.28-Jan-2021 4453.81 5411.66 60.56 1.00 381.40 2485.38
   02:29:23.600.28-Jan-2021 4453.81 5405.30 60.56 1.00 381.60 2485.38
   02:29:23.800.28-Jan-2021 4453.81 5410.67 60.56 1.00 381.80 2485.38
   02:29:24.000.28-Jan-2021 4453.81 5413.11 60.56 1.00 382.00 2485.38
   02:29:24.200.28-Jan-2021 4453.81 5413.11 60.56 1.00 382.20 2485.38
   02:29:24.400.28-Jan-2021 4453.81 5404.41 60.56 1.00 382.40 2485.38
   02:29:24.600.28-Jan-2021 4453.81 5413.19 60.56 1.00 382.60 2485.38
   02:29:24.800.28-Jan-2021 4453.81 5410.84 60.56 1.00 382.80 2485.38
   02:29:25.000.28-Jan-2021 4453.81 5415.45 60.56 1.00 383.00 2485.38
   02:29:25.200.28-Jan-2021 4453.81 5415.45 60.56 1.00 383.20 2485.38
   02:29:25.400.28-Jan-2021 4453.81 5406.03 60.56 1.00 383.40 2485.38
   02:29:25.600.28-Jan-2021 4453.81 5413.00 60.56 1.00 383.60 2485.38
   02:29:25.800.28-Jan-2021 4453.81 5411.92 60.56 1.00 383.80 2485.38
   02:29:26.000.28-Jan-2021 4453.81 5406.78 60.56 1.00 384.00 2485.38
   02:29:26.200.28-Jan-2021 4453.81 5406.78 60.56 1.00 384.20 2485.38
   02:29:26.400.28-Jan-2021 4453.81 5411.99 60.56 1.00 384.40 2485.38
   02:29:26.600.28-Jan-2021 4453.81 5414.30 60.56 1.00 384.60 2485.38
   02:29:26.800.28-Jan-2021 4453.81 5412.71 60.56 1.00 384.80 2485.38
   02:29:27.000.28-Jan-2021 4453.81 5412.39 60.56 1.00 385.00 2485.38
   02:29:27.200.28-Jan-2021 4453.81 5412.39 60.56 1.00 385.20 2485.38
   02:29:27.400.28-Jan-2021 4453.81 5407.14 60.56 1.00 385.40 2485.38
   02:29:27.600.28-Jan-2021 4453.81 5406.57 60.56 1.00 385.60 2485.38
   02:29:27.800.28-Jan-2021 4453.81 5411.07 60.56 1.00 385.80 2485.38
   02:29:28.000.28-Jan-2021 4453.81 5412.68 60.56 1.00 386.00 2485.38
   02:29:28.200.28-Jan-2021 4453.81 5412.68 60.56 1.00 386.20 2485.38
   02:29:28.400.28-Jan-2021 4453.81 5410.75 60.56 1.00 386.40 2485.38
   02:29:28.600.28-Jan-2021 4453.81 5412.61 60.55 1.00 386.60 2485.38
   02:29:28.800.28-Jan-2021 4453.81 5410.65 60.55 1.00 386.80 2485.38
   02:29:29.000.28-Jan-2021 4453.81 5411.42 60.55 1.00 387.00 2485.38
   02:29:29.200.28-Jan-2021 4453.81 5411.42 60.55 1.00 387.20 2485.38
   02:29:29.400.28-Jan-2021 4453.81 5411.06 60.55 1.00 387.40 2485.38
   02:29:29.600.28-Jan-2021 4453.81 5412.66 60.55 1.00 387.60 2485.38
   02:29:29.800.28-Jan-2021 4453.81 5411.60 60.55 1.00 387.80 2485.38
   02:29:30.000.28-Jan-2021 4453.81 5411.00 60.55 1.00 388.00 2485.38
   02:29:30.200.28-Jan-2021 4453.81 5411.00 60.55 1.00 388.20 2485.38
   02:29:30.400.28-Jan-2021 4453.81 5412.44 60.55 1.00 388.40 2485.38
   02:29:30.600.28-Jan-2021 4453.81 5411.59 60.55 1.00 388.60 2485.38
   02:29:30.800.28-Jan-2021 4453.81 5411.58 60.55 1.00 388.80 2485.38
   02:29:31.000.28-Jan-2021 4453.81 5402.59 60.55 1.00 389.00 2485.38
   02:29:31.200.28-Jan-2021 4453.81 5402.59 60.55 1.00 389.20 2485.38
   02:29:31.400.28-Jan-2021 4453.81 5410.55 60.55 1.00 389.40 2485.38
   02:29:31.600.28-Jan-2021 4453.81 5414.00 60.55 1.00 389.60 2485.38
   02:29:31.800.28-Jan-2021 4453.81 5413.33 60.55 1.00 389.80 2485.38
   02:29:32.000.28-Jan-2021 4453.81 5410.46 60.55 1.00 390.00 2485.38
   02:29:32.200.28-Jan-2021 4453.81 5410.46 60.55 1.00 390.20 2485.38
   02:29:32.400.28-Jan-2021 4453.81 5410.98 60.55 1.00 390.40 2485.38
   02:29:32.600.28-Jan-2021 4453.81 5411.42 60.55 1.00 390.60 2485.38
   02:29:32.800.28-Jan-2021 4453.81 5412.52 60.55 1.00 390.80 2485.38
