~Version Information
 VERS.                  2.0:   CWLS log ASCII Standard -VERSION 2.0
 WRAP.                   NO:   One line per depth step
~Well Information Block
#MNEM.UNIT     VALUE/NAME     DESCRIPTION
#---------     -----------    ---------------------------
 STRT.S             02:23:02 28-Jan-21: START TIME 02:23:02 28-Jan-21
 STOP.S             02:29:37 28-Jan-21: STOP TIME  02:29:37 28-Jan-21
 STEP.S                   0.00: STEP TIME
 NULL.                 -999.25: NULL VALUE
 DFWT.                        :  DIST FWL TEXT
 DFST.                        :  DIST FSL TEXT
 DMF .             Drill Floor:  DRILL MEAS FROM
 STIM.      00.00.00 25-Sep-20:  START TIME
 DATE.      16.12.48 31-Jan-21:  END TIME
 SPUD.               20-Sep-20:  SPUD DATE
 NREF.                    Grid:  NORTH REFERENCE
 HPTY.       Minimum Curvature:  HOLE POS TYPE
 DMOD.             Drill Model:  DRILL MOD DESC
 SVYD.                  Survey:  SURVEY DESC
 ILTD.               Lithology:  INTERP LTH DESC
 FTOP.          Formation Tops:  FORM TOPS DESC
 RIG .              East Azeri:  RIG NAME
 PDAT.          Mean Sea Level:  PERMANENT DATUM
 FLD .                     ACG:  FIELD NAME
 SON .        AZ-XX-0906591820:  JOB NUMBER
 CTRY.              Azerbaijan:  COUNTRY NAME
 WELL.                     D37:  WELL NAME
 SRVC.     Turan Drilling & Engineering:  CONTRACTOR
 COMP.     BP Exploration (Caspian Sea) ltd.:  COMPANY
 WTYP.                Deviated:  WELL TYPE
 MDS .        Operator Entered:  MAG DATA SOURCE
 UWI .                     N/A:  UNIQUE WELL IDENTIFIER
 API .                     N/A:  API NUMBER
 BASE.              Azerbaijan:  LOGGING EQUIPMENT BASE LOCATION
 REGN.                   EESSA:  REGION
 PROV.                    Baku:  PROVINCE
 STAT.                    Baku:  STATE NAME
 MWDS.                    Baku:  MWD SHOP
 JOBN.        AZ-XX-0906591820:  JOB TICKET NUMB
 DOE .                     N/A:  DOE NUMBER
 DCON.         Sperry Drilling:  DIRECTNL CONTR
 UNIT.                     N/A:  LOGGING EQUIPMENT ID
 CNTY.                        :  COUNTY
 LOC .                        :  LOCATION
 LMF .             Drill Floor:  LOG MEASURED FROM
 TVDS.m                  43.60:  TVDSS CORRECTN
 LATI.deg                40.02:  LATITUDE
 LONG.deg                51.45:  LONGITUDE
 WHNS.m                  11.04:  WELL HEAD N/S
 WHEW.m                 -12.38:  WELL HEAD E/W
 UTMX.m              538763.98:  UTM X
 UTMY.m             4431880.20:  UTM Y
 DFWL.m                   0.00:  DISTANCE FWL
 DFSL.m                   0.00:  DISTANCE FSL
 SDEP.m                 300.00:  START DEPTH
 TDD .m                4900.01:  TOTAL DEPTH (DRILLER)
 VSDR.deg               185.64:  VERT SEC DIRECT
 GVFD.g                   1.00:  GRAVITY FIELD
 MFLD.nT              50301.00:  MAGNETIC FIELD
 MDIP.deg                59.46:  MAGNETIC DIP
 MDEC.deg                 6.43:  MAGNETIC DECL
 GRDC.deg                 0.29:  GRID CORRECTION
 AZTC.deg                 6.14:  AZM TOTAL CORR
 EPD .m                   0.00:  ELEVATION
 EGL .m                   0.00:  GROUND ELEVATION
 WDMS.m                 151.80:  WD ELEV
 APD .m                  43.60:  DEPTH ABOVE PD
 DEP .m                 571.69:  DEPTH
 AGAP.m                  43.60:  AIR GAP
 VSEW.m                 -12.38:  VERT SEC E/W
 VSNS.m                  11.04:  VERT SEC N/S
 EKB .m                  43.60:  KB ELEVATION
 EDF .m                  43.60:  DF ELEVATION
 TDL .m                 412.00:  TOTAL DEPTH (LOGGER)
 VSC .                       0:  VS TO CLOSURE
 MAGU.                 1849300:  MAGUTM CHECKSUM
~Parameter Information Block
#MNEM.UNIT       Value        Description
#---------     -----------    ---------------------------
 AV  .mps                 2.21:  Ann Velocity 
 AVMX.mps                 2.53:  Max Ann Veloc 
 AZIF.deg               144.83:  Azm, Final 
 BHAT.        Rotary Steerable:  BHA Type 
 BROT.°/30m              -0.52:  Build Rotating 
 BS  .in                  6.50:  Bit Size 
 BTPL.psig              209.00:  Bit Press Loss 
 CABU.                      No:  Customer Abuse 
 CGEO.        Ali Isfandiyarov:  Customer Geo 
 TCS .hr                 61.31:  Time Ciculation Ended 
 CV  .mps                 4.66:  Crit Velocity 
 CVMX.mps                 5.02:  Max Crit Veloc 
 DD1 .          Fariz Nahmatov:  Direct Drillr 1 
 DD2 .            Musa Ahmadov:  Direct Drillr 2 
 DDSV.               Geo-Pilot:  DD Service 
 DEFF.%                 100.00:  % Det Eff 
 DLRX.°/30m               1.44:  Dogleg Rot Max 
 DLSO.°/30m               0.83:  Dogleg Oriented 
 DLSX.°/30m               1.44:  Dogleg Str Max 
 DRET.      08.30.00 30-Jan-21:  Drill End Time 
 DRST.      21.15.00 27-Jan-21:  Drill Start Tim 
 DTIM.hr                 37.28:  Time Drilling 
 EDEP.m                4867.01:  End Depth 
 ENG1.          Rasim Hashimov:  Engineer 1 
 ENG2.         Almaz Almadatov:  Engineer 2 
 ENG3.        Tamerlan Ahmadov:  Engineer 3 
 ETIM.      22.41.04 31-Jan-21:  End Time 
 FLOI.gpm               400.00:  Flow In 
 FLON.gpm               300.00:  Flow In Min 
 FLOS.cptm                0.00:  Fluid Loss 
 FLOX.gpm               400.00:  Flow In Max 
 HFLO.                      No:  High Flow 
 HPRE.                      No:  High Pressure 
 HTEM.                      No:  High Temp 
 HYDO.m                   1.80:  Hydro Offset 
 IFIN.deg                65.63:  Inc, Final 
 IMAX.deg                66.77:  Inc Max 
 IMIN.deg                65.61:  Inc Min 
 IMND.m                4612.67:  Inc Min Depth 
 IMXD.m                4811.63:  Inc Max Depth 
 JARR.                      No:  Jarring 
 LETM.      08.30.00 30-Jan-21:  Log End Time 
 LOST.hr                     0:  Lost Rig Time 
 LSTM.      21.15.00 27-Jan-21:  Log Start Time 
 MDCL.ppm             41000.00:  Mud Chlorides 
 MDES.     Inversion Oil/Synthetic:  Mud Desc 
 DFD .sg                  1.40:  Mud Density 
 MDMN.sg                  1.40:  Dens Mud Min 
 MDMX.sg                  1.40:  Dens Mud Max 
 MOIL.                      53:  Run Mud Oil % 
 MOWR.                   66:34:  Run Mud OWR 
 MSND.                     0.2:  Run Mud Sand % 
 MSOL.                    17.9:  Run Mud Solids% 
 DFV .spqt               77.00:  Mud Viscosity 
 MWOD.in                  4.75:  MWD Tool OD 
 MWSI.                      No:  Serv Intrp, MWD 
 OTIM.hr                110.38:  Time Operating 
 PCON.           Look Like New:  Pad Condition 
 PMAX.psia             5300.00:  Press Op, Max 
 PV  .cP                 57.00:  Mud PV 
 RUN .                    1200:  Run Number 
 ROPA.m/hr               13.00:  ROP Avg 
 ROPN.m/hr                9.00:  ROP Min 
 ROPX.m/hr               15.00:  ROP Max 
 RPMA.rpm               120.00:  RPM Surface Avg 
 RPMN.rpm               100.00:  RPM Surface Min 
 RPMX.rpm               135.00:  RPM Surface Max 
 RRUN.                    1200:  Rig Run Number 
 RTIM.hr                  2.65:  Time Reaming 
 SAZI.deg               145.04:  Azm, Start 
 SDEP.m                4455.01:  Start Depth 
 SIDD.                      No:  Serv Intrp, DD 
 SINC.deg                65.83:  Inc, Start 
 SPPA.psig             5037.00:  SPP Avg 
 SPPN.psig             4430.00:  SPP Min 
 SPPX.psig             5300.00:  SPP Max 
 STIM.      22.41.04 26-Jan-21:  Start Time 
 SVCS.                 DD, MWD:  Services 
 SVER.                    9.20:  Sperry Version 
 TDAT.m                 412.00:  Tot Depth Attmp 
 TDDF.                      No:  Trip for DD 
 TDLG.m                 412.00:  Tot Depth Loggd 
 TFF .                      No:  Trip for Fail 
 TQAA.f-kp               15.00:  Torque Abs Avg 
 TQAN.f-kp               12.00:  Torque Abs Min 
 TQAX.f-kp               17.00:  Torque Abs Max 
 TRRT.°/30m               1.18:  Turn Rotating 
 MRT .                     ADR:  Maximum Recorded Temperature 
 TTMX.degC               88.24:  Max Tool Temp 
 VS01.                90619458:  Virtual Str1 SN 
 VS02.                90519326:  Virtual Str2 SN 
 VS03.                90522176:  Virtual Str3 SN 
 VS04.                90512683:  Virtual Str4 SN 
 WBMN.klb                 1.00:  WOB Min 
 WITN.           Murad Giluyev:  Customer Rep 
 WITN.     Kamran Kemberlinski:  Customer Rep 2 
 WOBA.klb                 5.00:  WOB Avg 
 WOBX.klb                 9.00:  WOB Max 
 YP  .lhf2               41.00:  Yield Point 
~Curve Information Block
#MNEM.UNIT                 API CODE     Curve Description
#---------               -----------    ---------------------------
 TIME.HHMMSS            00 000 000 000:  GT Time & Date
 GTDEPTH.m              00 000 000 000:  GT Depth
 GTPQH.psia             00 000 000 000:  GT HR Quartz Pressure
 GTTQ.degC              00 000 000 000:  GT Quartz Temperature
 GTTN.NONE              00 000 000 000:  GT Test Number
 GTET.sec               00 000 000 000:  GT Elapsed Test Time
 GTTVD.m                00 000 000 000:  GT True Vertical Depth
#Other Information
#
#WARRANTY: Halliburton will use its best efforts to furnish customers with 
#accurate information and interpretations that are part of, and incident to, the services 
#provided.  However, Halliburton cannot and does not warrant the accuracy 
#or correctness of such information and interpretations.  Under no circumstances should any 
#such information or interpretation be relied upon as the sole basis for any drilling, 
#completion, production, or financial decision or any procedure involving any risk to the 
#safety of any drilling venture, drilling rig or its crew or any other third party.  The 
#Customer has full responsibility for all drilling, completion and production operation.  
#Halliburton makes no representations or warranties, either expressed or 
#implied, including, but not limited to, the implied warranties of merchantability or fitness 
#for a particular purpose, with respect to the services rendered.  In no event will 
#Halliburton be liable for failure to obtain any particular results or for 
#any damages, including, but not limited to, indirect, special or consequential damages, 
#resulting from the use of any information or interpretation provided by Halliburton.
#
~A           TIME           GTDEPTH  GTPQH  GTTQ  GTTN  GTET   GTTVD  
# ...
   02:25:43.000.28-Jan-2021 4453.81 5413.81 60.84 1.00 161.00 2485.38
   02:25:43.200.28-Jan-2021 4453.81 5413.81 60.84 1.00 161.20 2485.38
   02:25:43.400.28-Jan-2021 4453.81 5411.20 60.84 1.00 161.40 2485.38
   02:25:43.600.28-Jan-2021 4453.81 5412.67 60.84 1.00 161.60 2485.38
   02:25:43.800.28-Jan-2021 4453.81 5411.74 60.84 1.00 161.80 2485.38
   02:25:44.000.28-Jan-2021 4453.81 5412.38 60.84 1.00 162.00 2485.38
   02:25:44.200.28-Jan-2021 4453.81 5412.38 60.84 1.00 162.20 2485.38
   02:25:44.400.28-Jan-2021 4453.81 5411.55 60.84 1.00 162.40 2485.38
   02:25:44.600.28-Jan-2021 4453.81 5413.03 60.84 1.00 162.60 2485.38
   02:25:44.800.28-Jan-2021 4453.81 5412.20 60.84 1.00 162.80 2485.38
   02:25:45.000.28-Jan-2021 4453.81 5411.21 60.84 1.00 163.00 2485.38
   02:25:45.200.28-Jan-2021 4453.81 5411.21 60.84 1.00 163.20 2485.38
   02:25:45.400.28-Jan-2021 4453.81 5411.09 60.84 1.00 163.40 2485.38
   02:25:45.600.28-Jan-2021 4453.81 5412.30 60.84 1.00 163.60 2485.38
   02:25:45.800.28-Jan-2021 4453.81 5404.44 60.84 1.00 163.80 2485.38
   02:25:46.000.28-Jan-2021 4453.81 5411.06 60.84 1.00 164.00 2485.38
   02:25:46.200.28-Jan-2021 4453.81 5411.06 60.84 1.00 164.20 2485.38
   02:25:46.400.28-Jan-2021 4453.81 5414.25 60.84 1.00 164.40 2485.38
   02:25:46.600.28-Jan-2021 4453.81 5413.06 60.84 1.00 164.60 2485.38
   02:25:46.800.28-Jan-2021 4453.81 5412.63 60.84 1.00 164.80 2485.38
   02:25:47.000.28-Jan-2021 4453.81 5410.97 60.84 1.00 165.00 2485.38
   02:25:47.200.28-Jan-2021 4453.81 5410.97 60.84 1.00 165.20 2485.38
   02:25:47.400.28-Jan-2021 4453.81 5412.09 60.84 1.00 165.40 2485.38
   02:25:47.600.28-Jan-2021 4453.81 5412.49 60.84 1.00 165.60 2485.38
   02:25:47.800.28-Jan-2021 4453.81 5412.99 60.83 1.00 165.80 2485.38
   02:25:48.000.28-Jan-2021 4453.81 5411.31 60.83 1.00 166.00 2485.38
   02:25:48.200.28-Jan-2021 4453.81 5411.31 60.83 1.00 166.20 2485.38
   02:25:48.400.28-Jan-2021 4453.81 5411.84 60.83 1.00 166.40 2485.38
   02:25:48.600.28-Jan-2021 4453.81 5411.78 60.83 1.00 166.60 2485.38
   02:25:48.800.28-Jan-2021 4453.81 5413.30 60.83 1.00 166.80 2485.38
   02:25:49.000.28-Jan-2021 4453.81 5411.51 60.83 1.00 167.00 2485.38
   02:25:49.200.28-Jan-2021 4453.81 5411.51 60.83 1.00 167.20 2485.38
   02:25:49.400.28-Jan-2021 4453.81 5412.37 60.83 1.00 167.40 2485.38
   02:25:49.600.28-Jan-2021 4453.81 5411.73 60.83 1.00 167.60 2485.38
   02:25:49.800.28-Jan-2021 4453.81 5416.16 60.83 1.00 167.80 2485.38
   02:25:50.000.28-Jan-2021 4453.81 5404.64 60.83 1.00 168.00 2485.38
   02:25:50.200.28-Jan-2021 4453.81 5404.64 60.83 1.00 168.20 2485.38
   02:25:50.400.28-Jan-2021 4453.81 5412.85 60.83 1.00 168.40 2485.38
   02:25:50.600.28-Jan-2021 4453.81 5413.94 60.83 1.00 168.60 2485.38
   02:25:50.800.28-Jan-2021 4453.81 5415.55 60.83 1.00 168.80 2485.38
   02:25:51.000.28-Jan-2021 4453.81 5404.15 60.83 1.00 169.00 2485.38
   02:25:51.200.28-Jan-2021 4453.81 5404.15 60.83 1.00 169.20 2485.38
   02:25:51.400.28-Jan-2021 4453.81 5412.92 60.83 1.00 169.40 2485.38
   02:25:51.600.28-Jan-2021 4453.81 5414.46 60.83 1.00 169.60 2485.38
   02:25:51.800.28-Jan-2021 4453.81 5405.98 60.83 1.00 169.80 2485.38
   02:25:52.000.28-Jan-2021 4453.81 5411.75 60.83 1.00 170.00 2485.38
   02:25:52.200.28-Jan-2021 4453.81 5411.75 60.83 1.00 170.20 2485.38
   02:25:52.400.28-Jan-2021 4453.81 5415.67 60.83 1.00 170.40 2485.38
   02:25:52.600.28-Jan-2021 4453.81 5412.16 60.83 1.00 170.60 2485.38
   02:25:52.800.28-Jan-2021 4453.81 5412.65 60.83 1.00 170.80 2485.38
   02:25:53.000.28-Jan-2021 4453.81 5403.51 60.83 1.00 171.00 2485.38
   02:25:53.200.28-Jan-2021 4453.81 5403.51 60.83 1.00 171.20 2485.38
   02:25:53.400.28-Jan-2021 4453.81 5412.97 60.83 1.00 171.40 2485.38
   02:25:53.600.28-Jan-2021 4453.81 5414.38 60.83 1.00 171.60 2485.38
   02:25:53.800.28-Jan-2021 4453.81 5414.03 60.83 1.00 171.80 2485.38
   02:25:54.000.28-Jan-2021 4453.81 5412.37 60.83 1.00 172.00 2485.38
   02:25:54.200.28-Jan-2021 4453.81 5412.37 60.83 1.00 172.20 2485.38
   02:25:54.400.28-Jan-2021 4453.81 5412.75 60.83 1.00 172.40 2485.38
   02:25:54.600.28-Jan-2021 4453.81 5411.63 60.83 1.00 172.60 2485.38
   02:25:54.800.28-Jan-2021 4453.81 5413.02 60.83 1.00 172.80 2485.38
   02:25:55.000.28-Jan-2021 4453.81 5413.35 60.83 1.00 173.00 2485.38
   02:25:55.200.28-Jan-2021 4453.81 5413.35 60.83 1.00 173.20 2485.38
   02:25:55.400.28-Jan-2021 4453.81 5413.81 60.82 1.00 173.40 2485.38
   02:25:55.600.28-Jan-2021 4453.81 5411.77 60.82 1.00 173.60 2485.38
   02:25:55.800.28-Jan-2021 4453.81 5411.70 60.82 1.00 173.80 2485.38
   02:25:56.000.28-Jan-2021 4453.81 5412.64 60.82 1.00 174.00 2485.38
   02:25:56.200.28-Jan-2021 4453.81 5412.64 60.82 1.00 174.20 2485.38
   02:25:56.400.28-Jan-2021 4453.81 5409.56 60.82 1.00 174.40 2485.38
   02:25:56.600.28-Jan-2021 4453.81 5406.97 60.82 1.00 174.60 2485.38
   02:25:56.800.28-Jan-2021 4453.81 5411.32 60.82 1.00 174.80 2485.38
   02:25:57.000.28-Jan-2021 4453.81 5414.33 60.82 1.00 175.00 2485.38
   02:25:57.200.28-Jan-2021 4453.81 5414.33 60.82 1.00 175.20 2485.38
   02:25:57.400.28-Jan-2021 4453.81 5413.04 60.82 1.00 175.40 2485.38
   02:25:57.600.28-Jan-2021 4453.81 5411.84 60.82 1.00 175.60 2485.38
   02:25:57.800.28-Jan-2021 4453.81 5411.07 60.82 1.00 175.80 2485.38
   02:25:58.000.28-Jan-2021 4453.81 5413.44 60.82 1.00 176.00 2485.38
   02:25:58.200.28-Jan-2021 4453.81 5413.44 60.82 1.00 176.20 2485.38
   02:25:58.400.28-Jan-2021 4453.81 5413.01 60.82 1.00 176.40 2485.38
   02:25:58.600.28-Jan-2021 4453.81 5412.84 60.82 1.00 176.60 2485.38
   02:25:58.800.28-Jan-2021 4453.81 5411.77 60.82 1.00 176.80 2485.38
   02:25:59.000.28-Jan-2021 4453.81 5414.07 60.82 1.00 177.00 2485.38
   02:25:59.200.28-Jan-2021 4453.81 5414.07 60.82 1.00 177.20 2485.38
   02:25:59.400.28-Jan-2021 4453.81 5412.52 60.82 1.00 177.40 2485.38
   02:25:59.600.28-Jan-2021 4453.81 5413.16 60.82 1.00 177.60 2485.38
   02:25:59.800.28-Jan-2021 4453.81 5411.31 60.82 1.00 177.80 2485.38
   02:26:00.000.28-Jan-2021 4453.81 5406.39 60.82 1.00 178.00 2485.38
   02:26:00.200.28-Jan-2021 4453.81 5406.39 60.82 1.00 178.20 2485.38
   02:26:00.400.28-Jan-2021 4453.81 5412.56 60.82 1.00 178.40 2485.38
   02:26:00.600.28-Jan-2021 4453.81 5416.32 60.82 1.00 178.60 2485.38
   02:26:00.800.28-Jan-2021 4453.81 5404.45 60.82 1.00 178.80 2485.38
   02:26:01.000.28-Jan-2021 4453.81 5413.47 60.82 1.00 179.00 2485.38
   02:26:01.200.28-Jan-2021 4453.81 5413.47 60.82 1.00 179.20 2485.38
   02:26:01.400.28-Jan-2021 4453.81 5415.05 60.82 1.00 179.40 2485.38
   02:26:01.600.28-Jan-2021 4453.81 5414.20 60.82 1.00 179.60 2485.38
   02:26:01.800.28-Jan-2021 4453.81 5403.83 60.82 1.00 179.80 2485.38
   02:26:02.000.28-Jan-2021 4453.81 5413.07 60.82 1.00 180.00 2485.38
   02:26:02.200.28-Jan-2021 4453.81 5413.07 60.82 1.00 180.20 2485.38
   02:26:02.400.28-Jan-2021 4453.81 5410.61 60.82 1.00 180.40 2485.38
   02:26:02.600.28-Jan-2021 4453.81 5409.33 60.81 1.00 180.60 2485.38
   02:26:02.800.28-Jan-2021 4453.81 5411.29 60.81 1.00 180.80 2485.38
   02:26:03.000.28-Jan-2021 4453.81 5413.19 60.81 1.00 181.00 2485.38
   02:26:03.200.28-Jan-2021 4453.81 5413.19 60.81 1.00 181.20 2485.38
   02:26:03.400.28-Jan-2021 4453.81 5411.77 60.81 1.00 181.40 2485.38
   02:26:03.600.28-Jan-2021 4453.81 5412.56 60.81 1.00 181.60 2485.38
   02:26:03.800.28-Jan-2021 4453.81 5403.08 60.81 1.00 181.80 2485.38
   02:26:04.000.28-Jan-2021 4453.81 5410.76 60.81 1.00 182.00 2485.38
   02:26:04.200.28-Jan-2021 4453.81 5410.76 60.81 1.00 182.20 2485.38
   02:26:04.400.28-Jan-2021 4453.81 5414.21 60.81 1.00 182.40 2485.38
   02:26:04.600.28-Jan-2021 4453.81 5413.84 60.81 1.00 182.60 2485.38
   02:26:04.800.28-Jan-2021 4453.81 5411.56 60.81 1.00 182.80 2485.38
   02:26:05.000.28-Jan-2021 4453.81 5411.40 60.81 1.00 183.00 2485.38
   02:26:05.200.28-Jan-2021 4453.81 5411.40 60.81 1.00 183.20 2485.38
   02:26:05.400.28-Jan-2021 4453.81 5411.27 60.81 1.00 183.40 2485.38
   02:26:05.600.28-Jan-2021 4453.81 5413.10 60.81 1.00 183.60 2485.38
   02:26:05.800.28-Jan-2021 4453.81 5412.64 60.81 1.00 183.80 2485.38
