~Version Information
 VERS.                  2.0:   CWLS log ASCII Standard -VERSION 2.0
 WRAP.                   NO:   One line per depth step
~Well Information Block
#MNEM.UNIT     VALUE/NAME     DESCRIPTION
#---------     -----------    ---------------------------
 STRT.S             14:24:44 28-Jan-21: START TIME 14:24:44 28-Jan-21
 STOP.S             14:31:13 28-Jan-21: STOP TIME  14:31:13 28-Jan-21
 STEP.S                   0.00: STEP TIME
 NULL.                 -999.25: NULL VALUE
 DFWT.                        :  DIST FWL TEXT
 DFST.                        :  DIST FSL TEXT
 DMF .             Drill Floor:  DRILL MEAS FROM
 STIM.      00.00.00 25-Sep-20:  START TIME
 DATE.      16.12.48 31-Jan-21:  END TIME
 SPUD.               20-Sep-20:  SPUD DATE
 NREF.                    Grid:  NORTH REFERENCE
 HPTY.       Minimum Curvature:  HOLE POS TYPE
 DMOD.             Drill Model:  DRILL MOD DESC
 SVYD.                  Survey:  SURVEY DESC
 ILTD.               Lithology:  INTERP LTH DESC
 FTOP.          Formation Tops:  FORM TOPS DESC
 RIG .              East Azeri:  RIG NAME
 PDAT.          Mean Sea Level:  PERMANENT DATUM
 FLD .                     ACG:  FIELD NAME
 SON .        AZ-XX-0906591820:  JOB NUMBER
 CTRY.              Azerbaijan:  COUNTRY NAME
 WELL.                     D37:  WELL NAME
 SRVC.     Turan Drilling & Engineering:  CONTRACTOR
 COMP.     BP Exploration (Caspian Sea) ltd.:  COMPANY
 WTYP.                Deviated:  WELL TYPE
 MDS .        Operator Entered:  MAG DATA SOURCE
 UWI .                     N/A:  UNIQUE WELL IDENTIFIER
 API .                     N/A:  API NUMBER
 BASE.              Azerbaijan:  LOGGING EQUIPMENT BASE LOCATION
 REGN.                   EESSA:  REGION
 PROV.                    Baku:  PROVINCE
 STAT.                    Baku:  STATE NAME
 MWDS.                    Baku:  MWD SHOP
 JOBN.        AZ-XX-0906591820:  JOB TICKET NUMB
 DOE .                     N/A:  DOE NUMBER
 DCON.         Sperry Drilling:  DIRECTNL CONTR
 UNIT.                     N/A:  LOGGING EQUIPMENT ID
 CNTY.                        :  COUNTY
 LOC .                        :  LOCATION
 LMF .             Drill Floor:  LOG MEASURED FROM
 TVDS.m                  43.60:  TVDSS CORRECTN
 LATI.deg                40.02:  LATITUDE
 LONG.deg                51.45:  LONGITUDE
 WHNS.m                  11.04:  WELL HEAD N/S
 WHEW.m                 -12.38:  WELL HEAD E/W
 UTMX.m              538763.98:  UTM X
 UTMY.m             4431880.20:  UTM Y
 DFWL.m                   0.00:  DISTANCE FWL
 DFSL.m                   0.00:  DISTANCE FSL
 SDEP.m                 300.00:  START DEPTH
 TDD .m                4900.01:  TOTAL DEPTH (DRILLER)
 VSDR.deg               185.64:  VERT SEC DIRECT
 GVFD.g                   1.00:  GRAVITY FIELD
 MFLD.nT              50301.00:  MAGNETIC FIELD
 MDIP.deg                59.46:  MAGNETIC DIP
 MDEC.deg                 6.43:  MAGNETIC DECL
 GRDC.deg                 0.29:  GRID CORRECTION
 AZTC.deg                 6.14:  AZM TOTAL CORR
 EPD .m                   0.00:  ELEVATION
 EGL .m                   0.00:  GROUND ELEVATION
 WDMS.m                 151.80:  WD ELEV
 APD .m                  43.60:  DEPTH ABOVE PD
 DEP .m                 571.69:  DEPTH
 AGAP.m                  43.60:  AIR GAP
 VSEW.m                 -12.38:  VERT SEC E/W
 VSNS.m                  11.04:  VERT SEC N/S
 EKB .m                  43.60:  KB ELEVATION
 EDF .m                  43.60:  DF ELEVATION
 TDL .m                 412.00:  TOTAL DEPTH (LOGGER)
 VSC .                       0:  VS TO CLOSURE
 MAGU.                 1849300:  MAGUTM CHECKSUM
~Parameter Information Block
#MNEM.UNIT       Value        Description
#---------     -----------    ---------------------------
 AV  .mps                 2.21:  Ann Velocity 
 AVMX.mps                 2.53:  Max Ann Veloc 
 AZIF.deg               144.83:  Azm, Final 
 BHAT.        Rotary Steerable:  BHA Type 
 BROT.°/30m              -0.52:  Build Rotating 
 BS  .in                  6.50:  Bit Size 
 BTPL.psig              209.00:  Bit Press Loss 
 CABU.                      No:  Customer Abuse 
 CGEO.        Ali Isfandiyarov:  Customer Geo 
 COMM.                     Âh:  Run Comments 1 
 TCS .hr                 61.31:  Time Ciculation Ended 
 CV  .mps                 4.66:  Crit Velocity 
 CVMX.mps                 5.02:  Max Crit Veloc 
 DD1 .          Fariz Nahmatov:  Direct Drillr 1 
 DD2 .            Musa Ahmadov:  Direct Drillr 2 
 DDSV.               Geo-Pilot:  DD Service 
 DEFF.%                 100.00:  % Det Eff 
 DLRX.°/30m               1.44:  Dogleg Rot Max 
 DLSO.°/30m               0.83:  Dogleg Oriented 
 DLSX.°/30m               1.44:  Dogleg Str Max 
 DRET.      08.30.00 30-Jan-21:  Drill End Time 
 DRST.      21.15.00 27-Jan-21:  Drill Start Tim 
 DTIM.hr                 37.28:  Time Drilling 
 EDEP.m                4867.01:  End Depth 
 ENG1.          Rasim Hashimov:  Engineer 1 
 ENG2.         Almaz Almadatov:  Engineer 2 
 ENG3.        Tamerlan Ahmadov:  Engineer 3 
 ETIM.      22.41.04 31-Jan-21:  End Time 
 FLOI.gpm               400.00:  Flow In 
 FLON.gpm               300.00:  Flow In Min 
 FLOS.cptm                0.00:  Fluid Loss 
 FLOX.gpm               400.00:  Flow In Max 
 HFLO.                      No:  High Flow 
 HPRE.                      No:  High Pressure 
 HTEM.                      No:  High Temp 
 HYDO.m                   1.80:  Hydro Offset 
 IFIN.deg                65.63:  Inc, Final 
 IMAX.deg                66.77:  Inc Max 
 IMIN.deg                65.61:  Inc Min 
 IMND.m                4612.67:  Inc Min Depth 
 IMXD.m                4811.63:  Inc Max Depth 
 JARR.                      No:  Jarring 
 LETM.      08.30.00 30-Jan-21:  Log End Time 
 LOST.hr                     0:  Lost Rig Time 
 LSTM.      21.15.00 27-Jan-21:  Log Start Time 
 MDCL.ppm             41000.00:  Mud Chlorides 
 MDES.     Inversion Oil/Synthetic:  Mud Desc 
 DFD .sg                  1.40:  Mud Density 
 MDMN.sg                  1.40:  Dens Mud Min 
 MDMX.sg                  1.40:  Dens Mud Max 
 MOIL.                      53:  Run Mud Oil % 
 MOWR.                   66:34:  Run Mud OWR 
 MSND.                     0.2:  Run Mud Sand % 
 MSOL.                    17.9:  Run Mud Solids% 
 DFV .spqt               77.00:  Mud Viscosity 
 MWOD.in                  4.75:  MWD Tool OD 
 MWSI.                      No:  Serv Intrp, MWD 
 OTIM.hr                110.38:  Time Operating 
 PCON.           Look Like New:  Pad Condition 
 PMAX.psia             5300.00:  Press Op, Max 
 PV  .cP                 57.00:  Mud PV 
 RUN .                    1200:  Run Number 
 ROPA.m/hr               13.00:  ROP Avg 
 ROPN.m/hr                9.00:  ROP Min 
 ROPX.m/hr               15.00:  ROP Max 
 RPMA.rpm               120.00:  RPM Surface Avg 
 RPMN.rpm               100.00:  RPM Surface Min 
 RPMX.rpm               135.00:  RPM Surface Max 
 RRUN.                    1200:  Rig Run Number 
 RTIM.hr                  2.65:  Time Reaming 
 SAZI.deg               145.04:  Azm, Start 
 SDEP.m                4455.01:  Start Depth 
 SIDD.                      No:  Serv Intrp, DD 
 SINC.deg                65.83:  Inc, Start 
 SPPA.psig             5037.00:  SPP Avg 
 SPPN.psig             4430.00:  SPP Min 
 SPPX.psig             5300.00:  SPP Max 
 STIM.      22.41.04 26-Jan-21:  Start Time 
 SVCS.                 DD, MWD:  Services 
 SVER.                    9.20:  Sperry Version 
 TDAT.m                 412.00:  Tot Depth Attmp 
 TDDF.                      No:  Trip for DD 
 TDLG.m                 412.00:  Tot Depth Loggd 
 TFF .                      No:  Trip for Fail 
 TQAA.f-kp               15.00:  Torque Abs Avg 
 TQAN.f-kp               12.00:  Torque Abs Min 
 TQAX.f-kp               17.00:  Torque Abs Max 
 TRRT.°/30m               1.18:  Turn Rotating 
 MRT .                     ADR:  Maximum Recorded Temperature 
 TTMX.degC               88.24:  Max Tool Temp 
 VS01.                90619458:  Virtual Str1 SN 
 VS02.                90519326:  Virtual Str2 SN 
 VS03.                90522176:  Virtual Str3 SN 
 VS04.                90512683:  Virtual Str4 SN 
 WBMN.klb                 1.00:  WOB Min 
 WITN.           Murad Giluyev:  Customer Rep 
 WITN.     Kamran Kemberlinski:  Customer Rep 2 
 WOBA.klb                 5.00:  WOB Avg 
 WOBX.klb                 9.00:  WOB Max 
 YP  .lhf2               41.00:  Yield Point 
~Curve Information Block
#MNEM.UNIT                 API CODE     Curve Description
#---------               -----------    ---------------------------
 TIME.HHMMSS            00 000 000 000:  GT Time & Date
 GTDEPTH.m              00 000 000 000:  GT Depth
 GTPQH.psia             00 000 000 000:  GT HR Quartz Pressure
 GTTQ.degC              00 000 000 000:  GT Quartz Temperature
 GTTN.NONE              00 000 000 000:  GT Test Number
 GTET.sec               00 000 000 000:  GT Elapsed Test Time
 GTTVD.m                00 000 000 000:  GT True Vertical Depth
#Other Information
#
#WARRANTY: Halliburton will use its best efforts to furnish customers with 
#accurate information and interpretations that are part of, and incident to, the services 
#provided.  However, Halliburton cannot and does not warrant the accuracy 
#or correctness of such information and interpretations.  Under no circumstances should any 
#such information or interpretation be relied upon as the sole basis for any drilling, 
#completion, production, or financial decision or any procedure involving any risk to the 
#safety of any drilling venture, drilling rig or its crew or any other third party.  The 
#Customer has full responsibility for all drilling, completion and production operation.  
#Halliburton makes no representations or warranties, either expressed or 
#implied, including, but not limited to, the implied warranties of merchantability or fitness 
#for a particular purpose, with respect to the services rendered.  In no event will 
#Halliburton be liable for failure to obtain any particular results or for 
#any damages, including, but not limited to, indirect, special or consequential damages, 
#resulting from the use of any information or interpretation provided by Halliburton.
#
~A           TIME           GTDEPTH  GTPQH  GTTQ  GTTN  GTET   GTTVD  
   14:24:44.043.28-Jan-2021 4530.01 5556.65 71.43 4.00   0.00 2516.71
   14:24:44.243.28-Jan-2021 4530.01 5556.65 71.43 4.00   0.20 2516.71
   14:24:44.443.28-Jan-2021 4530.01 5555.85 71.43 4.00   0.40 2516.71
   14:24:44.643.28-Jan-2021 4530.01 5556.35 71.43 4.00   0.60 2516.71
   14:24:44.843.28-Jan-2021 4530.01 5550.85 71.43 4.00   0.80 2516.71
   14:24:45.043.28-Jan-2021 4530.01 5554.54 71.43 4.00   1.00 2516.71
   14:24:45.243.28-Jan-2021 4530.01 5554.54 71.43 4.00   1.20 2516.71
   14:24:45.443.28-Jan-2021 4530.01 5554.81 71.43 4.00   1.40 2516.71
   14:24:45.643.28-Jan-2021 4530.01 5557.25 71.42 4.00   1.60 2516.71
   14:24:45.843.28-Jan-2021 4530.01 5557.70 71.42 4.00   1.80 2516.71
   14:24:46.043.28-Jan-2021 4530.01 5556.47 71.42 4.00   2.00 2516.71
   14:24:46.243.28-Jan-2021 4530.01 5556.47 71.42 4.00   2.20 2516.71
   14:24:46.443.28-Jan-2021 4530.01 5555.54 71.42 4.00   2.40 2516.71
   14:24:46.643.28-Jan-2021 4530.01 5555.51 71.42 4.00   2.60 2516.71
   14:24:46.843.28-Jan-2021 4530.01 5554.25 71.42 4.00   2.80 2516.71
   14:24:47.043.28-Jan-2021 4530.01 5554.80 71.42 4.00   3.00 2516.71
   14:24:47.243.28-Jan-2021 4530.01 5554.80 71.42 4.00   3.20 2516.71
   14:24:47.443.28-Jan-2021 4530.01 5554.46 71.42 4.00   3.40 2516.71
   14:24:47.643.28-Jan-2021 4530.01 5553.37 71.42 4.00   3.60 2516.71
   14:24:47.844.28-Jan-2021 4530.01 5553.69 71.42 4.00   3.80 2516.71
   14:24:48.044.28-Jan-2021 4530.01 5553.64 71.42 4.00   4.00 2516.71
   14:24:48.244.28-Jan-2021 4530.01 5553.64 71.42 4.00   4.20 2516.71
   14:24:48.444.28-Jan-2021 4530.01 5553.94 71.42 4.00   4.40 2516.71
   14:24:48.644.28-Jan-2021 4530.01 5548.40 71.42 4.00   4.60 2516.71
   14:24:48.844.28-Jan-2021 4530.01 5552.21 71.42 4.00   4.80 2516.71
   14:24:49.044.28-Jan-2021 4530.01 5553.54 71.42 4.00   5.00 2516.71
   14:24:49.244.28-Jan-2021 4530.01 5553.54 71.42 4.00   5.20 2516.71
   14:24:49.444.28-Jan-2021 4530.01 5555.86 71.42 4.00   5.40 2516.71
   14:24:49.644.28-Jan-2021 4530.01 5556.05 71.42 4.00   5.60 2516.71
   14:24:49.844.28-Jan-2021 4530.01 5554.91 71.42 4.00   5.80 2516.71
   14:24:50.044.28-Jan-2021 4530.01 5556.17 71.42 4.00   6.00 2516.71
   14:24:50.244.28-Jan-2021 4530.01 5556.17 71.42 4.00   6.20 2516.71
   14:24:50.444.28-Jan-2021 4530.01 5555.95 71.42 4.00   6.40 2516.71
   14:24:50.644.28-Jan-2021 4530.01 5555.70 71.42 4.00   6.60 2516.71
   14:24:50.844.28-Jan-2021 4530.01 5554.26 71.42 4.00   6.80 2516.71
   14:24:51.044.28-Jan-2021 4530.01 5552.45 71.42 4.00   7.00 2516.71
   14:24:51.244.28-Jan-2021 4530.01 5552.45 71.42 4.00   7.20 2516.71
   14:24:51.444.28-Jan-2021 4530.01 5552.45 71.42 4.00   7.40 2516.71
   14:24:51.644.28-Jan-2021 4530.01 5551.41 71.42 4.00   7.60 2516.71
   14:24:51.844.28-Jan-2021 4530.01 5555.33 71.42 4.00   7.80 2516.71
   14:24:52.044.28-Jan-2021 4530.01 5556.47 71.42 4.00   8.00 2516.71
   14:24:52.244.28-Jan-2021 4530.01 5556.47 71.42 4.00   8.20 2516.71
   14:24:52.444.28-Jan-2021 4530.01 5557.81 71.42 4.00   8.40 2516.71
   14:24:52.645.28-Jan-2021 4530.01 5551.49 71.42 4.00   8.60 2516.71
   14:24:52.845.28-Jan-2021 4530.01 5554.03 71.42 4.00   8.80 2516.71
   14:24:53.045.28-Jan-2021 4530.01 5556.28 71.42 4.00   9.00 2516.71
   14:24:53.245.28-Jan-2021 4530.01 5556.28 71.42 4.00   9.20 2516.71
   14:24:53.445.28-Jan-2021 4530.01 5555.70 71.41 4.00   9.40 2516.71
   14:24:53.645.28-Jan-2021 4530.01 5552.36 71.41 4.00   9.60 2516.71
   14:24:53.845.28-Jan-2021 4530.01 5552.55 71.41 4.00   9.80 2516.71
   14:24:54.045.28-Jan-2021 4530.01 5554.49 71.41 4.00  10.00 2516.71
   14:24:54.245.28-Jan-2021 4530.01 5554.49 71.41 4.00  10.20 2516.71
   14:24:54.445.28-Jan-2021 4530.01 5552.48 71.41 4.00  10.40 2516.71
   14:24:54.645.28-Jan-2021 4530.01 5553.56 71.41 4.00  10.60 2516.71
   14:24:54.845.28-Jan-2021 4530.01 5554.94 71.41 4.00  10.80 2516.71
   14:24:55.045.28-Jan-2021 4530.01 5550.84 71.41 4.00  11.00 2516.71
   14:24:55.245.28-Jan-2021 4530.01 5550.84 71.41 4.00  11.20 2516.71
   14:24:55.445.28-Jan-2021 4530.01 5554.58 71.41 4.00  11.40 2516.71
   14:24:55.645.28-Jan-2021 4530.01 5554.60 71.41 4.00  11.60 2516.71
   14:24:55.845.28-Jan-2021 4530.01 5551.46 71.41 4.00  11.80 2516.71
   14:24:56.045.28-Jan-2021 4530.01 5553.53 71.41 4.00  12.00 2516.71
   14:24:56.245.28-Jan-2021 4530.01 5553.53 71.41 4.00  12.20 2516.71
   14:24:56.445.28-Jan-2021 4530.01 5554.02 71.41 4.00  12.40 2516.71
   14:24:56.645.28-Jan-2021 4530.01 5553.53 71.41 4.00  12.60 2516.71
   14:24:56.845.28-Jan-2021 4530.01 5554.82 71.41 4.00  12.80 2516.71
   14:24:57.045.28-Jan-2021 4530.01 5555.52 71.41 4.00  13.00 2516.71
   14:24:57.245.28-Jan-2021 4530.01 5555.52 71.41 4.00  13.20 2516.71
   14:24:57.446.28-Jan-2021 4530.01 5555.46 71.41 4.00  13.40 2516.71
   14:24:57.646.28-Jan-2021 4530.01 5574.46 71.41 4.00  13.60 2516.71
   14:24:57.846.28-Jan-2021 4530.01 5668.10 71.41 4.00  13.80 2516.71
   14:24:58.046.28-Jan-2021 4530.01 5761.07 71.41 4.00  14.00 2516.71
   14:24:58.246.28-Jan-2021 4530.01 5761.07 71.41 4.00  14.20 2516.71
   14:24:58.446.28-Jan-2021 4530.01 5899.52 71.41 4.00  14.40 2516.71
   14:24:58.646.28-Jan-2021 4530.01 5943.33 71.41 4.00  14.60 2516.71
   14:24:58.846.28-Jan-2021 4530.01 5902.66 71.41 4.00  14.80 2516.71
   14:24:59.046.28-Jan-2021 4530.01 5744.54 71.41 4.00  15.00 2516.71
   14:24:59.246.28-Jan-2021 4530.01 5744.54 71.41 4.00  15.20 2516.71
   14:24:59.446.28-Jan-2021 4530.01 5730.67 71.41 4.00  15.40 2516.71
   14:24:59.646.28-Jan-2021 4530.01 5722.94 71.41 4.00  15.60 2516.71
   14:24:59.846.28-Jan-2021 4530.01 5721.21 71.41 4.00  15.80 2516.71
   14:25:00.046.28-Jan-2021 4530.01 5716.32 71.41 4.00  16.00 2516.71
   14:25:00.246.28-Jan-2021 4530.01 5716.32 71.41 4.00  16.20 2516.71
   14:25:00.446.28-Jan-2021 4530.01 5706.97 71.41 4.00  16.40 2516.71
   14:25:00.646.28-Jan-2021 4530.01 5711.20 71.41 4.00  16.60 2516.71
   14:25:00.846.28-Jan-2021 4530.01 5728.57 71.41 4.00  16.80 2516.71
   14:25:01.046.28-Jan-2021 4530.01 5763.42 71.41 4.00  17.00 2516.71
   14:25:01.246.28-Jan-2021 4530.01 5763.42 71.41 4.00  17.20 2516.71
   14:25:01.446.28-Jan-2021 4530.01 5832.16 71.41 4.00  17.40 2516.71
   14:25:01.646.28-Jan-2021 4530.01 5936.64 71.40 4.00  17.60 2516.71
   14:25:01.846.28-Jan-2021 4530.01 6013.70 71.40 4.00  17.80 2516.71
   14:25:02.046.28-Jan-2021 4530.01 6094.76 71.40 4.00  18.00 2516.71
   14:25:02.247.28-Jan-2021 4530.01 6094.76 71.40 4.00  18.20 2516.71
   14:25:02.447.28-Jan-2021 4530.01 6220.17 71.40 4.00  18.40 2516.71
   14:25:02.647.28-Jan-2021 4530.01 6264.29 71.40 4.00  18.60 2516.71
   14:25:02.847.28-Jan-2021 4530.01 6279.56 71.40 4.00  18.80 2516.71
   14:25:03.047.28-Jan-2021 4530.01 6282.28 71.40 4.00  19.00 2516.71
   14:25:03.247.28-Jan-2021 4530.01 6282.28 71.40 4.00  19.20 2516.71
   14:25:03.447.28-Jan-2021 4530.01 6417.77 71.40 4.00  19.40 2516.71
   14:25:03.647.28-Jan-2021 4530.01 6201.56 71.40 4.00  19.60 2516.71
   14:25:03.847.28-Jan-2021 4530.01 5970.95 71.40 4.00  19.80 2516.71
   14:25:04.047.28-Jan-2021 4530.01 6033.65 71.40 4.00  20.00 2516.71
   14:25:04.247.28-Jan-2021 4530.01 6033.65 71.40 4.00  20.20 2516.71
   14:25:04.447.28-Jan-2021 4530.01 6118.03 71.40 4.00  20.40 2516.71
   14:25:04.647.28-Jan-2021 4530.01 6168.04 71.40 4.00  20.60 2516.71
   14:25:04.847.28-Jan-2021 4530.01 6262.16 71.40 4.00  20.80 2516.71
   14:25:05.047.28-Jan-2021 4530.01 6261.10 71.40 4.00  21.00 2516.71
   14:25:05.247.28-Jan-2021 4530.01 6261.10 71.40 4.00  21.20 2516.71
   14:25:05.447.28-Jan-2021 4530.01 6284.90 71.40 4.00  21.40 2516.71
   14:25:05.647.28-Jan-2021 4530.01 6334.95 71.40 4.00  21.60 2516.71
   14:25:05.847.28-Jan-2021 4530.01 6409.00 71.40 4.00  21.80 2516.71
   14:25:06.047.28-Jan-2021 4530.01 6413.82 71.40 4.00  22.00 2516.71
   14:25:06.247.28-Jan-2021 4530.01 6413.82 71.40 4.00  22.20 2516.71
   14:25:06.447.28-Jan-2021 4530.01 6263.25 71.40 4.00  22.40 2516.71
   14:25:06.647.28-Jan-2021 4530.01 6197.42 71.40 4.00  22.60 2516.71
   14:25:06.847.28-Jan-2021 4530.01 6221.08 71.40 4.00  22.80 2516.71
