~Version Information
 VERS.                  2.0:   CWLS log ASCII Standard -VERSION 2.0
 WRAP.                   NO:   One line per depth step
~Well Information Block
#MNEM.UNIT     VALUE/NAME     DESCRIPTION
#---------     -----------    ---------------------------
 STRT.S             05:51:52 30-Jan-21: START TIME 05:51:52 30-Jan-21
 STOP.S             05:58:20 30-Jan-21: STOP TIME  05:58:20 30-Jan-21
 STEP.S                   0.00: STEP TIME
 NULL.                 -999.25: NULL VALUE
 DFWT.                        :  DIST FWL TEXT
 DFST.                        :  DIST FSL TEXT
 DMF .             Drill Floor:  DRILL MEAS FROM
 STIM.      00.00.00 25-Sep-20:  START TIME
 DATE.      16.12.48 31-Jan-21:  END TIME
 SPUD.               20-Sep-20:  SPUD DATE
 NREF.                    Grid:  NORTH REFERENCE
 HPTY.       Minimum Curvature:  HOLE POS TYPE
 DMOD.             Drill Model:  DRILL MOD DESC
 SVYD.                  Survey:  SURVEY DESC
 ILTD.               Lithology:  INTERP LTH DESC
 FTOP.          Formation Tops:  FORM TOPS DESC
 RIG .              East Azeri:  RIG NAME
 PDAT.          Mean Sea Level:  PERMANENT DATUM
 FLD .                     ACG:  FIELD NAME
 SON .        AZ-XX-0906591820:  JOB NUMBER
 CTRY.              Azerbaijan:  COUNTRY NAME
 WELL.                     D37:  WELL NAME
 SRVC.     Turan Drilling & Engineering:  CONTRACTOR
 COMP.     BP Exploration (Caspian Sea) ltd.:  COMPANY
 WTYP.                Deviated:  WELL TYPE
 MDS .        Operator Entered:  MAG DATA SOURCE
 UWI .                     N/A:  UNIQUE WELL IDENTIFIER
 API .                     N/A:  API NUMBER
 BASE.              Azerbaijan:  LOGGING EQUIPMENT BASE LOCATION
 REGN.                   EESSA:  REGION
 PROV.                    Baku:  PROVINCE
 STAT.                    Baku:  STATE NAME
 MWDS.                    Baku:  MWD SHOP
 JOBN.        AZ-XX-0906591820:  JOB TICKET NUMB
 DOE .                     N/A:  DOE NUMBER
 DCON.         Sperry Drilling:  DIRECTNL CONTR
 UNIT.                     N/A:  LOGGING EQUIPMENT ID
 CNTY.                        :  COUNTY
 LOC .                        :  LOCATION
 LMF .             Drill Floor:  LOG MEASURED FROM
 TVDS.m                  43.60:  TVDSS CORRECTN
 LATI.deg                40.02:  LATITUDE
 LONG.deg                51.45:  LONGITUDE
 WHNS.m                  11.04:  WELL HEAD N/S
 WHEW.m                 -12.38:  WELL HEAD E/W
 UTMX.m              538763.98:  UTM X
 UTMY.m             4431880.20:  UTM Y
 DFWL.m                   0.00:  DISTANCE FWL
 DFSL.m                   0.00:  DISTANCE FSL
 SDEP.m                 300.00:  START DEPTH
 TDD .m                4900.01:  TOTAL DEPTH (DRILLER)
 VSDR.deg               185.64:  VERT SEC DIRECT
 GVFD.g                   1.00:  GRAVITY FIELD
 MFLD.nT              50301.00:  MAGNETIC FIELD
 MDIP.deg                59.46:  MAGNETIC DIP
 MDEC.deg                 6.43:  MAGNETIC DECL
 GRDC.deg                 0.29:  GRID CORRECTION
 AZTC.deg                 6.14:  AZM TOTAL CORR
 EPD .m                   0.00:  ELEVATION
 EGL .m                   0.00:  GROUND ELEVATION
 WDMS.m                 151.80:  WD ELEV
 APD .m                  43.60:  DEPTH ABOVE PD
 DEP .m                 571.69:  DEPTH
 AGAP.m                  43.60:  AIR GAP
 VSEW.m                 -12.38:  VERT SEC E/W
 VSNS.m                  11.04:  VERT SEC N/S
 EKB .m                  43.60:  KB ELEVATION
 EDF .m                  43.60:  DF ELEVATION
 TDL .m                 412.00:  TOTAL DEPTH (LOGGER)
 VSC .                       0:  VS TO CLOSURE
 MAGU.                 1849300:  MAGUTM CHECKSUM
~Parameter Information Block
#MNEM.UNIT       Value        Description
#---------     -----------    ---------------------------
 AV  .mps                 2.21:  Ann Velocity 
 AVMX.mps                 2.53:  Max Ann Veloc 
 AZIF.deg               144.83:  Azm, Final 
 BHAT.        Rotary Steerable:  BHA Type 
 BROT.°/30m              -0.52:  Build Rotating 
 BS  .in                  6.50:  Bit Size 
 BTPL.psig              209.00:  Bit Press Loss 
 CABU.                      No:  Customer Abuse 
 CGEO.        Ali Isfandiyarov:  Customer Geo 
 COMM.                     ü:x:  Run Comments 1 
 TCS .hr                 61.31:  Time Ciculation Ended 
 CV  .mps                 4.66:  Crit Velocity 
 CVMX.mps                 5.02:  Max Crit Veloc 
 DD1 .          Fariz Nahmatov:  Direct Drillr 1 
 DD2 .            Musa Ahmadov:  Direct Drillr 2 
 DDSV.               Geo-Pilot:  DD Service 
 DEFF.%                 100.00:  % Det Eff 
 DLRX.°/30m               1.44:  Dogleg Rot Max 
 DLSO.°/30m               0.83:  Dogleg Oriented 
 DLSX.°/30m               1.44:  Dogleg Str Max 
 DRET.      08.30.00 30-Jan-21:  Drill End Time 
 DRST.      21.15.00 27-Jan-21:  Drill Start Tim 
 DTIM.hr                 37.28:  Time Drilling 
 EDEP.m                4867.01:  End Depth 
 ENG1.          Rasim Hashimov:  Engineer 1 
 ENG2.         Almaz Almadatov:  Engineer 2 
 ENG3.        Tamerlan Ahmadov:  Engineer 3 
 ETIM.      22.41.04 31-Jan-21:  End Time 
 FLOI.gpm               400.00:  Flow In 
 FLON.gpm               300.00:  Flow In Min 
 FLOS.cptm                0.00:  Fluid Loss 
 FLOX.gpm               400.00:  Flow In Max 
 HFLO.                      No:  High Flow 
 HPRE.                      No:  High Pressure 
 HTEM.                      No:  High Temp 
 HYDO.m                   1.80:  Hydro Offset 
 IFIN.deg                65.63:  Inc, Final 
 IMAX.deg                66.77:  Inc Max 
 IMIN.deg                65.61:  Inc Min 
 IMND.m                4612.67:  Inc Min Depth 
 IMXD.m                4811.63:  Inc Max Depth 
 JARR.                      No:  Jarring 
 LETM.      08.30.00 30-Jan-21:  Log End Time 
 LOST.hr                     0:  Lost Rig Time 
 LSTM.      21.15.00 27-Jan-21:  Log Start Time 
 MDCL.ppm             41000.00:  Mud Chlorides 
 MDES.     Inversion Oil/Synthetic:  Mud Desc 
 DFD .sg                  1.40:  Mud Density 
 MDMN.sg                  1.40:  Dens Mud Min 
 MDMX.sg                  1.40:  Dens Mud Max 
 MOIL.                      53:  Run Mud Oil % 
 MOWR.                   66:34:  Run Mud OWR 
 MSND.                     0.2:  Run Mud Sand % 
 MSOL.                    17.9:  Run Mud Solids% 
 DFV .spqt               77.00:  Mud Viscosity 
 MWOD.in                  4.75:  MWD Tool OD 
 MWSI.                      No:  Serv Intrp, MWD 
 OTIM.hr                110.38:  Time Operating 
 PCON.           Look Like New:  Pad Condition 
 PMAX.psia             5300.00:  Press Op, Max 
 PV  .cP                 57.00:  Mud PV 
 RUN .                    1200:  Run Number 
 ROPA.m/hr               13.00:  ROP Avg 
 ROPN.m/hr                9.00:  ROP Min 
 ROPX.m/hr               15.00:  ROP Max 
 RPMA.rpm               120.00:  RPM Surface Avg 
 RPMN.rpm               100.00:  RPM Surface Min 
 RPMX.rpm               135.00:  RPM Surface Max 
 RRUN.                    1200:  Rig Run Number 
 RTIM.hr                  2.65:  Time Reaming 
 SAZI.deg               145.04:  Azm, Start 
 SDEP.m                4455.01:  Start Depth 
 SIDD.                      No:  Serv Intrp, DD 
 SINC.deg                65.83:  Inc, Start 
 SPPA.psig             5037.00:  SPP Avg 
 SPPN.psig             4430.00:  SPP Min 
 SPPX.psig             5300.00:  SPP Max 
 STIM.      22.41.04 26-Jan-21:  Start Time 
 SVCS.                 DD, MWD:  Services 
 SVER.                    9.20:  Sperry Version 
 TDAT.m                 412.00:  Tot Depth Attmp 
 TDDF.                      No:  Trip for DD 
 TDLG.m                 412.00:  Tot Depth Loggd 
 TFF .                      No:  Trip for Fail 
 TQAA.f-kp               15.00:  Torque Abs Avg 
 TQAN.f-kp               12.00:  Torque Abs Min 
 TQAX.f-kp               17.00:  Torque Abs Max 
 TRRT.°/30m               1.18:  Turn Rotating 
 MRT .                     ADR:  Maximum Recorded Temperature 
 TTMX.degC               88.24:  Max Tool Temp 
 VS01.                90619458:  Virtual Str1 SN 
 VS02.                90519326:  Virtual Str2 SN 
 VS03.                90522176:  Virtual Str3 SN 
 VS04.                90512683:  Virtual Str4 SN 
 WBMN.klb                 1.00:  WOB Min 
 WITN.           Murad Giluyev:  Customer Rep 
 WITN.     Kamran Kemberlinski:  Customer Rep 2 
 WOBA.klb                 5.00:  WOB Avg 
 WOBX.klb                 9.00:  WOB Max 
 YP  .lhf2               41.00:  Yield Point 
~Curve Information Block
#MNEM.UNIT                 API CODE     Curve Description
#---------               -----------    ---------------------------
 TIME.HHMMSS            00 000 000 000:  GT Time & Date
 GTDEPTH.m              00 000 000 000:  GT Depth
 GTPQH.psia             00 000 000 000:  GT HR Quartz Pressure
 GTTQ.degC              00 000 000 000:  GT Quartz Temperature
 GTTN.NONE              00 000 000 000:  GT Test Number
 GTET.sec               00 000 000 000:  GT Elapsed Test Time
 GTTVD.m                00 000 000 000:  GT True Vertical Depth
#Other Information
#
#WARRANTY: Halliburton will use its best efforts to furnish customers with 
#accurate information and interpretations that are part of, and incident to, the services 
#provided.  However, Halliburton cannot and does not warrant the accuracy 
#or correctness of such information and interpretations.  Under no circumstances should any 
#such information or interpretation be relied upon as the sole basis for any drilling, 
#completion, production, or financial decision or any procedure involving any risk to the 
#safety of any drilling venture, drilling rig or its crew or any other third party.  The 
#Customer has full responsibility for all drilling, completion and production operation.  
#Halliburton makes no representations or warranties, either expressed or 
#implied, including, but not limited to, the implied warranties of merchantability or fitness 
#for a particular purpose, with respect to the services rendered.  In no event will 
#Halliburton be liable for failure to obtain any particular results or for 
#any damages, including, but not limited to, indirect, special or consequential damages, 
#resulting from the use of any information or interpretation provided by Halliburton.
#
~A           TIME           GTDEPTH  GTPQH  GTTQ  GTTN   GTET   GTTVD  
# ...
   05:55:15.566.30-Jan-2021 4813.01 3149.01 83.97 17.00 203.43 2630.70
   05:55:15.766.30-Jan-2021 4813.01 3149.00 83.97 17.00 203.63 2630.70
   05:55:15.966.30-Jan-2021 4813.01 3148.99 83.97 17.00 203.83 2630.70
   05:55:16.166.30-Jan-2021 4813.01 3148.92 83.97 17.00 204.03 2630.70
   05:55:16.366.30-Jan-2021 4813.01 3148.92 83.97 17.00 204.23 2630.70
   05:55:16.566.30-Jan-2021 4813.01 3149.00 83.97 17.00 204.43 2630.70
   05:55:16.766.30-Jan-2021 4813.01 3149.00 83.97 17.00 204.63 2630.70
   05:55:16.966.30-Jan-2021 4813.01 3148.92 83.97 17.00 204.83 2630.70
   05:55:17.166.30-Jan-2021 4813.01 3149.04 83.97 17.00 205.03 2630.70
   05:55:17.366.30-Jan-2021 4813.01 3149.04 83.97 17.00 205.23 2630.70
   05:55:17.566.30-Jan-2021 4813.01 3149.00 83.97 17.00 205.43 2630.70
   05:55:17.766.30-Jan-2021 4813.01 3148.99 83.97 17.00 205.63 2630.70
   05:55:17.966.30-Jan-2021 4813.01 3148.99 83.97 17.00 205.83 2630.70
   05:55:18.166.30-Jan-2021 4813.01 3148.93 83.97 17.00 206.03 2630.70
   05:55:18.367.30-Jan-2021 4813.01 3148.93 83.97 17.00 206.23 2630.70
   05:55:18.567.30-Jan-2021 4813.01 3148.99 83.97 17.00 206.43 2630.70
   05:55:18.767.30-Jan-2021 4813.01 3148.99 83.97 17.00 206.63 2630.70
   05:55:18.967.30-Jan-2021 4813.01 3148.94 83.97 17.00 206.83 2630.70
   05:55:19.167.30-Jan-2021 4813.01 3149.04 83.96 17.00 207.03 2630.70
   05:55:19.367.30-Jan-2021 4813.01 3149.04 83.96 17.00 207.23 2630.70
   05:55:19.567.30-Jan-2021 4813.01 3149.01 83.96 17.00 207.43 2630.70
   05:55:19.767.30-Jan-2021 4813.01 3148.99 83.96 17.00 207.63 2630.70
   05:55:19.967.30-Jan-2021 4813.01 3148.97 83.96 17.00 207.83 2630.70
   05:55:20.167.30-Jan-2021 4813.01 3149.00 83.96 17.00 208.03 2630.70
   05:55:20.367.30-Jan-2021 4813.01 3149.00 83.96 17.00 208.23 2630.70
   05:55:20.567.30-Jan-2021 4813.01 3148.99 83.96 17.00 208.43 2630.70
   05:55:20.767.30-Jan-2021 4813.01 3148.98 83.96 17.00 208.63 2630.70
   05:55:20.967.30-Jan-2021 4813.01 3148.99 83.96 17.00 208.83 2630.70
   05:55:21.167.30-Jan-2021 4813.01 3148.97 83.96 17.00 209.03 2630.70
   05:55:21.367.30-Jan-2021 4813.01 3148.97 83.96 17.00 209.23 2630.70
   05:55:21.567.30-Jan-2021 4813.01 3148.98 83.96 17.00 209.43 2630.70
   05:55:21.767.30-Jan-2021 4813.01 3148.98 83.96 17.00 209.63 2630.70
   05:55:21.967.30-Jan-2021 4813.01 3148.97 83.96 17.00 209.83 2630.70
   05:55:22.167.30-Jan-2021 4813.01 3148.98 83.96 17.00 210.03 2630.70
   05:55:22.367.30-Jan-2021 4813.01 3148.98 83.96 17.00 210.23 2630.70
   05:55:22.567.30-Jan-2021 4813.01 3148.93 83.96 17.00 210.43 2630.70
   05:55:22.767.30-Jan-2021 4813.01 3149.03 83.96 17.00 210.63 2630.70
   05:55:22.967.30-Jan-2021 4813.01 3148.99 83.95 17.00 210.83 2630.70
   05:55:23.167.30-Jan-2021 4813.01 3148.97 83.95 17.00 211.03 2630.70
   05:55:23.367.30-Jan-2021 4813.01 3148.97 83.95 17.00 211.23 2630.70
   05:55:23.567.30-Jan-2021 4813.01 3148.97 83.95 17.00 211.43 2630.70
   05:55:23.767.30-Jan-2021 4813.01 3148.99 83.95 17.00 211.63 2630.70
   05:55:23.967.30-Jan-2021 4813.01 3148.99 83.95 17.00 211.83 2630.70
   05:55:24.167.30-Jan-2021 4813.01 3148.98 83.95 17.00 212.03 2630.70
   05:55:24.367.30-Jan-2021 4813.01 3148.98 83.95 17.00 212.23 2630.70
   05:55:24.567.30-Jan-2021 4813.01 3148.97 83.95 17.00 212.43 2630.70
   05:55:24.767.30-Jan-2021 4813.01 3148.98 83.95 17.00 212.63 2630.70
   05:55:24.967.30-Jan-2021 4813.01 3148.97 83.95 17.00 212.83 2630.70
   05:55:25.167.30-Jan-2021 4813.01 3148.97 83.95 17.00 213.03 2630.70
   05:55:25.367.30-Jan-2021 4813.01 3148.97 83.95 17.00 213.23 2630.70
   05:55:25.567.30-Jan-2021 4813.01 3148.97 83.95 17.00 213.43 2630.70
   05:55:25.767.30-Jan-2021 4813.01 3148.91 83.95 17.00 213.63 2630.70
   05:55:25.968.30-Jan-2021 4813.01 3149.05 83.95 17.00 213.83 2630.70
   05:55:26.168.30-Jan-2021 4813.01 3148.97 83.95 17.00 214.03 2630.70
   05:55:26.368.30-Jan-2021 4813.01 3148.97 83.95 17.00 214.23 2630.70
   05:55:26.568.30-Jan-2021 4813.01 3148.97 83.95 17.00 214.43 2630.70
   05:55:26.768.30-Jan-2021 4813.01 3148.99 83.94 17.00 214.63 2630.70
   05:55:26.968.30-Jan-2021 4813.01 3148.98 83.94 17.00 214.83 2630.70
   05:55:27.168.30-Jan-2021 4813.01 3149.00 83.94 17.00 215.03 2630.70
   05:55:27.368.30-Jan-2021 4813.01 3149.00 83.94 17.00 215.23 2630.70
   05:55:27.568.30-Jan-2021 4813.01 3148.98 83.94 17.00 215.43 2630.70
   05:55:27.768.30-Jan-2021 4813.01 3148.98 83.94 17.00 215.63 2630.70
   05:55:27.968.30-Jan-2021 4813.01 3148.99 83.94 17.00 215.83 2630.70
   05:55:28.168.30-Jan-2021 4813.01 3148.99 83.94 17.00 216.03 2630.70
   05:55:28.368.30-Jan-2021 4813.01 3148.99 83.94 17.00 216.23 2630.70
   05:55:28.568.30-Jan-2021 4813.01 3148.98 83.94 17.00 216.43 2630.70
   05:55:28.768.30-Jan-2021 4813.01 3148.99 83.94 17.00 216.63 2630.70
   05:55:28.968.30-Jan-2021 4813.01 3148.98 83.94 17.00 216.83 2630.70
   05:55:29.168.30-Jan-2021 4813.01 3148.98 83.94 17.00 217.03 2630.70
   05:55:29.368.30-Jan-2021 4813.01 3148.98 83.94 17.00 217.23 2630.70
   05:55:29.568.30-Jan-2021 4813.01 3149.01 83.94 17.00 217.43 2630.70
   05:55:29.768.30-Jan-2021 4813.01 3149.01 83.94 17.00 217.63 2630.70
   05:55:29.968.30-Jan-2021 4813.01 3148.98 83.94 17.00 217.83 2630.70
   05:55:30.168.30-Jan-2021 4813.01 3148.97 83.94 17.00 218.03 2630.70
   05:55:30.368.30-Jan-2021 4813.01 3148.97 83.94 17.00 218.23 2630.70
   05:55:30.568.30-Jan-2021 4813.01 3148.97 83.93 17.00 218.43 2630.70
   05:55:30.768.30-Jan-2021 4813.01 3148.99 83.93 17.00 218.63 2630.70
   05:55:30.968.30-Jan-2021 4813.01 3148.96 83.93 17.00 218.83 2630.70
   05:55:31.168.30-Jan-2021 4813.01 3148.96 83.93 17.00 219.03 2630.70
   05:55:31.368.30-Jan-2021 4813.01 3148.96 83.93 17.00 219.23 2630.70
   05:55:31.568.30-Jan-2021 4813.01 3148.97 83.93 17.00 219.43 2630.70
   05:55:31.768.30-Jan-2021 4813.01 3148.97 83.93 17.00 219.63 2630.70
   05:55:31.968.30-Jan-2021 4813.01 3148.98 83.93 17.00 219.83 2630.70
   05:55:32.168.30-Jan-2021 4813.01 3148.95 83.93 17.00 220.03 2630.70
   05:55:32.368.30-Jan-2021 4813.01 3148.95 83.93 17.00 220.23 2630.70
   05:55:32.568.30-Jan-2021 4813.01 3148.96 83.93 17.00 220.43 2630.70
   05:55:32.768.30-Jan-2021 4813.01 3148.97 83.93 17.00 220.63 2630.70
   05:55:32.968.30-Jan-2021 4813.01 3148.90 83.93 17.00 220.83 2630.70
   05:55:33.168.30-Jan-2021 4813.01 3149.03 83.93 17.00 221.03 2630.70
   05:55:33.368.30-Jan-2021 4813.01 3149.03 83.93 17.00 221.23 2630.70
   05:55:33.569.30-Jan-2021 4813.01 3148.97 83.93 17.00 221.43 2630.70
   05:55:33.769.30-Jan-2021 4813.01 3148.97 83.93 17.00 221.63 2630.70
   05:55:33.969.30-Jan-2021 4813.01 3148.96 83.93 17.00 221.83 2630.70
   05:55:34.169.30-Jan-2021 4813.01 3148.97 83.93 17.00 222.03 2630.70
   05:55:34.369.30-Jan-2021 4813.01 3148.97 83.93 17.00 222.23 2630.70
   05:55:34.569.30-Jan-2021 4813.01 3148.97 83.92 17.00 222.43 2630.70
   05:55:34.769.30-Jan-2021 4813.01 3148.95 83.92 17.00 222.63 2630.70
   05:55:34.969.30-Jan-2021 4813.01 3148.97 83.92 17.00 222.83 2630.70
   05:55:35.169.30-Jan-2021 4813.01 3148.95 83.92 17.00 223.03 2630.70
   05:55:35.369.30-Jan-2021 4813.01 3148.95 83.92 17.00 223.23 2630.70
   05:55:35.569.30-Jan-2021 4813.01 3148.95 83.92 17.00 223.43 2630.70
   05:55:35.769.30-Jan-2021 4813.01 3148.95 83.92 17.00 223.63 2630.70
   05:55:35.969.30-Jan-2021 4813.01 3148.96 83.92 17.00 223.83 2630.70
   05:55:36.169.30-Jan-2021 4813.01 3148.90 83.92 17.00 224.03 2630.70
   05:55:36.369.30-Jan-2021 4813.01 3148.90 83.92 17.00 224.23 2630.70
   05:55:36.569.30-Jan-2021 4813.01 3148.98 83.92 17.00 224.43 2630.70
   05:55:36.769.30-Jan-2021 4813.01 3148.96 83.92 17.00 224.63 2630.70
   05:55:36.969.30-Jan-2021 4813.01 3148.90 83.92 17.00 224.83 2630.70
   05:55:37.169.30-Jan-2021 4813.01 3149.04 83.92 17.00 225.03 2630.70
   05:55:37.369.30-Jan-2021 4813.01 3149.04 83.92 17.00 225.23 2630.70
   05:55:37.569.30-Jan-2021 4813.01 3148.97 83.92 17.00 225.43 2630.70
   05:55:37.769.30-Jan-2021 4813.01 3148.92 83.92 17.00 225.63 2630.70
   05:55:37.969.30-Jan-2021 4813.01 3149.01 83.92 17.00 225.83 2630.70
