~Version Information
 VERS.                  2.0:   CWLS log ASCII Standard -VERSION 2.0
 WRAP.                   NO:   One line per depth step
~Well Information Block
#MNEM.UNIT     VALUE/NAME     DESCRIPTION
#---------     -----------    ---------------------------
 STRT.S             10:42:31 29-Jan-21: START TIME 10:42:31 29-Jan-21
 STOP.S             10:49:01 29-Jan-21: STOP TIME  10:49:01 29-Jan-21
 STEP.S                   0.00: STEP TIME
 NULL.                 -999.25: NULL VALUE
 DFWT.                        :  DIST FWL TEXT
 DFST.                        :  DIST FSL TEXT
 DMF .             Drill Floor:  DRILL MEAS FROM
 STIM.      00.00.00 25-Sep-20:  START TIME
 DATE.      16.12.48 31-Jan-21:  END TIME
 SPUD.               20-Sep-20:  SPUD DATE
 NREF.                    Grid:  NORTH REFERENCE
 HPTY.       Minimum Curvature:  HOLE POS TYPE
 DMOD.             Drill Model:  DRILL MOD DESC
 SVYD.                  Survey:  SURVEY DESC
 ILTD.               Lithology:  INTERP LTH DESC
 FTOP.          Formation Tops:  FORM TOPS DESC
 RIG .              East Azeri:  RIG NAME
 PDAT.          Mean Sea Level:  PERMANENT DATUM
 FLD .                     ACG:  FIELD NAME
 SON .        AZ-XX-0906591820:  JOB NUMBER
 CTRY.              Azerbaijan:  COUNTRY NAME
 WELL.                     D37:  WELL NAME
 SRVC.     Turan Drilling & Engineering:  CONTRACTOR
 COMP.     BP Exploration (Caspian Sea) ltd.:  COMPANY
 WTYP.                Deviated:  WELL TYPE
 MDS .        Operator Entered:  MAG DATA SOURCE
 UWI .                     N/A:  UNIQUE WELL IDENTIFIER
 API .                     N/A:  API NUMBER
 BASE.              Azerbaijan:  LOGGING EQUIPMENT BASE LOCATION
 REGN.                   EESSA:  REGION
 PROV.                    Baku:  PROVINCE
 STAT.                    Baku:  STATE NAME
 MWDS.                    Baku:  MWD SHOP
 JOBN.        AZ-XX-0906591820:  JOB TICKET NUMB
 DOE .                     N/A:  DOE NUMBER
 DCON.         Sperry Drilling:  DIRECTNL CONTR
 UNIT.                     N/A:  LOGGING EQUIPMENT ID
 CNTY.                        :  COUNTY
 LOC .                        :  LOCATION
 LMF .             Drill Floor:  LOG MEASURED FROM
 TVDS.m                  43.60:  TVDSS CORRECTN
 LATI.deg                40.02:  LATITUDE
 LONG.deg                51.45:  LONGITUDE
 WHNS.m                  11.04:  WELL HEAD N/S
 WHEW.m                 -12.38:  WELL HEAD E/W
 UTMX.m              538763.98:  UTM X
 UTMY.m             4431880.20:  UTM Y
 DFWL.m                   0.00:  DISTANCE FWL
 DFSL.m                   0.00:  DISTANCE FSL
 SDEP.m                 300.00:  START DEPTH
 TDD .m                4900.01:  TOTAL DEPTH (DRILLER)
 VSDR.deg               185.64:  VERT SEC DIRECT
 GVFD.g                   1.00:  GRAVITY FIELD
 MFLD.nT              50301.00:  MAGNETIC FIELD
 MDIP.deg                59.46:  MAGNETIC DIP
 MDEC.deg                 6.43:  MAGNETIC DECL
 GRDC.deg                 0.29:  GRID CORRECTION
 AZTC.deg                 6.14:  AZM TOTAL CORR
 EPD .m                   0.00:  ELEVATION
 EGL .m                   0.00:  GROUND ELEVATION
 WDMS.m                 151.80:  WD ELEV
 APD .m                  43.60:  DEPTH ABOVE PD
 DEP .m                 571.69:  DEPTH
 AGAP.m                  43.60:  AIR GAP
 VSEW.m                 -12.38:  VERT SEC E/W
 VSNS.m                  11.04:  VERT SEC N/S
 EKB .m                  43.60:  KB ELEVATION
 EDF .m                  43.60:  DF ELEVATION
 TDL .m                 412.00:  TOTAL DEPTH (LOGGER)
 VSC .                       0:  VS TO CLOSURE
 MAGU.                 1849300:  MAGUTM CHECKSUM
~Parameter Information Block
#MNEM.UNIT       Value        Description
#---------     -----------    ---------------------------
 AV  .mps                 2.21:  Ann Velocity 
 AVMX.mps                 2.53:  Max Ann Veloc 
 AZIF.deg               144.83:  Azm, Final 
 BHAT.        Rotary Steerable:  BHA Type 
 BROT.°/30m              -0.52:  Build Rotating 
 BS  .in                  6.50:  Bit Size 
 BTPL.psig              209.00:  Bit Press Loss 
 CABU.                      No:  Customer Abuse 
 CGEO.        Ali Isfandiyarov:  Customer Geo 
 COMM.                     ,H:  Run Comments 1 
 TCS .hr                 61.31:  Time Ciculation Ended 
 CV  .mps                 4.66:  Crit Velocity 
 CVMX.mps                 5.02:  Max Crit Veloc 
 DD1 .          Fariz Nahmatov:  Direct Drillr 1 
 DD2 .            Musa Ahmadov:  Direct Drillr 2 
 DDSV.               Geo-Pilot:  DD Service 
 DEFF.%                 100.00:  % Det Eff 
 DLRX.°/30m               1.44:  Dogleg Rot Max 
 DLSO.°/30m               0.83:  Dogleg Oriented 
 DLSX.°/30m               1.44:  Dogleg Str Max 
 DRET.      08.30.00 30-Jan-21:  Drill End Time 
 DRST.      21.15.00 27-Jan-21:  Drill Start Tim 
 DTIM.hr                 37.28:  Time Drilling 
 EDEP.m                4867.01:  End Depth 
 ENG1.          Rasim Hashimov:  Engineer 1 
 ENG2.         Almaz Almadatov:  Engineer 2 
 ENG3.        Tamerlan Ahmadov:  Engineer 3 
 ETIM.      22.41.04 31-Jan-21:  End Time 
 FLOI.gpm               400.00:  Flow In 
 FLON.gpm               300.00:  Flow In Min 
 FLOS.cptm                0.00:  Fluid Loss 
 FLOX.gpm               400.00:  Flow In Max 
 HFLO.                      No:  High Flow 
 HPRE.                      No:  High Pressure 
 HTEM.                      No:  High Temp 
 HYDO.m                   1.80:  Hydro Offset 
 IFIN.deg                65.63:  Inc, Final 
 IMAX.deg                66.77:  Inc Max 
 IMIN.deg                65.61:  Inc Min 
 IMND.m                4612.67:  Inc Min Depth 
 IMXD.m                4811.63:  Inc Max Depth 
 JARR.                      No:  Jarring 
 LETM.      08.30.00 30-Jan-21:  Log End Time 
 LOST.hr                     0:  Lost Rig Time 
 LSTM.      21.15.00 27-Jan-21:  Log Start Time 
 MDCL.ppm             41000.00:  Mud Chlorides 
 MDES.     Inversion Oil/Synthetic:  Mud Desc 
 DFD .sg                  1.40:  Mud Density 
 MDMN.sg                  1.40:  Dens Mud Min 
 MDMX.sg                  1.40:  Dens Mud Max 
 MOIL.                      53:  Run Mud Oil % 
 MOWR.                   66:34:  Run Mud OWR 
 MSND.                     0.2:  Run Mud Sand % 
 MSOL.                    17.9:  Run Mud Solids% 
 DFV .spqt               77.00:  Mud Viscosity 
 MWOD.in                  4.75:  MWD Tool OD 
 MWSI.                      No:  Serv Intrp, MWD 
 OTIM.hr                110.38:  Time Operating 
 PCON.           Look Like New:  Pad Condition 
 PMAX.psia             5300.00:  Press Op, Max 
 PV  .cP                 57.00:  Mud PV 
 RUN .                    1200:  Run Number 
 ROPA.m/hr               13.00:  ROP Avg 
 ROPN.m/hr                9.00:  ROP Min 
 ROPX.m/hr               15.00:  ROP Max 
 RPMA.rpm               120.00:  RPM Surface Avg 
 RPMN.rpm               100.00:  RPM Surface Min 
 RPMX.rpm               135.00:  RPM Surface Max 
 RRUN.                    1200:  Rig Run Number 
 RTIM.hr                  2.65:  Time Reaming 
 SAZI.deg               145.04:  Azm, Start 
 SDEP.m                4455.01:  Start Depth 
 SIDD.                      No:  Serv Intrp, DD 
 SINC.deg                65.83:  Inc, Start 
 SPPA.psig             5037.00:  SPP Avg 
 SPPN.psig             4430.00:  SPP Min 
 SPPX.psig             5300.00:  SPP Max 
 STIM.      22.41.04 26-Jan-21:  Start Time 
 SVCS.                 DD, MWD:  Services 
 SVER.                    9.20:  Sperry Version 
 TDAT.m                 412.00:  Tot Depth Attmp 
 TDDF.                      No:  Trip for DD 
 TDLG.m                 412.00:  Tot Depth Loggd 
 TFF .                      No:  Trip for Fail 
 TQAA.f-kp               15.00:  Torque Abs Avg 
 TQAN.f-kp               12.00:  Torque Abs Min 
 TQAX.f-kp               17.00:  Torque Abs Max 
 TRRT.°/30m               1.18:  Turn Rotating 
 MRT .                     ADR:  Maximum Recorded Temperature 
 TTMX.degC               88.24:  Max Tool Temp 
 VS01.                90619458:  Virtual Str1 SN 
 VS02.                90519326:  Virtual Str2 SN 
 VS03.                90522176:  Virtual Str3 SN 
 VS04.                90512683:  Virtual Str4 SN 
 WBMN.klb                 1.00:  WOB Min 
 WITN.           Murad Giluyev:  Customer Rep 
 WITN.     Kamran Kemberlinski:  Customer Rep 2 
 WOBA.klb                 5.00:  WOB Avg 
 WOBX.klb                 9.00:  WOB Max 
 YP  .lhf2               41.00:  Yield Point 
~Curve Information Block
#MNEM.UNIT                 API CODE     Curve Description
#---------               -----------    ---------------------------
 TIME.HHMMSS            00 000 000 000:  GT Time & Date
 GTDEPTH.m              00 000 000 000:  GT Depth
 GTPQH.psia             00 000 000 000:  GT HR Quartz Pressure
 GTTQ.degC              00 000 000 000:  GT Quartz Temperature
 GTTN.NONE              00 000 000 000:  GT Test Number
 GTET.sec               00 000 000 000:  GT Elapsed Test Time
 GTTVD.m                00 000 000 000:  GT True Vertical Depth
#Other Information
#
#WARRANTY: Halliburton will use its best efforts to furnish customers with 
#accurate information and interpretations that are part of, and incident to, the services 
#provided.  However, Halliburton cannot and does not warrant the accuracy 
#or correctness of such information and interpretations.  Under no circumstances should any 
#such information or interpretation be relied upon as the sole basis for any drilling, 
#completion, production, or financial decision or any procedure involving any risk to the 
#safety of any drilling venture, drilling rig or its crew or any other third party.  The 
#Customer has full responsibility for all drilling, completion and production operation.  
#Halliburton makes no representations or warranties, either expressed or 
#implied, including, but not limited to, the implied warranties of merchantability or fitness 
#for a particular purpose, with respect to the services rendered.  In no event will 
#Halliburton be liable for failure to obtain any particular results or for 
#any damages, including, but not limited to, indirect, special or consequential damages, 
#resulting from the use of any information or interpretation provided by Halliburton.
#
~A           TIME           GTDEPTH  GTPQH  GTTQ  GTTN   GTET   GTTVD  
# ...
   10:42:53.778.29-Jan-2021 4690.01 5839.45 80.85 10.00  22.60 2581.69
   10:42:53.978.29-Jan-2021 4690.01 5840.90 80.85 10.00  22.80 2581.69
   10:42:54.178.29-Jan-2021 4690.01 5842.09 80.85 10.00  23.00 2581.69
   10:42:54.378.29-Jan-2021 4690.01 5842.09 80.85 10.00  23.20 2581.69
   10:42:54.578.29-Jan-2021 4690.01 5843.49 80.85 10.00  23.40 2581.69
   10:42:54.778.29-Jan-2021 4690.01 5844.08 80.85 10.00  23.60 2581.69
   10:42:54.978.29-Jan-2021 4690.01 5844.67 80.85 10.00  23.80 2581.69
   10:42:55.178.29-Jan-2021 4690.01 5844.96 80.85 10.00  24.00 2581.69
   10:42:55.378.29-Jan-2021 4690.01 5844.96 80.85 10.00  24.20 2581.69
   10:42:55.578.29-Jan-2021 4690.01 5845.56 80.84 10.00  24.40 2581.69
   10:42:55.778.29-Jan-2021 4690.01 5845.71 80.84 10.00  24.60 2581.69
   10:42:55.978.29-Jan-2021 4690.01 5844.86 80.84 10.00  24.80 2581.69
   10:42:56.178.29-Jan-2021 4690.01 5845.35 80.84 10.00  25.00 2581.69
   10:42:56.378.29-Jan-2021 4690.01 5845.35 80.84 10.00  25.20 2581.69
   10:42:56.578.29-Jan-2021 4690.01 5845.15 80.84 10.00  25.40 2581.69
   10:42:56.778.29-Jan-2021 4690.01 5844.57 80.84 10.00  25.60 2581.69
   10:42:56.978.29-Jan-2021 4690.01 5845.51 80.84 10.00  25.80 2581.69
   10:42:57.178.29-Jan-2021 4690.01 5682.23 80.84 10.00  26.00 2581.69
   10:42:57.378.29-Jan-2021 4690.01 5682.23 80.84 10.00  26.20 2581.69
   10:42:57.578.29-Jan-2021 4690.01 5183.82 80.84 10.00  26.40 2581.69
   10:42:57.778.29-Jan-2021 4690.01 4477.60 80.84 10.00  26.60 2581.69
   10:42:57.978.29-Jan-2021 4690.01 3627.72 80.84 10.00  26.80 2581.69
   10:42:58.178.29-Jan-2021 4690.01 3079.13 80.84 10.00  27.00 2581.69
   10:42:58.378.29-Jan-2021 4690.01 3079.13 80.84 10.00  27.20 2581.69
   10:42:58.578.29-Jan-2021 4690.01 3066.55 80.83 10.00  27.40 2581.69
   10:42:58.778.29-Jan-2021 4690.01 3066.49 80.83 10.00  27.60 2581.69
   10:42:58.978.29-Jan-2021 4690.01 3068.03 80.83 10.00  27.80 2581.69
   10:42:59.178.29-Jan-2021 4690.01 3066.70 80.83 10.00  28.00 2581.69
   10:42:59.378.29-Jan-2021 4690.01 3066.70 80.83 10.00  28.20 2581.69
   10:42:59.578.29-Jan-2021 4690.01 3065.80 80.83 10.00  28.40 2581.69
   10:42:59.778.29-Jan-2021 4690.01 3065.00 80.83 10.00  28.60 2581.69
   10:42:59.978.29-Jan-2021 4690.01 3064.48 80.83 10.00  28.80 2581.69
   10:43:00.178.29-Jan-2021 4690.01 3064.08 80.83 10.00  29.00 2581.69
   10:43:00.378.29-Jan-2021 4690.01 3064.08 80.83 10.00  29.20 2581.69
   10:43:00.578.29-Jan-2021 4690.01 3063.47 80.82 10.00  29.40 2581.69
   10:43:00.778.29-Jan-2021 4690.01 3063.20 80.82 10.00  29.60 2581.69
   10:43:00.978.29-Jan-2021 4690.01 3062.99 80.82 10.00  29.80 2581.69
   10:43:01.178.29-Jan-2021 4690.01 3062.88 80.82 10.00  30.00 2581.69
   10:43:01.378.29-Jan-2021 4690.01 3062.88 80.82 10.00  30.20 2581.69
   10:43:01.578.29-Jan-2021 4690.01 3062.56 80.82 10.00  30.40 2581.69
   10:43:01.778.29-Jan-2021 4690.01 3062.48 80.82 10.00  30.60 2581.69
   10:43:01.978.29-Jan-2021 4690.01 3062.39 80.82 10.00  30.80 2581.69
   10:43:02.178.29-Jan-2021 4690.01 3062.35 80.82 10.00  31.00 2581.69
   10:43:02.378.29-Jan-2021 4690.01 3062.35 80.82 10.00  31.20 2581.69
   10:43:02.578.29-Jan-2021 4690.01 3062.31 80.81 10.00  31.40 2581.69
   10:43:02.778.29-Jan-2021 4690.01 3062.24 80.81 10.00  31.60 2581.69
   10:43:02.978.29-Jan-2021 4690.01 3062.56 80.81 10.00  31.80 2581.69
   10:43:03.178.29-Jan-2021 4690.01 3062.65 80.81 10.00  32.00 2581.69
   10:43:03.378.29-Jan-2021 4690.01 3062.65 80.81 10.00  32.20 2581.69
   10:43:03.578.29-Jan-2021 4690.01 3062.13 80.81 10.00  32.40 2581.69
   10:43:03.778.29-Jan-2021 4690.01 3062.15 80.81 10.00  32.60 2581.69
   10:43:03.978.29-Jan-2021 4690.01 3062.06 80.81 10.00  32.80 2581.69
   10:43:04.178.29-Jan-2021 4690.01 3062.08 80.80 10.00  33.00 2581.69
   10:43:04.378.29-Jan-2021 4690.01 3062.08 80.80 10.00  33.20 2581.69
   10:43:04.578.29-Jan-2021 4690.01 3062.05 80.80 10.00  33.40 2581.69
   10:43:04.778.29-Jan-2021 4690.01 3062.03 80.80 10.00  33.60 2581.69
   10:43:04.978.29-Jan-2021 4690.01 3062.07 80.80 10.00  33.80 2581.69
   10:43:05.178.29-Jan-2021 4690.01 3062.02 80.80 10.00  34.00 2581.69
   10:43:05.378.29-Jan-2021 4690.01 3062.02 80.80 10.00  34.20 2581.69
   10:43:05.578.29-Jan-2021 4690.01 3062.00 80.80 10.00  34.40 2581.69
   10:43:05.778.29-Jan-2021 4690.01 3061.94 80.80 10.00  34.60 2581.69
   10:43:05.978.29-Jan-2021 4690.01 3061.97 80.79 10.00  34.80 2581.69
   10:43:06.178.29-Jan-2021 4690.01 3061.94 80.79 10.00  35.00 2581.69
   10:43:06.378.29-Jan-2021 4690.01 3061.94 80.79 10.00  35.20 2581.69
   10:43:06.579.29-Jan-2021 4690.01 3061.92 80.79 10.00  35.40 2581.69
   10:43:06.779.29-Jan-2021 4690.01 3061.93 80.79 10.00  35.60 2581.69
   10:43:06.979.29-Jan-2021 4690.01 3061.92 80.79 10.00  35.80 2581.69
   10:43:07.179.29-Jan-2021 4690.01 3063.93 80.79 10.00  36.00 2581.69
   10:43:07.379.29-Jan-2021 4690.01 3063.93 80.79 10.00  36.20 2581.69
   10:43:07.579.29-Jan-2021 4690.01 3067.56 80.78 10.00  36.40 2581.69
   10:43:07.779.29-Jan-2021 4690.01 3067.57 80.78 10.00  36.60 2581.69
   10:43:07.979.29-Jan-2021 4690.01 3067.64 80.78 10.00  36.80 2581.69
   10:43:08.179.29-Jan-2021 4690.01 3067.64 80.78 10.00  37.00 2581.69
   10:43:08.379.29-Jan-2021 4690.01 3067.64 80.78 10.00  37.20 2581.69
   10:43:08.579.29-Jan-2021 4690.01 3067.70 80.78 10.00  37.40 2581.69
   10:43:08.779.29-Jan-2021 4690.01 3067.73 80.78 10.00  37.60 2581.69
   10:43:08.979.29-Jan-2021 4690.01 3067.73 80.78 10.00  37.80 2581.69
   10:43:09.179.29-Jan-2021 4690.01 3067.76 80.78 10.00  38.00 2581.69
   10:43:09.379.29-Jan-2021 4690.01 3067.76 80.78 10.00  38.20 2581.69
   10:43:09.579.29-Jan-2021 4690.01 3067.74 80.77 10.00  38.40 2581.69
   10:43:09.779.29-Jan-2021 4690.01 3067.80 80.77 10.00  38.60 2581.69
   10:43:09.979.29-Jan-2021 4690.01 3067.79 80.77 10.00  38.80 2581.69
   10:43:10.179.29-Jan-2021 4690.01 3067.79 80.77 10.00  39.00 2581.69
   10:43:10.379.29-Jan-2021 4690.01 3067.79 80.77 10.00  39.20 2581.69
   10:43:10.579.29-Jan-2021 4690.01 3067.84 80.77 10.00  39.40 2581.69
   10:43:10.779.29-Jan-2021 4690.01 3067.82 80.77 10.00  39.60 2581.69
   10:43:10.979.29-Jan-2021 4690.01 3067.81 80.77 10.00  39.80 2581.69
   10:43:11.179.29-Jan-2021 4690.01 3067.84 80.77 10.00  40.00 2581.69
   10:43:11.379.29-Jan-2021 4690.01 3067.84 80.77 10.00  40.20 2581.69
   10:43:11.579.29-Jan-2021 4690.01 3067.85 80.76 10.00  40.40 2581.69
   10:43:11.779.29-Jan-2021 4690.01 3067.86 80.76 10.00  40.60 2581.69
   10:43:11.979.29-Jan-2021 4690.01 3067.86 80.76 10.00  40.80 2581.69
   10:43:12.179.29-Jan-2021 4690.01 3067.87 80.76 10.00  41.00 2581.69
   10:43:12.379.29-Jan-2021 4690.01 3067.87 80.76 10.00  41.20 2581.69
   10:43:12.579.29-Jan-2021 4690.01 3067.88 80.76 10.00  41.40 2581.69
   10:43:12.779.29-Jan-2021 4690.01 3067.89 80.76 10.00  41.60 2581.69
   10:43:12.979.29-Jan-2021 4690.01 3067.90 80.76 10.00  41.80 2581.69
   10:43:13.179.29-Jan-2021 4690.01 3067.90 80.76 10.00  42.00 2581.69
   10:43:13.379.29-Jan-2021 4690.01 3067.90 80.76 10.00  42.20 2581.69
   10:43:13.579.29-Jan-2021 4690.01 3067.91 80.75 10.00  42.40 2581.69
   10:43:13.779.29-Jan-2021 4690.01 3067.92 80.75 10.00  42.60 2581.69
   10:43:13.979.29-Jan-2021 4690.01 3067.89 80.75 10.00  42.80 2581.69
   10:43:14.179.29-Jan-2021 4690.01 3067.95 80.75 10.00  43.00 2581.69
   10:43:14.379.29-Jan-2021 4690.01 3067.95 80.75 10.00  43.20 2581.69
   10:43:14.579.29-Jan-2021 4690.01 3067.93 80.75 10.00  43.40 2581.69
   10:43:14.779.29-Jan-2021 4690.01 3067.96 80.75 10.00  43.60 2581.69
   10:43:14.979.29-Jan-2021 4690.01 3067.96 80.75 10.00  43.80 2581.69
   10:43:15.179.29-Jan-2021 4690.01 3067.97 80.75 10.00  44.00 2581.69
   10:43:15.379.29-Jan-2021 4690.01 3067.97 80.75 10.00  44.20 2581.69
   10:43:15.579.29-Jan-2021 4690.01 3067.98 80.74 10.00  44.40 2581.69
   10:43:15.779.29-Jan-2021 4690.01 3067.99 80.74 10.00  44.60 2581.69
   10:43:15.979.29-Jan-2021 4690.01 3067.99 80.74 10.00  44.80 2581.69
   10:43:16.179.29-Jan-2021 4690.01 3067.99 80.74 10.00  45.00 2581.69
