~Version Information
 VERS.                  2.0:   CWLS log ASCII Standard -VERSION 2.0
 WRAP.                   NO:   One line per depth step
~Well Information Block
#MNEM.UNIT     VALUE/NAME     DESCRIPTION
#---------     -----------    ---------------------------
 STRT.S             14:24:44 28-Jan-21: START TIME 14:24:44 28-Jan-21
 STOP.S             14:31:13 28-Jan-21: STOP TIME  14:31:13 28-Jan-21
 STEP.S                   0.00: STEP TIME
 NULL.                 -999.25: NULL VALUE
 DFWT.                        :  DIST FWL TEXT
 DFST.                        :  DIST FSL TEXT
 DMF .             Drill Floor:  DRILL MEAS FROM
 STIM.      00.00.00 25-Sep-20:  START TIME
 DATE.      16.12.48 31-Jan-21:  END TIME
 SPUD.               20-Sep-20:  SPUD DATE
 NREF.                    Grid:  NORTH REFERENCE
 HPTY.       Minimum Curvature:  HOLE POS TYPE
 DMOD.             Drill Model:  DRILL MOD DESC
 SVYD.                  Survey:  SURVEY DESC
 ILTD.               Lithology:  INTERP LTH DESC
 FTOP.          Formation Tops:  FORM TOPS DESC
 RIG .              East Azeri:  RIG NAME
 PDAT.          Mean Sea Level:  PERMANENT DATUM
 FLD .                     ACG:  FIELD NAME
 SON .        AZ-XX-0906591820:  JOB NUMBER
 CTRY.              Azerbaijan:  COUNTRY NAME
 WELL.                     D37:  WELL NAME
 SRVC.     Turan Drilling & Engineering:  CONTRACTOR
 COMP.     BP Exploration (Caspian Sea) ltd.:  COMPANY
 WTYP.                Deviated:  WELL TYPE
 MDS .        Operator Entered:  MAG DATA SOURCE
 UWI .                     N/A:  UNIQUE WELL IDENTIFIER
 API .                     N/A:  API NUMBER
 BASE.              Azerbaijan:  LOGGING EQUIPMENT BASE LOCATION
 REGN.                   EESSA:  REGION
 PROV.                    Baku:  PROVINCE
 STAT.                    Baku:  STATE NAME
 MWDS.                    Baku:  MWD SHOP
 JOBN.        AZ-XX-0906591820:  JOB TICKET NUMB
 DOE .                     N/A:  DOE NUMBER
 DCON.         Sperry Drilling:  DIRECTNL CONTR
 UNIT.                     N/A:  LOGGING EQUIPMENT ID
 CNTY.                        :  COUNTY
 LOC .                        :  LOCATION
 LMF .             Drill Floor:  LOG MEASURED FROM
 TVDS.m                  43.60:  TVDSS CORRECTN
 LATI.deg                40.02:  LATITUDE
 LONG.deg                51.45:  LONGITUDE
 WHNS.m                  11.04:  WELL HEAD N/S
 WHEW.m                 -12.38:  WELL HEAD E/W
 UTMX.m              538763.98:  UTM X
 UTMY.m             4431880.20:  UTM Y
 DFWL.m                   0.00:  DISTANCE FWL
 DFSL.m                   0.00:  DISTANCE FSL
 SDEP.m                 300.00:  START DEPTH
 TDD .m                4900.01:  TOTAL DEPTH (DRILLER)
 VSDR.deg               185.64:  VERT SEC DIRECT
 GVFD.g                   1.00:  GRAVITY FIELD
 MFLD.nT              50301.00:  MAGNETIC FIELD
 MDIP.deg                59.46:  MAGNETIC DIP
 MDEC.deg                 6.43:  MAGNETIC DECL
 GRDC.deg                 0.29:  GRID CORRECTION
 AZTC.deg                 6.14:  AZM TOTAL CORR
 EPD .m                   0.00:  ELEVATION
 EGL .m                   0.00:  GROUND ELEVATION
 WDMS.m                 151.80:  WD ELEV
 APD .m                  43.60:  DEPTH ABOVE PD
 DEP .m                 571.69:  DEPTH
 AGAP.m                  43.60:  AIR GAP
 VSEW.m                 -12.38:  VERT SEC E/W
 VSNS.m                  11.04:  VERT SEC N/S
 EKB .m                  43.60:  KB ELEVATION
 EDF .m                  43.60:  DF ELEVATION
 TDL .m                 412.00:  TOTAL DEPTH (LOGGER)
 VSC .                       0:  VS TO CLOSURE
 MAGU.                 1849300:  MAGUTM CHECKSUM
~Parameter Information Block
#MNEM.UNIT       Value        Description
#---------     -----------    ---------------------------
 AV  .mps                 2.21:  Ann Velocity 
 AVMX.mps                 2.53:  Max Ann Veloc 
 AZIF.deg               144.83:  Azm, Final 
 BHAT.        Rotary Steerable:  BHA Type 
 BROT.°/30m              -0.52:  Build Rotating 
 BS  .in                  6.50:  Bit Size 
 BTPL.psig              209.00:  Bit Press Loss 
 CABU.                      No:  Customer Abuse 
 CGEO.        Ali Isfandiyarov:  Customer Geo 
 COMM.                     Âh:  Run Comments 1 
 TCS .hr                 61.31:  Time Ciculation Ended 
 CV  .mps                 4.66:  Crit Velocity 
 CVMX.mps                 5.02:  Max Crit Veloc 
 DD1 .          Fariz Nahmatov:  Direct Drillr 1 
 DD2 .            Musa Ahmadov:  Direct Drillr 2 
 DDSV.               Geo-Pilot:  DD Service 
 DEFF.%                 100.00:  % Det Eff 
 DLRX.°/30m               1.44:  Dogleg Rot Max 
 DLSO.°/30m               0.83:  Dogleg Oriented 
 DLSX.°/30m               1.44:  Dogleg Str Max 
 DRET.      08.30.00 30-Jan-21:  Drill End Time 
 DRST.      21.15.00 27-Jan-21:  Drill Start Tim 
 DTIM.hr                 37.28:  Time Drilling 
 EDEP.m                4867.01:  End Depth 
 ENG1.          Rasim Hashimov:  Engineer 1 
 ENG2.         Almaz Almadatov:  Engineer 2 
 ENG3.        Tamerlan Ahmadov:  Engineer 3 
 ETIM.      22.41.04 31-Jan-21:  End Time 
 FLOI.gpm               400.00:  Flow In 
 FLON.gpm               300.00:  Flow In Min 
 FLOS.cptm                0.00:  Fluid Loss 
 FLOX.gpm               400.00:  Flow In Max 
 HFLO.                      No:  High Flow 
 HPRE.                      No:  High Pressure 
 HTEM.                      No:  High Temp 
 HYDO.m                   1.80:  Hydro Offset 
 IFIN.deg                65.63:  Inc, Final 
 IMAX.deg                66.77:  Inc Max 
 IMIN.deg                65.61:  Inc Min 
 IMND.m                4612.67:  Inc Min Depth 
 IMXD.m                4811.63:  Inc Max Depth 
 JARR.                      No:  Jarring 
 LETM.      08.30.00 30-Jan-21:  Log End Time 
 LOST.hr                     0:  Lost Rig Time 
 LSTM.      21.15.00 27-Jan-21:  Log Start Time 
 MDCL.ppm             41000.00:  Mud Chlorides 
 MDES.     Inversion Oil/Synthetic:  Mud Desc 
 DFD .sg                  1.40:  Mud Density 
 MDMN.sg                  1.40:  Dens Mud Min 
 MDMX.sg                  1.40:  Dens Mud Max 
 MOIL.                      53:  Run Mud Oil % 
 MOWR.                   66:34:  Run Mud OWR 
 MSND.                     0.2:  Run Mud Sand % 
 MSOL.                    17.9:  Run Mud Solids% 
 DFV .spqt               77.00:  Mud Viscosity 
 MWOD.in                  4.75:  MWD Tool OD 
 MWSI.                      No:  Serv Intrp, MWD 
 OTIM.hr                110.38:  Time Operating 
 PCON.           Look Like New:  Pad Condition 
 PMAX.psia             5300.00:  Press Op, Max 
 PV  .cP                 57.00:  Mud PV 
 RUN .                    1200:  Run Number 
 ROPA.m/hr               13.00:  ROP Avg 
 ROPN.m/hr                9.00:  ROP Min 
 ROPX.m/hr               15.00:  ROP Max 
 RPMA.rpm               120.00:  RPM Surface Avg 
 RPMN.rpm               100.00:  RPM Surface Min 
 RPMX.rpm               135.00:  RPM Surface Max 
 RRUN.                    1200:  Rig Run Number 
 RTIM.hr                  2.65:  Time Reaming 
 SAZI.deg               145.04:  Azm, Start 
 SDEP.m                4455.01:  Start Depth 
 SIDD.                      No:  Serv Intrp, DD 
 SINC.deg                65.83:  Inc, Start 
 SPPA.psig             5037.00:  SPP Avg 
 SPPN.psig             4430.00:  SPP Min 
 SPPX.psig             5300.00:  SPP Max 
 STIM.      22.41.04 26-Jan-21:  Start Time 
 SVCS.                 DD, MWD:  Services 
 SVER.                    9.20:  Sperry Version 
 TDAT.m                 412.00:  Tot Depth Attmp 
 TDDF.                      No:  Trip for DD 
 TDLG.m                 412.00:  Tot Depth Loggd 
 TFF .                      No:  Trip for Fail 
 TQAA.f-kp               15.00:  Torque Abs Avg 
 TQAN.f-kp               12.00:  Torque Abs Min 
 TQAX.f-kp               17.00:  Torque Abs Max 
 TRRT.°/30m               1.18:  Turn Rotating 
 MRT .                     ADR:  Maximum Recorded Temperature 
 TTMX.degC               88.24:  Max Tool Temp 
 VS01.                90619458:  Virtual Str1 SN 
 VS02.                90519326:  Virtual Str2 SN 
 VS03.                90522176:  Virtual Str3 SN 
 VS04.                90512683:  Virtual Str4 SN 
 WBMN.klb                 1.00:  WOB Min 
 WITN.           Murad Giluyev:  Customer Rep 
 WITN.     Kamran Kemberlinski:  Customer Rep 2 
 WOBA.klb                 5.00:  WOB Avg 
 WOBX.klb                 9.00:  WOB Max 
 YP  .lhf2               41.00:  Yield Point 
~Curve Information Block
#MNEM.UNIT                 API CODE     Curve Description
#---------               -----------    ---------------------------
 TIME.HHMMSS            00 000 000 000:  GT Time & Date
 GTDEPTH.m              00 000 000 000:  GT Depth
 GTPQH.psia             00 000 000 000:  GT HR Quartz Pressure
 GTTQ.degC              00 000 000 000:  GT Quartz Temperature
 GTTN.NONE              00 000 000 000:  GT Test Number
 GTET.sec               00 000 000 000:  GT Elapsed Test Time
 GTTVD.m                00 000 000 000:  GT True Vertical Depth
#Other Information
#
#WARRANTY: Halliburton will use its best efforts to furnish customers with 
#accurate information and interpretations that are part of, and incident to, the services 
#provided.  However, Halliburton cannot and does not warrant the accuracy 
#or correctness of such information and interpretations.  Under no circumstances should any 
#such information or interpretation be relied upon as the sole basis for any drilling, 
#completion, production, or financial decision or any procedure involving any risk to the 
#safety of any drilling venture, drilling rig or its crew or any other third party.  The 
#Customer has full responsibility for all drilling, completion and production operation.  
#Halliburton makes no representations or warranties, either expressed or 
#implied, including, but not limited to, the implied warranties of merchantability or fitness 
#for a particular purpose, with respect to the services rendered.  In no event will 
#Halliburton be liable for failure to obtain any particular results or for 
#any damages, including, but not limited to, indirect, special or consequential damages, 
#resulting from the use of any information or interpretation provided by Halliburton.
#
~A           TIME           GTDEPTH  GTPQH  GTTQ  GTTN  GTET   GTTVD  
# ...
   14:30:29.114.28-Jan-2021 4530.01 3137.16 71.12 4.00 345.07 2516.71
   14:30:29.314.28-Jan-2021 4530.01 3137.16 71.12 4.00 345.27 2516.71
   14:30:29.514.28-Jan-2021 4530.01 3137.17 71.12 4.00 345.47 2516.71
   14:30:29.714.28-Jan-2021 4530.01 3137.16 71.12 4.00 345.67 2516.71
   14:30:29.914.28-Jan-2021 4530.01 3137.17 71.12 4.00 345.87 2516.71
   14:30:30.114.28-Jan-2021 4530.01 3137.16 71.12 4.00 346.07 2516.71
   14:30:30.314.28-Jan-2021 4530.01 3137.16 71.12 4.00 346.27 2516.71
   14:30:30.515.28-Jan-2021 4530.01 3137.16 71.12 4.00 346.47 2516.71
   14:30:30.715.28-Jan-2021 4530.01 3137.16 71.12 4.00 346.67 2516.71
   14:30:30.915.28-Jan-2021 4530.01 3137.16 71.12 4.00 346.87 2516.71
   14:30:31.115.28-Jan-2021 4530.01 3137.16 71.12 4.00 347.07 2516.71
   14:30:31.315.28-Jan-2021 4530.01 3137.16 71.12 4.00 347.27 2516.71
   14:30:31.515.28-Jan-2021 4530.01 3142.08 71.12 4.00 347.47 2516.71
   14:30:31.715.28-Jan-2021 4530.01 3154.07 71.12 4.00 347.67 2516.71
   14:30:31.915.28-Jan-2021 4530.01 3773.78 71.12 4.00 347.87 2516.71
   14:30:32.115.28-Jan-2021 4530.01 5558.49 71.12 4.00 348.07 2516.71
   14:30:32.315.28-Jan-2021 4530.01 5558.49 71.12 4.00 348.27 2516.71
   14:30:32.515.28-Jan-2021 4530.01 5556.54 71.12 4.00 348.47 2516.71
   14:30:32.715.28-Jan-2021 4530.01 5555.05 71.12 4.00 348.67 2516.71
   14:30:32.915.28-Jan-2021 4530.01 5555.54 71.12 4.00 348.87 2516.71
   14:30:33.115.28-Jan-2021 4530.01 5558.56 71.12 4.00 349.07 2516.71
   14:30:33.315.28-Jan-2021 4530.01 5558.56 71.12 4.00 349.27 2516.71
   14:30:33.515.28-Jan-2021 4530.01 5558.87 71.12 4.00 349.47 2516.71
   14:30:33.715.28-Jan-2021 4530.01 5560.88 71.12 4.00 349.67 2516.71
   14:30:33.915.28-Jan-2021 4530.01 5560.36 71.12 4.00 349.87 2516.71
   14:30:34.115.28-Jan-2021 4530.01 5563.07 71.12 4.00 350.07 2516.71
   14:30:34.315.28-Jan-2021 4530.01 5563.07 71.12 4.00 350.27 2516.71
   14:30:34.515.28-Jan-2021 4530.01 5557.24 71.12 4.00 350.47 2516.71
   14:30:34.715.28-Jan-2021 4530.01 5559.07 71.12 4.00 350.67 2516.71
   14:30:34.915.28-Jan-2021 4530.01 5561.07 71.12 4.00 350.87 2516.71
   14:30:35.115.28-Jan-2021 4530.01 5562.59 71.12 4.00 351.07 2516.71
   14:30:35.315.28-Jan-2021 4530.01 5562.59 71.12 4.00 351.27 2516.71
   14:30:35.516.28-Jan-2021 4530.01 5563.38 71.12 4.00 351.47 2516.71
   14:30:35.716.28-Jan-2021 4530.01 5562.67 71.12 4.00 351.67 2516.71
   14:30:35.916.28-Jan-2021 4530.01 5558.75 71.12 4.00 351.87 2516.71
   14:30:36.116.28-Jan-2021 4530.01 5559.10 71.12 4.00 352.07 2516.71
   14:30:36.316.28-Jan-2021 4530.01 5559.10 71.12 4.00 352.27 2516.71
   14:30:36.516.28-Jan-2021 4530.01 5562.84 71.12 4.00 352.47 2516.71
   14:30:36.716.28-Jan-2021 4530.01 5564.44 71.12 4.00 352.67 2516.71
   14:30:36.916.28-Jan-2021 4530.01 5564.83 71.12 4.00 352.87 2516.71
   14:30:37.116.28-Jan-2021 4530.01 5564.22 71.12 4.00 353.07 2516.71
   14:30:37.316.28-Jan-2021 4530.01 5564.22 71.12 4.00 353.27 2516.71
   14:30:37.516.28-Jan-2021 4530.01 5563.48 71.12 4.00 353.47 2516.71
   14:30:37.716.28-Jan-2021 4530.01 5564.02 71.12 4.00 353.67 2516.71
   14:30:37.916.28-Jan-2021 4530.01 5563.57 71.12 4.00 353.87 2516.71
   14:30:38.116.28-Jan-2021 4530.01 5564.23 71.12 4.00 354.07 2516.71
   14:30:38.316.28-Jan-2021 4530.01 5564.23 71.12 4.00 354.27 2516.71
   14:30:38.516.28-Jan-2021 4530.01 5564.46 71.12 4.00 354.47 2516.71
   14:30:38.716.28-Jan-2021 4530.01 5563.55 71.12 4.00 354.67 2516.71
   14:30:38.916.28-Jan-2021 4530.01 5564.08 71.12 4.00 354.87 2516.71
   14:30:39.116.28-Jan-2021 4530.01 5563.40 71.12 4.00 355.07 2516.71
   14:30:39.316.28-Jan-2021 4530.01 5563.40 71.12 4.00 355.27 2516.71
   14:30:39.516.28-Jan-2021 4530.01 5558.78 71.12 4.00 355.47 2516.71
   14:30:39.716.28-Jan-2021 4530.01 5560.77 71.12 4.00 355.67 2516.71
   14:30:39.916.28-Jan-2021 4530.01 5563.45 71.12 4.00 355.87 2516.71
   14:30:40.116.28-Jan-2021 4530.01 5563.47 71.12 4.00 356.07 2516.71
   14:30:40.317.28-Jan-2021 4530.01 5563.47 71.12 4.00 356.27 2516.71
   14:30:40.517.28-Jan-2021 4530.01 5564.68 71.12 4.00 356.47 2516.71
   14:30:40.717.28-Jan-2021 4530.01 5564.38 71.12 4.00 356.67 2516.71
   14:30:40.917.28-Jan-2021 4530.01 5563.82 71.12 4.00 356.87 2516.71
   14:30:41.117.28-Jan-2021 4530.01 5563.99 71.12 4.00 357.07 2516.71
   14:30:41.317.28-Jan-2021 4530.01 5563.99 71.12 4.00 357.27 2516.71
   14:30:41.517.28-Jan-2021 4530.01 5564.06 71.12 4.00 357.47 2516.71
   14:30:41.717.28-Jan-2021 4530.01 5563.58 71.12 4.00 357.67 2516.71
   14:30:41.917.28-Jan-2021 4530.01 5564.72 71.12 4.00 357.87 2516.71
   14:30:42.117.28-Jan-2021 4530.01 5563.91 71.12 4.00 358.07 2516.71
   14:30:42.317.28-Jan-2021 4530.01 5563.91 71.12 4.00 358.27 2516.71
   14:30:42.517.28-Jan-2021 4530.01 5564.09 71.12 4.00 358.47 2516.71
   14:30:42.717.28-Jan-2021 4530.01 5559.95 71.12 4.00 358.67 2516.71
   14:30:42.917.28-Jan-2021 4530.01 5561.28 71.13 4.00 358.87 2516.71
   14:30:43.117.28-Jan-2021 4530.01 5564.15 71.13 4.00 359.07 2516.71
   14:30:43.317.28-Jan-2021 4530.01 5564.15 71.13 4.00 359.27 2516.71
   14:30:43.517.28-Jan-2021 4530.01 5559.65 71.13 4.00 359.47 2516.71
   14:30:43.717.28-Jan-2021 4530.01 5563.11 71.13 4.00 359.67 2516.71
   14:30:43.917.28-Jan-2021 4530.01 5564.28 71.13 4.00 359.87 2516.71
   14:30:44.117.28-Jan-2021 4530.01 5561.37 71.13 4.00 360.07 2516.71
   14:30:44.317.28-Jan-2021 4530.01 5561.37 71.13 4.00 360.27 2516.71
   14:30:44.517.28-Jan-2021 4530.01 5563.08 71.13 4.00 360.47 2516.71
   14:30:44.717.28-Jan-2021 4530.01 5563.78 71.13 4.00 360.67 2516.71
   14:30:44.917.28-Jan-2021 4530.01 5565.98 71.13 4.00 360.87 2516.71
   14:30:45.118.28-Jan-2021 4530.01 5565.50 71.13 4.00 361.07 2516.71
   14:30:45.318.28-Jan-2021 4530.01 5565.50 71.13 4.00 361.27 2516.71
   14:30:45.518.28-Jan-2021 4530.01 5563.42 71.13 4.00 361.47 2516.71
   14:30:45.718.28-Jan-2021 4530.01 5563.32 71.13 4.00 361.67 2516.71
   14:30:45.918.28-Jan-2021 4530.01 5562.73 71.13 4.00 361.87 2516.71
   14:30:46.118.28-Jan-2021 4530.01 5565.32 71.13 4.00 362.08 2516.71
   14:30:46.318.28-Jan-2021 4530.01 5565.32 71.13 4.00 362.28 2516.71
   14:30:46.518.28-Jan-2021 4530.01 5563.99 71.13 4.00 362.48 2516.71
   14:30:46.718.28-Jan-2021 4530.01 5558.73 71.13 4.00 362.68 2516.71
   14:30:46.918.28-Jan-2021 4530.01 5562.17 71.13 4.00 362.88 2516.71
   14:30:47.118.28-Jan-2021 4530.01 5562.26 71.13 4.00 363.08 2516.71
   14:30:47.318.28-Jan-2021 4530.01 5562.26 71.13 4.00 363.28 2516.71
   14:30:47.518.28-Jan-2021 4530.01 5565.11 71.13 4.00 363.48 2516.71
   14:30:47.718.28-Jan-2021 4530.01 5564.20 71.13 4.00 363.68 2516.71
   14:30:47.918.28-Jan-2021 4530.01 5565.15 71.13 4.00 363.88 2516.71
   14:30:48.118.28-Jan-2021 4530.01 5564.28 71.13 4.00 364.08 2516.71
   14:30:48.318.28-Jan-2021 4530.01 5564.28 71.13 4.00 364.28 2516.71
   14:30:48.518.28-Jan-2021 4530.01 5563.41 71.13 4.00 364.48 2516.71
   14:30:48.718.28-Jan-2021 4530.01 5563.98 71.13 4.00 364.68 2516.71
   14:30:48.918.28-Jan-2021 4530.01 5563.50 71.13 4.00 364.88 2516.71
   14:30:49.118.28-Jan-2021 4530.01 5563.91 71.13 4.00 365.08 2516.71
   14:30:49.318.28-Jan-2021 4530.01 5563.91 71.13 4.00 365.28 2516.71
   14:30:49.518.28-Jan-2021 4530.01 5563.71 71.13 4.00 365.48 2516.71
   14:30:49.718.28-Jan-2021 4530.01 5563.35 71.13 4.00 365.68 2516.71
   14:30:49.919.28-Jan-2021 4530.01 5563.09 71.13 4.00 365.88 2516.71
   14:30:50.119.28-Jan-2021 4530.01 5562.85 71.13 4.00 366.08 2516.71
   14:30:50.319.28-Jan-2021 4530.01 5562.85 71.13 4.00 366.28 2516.71
   14:30:50.519.28-Jan-2021 4530.01 5560.32 71.13 4.00 366.48 2516.71
   14:30:50.719.28-Jan-2021 4530.01 5562.90 71.13 4.00 366.68 2516.71
   14:30:50.919.28-Jan-2021 4530.01 5563.38 71.13 4.00 366.88 2516.71
   14:30:51.119.28-Jan-2021 4530.01 5564.60 71.13 4.00 367.08 2516.71
   14:30:51.319.28-Jan-2021 4530.01 5564.60 71.13 4.00 367.28 2516.71
   14:30:51.519.28-Jan-2021 4530.01 5563.63 71.13 4.00 367.48 2516.71
   14:30:51.719.28-Jan-2021 4530.01 5563.85 71.13 4.00 367.68 2516.71
   14:30:51.919.28-Jan-2021 4530.01 5563.19 71.13 4.00 367.88 2516.71
