~Version Information
 VERS.                  2.0:   CWLS log ASCII Standard -VERSION 2.0
 WRAP.                   NO:   One line per depth step
~Well Information Block
#MNEM.UNIT     VALUE/NAME     DESCRIPTION
#---------     -----------    ---------------------------
 STRT.S             07:03:45 29-Jan-21: START TIME 07:03:45 29-Jan-21
 STOP.S             07:10:14 29-Jan-21: STOP TIME  07:10:14 29-Jan-21
 STEP.S                   0.00: STEP TIME
 NULL.                 -999.25: NULL VALUE
 DFWT.                        :  DIST FWL TEXT
 DFST.                        :  DIST FSL TEXT
 DMF .             Drill Floor:  DRILL MEAS FROM
 STIM.      00.00.00 25-Sep-20:  START TIME
 DATE.      16.12.48 31-Jan-21:  END TIME
 SPUD.               20-Sep-20:  SPUD DATE
 NREF.                    Grid:  NORTH REFERENCE
 HPTY.       Minimum Curvature:  HOLE POS TYPE
 DMOD.             Drill Model:  DRILL MOD DESC
 SVYD.                  Survey:  SURVEY DESC
 ILTD.               Lithology:  INTERP LTH DESC
 FTOP.          Formation Tops:  FORM TOPS DESC
 RIG .              East Azeri:  RIG NAME
 PDAT.          Mean Sea Level:  PERMANENT DATUM
 FLD .                     ACG:  FIELD NAME
 SON .        AZ-XX-0906591820:  JOB NUMBER
 CTRY.              Azerbaijan:  COUNTRY NAME
 WELL.                     D37:  WELL NAME
 SRVC.     Turan Drilling & Engineering:  CONTRACTOR
 COMP.     BP Exploration (Caspian Sea) ltd.:  COMPANY
 WTYP.                Deviated:  WELL TYPE
 MDS .        Operator Entered:  MAG DATA SOURCE
 UWI .                     N/A:  UNIQUE WELL IDENTIFIER
 API .                     N/A:  API NUMBER
 BASE.              Azerbaijan:  LOGGING EQUIPMENT BASE LOCATION
 REGN.                   EESSA:  REGION
 PROV.                    Baku:  PROVINCE
 STAT.                    Baku:  STATE NAME
 MWDS.                    Baku:  MWD SHOP
 JOBN.        AZ-XX-0906591820:  JOB TICKET NUMB
 DOE .                     N/A:  DOE NUMBER
 DCON.         Sperry Drilling:  DIRECTNL CONTR
 UNIT.                     N/A:  LOGGING EQUIPMENT ID
 CNTY.                        :  COUNTY
 LOC .                        :  LOCATION
 LMF .             Drill Floor:  LOG MEASURED FROM
 TVDS.m                  43.60:  TVDSS CORRECTN
 LATI.deg                40.02:  LATITUDE
 LONG.deg                51.45:  LONGITUDE
 WHNS.m                  11.04:  WELL HEAD N/S
 WHEW.m                 -12.38:  WELL HEAD E/W
 UTMX.m              538763.98:  UTM X
 UTMY.m             4431880.20:  UTM Y
 DFWL.m                   0.00:  DISTANCE FWL
 DFSL.m                   0.00:  DISTANCE FSL
 SDEP.m                 300.00:  START DEPTH
 TDD .m                4900.01:  TOTAL DEPTH (DRILLER)
 VSDR.deg               185.64:  VERT SEC DIRECT
 GVFD.g                   1.00:  GRAVITY FIELD
 MFLD.nT              50301.00:  MAGNETIC FIELD
 MDIP.deg                59.46:  MAGNETIC DIP
 MDEC.deg                 6.43:  MAGNETIC DECL
 GRDC.deg                 0.29:  GRID CORRECTION
 AZTC.deg                 6.14:  AZM TOTAL CORR
 EPD .m                   0.00:  ELEVATION
 EGL .m                   0.00:  GROUND ELEVATION
 WDMS.m                 151.80:  WD ELEV
 APD .m                  43.60:  DEPTH ABOVE PD
 DEP .m                 571.69:  DEPTH
 AGAP.m                  43.60:  AIR GAP
 VSEW.m                 -12.38:  VERT SEC E/W
 VSNS.m                  11.04:  VERT SEC N/S
 EKB .m                  43.60:  KB ELEVATION
 EDF .m                  43.60:  DF ELEVATION
 TDL .m                 412.00:  TOTAL DEPTH (LOGGER)
 VSC .                       0:  VS TO CLOSURE
 MAGU.                 1849300:  MAGUTM CHECKSUM
~Parameter Information Block
#MNEM.UNIT       Value        Description
#---------     -----------    ---------------------------
 AV  .mps                 2.21:  Ann Velocity 
 AVMX.mps                 2.53:  Max Ann Veloc 
 AZIF.deg               144.83:  Azm, Final 
 BHAT.        Rotary Steerable:  BHA Type 
 BROT.°/30m              -0.52:  Build Rotating 
 BS  .in                  6.50:  Bit Size 
 BTPL.psig              209.00:  Bit Press Loss 
 CABU.                      No:  Customer Abuse 
 CGEO.        Ali Isfandiyarov:  Customer Geo 
 COMM.                     ü®q:  Run Comments 1 
 TCS .hr                 61.31:  Time Ciculation Ended 
 CV  .mps                 4.66:  Crit Velocity 
 CVMX.mps                 5.02:  Max Crit Veloc 
 DD1 .          Fariz Nahmatov:  Direct Drillr 1 
 DD2 .            Musa Ahmadov:  Direct Drillr 2 
 DDSV.               Geo-Pilot:  DD Service 
 DEFF.%                 100.00:  % Det Eff 
 DLRX.°/30m               1.44:  Dogleg Rot Max 
 DLSO.°/30m               0.83:  Dogleg Oriented 
 DLSX.°/30m               1.44:  Dogleg Str Max 
 DRET.      08.30.00 30-Jan-21:  Drill End Time 
 DRST.      21.15.00 27-Jan-21:  Drill Start Tim 
 DTIM.hr                 37.28:  Time Drilling 
 EDEP.m                4867.01:  End Depth 
 ENG1.          Rasim Hashimov:  Engineer 1 
 ENG2.         Almaz Almadatov:  Engineer 2 
 ENG3.        Tamerlan Ahmadov:  Engineer 3 
 ETIM.      22.41.04 31-Jan-21:  End Time 
 FLOI.gpm               400.00:  Flow In 
 FLON.gpm               300.00:  Flow In Min 
 FLOS.cptm                0.00:  Fluid Loss 
 FLOX.gpm               400.00:  Flow In Max 
 HFLO.                      No:  High Flow 
 HPRE.                      No:  High Pressure 
 HTEM.                      No:  High Temp 
 HYDO.m                   1.80:  Hydro Offset 
 IFIN.deg                65.63:  Inc, Final 
 IMAX.deg                66.77:  Inc Max 
 IMIN.deg                65.61:  Inc Min 
 IMND.m                4612.67:  Inc Min Depth 
 IMXD.m                4811.63:  Inc Max Depth 
 JARR.                      No:  Jarring 
 LETM.      08.30.00 30-Jan-21:  Log End Time 
 LOST.hr                     0:  Lost Rig Time 
 LSTM.      21.15.00 27-Jan-21:  Log Start Time 
 MDCL.ppm             41000.00:  Mud Chlorides 
 MDES.     Inversion Oil/Synthetic:  Mud Desc 
 DFD .sg                  1.40:  Mud Density 
 MDMN.sg                  1.40:  Dens Mud Min 
 MDMX.sg                  1.40:  Dens Mud Max 
 MOIL.                      53:  Run Mud Oil % 
 MOWR.                   66:34:  Run Mud OWR 
 MSND.                     0.2:  Run Mud Sand % 
 MSOL.                    17.9:  Run Mud Solids% 
 DFV .spqt               77.00:  Mud Viscosity 
 MWOD.in                  4.75:  MWD Tool OD 
 MWSI.                      No:  Serv Intrp, MWD 
 OTIM.hr                110.38:  Time Operating 
 PCON.           Look Like New:  Pad Condition 
 PMAX.psia             5300.00:  Press Op, Max 
 PV  .cP                 57.00:  Mud PV 
 RUN .                    1200:  Run Number 
 ROPA.m/hr               13.00:  ROP Avg 
 ROPN.m/hr                9.00:  ROP Min 
 ROPX.m/hr               15.00:  ROP Max 
 RPMA.rpm               120.00:  RPM Surface Avg 
 RPMN.rpm               100.00:  RPM Surface Min 
 RPMX.rpm               135.00:  RPM Surface Max 
 RRUN.                    1200:  Rig Run Number 
 RTIM.hr                  2.65:  Time Reaming 
 SAZI.deg               145.04:  Azm, Start 
 SDEP.m                4455.01:  Start Depth 
 SIDD.                      No:  Serv Intrp, DD 
 SINC.deg                65.83:  Inc, Start 
 SPPA.psig             5037.00:  SPP Avg 
 SPPN.psig             4430.00:  SPP Min 
 SPPX.psig             5300.00:  SPP Max 
 STIM.      22.41.04 26-Jan-21:  Start Time 
 SVCS.                 DD, MWD:  Services 
 SVER.                    9.20:  Sperry Version 
 TDAT.m                 412.00:  Tot Depth Attmp 
 TDDF.                      No:  Trip for DD 
 TDLG.m                 412.00:  Tot Depth Loggd 
 TFF .                      No:  Trip for Fail 
 TQAA.f-kp               15.00:  Torque Abs Avg 
 TQAN.f-kp               12.00:  Torque Abs Min 
 TQAX.f-kp               17.00:  Torque Abs Max 
 TRRT.°/30m               1.18:  Turn Rotating 
 MRT .                     ADR:  Maximum Recorded Temperature 
 TTMX.degC               88.24:  Max Tool Temp 
 VS01.                90619458:  Virtual Str1 SN 
 VS02.                90519326:  Virtual Str2 SN 
 VS03.                90522176:  Virtual Str3 SN 
 VS04.                90512683:  Virtual Str4 SN 
 WBMN.klb                 1.00:  WOB Min 
 WITN.           Murad Giluyev:  Customer Rep 
 WITN.     Kamran Kemberlinski:  Customer Rep 2 
 WOBA.klb                 5.00:  WOB Avg 
 WOBX.klb                 9.00:  WOB Max 
 YP  .lhf2               41.00:  Yield Point 
~Curve Information Block
#MNEM.UNIT                 API CODE     Curve Description
#---------               -----------    ---------------------------
 TIME.HHMMSS            00 000 000 000:  GT Time & Date
 GTDEPTH.m              00 000 000 000:  GT Depth
 GTPQH.psia             00 000 000 000:  GT HR Quartz Pressure
 GTTQ.degC              00 000 000 000:  GT Quartz Temperature
 GTTN.NONE              00 000 000 000:  GT Test Number
 GTET.sec               00 000 000 000:  GT Elapsed Test Time
 GTTVD.m                00 000 000 000:  GT True Vertical Depth
#Other Information
#
#WARRANTY: Halliburton will use its best efforts to furnish customers with 
#accurate information and interpretations that are part of, and incident to, the services 
#provided.  However, Halliburton cannot and does not warrant the accuracy 
#or correctness of such information and interpretations.  Under no circumstances should any 
#such information or interpretation be relied upon as the sole basis for any drilling, 
#completion, production, or financial decision or any procedure involving any risk to the 
#safety of any drilling venture, drilling rig or its crew or any other third party.  The 
#Customer has full responsibility for all drilling, completion and production operation.  
#Halliburton makes no representations or warranties, either expressed or 
#implied, including, but not limited to, the implied warranties of merchantability or fitness 
#for a particular purpose, with respect to the services rendered.  In no event will 
#Halliburton be liable for failure to obtain any particular results or for 
#any damages, including, but not limited to, indirect, special or consequential damages, 
#resulting from the use of any information or interpretation provided by Halliburton.
#
~A           TIME           GTDEPTH  GTPQH  GTTQ  GTTN  GTET   GTTVD  
# ...
   07:08:21.377.29-Jan-2021 4666.01 3051.51 79.34 8.00 276.06 2572.07
   07:08:21.577.29-Jan-2021 4666.01 3051.51 79.34 8.00 276.26 2572.07
   07:08:21.777.29-Jan-2021 4666.01 3051.61 79.34 8.00 276.46 2572.07
   07:08:21.977.29-Jan-2021 4666.01 3051.56 79.34 8.00 276.66 2572.07
   07:08:22.177.29-Jan-2021 4666.01 3051.54 79.34 8.00 276.86 2572.07
   07:08:22.377.29-Jan-2021 4666.01 3051.44 79.34 8.00 277.06 2572.07
   07:08:22.577.29-Jan-2021 4666.01 3051.44 79.34 8.00 277.26 2572.07
   07:08:22.777.29-Jan-2021 4666.01 3051.59 79.34 8.00 277.46 2572.07
   07:08:22.977.29-Jan-2021 4666.01 3051.52 79.34 8.00 277.66 2572.07
   07:08:23.177.29-Jan-2021 4666.01 3051.60 79.34 8.00 277.86 2572.07
   07:08:23.377.29-Jan-2021 4666.01 3051.54 79.34 8.00 278.06 2572.07
   07:08:23.577.29-Jan-2021 4666.01 3051.54 79.34 8.00 278.26 2572.07
   07:08:23.777.29-Jan-2021 4666.01 3051.49 79.33 8.00 278.46 2572.07
   07:08:23.977.29-Jan-2021 4666.01 3051.60 79.33 8.00 278.66 2572.07
   07:08:24.177.29-Jan-2021 4666.01 3051.58 79.33 8.00 278.86 2572.07
   07:08:24.378.29-Jan-2021 4666.01 3051.51 79.33 8.00 279.06 2572.07
   07:08:24.578.29-Jan-2021 4666.01 3051.51 79.33 8.00 279.26 2572.07
   07:08:24.778.29-Jan-2021 4666.01 3051.55 79.33 8.00 279.46 2572.07
   07:08:24.978.29-Jan-2021 4666.01 3051.44 79.33 8.00 279.66 2572.07
   07:08:25.178.29-Jan-2021 4666.01 3051.66 79.33 8.00 279.86 2572.07
   07:08:25.378.29-Jan-2021 4666.01 3051.59 79.33 8.00 280.06 2572.07
   07:08:25.578.29-Jan-2021 4666.01 3051.59 79.33 8.00 280.26 2572.07
   07:08:25.778.29-Jan-2021 4666.01 3051.58 79.33 8.00 280.46 2572.07
   07:08:25.978.29-Jan-2021 4666.01 3051.57 79.33 8.00 280.66 2572.07
   07:08:26.178.29-Jan-2021 4666.01 3051.57 79.33 8.00 280.86 2572.07
   07:08:26.378.29-Jan-2021 4666.01 3051.57 79.33 8.00 281.06 2572.07
   07:08:26.578.29-Jan-2021 4666.01 3051.57 79.33 8.00 281.26 2572.07
   07:08:26.778.29-Jan-2021 4666.01 3051.54 79.33 8.00 281.46 2572.07
   07:08:26.978.29-Jan-2021 4666.01 3051.57 79.33 8.00 281.66 2572.07
   07:08:27.178.29-Jan-2021 4666.01 3051.53 79.33 8.00 281.86 2572.07
   07:08:27.378.29-Jan-2021 4666.01 3051.55 79.33 8.00 282.06 2572.07
   07:08:27.578.29-Jan-2021 4666.01 3051.55 79.33 8.00 282.26 2572.07
   07:08:27.778.29-Jan-2021 4666.01 3051.54 79.32 8.00 282.46 2572.07
   07:08:27.978.29-Jan-2021 4666.01 3051.53 79.32 8.00 282.66 2572.07
   07:08:28.178.29-Jan-2021 4666.01 3051.53 79.32 8.00 282.86 2572.07
   07:08:28.378.29-Jan-2021 4666.01 3051.52 79.32 8.00 283.06 2572.07
   07:08:28.578.29-Jan-2021 4666.01 3051.52 79.32 8.00 283.26 2572.07
   07:08:28.778.29-Jan-2021 4666.01 3051.52 79.32 8.00 283.46 2572.07
   07:08:28.978.29-Jan-2021 4666.01 3051.52 79.32 8.00 283.66 2572.07
   07:08:29.179.29-Jan-2021 4666.01 3051.52 79.32 8.00 283.86 2572.07
   07:08:29.379.29-Jan-2021 4666.01 3051.47 79.32 8.00 284.06 2572.07
   07:08:29.579.29-Jan-2021 4666.01 3051.47 79.32 8.00 284.26 2572.07
   07:08:29.779.29-Jan-2021 4666.01 3051.57 79.32 8.00 284.46 2572.07
   07:08:29.979.29-Jan-2021 4666.01 3051.55 79.32 8.00 284.66 2572.07
   07:08:30.179.29-Jan-2021 4666.01 3051.54 79.32 8.00 284.86 2572.07
   07:08:30.379.29-Jan-2021 4666.01 3051.57 79.32 8.00 285.06 2572.07
   07:08:30.579.29-Jan-2021 4666.01 3051.57 79.32 8.00 285.26 2572.07
   07:08:30.779.29-Jan-2021 4666.01 3051.54 79.32 8.00 285.46 2572.07
   07:08:30.979.29-Jan-2021 4666.01 3051.53 79.32 8.00 285.66 2572.07
   07:08:31.179.29-Jan-2021 4666.01 3051.54 79.32 8.00 285.86 2572.07
   07:08:31.379.29-Jan-2021 4666.01 3051.53 79.31 8.00 286.06 2572.07
   07:08:31.579.29-Jan-2021 4666.01 3051.53 79.31 8.00 286.26 2572.07
   07:08:31.779.29-Jan-2021 4666.01 3051.52 79.31 8.00 286.46 2572.07
   07:08:31.979.29-Jan-2021 4666.01 3051.51 79.31 8.00 286.66 2572.07
   07:08:32.179.29-Jan-2021 4666.01 3051.52 79.31 8.00 286.86 2572.07
   07:08:32.379.29-Jan-2021 4666.01 3051.52 79.31 8.00 287.06 2572.07
   07:08:32.579.29-Jan-2021 4666.01 3051.52 79.31 8.00 287.26 2572.07
   07:08:32.779.29-Jan-2021 4666.01 3051.55 79.31 8.00 287.46 2572.07
   07:08:32.979.29-Jan-2021 4666.01 3051.54 79.31 8.00 287.66 2572.07
   07:08:33.179.29-Jan-2021 4666.01 3051.56 79.31 8.00 287.86 2572.07
   07:08:33.379.29-Jan-2021 4666.01 3051.51 79.31 8.00 288.06 2572.07
   07:08:33.579.29-Jan-2021 4666.01 3051.51 79.31 8.00 288.26 2572.07
   07:08:33.779.29-Jan-2021 4666.01 3051.59 79.31 8.00 288.46 2572.07
   07:08:33.980.29-Jan-2021 4666.01 3051.55 79.31 8.00 288.66 2572.07
   07:08:34.180.29-Jan-2021 4666.01 3051.57 79.31 8.00 288.86 2572.07
   07:08:34.380.29-Jan-2021 4666.01 3051.56 79.31 8.00 289.06 2572.07
   07:08:34.580.29-Jan-2021 4666.01 3051.56 79.31 8.00 289.26 2572.07
   07:08:34.780.29-Jan-2021 4666.01 3051.44 79.31 8.00 289.46 2572.07
   07:08:34.980.29-Jan-2021 4666.01 3051.66 79.31 8.00 289.66 2572.07
   07:08:35.180.29-Jan-2021 4666.01 3051.58 79.31 8.00 289.86 2572.07
   07:08:35.380.29-Jan-2021 4666.01 3051.52 79.30 8.00 290.06 2572.07
   07:08:35.580.29-Jan-2021 4666.01 3051.52 79.30 8.00 290.26 2572.07
   07:08:35.780.29-Jan-2021 4666.01 3051.55 79.30 8.00 290.46 2572.07
   07:08:35.980.29-Jan-2021 4666.01 3051.50 79.30 8.00 290.66 2572.07
   07:08:36.180.29-Jan-2021 4666.01 3051.59 79.30 8.00 290.86 2572.07
   07:08:36.380.29-Jan-2021 4666.01 3051.59 79.30 8.00 291.06 2572.07
   07:08:36.580.29-Jan-2021 4666.01 3051.59 79.30 8.00 291.26 2572.07
   07:08:36.780.29-Jan-2021 4666.01 3051.48 79.30 8.00 291.46 2572.07
   07:08:36.980.29-Jan-2021 4666.01 3051.59 79.30 8.00 291.66 2572.07
   07:08:37.180.29-Jan-2021 4666.01 3051.52 79.30 8.00 291.86 2572.07
   07:08:37.380.29-Jan-2021 4666.01 3051.58 79.30 8.00 292.06 2572.07
   07:08:37.580.29-Jan-2021 4666.01 3051.58 79.30 8.00 292.26 2572.07
   07:08:37.780.29-Jan-2021 4666.01 3051.55 79.30 8.00 292.46 2572.07
   07:08:37.980.29-Jan-2021 4666.01 3051.54 79.30 8.00 292.66 2572.07
   07:08:38.180.29-Jan-2021 4666.01 3051.54 79.30 8.00 292.86 2572.07
   07:08:38.380.29-Jan-2021 4666.01 3051.55 79.30 8.00 293.06 2572.07
   07:08:38.581.29-Jan-2021 4666.01 3051.55 79.30 8.00 293.26 2572.07
   07:08:38.781.29-Jan-2021 4666.01 3051.54 79.30 8.00 293.46 2572.07
   07:08:38.981.29-Jan-2021 4666.01 3051.51 79.30 8.00 293.66 2572.07
   07:08:39.181.29-Jan-2021 4666.01 3051.53 79.30 8.00 293.86 2572.07
   07:08:39.381.29-Jan-2021 4666.01 3051.53 79.29 8.00 294.06 2572.07
   07:08:39.581.29-Jan-2021 4666.01 3051.53 79.29 8.00 294.26 2572.07
   07:08:39.781.29-Jan-2021 4666.01 3051.52 79.29 8.00 294.46 2572.07
   07:08:39.981.29-Jan-2021 4666.01 3051.52 79.29 8.00 294.66 2572.07
   07:08:40.181.29-Jan-2021 4666.01 3051.52 79.29 8.00 294.86 2572.07
   07:08:40.381.29-Jan-2021 4666.01 3051.54 79.29 8.00 295.06 2572.07
   07:08:40.581.29-Jan-2021 4666.01 3051.54 79.29 8.00 295.26 2572.07
   07:08:40.781.29-Jan-2021 4666.01 3051.54 79.29 8.00 295.46 2572.07
   07:08:40.981.29-Jan-2021 4666.01 3051.57 79.29 8.00 295.66 2572.07
   07:08:41.181.29-Jan-2021 4666.01 3051.54 79.29 8.00 295.86 2572.07
   07:08:41.381.29-Jan-2021 4666.01 3051.56 79.29 8.00 296.06 2572.07
   07:08:41.581.29-Jan-2021 4666.01 3051.56 79.29 8.00 296.26 2572.07
   07:08:41.781.29-Jan-2021 4666.01 3051.55 79.29 8.00 296.46 2572.07
   07:08:41.981.29-Jan-2021 4666.01 3051.53 79.29 8.00 296.66 2572.07
   07:08:42.181.29-Jan-2021 4666.01 3051.53 79.29 8.00 296.86 2572.07
   07:08:42.381.29-Jan-2021 4666.01 3051.52 79.29 8.00 297.06 2572.07
   07:08:42.581.29-Jan-2021 4666.01 3051.52 79.29 8.00 297.26 2572.07
   07:08:42.781.29-Jan-2021 4666.01 3051.53 79.29 8.00 297.46 2572.07
   07:08:42.981.29-Jan-2021 4666.01 3051.50 79.29 8.00 297.66 2572.07
   07:08:43.181.29-Jan-2021 4666.01 3051.52 79.28 8.00 297.86 2572.07
   07:08:43.382.29-Jan-2021 4666.01 3051.47 79.28 8.00 298.06 2572.07
   07:08:43.582.29-Jan-2021 4666.01 3051.47 79.28 8.00 298.26 2572.07
   07:08:43.782.29-Jan-2021 4666.01 3051.56 79.28 8.00 298.46 2572.07
   07:08:43.982.29-Jan-2021 4666.01 3051.53 79.28 8.00 298.66 2572.07
   07:08:44.182.29-Jan-2021 4666.01 3051.57 79.28 8.00 298.86 2572.07
