~Version Information
 VERS.                  2.0:   CWLS log ASCII Standard -VERSION 2.0
 WRAP.                   NO:   One line per depth step
~Well Information Block
#MNEM.UNIT     VALUE/NAME     DESCRIPTION
#---------     -----------    ---------------------------
 STRT.S             11:33:05 30-Jan-21: START TIME 11:33:05 30-Jan-21
 STOP.S             11:39:34 30-Jan-21: STOP TIME  11:39:34 30-Jan-21
 STEP.S                   0.00: STEP TIME
 NULL.                 -999.25: NULL VALUE
 DFWT.                        :  DIST FWL TEXT
 DFST.                        :  DIST FSL TEXT
 DMF .             Drill Floor:  DRILL MEAS FROM
 STIM.      00.00.00 25-Sep-20:  START TIME
 DATE.      16.12.48 31-Jan-21:  END TIME
 SPUD.               20-Sep-20:  SPUD DATE
 NREF.                    Grid:  NORTH REFERENCE
 HPTY.       Minimum Curvature:  HOLE POS TYPE
 DMOD.             Drill Model:  DRILL MOD DESC
 SVYD.                  Survey:  SURVEY DESC
 ILTD.               Lithology:  INTERP LTH DESC
 FTOP.          Formation Tops:  FORM TOPS DESC
 RIG .              East Azeri:  RIG NAME
 PDAT.          Mean Sea Level:  PERMANENT DATUM
 FLD .                     ACG:  FIELD NAME
 SON .        AZ-XX-0906591820:  JOB NUMBER
 CTRY.              Azerbaijan:  COUNTRY NAME
 WELL.                     D37:  WELL NAME
 SRVC.     Turan Drilling & Engineering:  CONTRACTOR
 COMP.     BP Exploration (Caspian Sea) ltd.:  COMPANY
 WTYP.                Deviated:  WELL TYPE
 MDS .        Operator Entered:  MAG DATA SOURCE
 UWI .                     N/A:  UNIQUE WELL IDENTIFIER
 API .                     N/A:  API NUMBER
 BASE.              Azerbaijan:  LOGGING EQUIPMENT BASE LOCATION
 REGN.                   EESSA:  REGION
 PROV.                    Baku:  PROVINCE
 STAT.                    Baku:  STATE NAME
 MWDS.                    Baku:  MWD SHOP
 JOBN.        AZ-XX-0906591820:  JOB TICKET NUMB
 DOE .                     N/A:  DOE NUMBER
 DCON.         Sperry Drilling:  DIRECTNL CONTR
 UNIT.                     N/A:  LOGGING EQUIPMENT ID
 CNTY.                        :  COUNTY
 LOC .                        :  LOCATION
 LMF .             Drill Floor:  LOG MEASURED FROM
 TVDS.m                  43.60:  TVDSS CORRECTN
 LATI.deg                40.02:  LATITUDE
 LONG.deg                51.45:  LONGITUDE
 WHNS.m                  11.04:  WELL HEAD N/S
 WHEW.m                 -12.38:  WELL HEAD E/W
 UTMX.m              538763.98:  UTM X
 UTMY.m             4431880.20:  UTM Y
 DFWL.m                   0.00:  DISTANCE FWL
 DFSL.m                   0.00:  DISTANCE FSL
 SDEP.m                 300.00:  START DEPTH
 TDD .m                4900.01:  TOTAL DEPTH (DRILLER)
 VSDR.deg               185.64:  VERT SEC DIRECT
 GVFD.g                   1.00:  GRAVITY FIELD
 MFLD.nT              50301.00:  MAGNETIC FIELD
 MDIP.deg                59.46:  MAGNETIC DIP
 MDEC.deg                 6.43:  MAGNETIC DECL
 GRDC.deg                 0.29:  GRID CORRECTION
 AZTC.deg                 6.14:  AZM TOTAL CORR
 EPD .m                   0.00:  ELEVATION
 EGL .m                   0.00:  GROUND ELEVATION
 WDMS.m                 151.80:  WD ELEV
 APD .m                  43.60:  DEPTH ABOVE PD
 DEP .m                 571.69:  DEPTH
 AGAP.m                  43.60:  AIR GAP
 VSEW.m                 -12.38:  VERT SEC E/W
 VSNS.m                  11.04:  VERT SEC N/S
 EKB .m                  43.60:  KB ELEVATION
 EDF .m                  43.60:  DF ELEVATION
 TDL .m                 412.00:  TOTAL DEPTH (LOGGER)
 VSC .                       0:  VS TO CLOSURE
 MAGU.                 1849300:  MAGUTM CHECKSUM
~Parameter Information Block
#MNEM.UNIT       Value        Description
#---------     -----------    ---------------------------
 AV  .mps                 2.21:  Ann Velocity 
 AVMX.mps                 2.53:  Max Ann Veloc 
 AZIF.deg               144.83:  Azm, Final 
 BHAT.        Rotary Steerable:  BHA Type 
 BROT.°/30m              -0.52:  Build Rotating 
 BS  .in                  6.50:  Bit Size 
 BTPL.psig              209.00:  Bit Press Loss 
 CABU.                      No:  Customer Abuse 
 CGEO.        Ali Isfandiyarov:  Customer Geo 
 COMM.                     <»c:  Run Comments 1 
 TCS .hr                 61.31:  Time Ciculation Ended 
 CV  .mps                 4.66:  Crit Velocity 
 CVMX.mps                 5.02:  Max Crit Veloc 
 DD1 .          Fariz Nahmatov:  Direct Drillr 1 
 DD2 .            Musa Ahmadov:  Direct Drillr 2 
 DDSV.               Geo-Pilot:  DD Service 
 DEFF.%                 100.00:  % Det Eff 
 DLRX.°/30m               1.44:  Dogleg Rot Max 
 DLSO.°/30m               0.83:  Dogleg Oriented 
 DLSX.°/30m               1.44:  Dogleg Str Max 
 DRET.      08.30.00 30-Jan-21:  Drill End Time 
 DRST.      21.15.00 27-Jan-21:  Drill Start Tim 
 DTIM.hr                 37.28:  Time Drilling 
 EDEP.m                4867.01:  End Depth 
 ENG1.          Rasim Hashimov:  Engineer 1 
 ENG2.         Almaz Almadatov:  Engineer 2 
 ENG3.        Tamerlan Ahmadov:  Engineer 3 
 ETIM.      22.41.04 31-Jan-21:  End Time 
 FLOI.gpm               400.00:  Flow In 
 FLON.gpm               300.00:  Flow In Min 
 FLOS.cptm                0.00:  Fluid Loss 
 FLOX.gpm               400.00:  Flow In Max 
 HFLO.                      No:  High Flow 
 HPRE.                      No:  High Pressure 
 HTEM.                      No:  High Temp 
 HYDO.m                   1.80:  Hydro Offset 
 IFIN.deg                65.63:  Inc, Final 
 IMAX.deg                66.77:  Inc Max 
 IMIN.deg                65.61:  Inc Min 
 IMND.m                4612.67:  Inc Min Depth 
 IMXD.m                4811.63:  Inc Max Depth 
 JARR.                      No:  Jarring 
 LETM.      08.30.00 30-Jan-21:  Log End Time 
 LOST.hr                     0:  Lost Rig Time 
 LSTM.      21.15.00 27-Jan-21:  Log Start Time 
 MDCL.ppm             41000.00:  Mud Chlorides 
 MDES.     Inversion Oil/Synthetic:  Mud Desc 
 DFD .sg                  1.40:  Mud Density 
 MDMN.sg                  1.40:  Dens Mud Min 
 MDMX.sg                  1.40:  Dens Mud Max 
 MOIL.                      53:  Run Mud Oil % 
 MOWR.                   66:34:  Run Mud OWR 
 MSND.                     0.2:  Run Mud Sand % 
 MSOL.                    17.9:  Run Mud Solids% 
 DFV .spqt               77.00:  Mud Viscosity 
 MWOD.in                  4.75:  MWD Tool OD 
 MWSI.                      No:  Serv Intrp, MWD 
 OTIM.hr                110.38:  Time Operating 
 PCON.           Look Like New:  Pad Condition 
 PMAX.psia             5300.00:  Press Op, Max 
 PV  .cP                 57.00:  Mud PV 
 RUN .                    1200:  Run Number 
 ROPA.m/hr               13.00:  ROP Avg 
 ROPN.m/hr                9.00:  ROP Min 
 ROPX.m/hr               15.00:  ROP Max 
 RPMA.rpm               120.00:  RPM Surface Avg 
 RPMN.rpm               100.00:  RPM Surface Min 
 RPMX.rpm               135.00:  RPM Surface Max 
 RRUN.                    1200:  Rig Run Number 
 RTIM.hr                  2.65:  Time Reaming 
 SAZI.deg               145.04:  Azm, Start 
 SDEP.m                4455.01:  Start Depth 
 SIDD.                      No:  Serv Intrp, DD 
 SINC.deg                65.83:  Inc, Start 
 SPPA.psig             5037.00:  SPP Avg 
 SPPN.psig             4430.00:  SPP Min 
 SPPX.psig             5300.00:  SPP Max 
 STIM.      22.41.04 26-Jan-21:  Start Time 
 SVCS.                 DD, MWD:  Services 
 SVER.                    9.20:  Sperry Version 
 TDAT.m                 412.00:  Tot Depth Attmp 
 TDDF.                      No:  Trip for DD 
 TDLG.m                 412.00:  Tot Depth Loggd 
 TFF .                      No:  Trip for Fail 
 TQAA.f-kp               15.00:  Torque Abs Avg 
 TQAN.f-kp               12.00:  Torque Abs Min 
 TQAX.f-kp               17.00:  Torque Abs Max 
 TRRT.°/30m               1.18:  Turn Rotating 
 MRT .                     ADR:  Maximum Recorded Temperature 
 TTMX.degC               88.24:  Max Tool Temp 
 VS01.                90619458:  Virtual Str1 SN 
 VS02.                90519326:  Virtual Str2 SN 
 VS03.                90522176:  Virtual Str3 SN 
 VS04.                90512683:  Virtual Str4 SN 
 WBMN.klb                 1.00:  WOB Min 
 WITN.           Murad Giluyev:  Customer Rep 
 WITN.     Kamran Kemberlinski:  Customer Rep 2 
 WOBA.klb                 5.00:  WOB Avg 
 WOBX.klb                 9.00:  WOB Max 
 YP  .lhf2               41.00:  Yield Point 
~Curve Information Block
#MNEM.UNIT                 API CODE     Curve Description
#---------               -----------    ---------------------------
 TIME.HHMMSS            00 000 000 000:  GT Time & Date
 GTDEPTH.m              00 000 000 000:  GT Depth
 GTPQH.psia             00 000 000 000:  GT HR Quartz Pressure
 GTTQ.degC              00 000 000 000:  GT Quartz Temperature
 GTTN.NONE              00 000 000 000:  GT Test Number
 GTET.sec               00 000 000 000:  GT Elapsed Test Time
 GTTVD.m                00 000 000 000:  GT True Vertical Depth
#Other Information
#
#WARRANTY: Halliburton will use its best efforts to furnish customers with 
#accurate information and interpretations that are part of, and incident to, the services 
#provided.  However, Halliburton cannot and does not warrant the accuracy 
#or correctness of such information and interpretations.  Under no circumstances should any 
#such information or interpretation be relied upon as the sole basis for any drilling, 
#completion, production, or financial decision or any procedure involving any risk to the 
#safety of any drilling venture, drilling rig or its crew or any other third party.  The 
#Customer has full responsibility for all drilling, completion and production operation.  
#Halliburton makes no representations or warranties, either expressed or 
#implied, including, but not limited to, the implied warranties of merchantability or fitness 
#for a particular purpose, with respect to the services rendered.  In no event will 
#Halliburton be liable for failure to obtain any particular results or for 
#any damages, including, but not limited to, indirect, special or consequential damages, 
#resulting from the use of any information or interpretation provided by Halliburton.
#
~A           TIME           GTDEPTH  GTPQH  GTTQ  GTTN   GTET   GTTVD  
# ...
   11:35:43.409.30-Jan-2021 4826.01 3154.35 84.60 18.00 158.23 2635.88
   11:35:43.609.30-Jan-2021 4826.01 3154.36 84.60 18.00 158.43 2635.88
   11:35:43.809.30-Jan-2021 4826.01 3154.28 84.60 18.00 158.63 2635.88
   11:35:44.009.30-Jan-2021 4826.01 3154.39 84.60 18.00 158.83 2635.88
   11:35:44.209.30-Jan-2021 4826.01 3154.35 84.60 18.00 159.03 2635.88
   11:35:44.409.30-Jan-2021 4826.01 3154.35 84.60 18.00 159.23 2635.88
   11:35:44.609.30-Jan-2021 4826.01 3154.36 84.60 18.00 159.43 2635.88
   11:35:44.809.30-Jan-2021 4826.01 3154.32 84.60 18.00 159.63 2635.88
   11:35:45.009.30-Jan-2021 4826.01 3154.36 84.60 18.00 159.83 2635.88
   11:35:45.209.30-Jan-2021 4826.01 3154.34 84.59 18.00 160.03 2635.88
   11:35:45.409.30-Jan-2021 4826.01 3154.34 84.59 18.00 160.23 2635.88
   11:35:45.609.30-Jan-2021 4826.01 3154.33 84.59 18.00 160.43 2635.88
   11:35:45.809.30-Jan-2021 4826.01 3154.33 84.59 18.00 160.63 2635.88
   11:35:46.009.30-Jan-2021 4826.01 3154.33 84.59 18.00 160.83 2635.88
   11:35:46.209.30-Jan-2021 4826.01 3154.33 84.59 18.00 161.03 2635.88
   11:35:46.409.30-Jan-2021 4826.01 3154.33 84.59 18.00 161.23 2635.88
   11:35:46.609.30-Jan-2021 4826.01 3154.33 84.59 18.00 161.43 2635.88
   11:35:46.809.30-Jan-2021 4826.01 3154.33 84.59 18.00 161.63 2635.88
   11:35:47.009.30-Jan-2021 4826.01 3154.32 84.59 18.00 161.83 2635.88
   11:35:47.209.30-Jan-2021 4826.01 3154.33 84.59 18.00 162.03 2635.88
   11:35:47.409.30-Jan-2021 4826.01 3154.33 84.59 18.00 162.23 2635.88
   11:35:47.609.30-Jan-2021 4826.01 3154.39 84.59 18.00 162.43 2635.88
   11:35:47.810.30-Jan-2021 4826.01 3154.34 84.59 18.00 162.63 2635.88
   11:35:48.010.30-Jan-2021 4826.01 3154.33 84.59 18.00 162.83 2635.88
   11:35:48.210.30-Jan-2021 4826.01 3154.32 84.59 18.00 163.03 2635.88
   11:35:48.410.30-Jan-2021 4826.01 3154.32 84.59 18.00 163.23 2635.88
   11:35:48.610.30-Jan-2021 4826.01 3154.33 84.58 18.00 163.43 2635.88
   11:35:48.810.30-Jan-2021 4826.01 3154.33 84.58 18.00 163.63 2635.88
   11:35:49.010.30-Jan-2021 4826.01 3154.32 84.58 18.00 163.83 2635.88
   11:35:49.210.30-Jan-2021 4826.01 3154.32 84.58 18.00 164.03 2635.88
   11:35:49.410.30-Jan-2021 4826.01 3154.32 84.58 18.00 164.23 2635.88
   11:35:49.610.30-Jan-2021 4826.01 3154.32 84.58 18.00 164.43 2635.88
   11:35:49.810.30-Jan-2021 4826.01 3154.32 84.58 18.00 164.63 2635.88
   11:35:50.010.30-Jan-2021 4826.01 3154.32 84.58 18.00 164.83 2635.88
   11:35:50.210.30-Jan-2021 4826.01 3154.32 84.58 18.00 165.03 2635.88
   11:35:50.410.30-Jan-2021 4826.01 3154.32 84.58 18.00 165.23 2635.88
   11:35:50.610.30-Jan-2021 4826.01 3154.27 84.58 18.00 165.43 2635.88
   11:35:50.810.30-Jan-2021 4826.01 3154.37 84.58 18.00 165.63 2635.88
   11:35:51.010.30-Jan-2021 4826.01 3154.33 84.58 18.00 165.83 2635.88
   11:35:51.210.30-Jan-2021 4826.01 3154.32 84.58 18.00 166.03 2635.88
   11:35:51.410.30-Jan-2021 4826.01 3154.32 84.58 18.00 166.23 2635.88
   11:35:51.610.30-Jan-2021 4826.01 3154.35 84.58 18.00 166.43 2635.88
   11:35:51.810.30-Jan-2021 4826.01 3154.35 84.57 18.00 166.63 2635.88
   11:35:52.010.30-Jan-2021 4826.01 3154.33 84.57 18.00 166.83 2635.88
   11:35:52.210.30-Jan-2021 4826.01 3154.27 84.57 18.00 167.03 2635.88
   11:35:52.410.30-Jan-2021 4826.01 3154.27 84.57 18.00 167.23 2635.88
   11:35:52.610.30-Jan-2021 4826.01 3154.33 84.57 18.00 167.43 2635.88
   11:35:52.810.30-Jan-2021 4826.01 3154.33 84.57 18.00 167.63 2635.88
   11:35:53.010.30-Jan-2021 4826.01 3154.33 84.57 18.00 167.83 2635.88
   11:35:53.210.30-Jan-2021 4826.01 3154.31 84.57 18.00 168.03 2635.88
   11:35:53.411.30-Jan-2021 4826.01 3154.31 84.57 18.00 168.23 2635.88
   11:35:53.611.30-Jan-2021 4826.01 3154.34 84.57 18.00 168.43 2635.88
   11:35:53.811.30-Jan-2021 4826.01 3154.33 84.57 18.00 168.63 2635.88
   11:35:54.011.30-Jan-2021 4826.01 3154.34 84.57 18.00 168.83 2635.88
   11:35:54.211.30-Jan-2021 4826.01 3154.26 84.57 18.00 169.03 2635.88
   11:35:54.411.30-Jan-2021 4826.01 3154.26 84.57 18.00 169.23 2635.88
   11:35:54.611.30-Jan-2021 4826.01 3154.32 84.57 18.00 169.43 2635.88
   11:35:54.811.30-Jan-2021 4826.01 3154.34 84.57 18.00 169.63 2635.88
   11:35:55.011.30-Jan-2021 4826.01 3154.32 84.57 18.00 169.83 2635.88
   11:35:55.211.30-Jan-2021 4826.01 3154.31 84.56 18.00 170.03 2635.88
   11:35:55.411.30-Jan-2021 4826.01 3154.31 84.56 18.00 170.23 2635.88
   11:35:55.611.30-Jan-2021 4826.01 3154.32 84.56 18.00 170.43 2635.88
   11:35:55.811.30-Jan-2021 4826.01 3154.32 84.56 18.00 170.63 2635.88
   11:35:56.011.30-Jan-2021 4826.01 3154.31 84.56 18.00 170.83 2635.88
   11:35:56.211.30-Jan-2021 4826.01 3154.30 84.56 18.00 171.03 2635.88
   11:35:56.411.30-Jan-2021 4826.01 3154.30 84.56 18.00 171.23 2635.88
   11:35:56.611.30-Jan-2021 4826.01 3154.31 84.56 18.00 171.43 2635.88
   11:35:56.811.30-Jan-2021 4826.01 3154.31 84.56 18.00 171.63 2635.88
   11:35:57.011.30-Jan-2021 4826.01 3154.31 84.56 18.00 171.83 2635.88
   11:35:57.211.30-Jan-2021 4826.01 3154.30 84.56 18.00 172.03 2635.88
   11:35:57.411.30-Jan-2021 4826.01 3154.30 84.56 18.00 172.23 2635.88
   11:35:57.611.30-Jan-2021 4826.01 3154.30 84.56 18.00 172.43 2635.88
   11:35:57.811.30-Jan-2021 4826.01 3154.26 84.56 18.00 172.63 2635.88
   11:35:58.011.30-Jan-2021 4826.01 3154.36 84.56 18.00 172.83 2635.88
   11:35:58.211.30-Jan-2021 4826.01 3154.32 84.56 18.00 173.03 2635.88
   11:35:58.411.30-Jan-2021 4826.01 3154.32 84.56 18.00 173.23 2635.88
   11:35:58.611.30-Jan-2021 4826.01 3154.31 84.55 18.00 173.43 2635.88
   11:35:58.811.30-Jan-2021 4826.01 3154.29 84.55 18.00 173.63 2635.88
   11:35:59.012.30-Jan-2021 4826.01 3154.33 84.55 18.00 173.83 2635.88
   11:35:59.212.30-Jan-2021 4826.01 3154.31 84.55 18.00 174.03 2635.88
   11:35:59.412.30-Jan-2021 4826.01 3154.31 84.55 18.00 174.23 2635.88
   11:35:59.612.30-Jan-2021 4826.01 3154.30 84.55 18.00 174.43 2635.88
   11:35:59.812.30-Jan-2021 4826.01 3154.30 84.55 18.00 174.63 2635.88
   11:36:00.012.30-Jan-2021 4826.01 3154.31 84.55 18.00 174.83 2635.88
   11:36:00.212.30-Jan-2021 4826.01 3154.30 84.55 18.00 175.03 2635.88
   11:36:00.412.30-Jan-2021 4826.01 3154.30 84.55 18.00 175.23 2635.88
   11:36:00.612.30-Jan-2021 4826.01 3154.29 84.55 18.00 175.43 2635.88
   11:36:00.812.30-Jan-2021 4826.01 3154.30 84.55 18.00 175.63 2635.88
   11:36:01.012.30-Jan-2021 4826.01 3154.25 84.55 18.00 175.83 2635.88
   11:36:01.212.30-Jan-2021 4826.01 3154.37 84.55 18.00 176.03 2635.88
   11:36:01.412.30-Jan-2021 4826.01 3154.37 84.55 18.00 176.23 2635.88
   11:36:01.612.30-Jan-2021 4826.01 3154.31 84.55 18.00 176.43 2635.88
   11:36:01.812.30-Jan-2021 4826.01 3154.26 84.54 18.00 176.63 2635.88
   11:36:02.012.30-Jan-2021 4826.01 3154.36 84.54 18.00 176.83 2635.88
   11:36:02.212.30-Jan-2021 4826.01 3154.32 84.54 18.00 177.03 2635.88
   11:36:02.412.30-Jan-2021 4826.01 3154.32 84.54 18.00 177.23 2635.88
   11:36:02.612.30-Jan-2021 4826.01 3154.27 84.54 18.00 177.43 2635.88
   11:36:02.812.30-Jan-2021 4826.01 3154.34 84.54 18.00 177.63 2635.88
   11:36:03.012.30-Jan-2021 4826.01 3154.33 84.54 18.00 177.83 2635.88
   11:36:03.212.30-Jan-2021 4826.01 3154.31 84.54 18.00 178.03 2635.88
   11:36:03.412.30-Jan-2021 4826.01 3154.31 84.54 18.00 178.23 2635.88
   11:36:03.612.30-Jan-2021 4826.01 3154.29 84.54 18.00 178.43 2635.88
   11:36:03.812.30-Jan-2021 4826.01 3154.30 84.54 18.00 178.63 2635.88
   11:36:04.012.30-Jan-2021 4826.01 3154.31 84.54 18.00 178.83 2635.88
   11:36:04.212.30-Jan-2021 4826.01 3154.32 84.54 18.00 179.03 2635.88
   11:36:04.412.30-Jan-2021 4826.01 3154.32 84.54 18.00 179.23 2635.88
   11:36:04.613.30-Jan-2021 4826.01 3154.25 84.54 18.00 179.43 2635.88
   11:36:04.813.30-Jan-2021 4826.01 3154.34 84.54 18.00 179.63 2635.88
   11:36:05.013.30-Jan-2021 4826.01 3154.31 84.54 18.00 179.83 2635.88
   11:36:05.213.30-Jan-2021 4826.01 3154.31 84.53 18.00 180.03 2635.88
   11:36:05.413.30-Jan-2021 4826.01 3154.31 84.53 18.00 180.23 2635.88
   11:36:05.613.30-Jan-2021 4826.01 3154.27 84.53 18.00 180.43 2635.88
   11:36:05.813.30-Jan-2021 4826.01 3154.30 84.53 18.00 180.63 2635.88
