~Version Information
 VERS.                  2.0:   CWLS log ASCII Standard -VERSION 2.0
 WRAP.                   NO:   One line per depth step
~Well Information Block
#MNEM.UNIT     VALUE/NAME     DESCRIPTION
#---------     -----------    ---------------------------
 STRT.S             08:50:58 29-Jan-21: START TIME 08:50:58 29-Jan-21
 STOP.S             08:57:28 29-Jan-21: STOP TIME  08:57:28 29-Jan-21
 STEP.S                   0.00: STEP TIME
 NULL.                 -999.25: NULL VALUE
 DFWT.                        :  DIST FWL TEXT
 DFST.                        :  DIST FSL TEXT
 DMF .             Drill Floor:  DRILL MEAS FROM
 STIM.      00.00.00 25-Sep-20:  START TIME
 DATE.      16.12.48 31-Jan-21:  END TIME
 SPUD.               20-Sep-20:  SPUD DATE
 NREF.                    Grid:  NORTH REFERENCE
 HPTY.       Minimum Curvature:  HOLE POS TYPE
 DMOD.             Drill Model:  DRILL MOD DESC
 SVYD.                  Survey:  SURVEY DESC
 ILTD.               Lithology:  INTERP LTH DESC
 FTOP.          Formation Tops:  FORM TOPS DESC
 RIG .              East Azeri:  RIG NAME
 PDAT.          Mean Sea Level:  PERMANENT DATUM
 FLD .                     ACG:  FIELD NAME
 SON .        AZ-XX-0906591820:  JOB NUMBER
 CTRY.              Azerbaijan:  COUNTRY NAME
 WELL.                     D37:  WELL NAME
 SRVC.     Turan Drilling & Engineering:  CONTRACTOR
 COMP.     BP Exploration (Caspian Sea) ltd.:  COMPANY
 WTYP.                Deviated:  WELL TYPE
 MDS .        Operator Entered:  MAG DATA SOURCE
 UWI .                     N/A:  UNIQUE WELL IDENTIFIER
 API .                     N/A:  API NUMBER
 BASE.              Azerbaijan:  LOGGING EQUIPMENT BASE LOCATION
 REGN.                   EESSA:  REGION
 PROV.                    Baku:  PROVINCE
 STAT.                    Baku:  STATE NAME
 MWDS.                    Baku:  MWD SHOP
 JOBN.        AZ-XX-0906591820:  JOB TICKET NUMB
 DOE .                     N/A:  DOE NUMBER
 DCON.         Sperry Drilling:  DIRECTNL CONTR
 UNIT.                     N/A:  LOGGING EQUIPMENT ID
 CNTY.                        :  COUNTY
 LOC .                        :  LOCATION
 LMF .             Drill Floor:  LOG MEASURED FROM
 TVDS.m                  43.60:  TVDSS CORRECTN
 LATI.deg                40.02:  LATITUDE
 LONG.deg                51.45:  LONGITUDE
 WHNS.m                  11.04:  WELL HEAD N/S
 WHEW.m                 -12.38:  WELL HEAD E/W
 UTMX.m              538763.98:  UTM X
 UTMY.m             4431880.20:  UTM Y
 DFWL.m                   0.00:  DISTANCE FWL
 DFSL.m                   0.00:  DISTANCE FSL
 SDEP.m                 300.00:  START DEPTH
 TDD .m                4900.01:  TOTAL DEPTH (DRILLER)
 VSDR.deg               185.64:  VERT SEC DIRECT
 GVFD.g                   1.00:  GRAVITY FIELD
 MFLD.nT              50301.00:  MAGNETIC FIELD
 MDIP.deg                59.46:  MAGNETIC DIP
 MDEC.deg                 6.43:  MAGNETIC DECL
 GRDC.deg                 0.29:  GRID CORRECTION
 AZTC.deg                 6.14:  AZM TOTAL CORR
 EPD .m                   0.00:  ELEVATION
 EGL .m                   0.00:  GROUND ELEVATION
 WDMS.m                 151.80:  WD ELEV
 APD .m                  43.60:  DEPTH ABOVE PD
 DEP .m                 571.69:  DEPTH
 AGAP.m                  43.60:  AIR GAP
 VSEW.m                 -12.38:  VERT SEC E/W
 VSNS.m                  11.04:  VERT SEC N/S
 EKB .m                  43.60:  KB ELEVATION
 EDF .m                  43.60:  DF ELEVATION
 TDL .m                 412.00:  TOTAL DEPTH (LOGGER)
 VSC .                       0:  VS TO CLOSURE
 MAGU.                 1849300:  MAGUTM CHECKSUM
~Parameter Information Block
#MNEM.UNIT       Value        Description
#---------     -----------    ---------------------------
 AV  .mps                 2.21:  Ann Velocity 
 AVMX.mps                 2.53:  Max Ann Veloc 
 AZIF.deg               144.83:  Azm, Final 
 BHAT.        Rotary Steerable:  BHA Type 
 BROT.°/30m              -0.52:  Build Rotating 
 BS  .in                  6.50:  Bit Size 
 BTPL.psig              209.00:  Bit Press Loss 
 CABU.                      No:  Customer Abuse 
 CGEO.        Ali Isfandiyarov:  Customer Geo 
 COMM.                     Ä	‡:  Run Comments 1 
 TCS .hr                 61.31:  Time Ciculation Ended 
 CV  .mps                 4.66:  Crit Velocity 
 CVMX.mps                 5.02:  Max Crit Veloc 
 DD1 .          Fariz Nahmatov:  Direct Drillr 1 
 DD2 .            Musa Ahmadov:  Direct Drillr 2 
 DDSV.               Geo-Pilot:  DD Service 
 DEFF.%                 100.00:  % Det Eff 
 DLRX.°/30m               1.44:  Dogleg Rot Max 
 DLSO.°/30m               0.83:  Dogleg Oriented 
 DLSX.°/30m               1.44:  Dogleg Str Max 
 DRET.      08.30.00 30-Jan-21:  Drill End Time 
 DRST.      21.15.00 27-Jan-21:  Drill Start Tim 
 DTIM.hr                 37.28:  Time Drilling 
 EDEP.m                4867.01:  End Depth 
 ENG1.          Rasim Hashimov:  Engineer 1 
 ENG2.         Almaz Almadatov:  Engineer 2 
 ENG3.        Tamerlan Ahmadov:  Engineer 3 
 ETIM.      22.41.04 31-Jan-21:  End Time 
 FLOI.gpm               400.00:  Flow In 
 FLON.gpm               300.00:  Flow In Min 
 FLOS.cptm                0.00:  Fluid Loss 
 FLOX.gpm               400.00:  Flow In Max 
 HFLO.                      No:  High Flow 
 HPRE.                      No:  High Pressure 
 HTEM.                      No:  High Temp 
 HYDO.m                   1.80:  Hydro Offset 
 IFIN.deg                65.63:  Inc, Final 
 IMAX.deg                66.77:  Inc Max 
 IMIN.deg                65.61:  Inc Min 
 IMND.m                4612.67:  Inc Min Depth 
 IMXD.m                4811.63:  Inc Max Depth 
 JARR.                      No:  Jarring 
 LETM.      08.30.00 30-Jan-21:  Log End Time 
 LOST.hr                     0:  Lost Rig Time 
 LSTM.      21.15.00 27-Jan-21:  Log Start Time 
 MDCL.ppm             41000.00:  Mud Chlorides 
 MDES.     Inversion Oil/Synthetic:  Mud Desc 
 DFD .sg                  1.40:  Mud Density 
 MDMN.sg                  1.40:  Dens Mud Min 
 MDMX.sg                  1.40:  Dens Mud Max 
 MOIL.                      53:  Run Mud Oil % 
 MOWR.                   66:34:  Run Mud OWR 
 MSND.                     0.2:  Run Mud Sand % 
 MSOL.                    17.9:  Run Mud Solids% 
 DFV .spqt               77.00:  Mud Viscosity 
 MWOD.in                  4.75:  MWD Tool OD 
 MWSI.                      No:  Serv Intrp, MWD 
 OTIM.hr                110.38:  Time Operating 
 PCON.           Look Like New:  Pad Condition 
 PMAX.psia             5300.00:  Press Op, Max 
 PV  .cP                 57.00:  Mud PV 
 RUN .                    1200:  Run Number 
 ROPA.m/hr               13.00:  ROP Avg 
 ROPN.m/hr                9.00:  ROP Min 
 ROPX.m/hr               15.00:  ROP Max 
 RPMA.rpm               120.00:  RPM Surface Avg 
 RPMN.rpm               100.00:  RPM Surface Min 
 RPMX.rpm               135.00:  RPM Surface Max 
 RRUN.                    1200:  Rig Run Number 
 RTIM.hr                  2.65:  Time Reaming 
 SAZI.deg               145.04:  Azm, Start 
 SDEP.m                4455.01:  Start Depth 
 SIDD.                      No:  Serv Intrp, DD 
 SINC.deg                65.83:  Inc, Start 
 SPPA.psig             5037.00:  SPP Avg 
 SPPN.psig             4430.00:  SPP Min 
 SPPX.psig             5300.00:  SPP Max 
 STIM.      22.41.04 26-Jan-21:  Start Time 
 SVCS.                 DD, MWD:  Services 
 SVER.                    9.20:  Sperry Version 
 TDAT.m                 412.00:  Tot Depth Attmp 
 TDDF.                      No:  Trip for DD 
 TDLG.m                 412.00:  Tot Depth Loggd 
 TFF .                      No:  Trip for Fail 
 TQAA.f-kp               15.00:  Torque Abs Avg 
 TQAN.f-kp               12.00:  Torque Abs Min 
 TQAX.f-kp               17.00:  Torque Abs Max 
 TRRT.°/30m               1.18:  Turn Rotating 
 MRT .                     ADR:  Maximum Recorded Temperature 
 TTMX.degC               88.24:  Max Tool Temp 
 VS01.                90619458:  Virtual Str1 SN 
 VS02.                90519326:  Virtual Str2 SN 
 VS03.                90522176:  Virtual Str3 SN 
 VS04.                90512683:  Virtual Str4 SN 
 WBMN.klb                 1.00:  WOB Min 
 WITN.           Murad Giluyev:  Customer Rep 
 WITN.     Kamran Kemberlinski:  Customer Rep 2 
 WOBA.klb                 5.00:  WOB Avg 
 WOBX.klb                 9.00:  WOB Max 
 YP  .lhf2               41.00:  Yield Point 
~Curve Information Block
#MNEM.UNIT                 API CODE     Curve Description
#---------               -----------    ---------------------------
 TIME.HHMMSS            00 000 000 000:  GT Time & Date
 GTDEPTH.m              00 000 000 000:  GT Depth
 GTPQH.psia             00 000 000 000:  GT HR Quartz Pressure
 GTTQ.degC              00 000 000 000:  GT Quartz Temperature
 GTTN.NONE              00 000 000 000:  GT Test Number
 GTET.sec               00 000 000 000:  GT Elapsed Test Time
 GTTVD.m                00 000 000 000:  GT True Vertical Depth
#Other Information
#
#WARRANTY: Halliburton will use its best efforts to furnish customers with 
#accurate information and interpretations that are part of, and incident to, the services 
#provided.  However, Halliburton cannot and does not warrant the accuracy 
#or correctness of such information and interpretations.  Under no circumstances should any 
#such information or interpretation be relied upon as the sole basis for any drilling, 
#completion, production, or financial decision or any procedure involving any risk to the 
#safety of any drilling venture, drilling rig or its crew or any other third party.  The 
#Customer has full responsibility for all drilling, completion and production operation.  
#Halliburton makes no representations or warranties, either expressed or 
#implied, including, but not limited to, the implied warranties of merchantability or fitness 
#for a particular purpose, with respect to the services rendered.  In no event will 
#Halliburton be liable for failure to obtain any particular results or for 
#any damages, including, but not limited to, indirect, special or consequential damages, 
#resulting from the use of any information or interpretation provided by Halliburton.
#
~A           TIME           GTDEPTH  GTPQH  GTTQ  GTTN  GTET   GTTVD  
# ...
   08:52:30.694.29-Jan-2021 4683.51 3065.58 81.17 9.00  92.02 2579.09
   08:52:30.894.29-Jan-2021 4683.51 3065.58 81.17 9.00  92.22 2579.09
   08:52:31.094.29-Jan-2021 4683.51 3065.62 81.17 9.00  92.42 2579.09
   08:52:31.295.29-Jan-2021 4683.51 3065.60 81.17 9.00  92.62 2579.09
   08:52:31.495.29-Jan-2021 4683.51 3065.58 81.17 9.00  92.82 2579.09
   08:52:31.695.29-Jan-2021 4683.51 3065.60 81.17 9.00  93.02 2579.09
   08:52:31.895.29-Jan-2021 4683.51 3065.60 81.17 9.00  93.22 2579.09
   08:52:32.095.29-Jan-2021 4683.51 3065.60 81.17 9.00  93.42 2579.09
   08:52:32.295.29-Jan-2021 4683.51 3065.55 81.17 9.00  93.62 2579.09
   08:52:32.495.29-Jan-2021 4683.51 3065.60 81.17 9.00  93.82 2579.09
   08:52:32.695.29-Jan-2021 4683.51 3065.59 81.16 9.00  94.02 2579.09
   08:52:32.895.29-Jan-2021 4683.51 3065.59 81.16 9.00  94.22 2579.09
   08:52:33.095.29-Jan-2021 4683.51 3065.59 81.16 9.00  94.42 2579.09
   08:52:33.295.29-Jan-2021 4683.51 3065.57 81.16 9.00  94.62 2579.09
   08:52:33.495.29-Jan-2021 4683.51 3065.59 81.16 9.00  94.82 2579.09
   08:52:33.695.29-Jan-2021 4683.51 3065.51 81.16 9.00  95.02 2579.09
   08:52:33.895.29-Jan-2021 4683.51 3065.51 81.16 9.00  95.22 2579.09
   08:52:34.095.29-Jan-2021 4683.51 3065.58 81.16 9.00  95.42 2579.09
   08:52:34.295.29-Jan-2021 4683.51 3065.55 81.16 9.00  95.62 2579.09
   08:52:34.495.29-Jan-2021 4683.51 3065.58 81.16 9.00  95.82 2579.09
   08:52:34.695.29-Jan-2021 4683.51 3065.58 81.16 9.00  96.02 2579.09
   08:52:34.895.29-Jan-2021 4683.51 3065.58 81.16 9.00  96.22 2579.09
   08:52:35.095.29-Jan-2021 4683.51 3065.56 81.16 9.00  96.42 2579.09
   08:52:35.295.29-Jan-2021 4683.51 3065.56 81.15 9.00  96.62 2579.09
   08:52:35.495.29-Jan-2021 4683.51 3065.57 81.15 9.00  96.82 2579.09
   08:52:35.695.29-Jan-2021 4683.51 3065.56 81.15 9.00  97.02 2579.09
   08:52:35.895.29-Jan-2021 4683.51 3065.56 81.15 9.00  97.22 2579.09
   08:52:36.096.29-Jan-2021 4683.51 3065.56 81.15 9.00  97.42 2579.09
   08:52:36.296.29-Jan-2021 4683.51 3065.55 81.15 9.00  97.62 2579.09
   08:52:36.496.29-Jan-2021 4683.51 3065.56 81.15 9.00  97.82 2579.09
   08:52:36.696.29-Jan-2021 4683.51 3065.55 81.15 9.00  98.02 2579.09
   08:52:36.896.29-Jan-2021 4683.51 3065.55 81.15 9.00  98.22 2579.09
   08:52:37.096.29-Jan-2021 4683.51 3065.54 81.15 9.00  98.42 2579.09
   08:52:37.296.29-Jan-2021 4683.51 3065.55 81.15 9.00  98.62 2579.09
   08:52:37.496.29-Jan-2021 4683.51 3065.53 81.15 9.00  98.82 2579.09
   08:52:37.696.29-Jan-2021 4683.51 3065.55 81.15 9.00  99.02 2579.09
   08:52:37.896.29-Jan-2021 4683.51 3065.55 81.15 9.00  99.22 2579.09
   08:52:38.096.29-Jan-2021 4683.51 3065.54 81.14 9.00  99.42 2579.09
   08:52:38.296.29-Jan-2021 4683.51 3065.54 81.14 9.00  99.62 2579.09
   08:52:38.496.29-Jan-2021 4683.51 3065.54 81.14 9.00  99.82 2579.09
   08:52:38.696.29-Jan-2021 4683.51 3065.51 81.14 9.00 100.02 2579.09
   08:52:38.896.29-Jan-2021 4683.51 3065.51 81.14 9.00 100.22 2579.09
   08:52:39.096.29-Jan-2021 4683.51 3065.54 81.14 9.00 100.42 2579.09
   08:52:39.296.29-Jan-2021 4683.51 3065.51 81.14 9.00 100.62 2579.09
   08:52:39.496.29-Jan-2021 4683.51 3065.53 81.14 9.00 100.82 2579.09
   08:52:39.696.29-Jan-2021 4683.51 3065.54 81.14 9.00 101.02 2579.09
   08:52:39.896.29-Jan-2021 4683.51 3065.54 81.14 9.00 101.22 2579.09
   08:52:40.096.29-Jan-2021 4683.51 3065.53 81.14 9.00 101.42 2579.09
   08:52:40.296.29-Jan-2021 4683.51 3065.52 81.14 9.00 101.62 2579.09
   08:52:40.496.29-Jan-2021 4683.51 3065.52 81.14 9.00 101.82 2579.09
   08:52:40.696.29-Jan-2021 4683.51 3065.53 81.13 9.00 102.02 2579.09
   08:52:40.897.29-Jan-2021 4683.51 3065.53 81.13 9.00 102.22 2579.09
   08:52:41.097.29-Jan-2021 4683.51 3065.53 81.13 9.00 102.42 2579.09
   08:52:41.297.29-Jan-2021 4683.51 3065.51 81.13 9.00 102.62 2579.09
   08:52:41.497.29-Jan-2021 4683.51 3065.51 81.13 9.00 102.82 2579.09
   08:52:41.697.29-Jan-2021 4683.51 3065.51 81.13 9.00 103.02 2579.09
   08:52:41.897.29-Jan-2021 4683.51 3065.51 81.13 9.00 103.22 2579.09
   08:52:42.097.29-Jan-2021 4683.51 3065.51 81.13 9.00 103.42 2579.09
   08:52:42.297.29-Jan-2021 4683.51 3065.51 81.13 9.00 103.62 2579.09
   08:52:42.497.29-Jan-2021 4683.51 3065.51 81.13 9.00 103.82 2579.09
   08:52:42.697.29-Jan-2021 4683.51 3065.47 81.13 9.00 104.02 2579.09
   08:52:42.897.29-Jan-2021 4683.51 3065.47 81.13 9.00 104.22 2579.09
   08:52:43.097.29-Jan-2021 4683.51 3065.51 81.13 9.00 104.42 2579.09
   08:52:43.297.29-Jan-2021 4683.51 3065.48 81.13 9.00 104.62 2579.09
   08:52:43.497.29-Jan-2021 4683.51 3065.51 81.12 9.00 104.82 2579.09
   08:52:43.697.29-Jan-2021 4683.51 3065.51 81.12 9.00 105.02 2579.09
   08:52:43.897.29-Jan-2021 4683.51 3065.51 81.12 9.00 105.22 2579.09
   08:52:44.097.29-Jan-2021 4683.51 3065.47 81.12 9.00 105.42 2579.09
   08:52:44.297.29-Jan-2021 4683.51 3065.51 81.12 9.00 105.62 2579.09
   08:52:44.497.29-Jan-2021 4683.51 3065.51 81.12 9.00 105.82 2579.09
   08:52:44.697.29-Jan-2021 4683.51 3065.47 81.12 9.00 106.02 2579.09
   08:52:44.897.29-Jan-2021 4683.51 3065.47 81.12 9.00 106.22 2579.09
   08:52:45.097.29-Jan-2021 4683.51 3065.49 81.12 9.00 106.42 2579.09
   08:52:45.297.29-Jan-2021 4683.51 3065.48 81.12 9.00 106.62 2579.09
   08:52:45.497.29-Jan-2021 4683.51 3065.47 81.12 9.00 106.82 2579.09
   08:52:45.698.29-Jan-2021 4683.51 3065.48 81.12 9.00 107.02 2579.09
   08:52:45.898.29-Jan-2021 4683.51 3065.48 81.12 9.00 107.22 2579.09
   08:52:46.098.29-Jan-2021 4683.51 3065.47 81.11 9.00 107.42 2579.09
   08:52:46.298.29-Jan-2021 4683.51 3065.47 81.11 9.00 107.62 2579.09
   08:52:46.498.29-Jan-2021 4683.51 3065.49 81.11 9.00 107.82 2579.09
   08:52:46.698.29-Jan-2021 4683.51 3065.41 81.11 9.00 108.02 2579.09
   08:52:46.898.29-Jan-2021 4683.51 3065.41 81.11 9.00 108.22 2579.09
   08:52:47.098.29-Jan-2021 4683.51 3065.49 81.11 9.00 108.42 2579.09
   08:52:47.298.29-Jan-2021 4683.51 3065.45 81.11 9.00 108.62 2579.09
   08:52:47.498.29-Jan-2021 4683.51 3065.48 81.11 9.00 108.82 2579.09
   08:52:47.698.29-Jan-2021 4683.51 3065.47 81.11 9.00 109.02 2579.09
   08:52:47.898.29-Jan-2021 4683.51 3065.47 81.11 9.00 109.22 2579.09
   08:52:48.098.29-Jan-2021 4683.51 3065.46 81.11 9.00 109.42 2579.09
   08:52:48.298.29-Jan-2021 4683.51 3065.46 81.11 9.00 109.62 2579.09
   08:52:48.498.29-Jan-2021 4683.51 3065.46 81.11 9.00 109.82 2579.09
   08:52:48.698.29-Jan-2021 4683.51 3065.45 81.11 9.00 110.02 2579.09
   08:52:48.898.29-Jan-2021 4683.51 3065.45 81.11 9.00 110.22 2579.09
   08:52:49.098.29-Jan-2021 4683.51 3065.45 81.10 9.00 110.42 2579.09
   08:52:49.298.29-Jan-2021 4683.51 3065.45 81.10 9.00 110.62 2579.09
   08:52:49.498.29-Jan-2021 4683.51 3065.44 81.10 9.00 110.82 2579.09
   08:52:49.698.29-Jan-2021 4683.51 3065.45 81.10 9.00 111.02 2579.09
   08:52:49.898.29-Jan-2021 4683.51 3065.45 81.10 9.00 111.22 2579.09
   08:52:50.098.29-Jan-2021 4683.51 3065.45 81.10 9.00 111.42 2579.09
   08:52:50.299.29-Jan-2021 4683.51 3065.40 81.10 9.00 111.62 2579.09
   08:52:50.499.29-Jan-2021 4683.51 3065.47 81.10 9.00 111.82 2579.09
   08:52:50.699.29-Jan-2021 4683.51 3065.44 81.10 9.00 112.02 2579.09
   08:52:50.899.29-Jan-2021 4683.51 3065.44 81.10 9.00 112.22 2579.09
   08:52:51.099.29-Jan-2021 4683.51 3065.45 81.10 9.00 112.42 2579.09
   08:52:51.299.29-Jan-2021 4683.51 3065.44 81.10 9.00 112.62 2579.09
   08:52:51.499.29-Jan-2021 4683.51 3065.45 81.10 9.00 112.82 2579.09
   08:52:51.699.29-Jan-2021 4683.51 3065.44 81.09 9.00 113.02 2579.09
   08:52:51.899.29-Jan-2021 4683.51 3065.44 81.09 9.00 113.22 2579.09
   08:52:52.099.29-Jan-2021 4683.51 3065.44 81.09 9.00 113.42 2579.09
   08:52:52.299.29-Jan-2021 4683.51 3065.42 81.09 9.00 113.62 2579.09
   08:52:52.499.29-Jan-2021 4683.51 3065.43 81.09 9.00 113.82 2579.09
   08:52:52.699.29-Jan-2021 4683.51 3065.44 81.09 9.00 114.02 2579.09
   08:52:52.899.29-Jan-2021 4683.51 3065.44 81.09 9.00 114.22 2579.09
   08:52:53.099.29-Jan-2021 4683.51 3065.43 81.09 9.00 114.42 2579.09
   08:52:53.299.29-Jan-2021 4683.51 3065.42 81.09 9.00 114.62 2579.09
   08:52:53.499.29-Jan-2021 4683.51 3065.36 81.09 9.00 114.82 2579.09
