~Version Information
 VERS.                  2.0:   CWLS log ASCII Standard -VERSION 2.0
 WRAP.                   NO:   One line per depth step
~Well Information Block
#MNEM.UNIT     VALUE/NAME     DESCRIPTION
#---------     -----------    ---------------------------
 STRT.S             07:03:45 29-Jan-21: START TIME 07:03:45 29-Jan-21
 STOP.S             07:10:14 29-Jan-21: STOP TIME  07:10:14 29-Jan-21
 STEP.S                   0.00: STEP TIME
 NULL.                 -999.25: NULL VALUE
 DFWT.                        :  DIST FWL TEXT
 DFST.                        :  DIST FSL TEXT
 DMF .             Drill Floor:  DRILL MEAS FROM
 STIM.      00.00.00 25-Sep-20:  START TIME
 DATE.      16.12.48 31-Jan-21:  END TIME
 SPUD.               20-Sep-20:  SPUD DATE
 NREF.                    Grid:  NORTH REFERENCE
 HPTY.       Minimum Curvature:  HOLE POS TYPE
 DMOD.             Drill Model:  DRILL MOD DESC
 SVYD.                  Survey:  SURVEY DESC
 ILTD.               Lithology:  INTERP LTH DESC
 FTOP.          Formation Tops:  FORM TOPS DESC
 RIG .              East Azeri:  RIG NAME
 PDAT.          Mean Sea Level:  PERMANENT DATUM
 FLD .                     ACG:  FIELD NAME
 SON .        AZ-XX-0906591820:  JOB NUMBER
 CTRY.              Azerbaijan:  COUNTRY NAME
 WELL.                     D37:  WELL NAME
 SRVC.     Turan Drilling & Engineering:  CONTRACTOR
 COMP.     BP Exploration (Caspian Sea) ltd.:  COMPANY
 WTYP.                Deviated:  WELL TYPE
 MDS .        Operator Entered:  MAG DATA SOURCE
 UWI .                     N/A:  UNIQUE WELL IDENTIFIER
 API .                     N/A:  API NUMBER
 BASE.              Azerbaijan:  LOGGING EQUIPMENT BASE LOCATION
 REGN.                   EESSA:  REGION
 PROV.                    Baku:  PROVINCE
 STAT.                    Baku:  STATE NAME
 MWDS.                    Baku:  MWD SHOP
 JOBN.        AZ-XX-0906591820:  JOB TICKET NUMB
 DOE .                     N/A:  DOE NUMBER
 DCON.         Sperry Drilling:  DIRECTNL CONTR
 UNIT.                     N/A:  LOGGING EQUIPMENT ID
 CNTY.                        :  COUNTY
 LOC .                        :  LOCATION
 LMF .             Drill Floor:  LOG MEASURED FROM
 TVDS.m                  43.60:  TVDSS CORRECTN
 LATI.deg                40.02:  LATITUDE
 LONG.deg                51.45:  LONGITUDE
 WHNS.m                  11.04:  WELL HEAD N/S
 WHEW.m                 -12.38:  WELL HEAD E/W
 UTMX.m              538763.98:  UTM X
 UTMY.m             4431880.20:  UTM Y
 DFWL.m                   0.00:  DISTANCE FWL
 DFSL.m                   0.00:  DISTANCE FSL
 SDEP.m                 300.00:  START DEPTH
 TDD .m                4900.01:  TOTAL DEPTH (DRILLER)
 VSDR.deg               185.64:  VERT SEC DIRECT
 GVFD.g                   1.00:  GRAVITY FIELD
 MFLD.nT              50301.00:  MAGNETIC FIELD
 MDIP.deg                59.46:  MAGNETIC DIP
 MDEC.deg                 6.43:  MAGNETIC DECL
 GRDC.deg                 0.29:  GRID CORRECTION
 AZTC.deg                 6.14:  AZM TOTAL CORR
 EPD .m                   0.00:  ELEVATION
 EGL .m                   0.00:  GROUND ELEVATION
 WDMS.m                 151.80:  WD ELEV
 APD .m                  43.60:  DEPTH ABOVE PD
 DEP .m                 571.69:  DEPTH
 AGAP.m                  43.60:  AIR GAP
 VSEW.m                 -12.38:  VERT SEC E/W
 VSNS.m                  11.04:  VERT SEC N/S
 EKB .m                  43.60:  KB ELEVATION
 EDF .m                  43.60:  DF ELEVATION
 TDL .m                 412.00:  TOTAL DEPTH (LOGGER)
 VSC .                       0:  VS TO CLOSURE
 MAGU.                 1849300:  MAGUTM CHECKSUM
~Parameter Information Block
#MNEM.UNIT       Value        Description
#---------     -----------    ---------------------------
 AV  .mps                 2.21:  Ann Velocity 
 AVMX.mps                 2.53:  Max Ann Veloc 
 AZIF.deg               144.83:  Azm, Final 
 BHAT.        Rotary Steerable:  BHA Type 
 BROT.°/30m              -0.52:  Build Rotating 
 BS  .in                  6.50:  Bit Size 
 BTPL.psig              209.00:  Bit Press Loss 
 CABU.                      No:  Customer Abuse 
 CGEO.        Ali Isfandiyarov:  Customer Geo 
 COMM.                     ü®q:  Run Comments 1 
 TCS .hr                 61.31:  Time Ciculation Ended 
 CV  .mps                 4.66:  Crit Velocity 
 CVMX.mps                 5.02:  Max Crit Veloc 
 DD1 .          Fariz Nahmatov:  Direct Drillr 1 
 DD2 .            Musa Ahmadov:  Direct Drillr 2 
 DDSV.               Geo-Pilot:  DD Service 
 DEFF.%                 100.00:  % Det Eff 
 DLRX.°/30m               1.44:  Dogleg Rot Max 
 DLSO.°/30m               0.83:  Dogleg Oriented 
 DLSX.°/30m               1.44:  Dogleg Str Max 
 DRET.      08.30.00 30-Jan-21:  Drill End Time 
 DRST.      21.15.00 27-Jan-21:  Drill Start Tim 
 DTIM.hr                 37.28:  Time Drilling 
 EDEP.m                4867.01:  End Depth 
 ENG1.          Rasim Hashimov:  Engineer 1 
 ENG2.         Almaz Almadatov:  Engineer 2 
 ENG3.        Tamerlan Ahmadov:  Engineer 3 
 ETIM.      22.41.04 31-Jan-21:  End Time 
 FLOI.gpm               400.00:  Flow In 
 FLON.gpm               300.00:  Flow In Min 
 FLOS.cptm                0.00:  Fluid Loss 
 FLOX.gpm               400.00:  Flow In Max 
 HFLO.                      No:  High Flow 
 HPRE.                      No:  High Pressure 
 HTEM.                      No:  High Temp 
 HYDO.m                   1.80:  Hydro Offset 
 IFIN.deg                65.63:  Inc, Final 
 IMAX.deg                66.77:  Inc Max 
 IMIN.deg                65.61:  Inc Min 
 IMND.m                4612.67:  Inc Min Depth 
 IMXD.m                4811.63:  Inc Max Depth 
 JARR.                      No:  Jarring 
 LETM.      08.30.00 30-Jan-21:  Log End Time 
 LOST.hr                     0:  Lost Rig Time 
 LSTM.      21.15.00 27-Jan-21:  Log Start Time 
 MDCL.ppm             41000.00:  Mud Chlorides 
 MDES.     Inversion Oil/Synthetic:  Mud Desc 
 DFD .sg                  1.40:  Mud Density 
 MDMN.sg                  1.40:  Dens Mud Min 
 MDMX.sg                  1.40:  Dens Mud Max 
 MOIL.                      53:  Run Mud Oil % 
 MOWR.                   66:34:  Run Mud OWR 
 MSND.                     0.2:  Run Mud Sand % 
 MSOL.                    17.9:  Run Mud Solids% 
 DFV .spqt               77.00:  Mud Viscosity 
 MWOD.in                  4.75:  MWD Tool OD 
 MWSI.                      No:  Serv Intrp, MWD 
 OTIM.hr                110.38:  Time Operating 
 PCON.           Look Like New:  Pad Condition 
 PMAX.psia             5300.00:  Press Op, Max 
 PV  .cP                 57.00:  Mud PV 
 RUN .                    1200:  Run Number 
 ROPA.m/hr               13.00:  ROP Avg 
 ROPN.m/hr                9.00:  ROP Min 
 ROPX.m/hr               15.00:  ROP Max 
 RPMA.rpm               120.00:  RPM Surface Avg 
 RPMN.rpm               100.00:  RPM Surface Min 
 RPMX.rpm               135.00:  RPM Surface Max 
 RRUN.                    1200:  Rig Run Number 
 RTIM.hr                  2.65:  Time Reaming 
 SAZI.deg               145.04:  Azm, Start 
 SDEP.m                4455.01:  Start Depth 
 SIDD.                      No:  Serv Intrp, DD 
 SINC.deg                65.83:  Inc, Start 
 SPPA.psig             5037.00:  SPP Avg 
 SPPN.psig             4430.00:  SPP Min 
 SPPX.psig             5300.00:  SPP Max 
 STIM.      22.41.04 26-Jan-21:  Start Time 
 SVCS.                 DD, MWD:  Services 
 SVER.                    9.20:  Sperry Version 
 TDAT.m                 412.00:  Tot Depth Attmp 
 TDDF.                      No:  Trip for DD 
 TDLG.m                 412.00:  Tot Depth Loggd 
 TFF .                      No:  Trip for Fail 
 TQAA.f-kp               15.00:  Torque Abs Avg 
 TQAN.f-kp               12.00:  Torque Abs Min 
 TQAX.f-kp               17.00:  Torque Abs Max 
 TRRT.°/30m               1.18:  Turn Rotating 
 MRT .                     ADR:  Maximum Recorded Temperature 
 TTMX.degC               88.24:  Max Tool Temp 
 VS01.                90619458:  Virtual Str1 SN 
 VS02.                90519326:  Virtual Str2 SN 
 VS03.                90522176:  Virtual Str3 SN 
 VS04.                90512683:  Virtual Str4 SN 
 WBMN.klb                 1.00:  WOB Min 
 WITN.           Murad Giluyev:  Customer Rep 
 WITN.     Kamran Kemberlinski:  Customer Rep 2 
 WOBA.klb                 5.00:  WOB Avg 
 WOBX.klb                 9.00:  WOB Max 
 YP  .lhf2               41.00:  Yield Point 
~Curve Information Block
#MNEM.UNIT                 API CODE     Curve Description
#---------               -----------    ---------------------------
 TIME.HHMMSS            00 000 000 000:  GT Time & Date
 GTDEPTH.m              00 000 000 000:  GT Depth
 GTPQH.psia             00 000 000 000:  GT HR Quartz Pressure
 GTTQ.degC              00 000 000 000:  GT Quartz Temperature
 GTTN.NONE              00 000 000 000:  GT Test Number
 GTET.sec               00 000 000 000:  GT Elapsed Test Time
 GTTVD.m                00 000 000 000:  GT True Vertical Depth
#Other Information
#
#WARRANTY: Halliburton will use its best efforts to furnish customers with 
#accurate information and interpretations that are part of, and incident to, the services 
#provided.  However, Halliburton cannot and does not warrant the accuracy 
#or correctness of such information and interpretations.  Under no circumstances should any 
#such information or interpretation be relied upon as the sole basis for any drilling, 
#completion, production, or financial decision or any procedure involving any risk to the 
#safety of any drilling venture, drilling rig or its crew or any other third party.  The 
#Customer has full responsibility for all drilling, completion and production operation.  
#Halliburton makes no representations or warranties, either expressed or 
#implied, including, but not limited to, the implied warranties of merchantability or fitness 
#for a particular purpose, with respect to the services rendered.  In no event will 
#Halliburton be liable for failure to obtain any particular results or for 
#any damages, including, but not limited to, indirect, special or consequential damages, 
#resulting from the use of any information or interpretation provided by Halliburton.
#
~A           TIME           GTDEPTH  GTPQH  GTTQ  GTTN  GTET   GTTVD  
# ...
   07:05:17.338.29-Jan-2021 4666.01 3052.21 79.87 8.00  92.02 2572.07
   07:05:17.538.29-Jan-2021 4666.01 3052.21 79.87 8.00  92.22 2572.07
   07:05:17.738.29-Jan-2021 4666.01 3052.21 79.87 8.00  92.42 2572.07
   07:05:17.938.29-Jan-2021 4666.01 3052.19 79.87 8.00  92.62 2572.07
   07:05:18.138.29-Jan-2021 4666.01 3052.19 79.87 8.00  92.82 2572.07
   07:05:18.338.29-Jan-2021 4666.01 3052.21 79.87 8.00  93.02 2572.07
   07:05:18.538.29-Jan-2021 4666.01 3052.21 79.87 8.00  93.22 2572.07
   07:05:18.738.29-Jan-2021 4666.01 3052.16 79.87 8.00  93.42 2572.07
   07:05:18.938.29-Jan-2021 4666.01 3052.18 79.87 8.00  93.62 2572.07
   07:05:19.138.29-Jan-2021 4666.01 3052.20 79.87 8.00  93.82 2572.07
   07:05:19.339.29-Jan-2021 4666.01 3052.17 79.87 8.00  94.02 2572.07
   07:05:19.539.29-Jan-2021 4666.01 3052.17 79.87 8.00  94.22 2572.07
   07:05:19.739.29-Jan-2021 4666.01 3052.20 79.87 8.00  94.42 2572.07
   07:05:19.939.29-Jan-2021 4666.01 3052.19 79.87 8.00  94.62 2572.07
   07:05:20.139.29-Jan-2021 4666.01 3052.17 79.86 8.00  94.82 2572.07
   07:05:20.339.29-Jan-2021 4666.01 3052.20 79.86 8.00  95.02 2572.07
   07:05:20.539.29-Jan-2021 4666.01 3052.20 79.86 8.00  95.22 2572.07
   07:05:20.739.29-Jan-2021 4666.01 3052.18 79.86 8.00  95.42 2572.07
   07:05:20.939.29-Jan-2021 4666.01 3052.20 79.86 8.00  95.62 2572.07
   07:05:21.139.29-Jan-2021 4666.01 3052.19 79.86 8.00  95.82 2572.07
   07:05:21.339.29-Jan-2021 4666.01 3052.19 79.86 8.00  96.02 2572.07
   07:05:21.539.29-Jan-2021 4666.01 3052.19 79.86 8.00  96.22 2572.07
   07:05:21.739.29-Jan-2021 4666.01 3052.19 79.86 8.00  96.42 2572.07
   07:05:21.939.29-Jan-2021 4666.01 3052.18 79.86 8.00  96.62 2572.07
   07:05:22.139.29-Jan-2021 4666.01 3052.20 79.86 8.00  96.82 2572.07
   07:05:22.339.29-Jan-2021 4666.01 3052.16 79.86 8.00  97.02 2572.07
   07:05:22.539.29-Jan-2021 4666.01 3052.16 79.86 8.00  97.22 2572.07
   07:05:22.739.29-Jan-2021 4666.01 3052.19 79.86 8.00  97.42 2572.07
   07:05:22.939.29-Jan-2021 4666.01 3052.18 79.86 8.00  97.62 2572.07
   07:05:23.139.29-Jan-2021 4666.01 3052.07 79.85 8.00  97.82 2572.07
   07:05:23.339.29-Jan-2021 4666.01 3052.25 79.85 8.00  98.02 2572.07
   07:05:23.539.29-Jan-2021 4666.01 3052.25 79.85 8.00  98.22 2572.07
   07:05:23.739.29-Jan-2021 4666.01 3052.14 79.85 8.00  98.42 2572.07
   07:05:23.939.29-Jan-2021 4666.01 3052.17 79.85 8.00  98.62 2572.07
   07:05:24.140.29-Jan-2021 4666.01 3052.20 79.85 8.00  98.82 2572.07
   07:05:24.340.29-Jan-2021 4666.01 3052.17 79.85 8.00  99.02 2572.07
   07:05:24.540.29-Jan-2021 4666.01 3052.17 79.85 8.00  99.22 2572.07
   07:05:24.740.29-Jan-2021 4666.01 3052.18 79.85 8.00  99.42 2572.07
   07:05:24.940.29-Jan-2021 4666.01 3052.16 79.85 8.00  99.62 2572.07
   07:05:25.140.29-Jan-2021 4666.01 3052.17 79.85 8.00  99.82 2572.07
   07:05:25.340.29-Jan-2021 4666.01 3052.16 79.85 8.00 100.02 2572.07
   07:05:25.540.29-Jan-2021 4666.01 3052.16 79.85 8.00 100.22 2572.07
   07:05:25.740.29-Jan-2021 4666.01 3052.16 79.85 8.00 100.42 2572.07
   07:05:25.940.29-Jan-2021 4666.01 3052.16 79.85 8.00 100.62 2572.07
   07:05:26.140.29-Jan-2021 4666.01 3052.15 79.84 8.00 100.82 2572.07
   07:05:26.340.29-Jan-2021 4666.01 3052.13 79.84 8.00 101.02 2572.07
   07:05:26.540.29-Jan-2021 4666.01 3052.13 79.84 8.00 101.22 2572.07
   07:05:26.740.29-Jan-2021 4666.01 3052.16 79.84 8.00 101.42 2572.07
   07:05:26.940.29-Jan-2021 4666.01 3052.13 79.84 8.00 101.62 2572.07
   07:05:27.140.29-Jan-2021 4666.01 3052.05 79.84 8.00 101.82 2572.07
   07:05:27.340.29-Jan-2021 4666.01 3052.24 79.84 8.00 102.02 2572.07
   07:05:27.540.29-Jan-2021 4666.01 3052.24 79.84 8.00 102.22 2572.07
   07:05:27.740.29-Jan-2021 4666.01 3052.12 79.84 8.00 102.42 2572.07
   07:05:27.940.29-Jan-2021 4666.01 3052.15 79.84 8.00 102.62 2572.07
   07:05:28.140.29-Jan-2021 4666.01 3052.15 79.84 8.00 102.82 2572.07
   07:05:28.340.29-Jan-2021 4666.01 3052.12 79.84 8.00 103.02 2572.07
   07:05:28.540.29-Jan-2021 4666.01 3052.12 79.84 8.00 103.22 2572.07
   07:05:28.740.29-Jan-2021 4666.01 3052.21 79.84 8.00 103.42 2572.07
   07:05:28.941.29-Jan-2021 4666.01 3052.15 79.84 8.00 103.62 2572.07
   07:05:29.141.29-Jan-2021 4666.01 3052.09 79.84 8.00 103.82 2572.07
   07:05:29.341.29-Jan-2021 4666.01 3052.15 79.83 8.00 104.02 2572.07
   07:05:29.541.29-Jan-2021 4666.01 3052.15 79.83 8.00 104.22 2572.07
   07:05:29.741.29-Jan-2021 4666.01 3052.03 79.83 8.00 104.42 2572.07
   07:05:29.941.29-Jan-2021 4666.01 3052.19 79.83 8.00 104.62 2572.07
   07:05:30.141.29-Jan-2021 4666.01 3052.14 79.83 8.00 104.82 2572.07
   07:05:30.341.29-Jan-2021 4666.01 3052.09 79.83 8.00 105.02 2572.07
   07:05:30.541.29-Jan-2021 4666.01 3052.09 79.83 8.00 105.22 2572.07
   07:05:30.741.29-Jan-2021 4666.01 3052.21 79.83 8.00 105.42 2572.07
   07:05:30.941.29-Jan-2021 4666.01 3052.12 79.83 8.00 105.62 2572.07
   07:05:31.141.29-Jan-2021 4666.01 3052.08 79.83 8.00 105.82 2572.07
   07:05:31.341.29-Jan-2021 4666.01 3052.12 79.83 8.00 106.02 2572.07
   07:05:31.541.29-Jan-2021 4666.01 3052.12 79.83 8.00 106.22 2572.07
   07:05:31.741.29-Jan-2021 4666.01 3052.11 79.83 8.00 106.42 2572.07
   07:05:31.941.29-Jan-2021 4666.01 3052.11 79.83 8.00 106.62 2572.07
   07:05:32.141.29-Jan-2021 4666.01 3052.10 79.83 8.00 106.82 2572.07
   07:05:32.341.29-Jan-2021 4666.01 3052.11 79.83 8.00 107.02 2572.07
   07:05:32.541.29-Jan-2021 4666.01 3052.11 79.83 8.00 107.22 2572.07
   07:05:32.741.29-Jan-2021 4666.01 3052.10 79.82 8.00 107.42 2572.07
   07:05:32.941.29-Jan-2021 4666.01 3052.10 79.82 8.00 107.62 2572.07
   07:05:33.141.29-Jan-2021 4666.01 3052.12 79.82 8.00 107.82 2572.07
   07:05:33.341.29-Jan-2021 4666.01 3052.08 79.82 8.00 108.02 2572.07
   07:05:33.541.29-Jan-2021 4666.01 3052.08 79.82 8.00 108.22 2572.07
   07:05:33.742.29-Jan-2021 4666.01 3052.09 79.82 8.00 108.42 2572.07
   07:05:33.942.29-Jan-2021 4666.01 3052.09 79.82 8.00 108.62 2572.07
   07:05:34.142.29-Jan-2021 4666.01 3052.04 79.82 8.00 108.82 2572.07
   07:05:34.342.29-Jan-2021 4666.01 3052.12 79.82 8.00 109.02 2572.07
   07:05:34.542.29-Jan-2021 4666.01 3052.12 79.82 8.00 109.22 2572.07
   07:05:34.742.29-Jan-2021 4666.01 3052.03 79.82 8.00 109.42 2572.07
   07:05:34.942.29-Jan-2021 4666.01 3052.10 79.82 8.00 109.62 2572.07
   07:05:35.142.29-Jan-2021 4666.01 3052.09 79.82 8.00 109.82 2572.07
   07:05:35.342.29-Jan-2021 4666.01 3052.08 79.82 8.00 110.02 2572.07
   07:05:35.542.29-Jan-2021 4666.01 3052.08 79.82 8.00 110.22 2572.07
   07:05:35.742.29-Jan-2021 4666.01 3052.09 79.81 8.00 110.42 2572.07
   07:05:35.942.29-Jan-2021 4666.01 3052.07 79.81 8.00 110.62 2572.07
   07:05:36.142.29-Jan-2021 4666.01 3052.08 79.81 8.00 110.82 2572.07
   07:05:36.342.29-Jan-2021 4666.01 3052.07 79.81 8.00 111.02 2572.07
   07:05:36.542.29-Jan-2021 4666.01 3052.07 79.81 8.00 111.22 2572.07
   07:05:36.742.29-Jan-2021 4666.01 3052.06 79.81 8.00 111.42 2572.07
   07:05:36.942.29-Jan-2021 4666.01 3052.07 79.81 8.00 111.62 2572.07
   07:05:37.142.29-Jan-2021 4666.01 3052.07 79.81 8.00 111.82 2572.07
   07:05:37.342.29-Jan-2021 4666.01 3051.97 79.81 8.00 112.02 2572.07
   07:05:37.542.29-Jan-2021 4666.01 3051.97 79.81 8.00 112.22 2572.07
   07:05:37.742.29-Jan-2021 4666.01 3052.07 79.81 8.00 112.42 2572.07
   07:05:37.942.29-Jan-2021 4666.01 3052.05 79.81 8.00 112.62 2572.07
   07:05:38.142.29-Jan-2021 4666.01 3052.00 79.81 8.00 112.82 2572.07
   07:05:38.343.29-Jan-2021 4666.01 3052.11 79.81 8.00 113.02 2572.07
   07:05:38.543.29-Jan-2021 4666.01 3052.11 79.81 8.00 113.22 2572.07
   07:05:38.743.29-Jan-2021 4666.01 3052.03 79.80 8.00 113.42 2572.07
   07:05:38.943.29-Jan-2021 4666.01 3052.08 79.80 8.00 113.62 2572.07
   07:05:39.143.29-Jan-2021 4666.01 3052.07 79.80 8.00 113.82 2572.07
   07:05:39.343.29-Jan-2021 4666.01 3052.06 79.80 8.00 114.02 2572.07
   07:05:39.543.29-Jan-2021 4666.01 3052.06 79.80 8.00 114.22 2572.07
   07:05:39.743.29-Jan-2021 4666.01 3052.08 79.80 8.00 114.42 2572.07
   07:05:39.943.29-Jan-2021 4666.01 3052.07 79.80 8.00 114.62 2572.07
   07:05:40.143.29-Jan-2021 4666.01 3052.00 79.80 8.00 114.82 2572.07
