~Version Information
 VERS.                  2.0:   CWLS log ASCII Standard -VERSION 2.0
 WRAP.                   NO:   One line per depth step
~Well Information Block
#MNEM.UNIT     VALUE/NAME     DESCRIPTION
#---------     -----------    ---------------------------
 STRT.S             17:31:15 28-Jan-21: START TIME 17:31:15 28-Jan-21
 STOP.S             17:37:46 28-Jan-21: STOP TIME  17:37:46 28-Jan-21
 STEP.S                   0.00: STEP TIME
 NULL.                 -999.25: NULL VALUE
 DFWT.                        :  DIST FWL TEXT
 DFST.                        :  DIST FSL TEXT
 DMF .             Drill Floor:  DRILL MEAS FROM
 STIM.      00.00.00 25-Sep-20:  START TIME
 DATE.      16.12.48 31-Jan-21:  END TIME
 SPUD.               20-Sep-20:  SPUD DATE
 NREF.                    Grid:  NORTH REFERENCE
 HPTY.       Minimum Curvature:  HOLE POS TYPE
 DMOD.             Drill Model:  DRILL MOD DESC
 SVYD.                  Survey:  SURVEY DESC
 ILTD.               Lithology:  INTERP LTH DESC
 FTOP.          Formation Tops:  FORM TOPS DESC
 RIG .              East Azeri:  RIG NAME
 PDAT.          Mean Sea Level:  PERMANENT DATUM
 FLD .                     ACG:  FIELD NAME
 SON .        AZ-XX-0906591820:  JOB NUMBER
 CTRY.              Azerbaijan:  COUNTRY NAME
 WELL.                     D37:  WELL NAME
 SRVC.     Turan Drilling & Engineering:  CONTRACTOR
 COMP.     BP Exploration (Caspian Sea) ltd.:  COMPANY
 WTYP.                Deviated:  WELL TYPE
 MDS .        Operator Entered:  MAG DATA SOURCE
 UWI .                     N/A:  UNIQUE WELL IDENTIFIER
 API .                     N/A:  API NUMBER
 BASE.              Azerbaijan:  LOGGING EQUIPMENT BASE LOCATION
 REGN.                   EESSA:  REGION
 PROV.                    Baku:  PROVINCE
 STAT.                    Baku:  STATE NAME
 MWDS.                    Baku:  MWD SHOP
 JOBN.        AZ-XX-0906591820:  JOB TICKET NUMB
 DOE .                     N/A:  DOE NUMBER
 DCON.         Sperry Drilling:  DIRECTNL CONTR
 UNIT.                     N/A:  LOGGING EQUIPMENT ID
 CNTY.                        :  COUNTY
 LOC .                        :  LOCATION
 LMF .             Drill Floor:  LOG MEASURED FROM
 TVDS.m                  43.60:  TVDSS CORRECTN
 LATI.deg                40.02:  LATITUDE
 LONG.deg                51.45:  LONGITUDE
 WHNS.m                  11.04:  WELL HEAD N/S
 WHEW.m                 -12.38:  WELL HEAD E/W
 UTMX.m              538763.98:  UTM X
 UTMY.m             4431880.20:  UTM Y
 DFWL.m                   0.00:  DISTANCE FWL
 DFSL.m                   0.00:  DISTANCE FSL
 SDEP.m                 300.00:  START DEPTH
 TDD .m                4900.01:  TOTAL DEPTH (DRILLER)
 VSDR.deg               185.64:  VERT SEC DIRECT
 GVFD.g                   1.00:  GRAVITY FIELD
 MFLD.nT              50301.00:  MAGNETIC FIELD
 MDIP.deg                59.46:  MAGNETIC DIP
 MDEC.deg                 6.43:  MAGNETIC DECL
 GRDC.deg                 0.29:  GRID CORRECTION
 AZTC.deg                 6.14:  AZM TOTAL CORR
 EPD .m                   0.00:  ELEVATION
 EGL .m                   0.00:  GROUND ELEVATION
 WDMS.m                 151.80:  WD ELEV
 APD .m                  43.60:  DEPTH ABOVE PD
 DEP .m                 571.69:  DEPTH
 AGAP.m                  43.60:  AIR GAP
 VSEW.m                 -12.38:  VERT SEC E/W
 VSNS.m                  11.04:  VERT SEC N/S
 EKB .m                  43.60:  KB ELEVATION
 EDF .m                  43.60:  DF ELEVATION
 TDL .m                 412.00:  TOTAL DEPTH (LOGGER)
 VSC .                       0:  VS TO CLOSURE
 MAGU.                 1849300:  MAGUTM CHECKSUM
~Parameter Information Block
#MNEM.UNIT       Value        Description
#---------     -----------    ---------------------------
 AV  .mps                 2.21:  Ann Velocity 
 AVMX.mps                 2.53:  Max Ann Veloc 
 AZIF.deg               144.83:  Azm, Final 
 BHAT.        Rotary Steerable:  BHA Type 
 BROT.°/30m              -0.52:  Build Rotating 
 BS  .in                  6.50:  Bit Size 
 BTPL.psig              209.00:  Bit Press Loss 
 CABU.                      No:  Customer Abuse 
 CGEO.        Ali Isfandiyarov:  Customer Geo 
 COMM.                     ¼¨M:  Run Comments 1 
 TCS .hr                 61.31:  Time Ciculation Ended 
 CV  .mps                 4.66:  Crit Velocity 
 CVMX.mps                 5.02:  Max Crit Veloc 
 DD1 .          Fariz Nahmatov:  Direct Drillr 1 
 DD2 .            Musa Ahmadov:  Direct Drillr 2 
 DDSV.               Geo-Pilot:  DD Service 
 DEFF.%                 100.00:  % Det Eff 
 DLRX.°/30m               1.44:  Dogleg Rot Max 
 DLSO.°/30m               0.83:  Dogleg Oriented 
 DLSX.°/30m               1.44:  Dogleg Str Max 
 DRET.      08.30.00 30-Jan-21:  Drill End Time 
 DRST.      21.15.00 27-Jan-21:  Drill Start Tim 
 DTIM.hr                 37.28:  Time Drilling 
 EDEP.m                4867.01:  End Depth 
 ENG1.          Rasim Hashimov:  Engineer 1 
 ENG2.         Almaz Almadatov:  Engineer 2 
 ENG3.        Tamerlan Ahmadov:  Engineer 3 
 ETIM.      22.41.04 31-Jan-21:  End Time 
 FLOI.gpm               400.00:  Flow In 
 FLON.gpm               300.00:  Flow In Min 
 FLOS.cptm                0.00:  Fluid Loss 
 FLOX.gpm               400.00:  Flow In Max 
 HFLO.                      No:  High Flow 
 HPRE.                      No:  High Pressure 
 HTEM.                      No:  High Temp 
 HYDO.m                   1.80:  Hydro Offset 
 IFIN.deg                65.63:  Inc, Final 
 IMAX.deg                66.77:  Inc Max 
 IMIN.deg                65.61:  Inc Min 
 IMND.m                4612.67:  Inc Min Depth 
 IMXD.m                4811.63:  Inc Max Depth 
 JARR.                      No:  Jarring 
 LETM.      08.30.00 30-Jan-21:  Log End Time 
 LOST.hr                     0:  Lost Rig Time 
 LSTM.      21.15.00 27-Jan-21:  Log Start Time 
 MDCL.ppm             41000.00:  Mud Chlorides 
 MDES.     Inversion Oil/Synthetic:  Mud Desc 
 DFD .sg                  1.40:  Mud Density 
 MDMN.sg                  1.40:  Dens Mud Min 
 MDMX.sg                  1.40:  Dens Mud Max 
 MOIL.                      53:  Run Mud Oil % 
 MOWR.                   66:34:  Run Mud OWR 
 MSND.                     0.2:  Run Mud Sand % 
 MSOL.                    17.9:  Run Mud Solids% 
 DFV .spqt               77.00:  Mud Viscosity 
 MWOD.in                  4.75:  MWD Tool OD 
 MWSI.                      No:  Serv Intrp, MWD 
 OTIM.hr                110.38:  Time Operating 
 PCON.           Look Like New:  Pad Condition 
 PMAX.psia             5300.00:  Press Op, Max 
 PV  .cP                 57.00:  Mud PV 
 RUN .                    1200:  Run Number 
 ROPA.m/hr               13.00:  ROP Avg 
 ROPN.m/hr                9.00:  ROP Min 
 ROPX.m/hr               15.00:  ROP Max 
 RPMA.rpm               120.00:  RPM Surface Avg 
 RPMN.rpm               100.00:  RPM Surface Min 
 RPMX.rpm               135.00:  RPM Surface Max 
 RRUN.                    1200:  Rig Run Number 
 RTIM.hr                  2.65:  Time Reaming 
 SAZI.deg               145.04:  Azm, Start 
 SDEP.m                4455.01:  Start Depth 
 SIDD.                      No:  Serv Intrp, DD 
 SINC.deg                65.83:  Inc, Start 
 SPPA.psig             5037.00:  SPP Avg 
 SPPN.psig             4430.00:  SPP Min 
 SPPX.psig             5300.00:  SPP Max 
 STIM.      22.41.04 26-Jan-21:  Start Time 
 SVCS.                 DD, MWD:  Services 
 SVER.                    9.20:  Sperry Version 
 TDAT.m                 412.00:  Tot Depth Attmp 
 TDDF.                      No:  Trip for DD 
 TDLG.m                 412.00:  Tot Depth Loggd 
 TFF .                      No:  Trip for Fail 
 TQAA.f-kp               15.00:  Torque Abs Avg 
 TQAN.f-kp               12.00:  Torque Abs Min 
 TQAX.f-kp               17.00:  Torque Abs Max 
 TRRT.°/30m               1.18:  Turn Rotating 
 MRT .                     ADR:  Maximum Recorded Temperature 
 TTMX.degC               88.24:  Max Tool Temp 
 VS01.                90619458:  Virtual Str1 SN 
 VS02.                90519326:  Virtual Str2 SN 
 VS03.                90522176:  Virtual Str3 SN 
 VS04.                90512683:  Virtual Str4 SN 
 WBMN.klb                 1.00:  WOB Min 
 WITN.           Murad Giluyev:  Customer Rep 
 WITN.     Kamran Kemberlinski:  Customer Rep 2 
 WOBA.klb                 5.00:  WOB Avg 
 WOBX.klb                 9.00:  WOB Max 
 YP  .lhf2               41.00:  Yield Point 
~Curve Information Block
#MNEM.UNIT                 API CODE     Curve Description
#---------               -----------    ---------------------------
 TIME.HHMMSS            00 000 000 000:  GT Time & Date
 GTDEPTH.m              00 000 000 000:  GT Depth
 GTPQH.psia             00 000 000 000:  GT HR Quartz Pressure
 GTTQ.degC              00 000 000 000:  GT Quartz Temperature
 GTTN.NONE              00 000 000 000:  GT Test Number
 GTET.sec               00 000 000 000:  GT Elapsed Test Time
 GTTVD.m                00 000 000 000:  GT True Vertical Depth
#Other Information
#
#WARRANTY: Halliburton will use its best efforts to furnish customers with 
#accurate information and interpretations that are part of, and incident to, the services 
#provided.  However, Halliburton cannot and does not warrant the accuracy 
#or correctness of such information and interpretations.  Under no circumstances should any 
#such information or interpretation be relied upon as the sole basis for any drilling, 
#completion, production, or financial decision or any procedure involving any risk to the 
#safety of any drilling venture, drilling rig or its crew or any other third party.  The 
#Customer has full responsibility for all drilling, completion and production operation.  
#Halliburton makes no representations or warranties, either expressed or 
#implied, including, but not limited to, the implied warranties of merchantability or fitness 
#for a particular purpose, with respect to the services rendered.  In no event will 
#Halliburton be liable for failure to obtain any particular results or for 
#any damages, including, but not limited to, indirect, special or consequential damages, 
#resulting from the use of any information or interpretation provided by Halliburton.
#
~A           TIME           GTDEPTH  GTPQH  GTTQ  GTTN  GTET   GTTVD  
# ...
   17:35:05.334.28-Jan-2021 4557.01 3087.46 74.44 5.00 230.05 2527.68
   17:35:05.534.28-Jan-2021 4557.01 3087.46 74.44 5.00 230.25 2527.68
   17:35:05.734.28-Jan-2021 4557.01 3087.36 74.44 5.00 230.45 2527.68
   17:35:05.934.28-Jan-2021 4557.01 3087.58 74.44 5.00 230.65 2527.68
   17:35:06.134.28-Jan-2021 4557.01 3087.45 74.44 5.00 230.85 2527.68
   17:35:06.334.28-Jan-2021 4557.01 3087.47 74.44 5.00 231.05 2527.68
   17:35:06.534.28-Jan-2021 4557.01 3087.47 74.44 5.00 231.25 2527.68
   17:35:06.734.28-Jan-2021 4557.01 3087.46 74.44 5.00 231.45 2527.68
   17:35:06.934.28-Jan-2021 4557.01 3087.52 74.43 5.00 231.65 2527.68
   17:35:07.134.28-Jan-2021 4557.01 3087.48 74.43 5.00 231.85 2527.68
   17:35:07.334.28-Jan-2021 4557.01 3087.50 74.43 5.00 232.05 2527.68
   17:35:07.534.28-Jan-2021 4557.01 3087.50 74.43 5.00 232.25 2527.68
   17:35:07.734.28-Jan-2021 4557.01 3087.48 74.43 5.00 232.45 2527.68
   17:35:07.934.28-Jan-2021 4557.01 3087.48 74.43 5.00 232.65 2527.68
   17:35:08.134.28-Jan-2021 4557.01 3087.48 74.43 5.00 232.85 2527.68
   17:35:08.334.28-Jan-2021 4557.01 3087.49 74.43 5.00 233.05 2527.68
   17:35:08.534.28-Jan-2021 4557.01 3087.49 74.43 5.00 233.25 2527.68
   17:35:08.735.28-Jan-2021 4557.01 3087.48 74.43 5.00 233.45 2527.68
   17:35:08.935.28-Jan-2021 4557.01 3087.47 74.43 5.00 233.65 2527.68
   17:35:09.135.28-Jan-2021 4557.01 3087.48 74.43 5.00 233.85 2527.68
   17:35:09.335.28-Jan-2021 4557.01 3087.37 74.43 5.00 234.05 2527.68
   17:35:09.535.28-Jan-2021 4557.01 3087.37 74.43 5.00 234.25 2527.68
   17:35:09.735.28-Jan-2021 4557.01 3087.45 74.43 5.00 234.45 2527.68
   17:35:09.935.28-Jan-2021 4557.01 3087.50 74.43 5.00 234.65 2527.68
   17:35:10.135.28-Jan-2021 4557.01 3087.53 74.43 5.00 234.85 2527.68
   17:35:10.335.28-Jan-2021 4557.01 3087.49 74.43 5.00 235.05 2527.68
   17:35:10.535.28-Jan-2021 4557.01 3087.49 74.43 5.00 235.25 2527.68
   17:35:10.735.28-Jan-2021 4557.01 3087.50 74.43 5.00 235.45 2527.68
   17:35:10.935.28-Jan-2021 4557.01 3087.49 74.43 5.00 235.65 2527.68
   17:35:11.135.28-Jan-2021 4557.01 3087.49 74.43 5.00 235.85 2527.68
   17:35:11.335.28-Jan-2021 4557.01 3087.47 74.42 5.00 236.05 2527.68
   17:35:11.535.28-Jan-2021 4557.01 3087.47 74.42 5.00 236.25 2527.68
   17:35:11.735.28-Jan-2021 4557.01 3087.48 74.42 5.00 236.45 2527.68
   17:35:11.935.28-Jan-2021 4557.01 3087.52 74.42 5.00 236.65 2527.68
   17:35:12.135.28-Jan-2021 4557.01 3087.46 74.42 5.00 236.85 2527.68
   17:35:12.335.28-Jan-2021 4557.01 3087.49 74.42 5.00 237.05 2527.68
   17:35:12.535.28-Jan-2021 4557.01 3087.49 74.42 5.00 237.25 2527.68
   17:35:12.735.28-Jan-2021 4557.01 3087.39 74.42 5.00 237.45 2527.68
   17:35:12.935.28-Jan-2021 4557.01 3087.47 74.42 5.00 237.65 2527.68
   17:35:13.135.28-Jan-2021 4557.01 3087.51 74.42 5.00 237.85 2527.68
   17:35:13.335.28-Jan-2021 4557.01 3087.51 74.42 5.00 238.05 2527.68
   17:35:13.535.28-Jan-2021 4557.01 3087.51 74.42 5.00 238.25 2527.68
   17:35:13.736.28-Jan-2021 4557.01 3087.45 74.42 5.00 238.45 2527.68
   17:35:13.936.28-Jan-2021 4557.01 3087.54 74.42 5.00 238.65 2527.68
   17:35:14.136.28-Jan-2021 4557.01 3087.54 74.42 5.00 238.85 2527.68
   17:35:14.336.28-Jan-2021 4557.01 3087.45 74.42 5.00 239.05 2527.68
   17:35:14.536.28-Jan-2021 4557.01 3087.45 74.42 5.00 239.25 2527.68
   17:35:14.736.28-Jan-2021 4557.01 3087.57 74.42 5.00 239.45 2527.68
   17:35:14.936.28-Jan-2021 4557.01 3087.47 74.42 5.00 239.65 2527.68
   17:35:15.136.28-Jan-2021 4557.01 3087.40 74.42 5.00 239.85 2527.68
   17:35:15.336.28-Jan-2021 4557.01 3087.58 74.42 5.00 240.05 2527.68
   17:35:15.536.28-Jan-2021 4557.01 3087.58 74.42 5.00 240.25 2527.68
   17:35:15.736.28-Jan-2021 4557.01 2964.23 74.42 5.00 240.45 2527.68
   17:35:15.936.28-Jan-2021 4557.01 2885.49 74.42 5.00 240.65 2527.68
   17:35:16.136.28-Jan-2021 4557.01 2870.92 74.41 5.00 240.85 2527.68
   17:35:16.336.28-Jan-2021 4557.01 2869.03 74.41 5.00 241.05 2527.68
   17:35:16.536.28-Jan-2021 4557.01 2869.03 74.41 5.00 241.25 2527.68
   17:35:16.736.28-Jan-2021 4557.01 2868.10 74.41 5.00 241.45 2527.68
   17:35:16.936.28-Jan-2021 4557.01 2867.04 74.41 5.00 241.65 2527.68
   17:35:17.136.28-Jan-2021 4557.01 2866.96 74.41 5.00 241.85 2527.68
   17:35:17.336.28-Jan-2021 4557.01 2866.70 74.41 5.00 242.05 2527.68
   17:35:17.536.28-Jan-2021 4557.01 2866.70 74.41 5.00 242.25 2527.68
   17:35:17.736.28-Jan-2021 4557.01 2865.58 74.41 5.00 242.45 2527.68
   17:35:17.936.28-Jan-2021 4557.01 2865.53 74.41 5.00 242.65 2527.68
   17:35:18.136.28-Jan-2021 4557.01 2865.17 74.41 5.00 242.85 2527.68
   17:35:18.336.28-Jan-2021 4557.01 2864.90 74.41 5.00 243.05 2527.68
   17:35:18.536.28-Jan-2021 4557.01 2864.90 74.41 5.00 243.25 2527.68
   17:35:18.736.28-Jan-2021 4557.01 2865.65 74.41 5.00 243.45 2527.68
   17:35:18.937.28-Jan-2021 4557.01 2866.47 74.41 5.00 243.65 2527.68
   17:35:19.137.28-Jan-2021 4557.01 2866.66 74.41 5.00 243.85 2527.68
   17:35:19.337.28-Jan-2021 4557.01 2867.49 74.41 5.00 244.05 2527.68
   17:35:19.537.28-Jan-2021 4557.01 2867.49 74.41 5.00 244.25 2527.68
   17:35:19.737.28-Jan-2021 4557.01 2865.17 74.41 5.00 244.45 2527.68
   17:35:19.937.28-Jan-2021 4557.01 2866.64 74.41 5.00 244.65 2527.68
   17:35:20.137.28-Jan-2021 4557.01 2865.87 74.41 5.00 244.85 2527.68
   17:35:20.337.28-Jan-2021 4557.01 2866.28 74.41 5.00 245.05 2527.68
   17:35:20.537.28-Jan-2021 4557.01 2866.28 74.41 5.00 245.25 2527.68
   17:35:20.737.28-Jan-2021 4557.01 2865.31 74.40 5.00 245.45 2527.68
   17:35:20.937.28-Jan-2021 4557.01 2864.47 74.40 5.00 245.65 2527.68
   17:35:21.137.28-Jan-2021 4557.01 2865.24 74.40 5.00 245.85 2527.68
   17:35:21.337.28-Jan-2021 4557.01 2866.30 74.40 5.00 246.05 2527.68
   17:35:21.537.28-Jan-2021 4557.01 2866.30 74.40 5.00 246.25 2527.68
   17:35:21.737.28-Jan-2021 4557.01 2866.66 74.40 5.00 246.45 2527.68
   17:35:21.937.28-Jan-2021 4557.01 2866.32 74.40 5.00 246.65 2527.68
   17:35:22.137.28-Jan-2021 4557.01 2865.06 74.40 5.00 246.85 2527.68
   17:35:22.337.28-Jan-2021 4557.01 2865.44 74.40 5.00 247.05 2527.68
   17:35:22.537.28-Jan-2021 4557.01 2865.44 74.40 5.00 247.25 2527.68
   17:35:22.737.28-Jan-2021 4557.01 2865.98 74.40 5.00 247.45 2527.68
   17:35:22.937.28-Jan-2021 4557.01 2865.12 74.40 5.00 247.65 2527.68
   17:35:23.137.28-Jan-2021 4557.01 2864.80 74.40 5.00 247.85 2527.68
   17:35:23.337.28-Jan-2021 4557.01 2864.49 74.40 5.00 248.05 2527.68
   17:35:23.537.28-Jan-2021 4557.01 2864.49 74.40 5.00 248.25 2527.68
   17:35:23.737.28-Jan-2021 4557.01 2863.90 74.40 5.00 248.45 2527.68
   17:35:23.938.28-Jan-2021 4557.01 2864.48 74.40 5.00 248.65 2527.68
   17:35:24.138.28-Jan-2021 4557.01 2865.79 74.40 5.00 248.85 2527.68
   17:35:24.338.28-Jan-2021 4557.01 2866.92 74.40 5.00 249.05 2527.68
   17:35:24.538.28-Jan-2021 4557.01 2866.92 74.40 5.00 249.25 2527.68
   17:35:24.738.28-Jan-2021 4557.01 2864.94 74.40 5.00 249.45 2527.68
   17:35:24.938.28-Jan-2021 4557.01 2867.18 74.39 5.00 249.65 2527.68
   17:35:25.138.28-Jan-2021 4557.01 2867.56 74.39 5.00 249.85 2527.68
   17:35:25.338.28-Jan-2021 4557.01 2866.78 74.39 5.00 250.05 2527.68
   17:35:25.538.28-Jan-2021 4557.01 2866.78 74.39 5.00 250.25 2527.68
   17:35:25.738.28-Jan-2021 4557.01 2868.87 74.39 5.00 250.45 2527.68
   17:35:25.938.28-Jan-2021 4557.01 2947.04 74.39 5.00 250.65 2527.68
   17:35:26.138.28-Jan-2021 4557.01 3054.18 74.39 5.00 250.85 2527.68
   17:35:26.338.28-Jan-2021 4557.01 3076.34 74.39 5.00 251.05 2527.68
   17:35:26.538.28-Jan-2021 4557.01 3076.34 74.39 5.00 251.25 2527.68
   17:35:26.738.28-Jan-2021 4557.01 3082.29 74.39 5.00 251.45 2527.68
   17:35:26.938.28-Jan-2021 4557.01 3082.84 74.39 5.00 251.65 2527.68
   17:35:27.138.28-Jan-2021 4557.01 3083.37 74.39 5.00 251.85 2527.68
   17:35:27.338.28-Jan-2021 4557.01 3083.81 74.39 5.00 252.05 2527.68
   17:35:27.538.28-Jan-2021 4557.01 3083.81 74.39 5.00 252.25 2527.68
   17:35:27.738.28-Jan-2021 4557.01 3084.34 74.39 5.00 252.45 2527.68
   17:35:27.938.28-Jan-2021 4557.01 3084.52 74.39 5.00 252.65 2527.68
   17:35:28.138.28-Jan-2021 4557.01 3084.73 74.39 5.00 252.85 2527.68
