~Version Information
 VERS.                  2.0:   CWLS log ASCII Standard -VERSION 2.0
 WRAP.                   NO:   One line per depth step
~Well Information Block
#MNEM.UNIT     VALUE/NAME     DESCRIPTION
#---------     -----------    ---------------------------
 STRT.S             11:33:05 30-Jan-21: START TIME 11:33:05 30-Jan-21
 STOP.S             11:39:34 30-Jan-21: STOP TIME  11:39:34 30-Jan-21
 STEP.S                   0.00: STEP TIME
 NULL.                 -999.25: NULL VALUE
 DFWT.                        :  DIST FWL TEXT
 DFST.                        :  DIST FSL TEXT
 DMF .             Drill Floor:  DRILL MEAS FROM
 STIM.      00.00.00 25-Sep-20:  START TIME
 DATE.      16.12.48 31-Jan-21:  END TIME
 SPUD.               20-Sep-20:  SPUD DATE
 NREF.                    Grid:  NORTH REFERENCE
 HPTY.       Minimum Curvature:  HOLE POS TYPE
 DMOD.             Drill Model:  DRILL MOD DESC
 SVYD.                  Survey:  SURVEY DESC
 ILTD.               Lithology:  INTERP LTH DESC
 FTOP.          Formation Tops:  FORM TOPS DESC
 RIG .              East Azeri:  RIG NAME
 PDAT.          Mean Sea Level:  PERMANENT DATUM
 FLD .                     ACG:  FIELD NAME
 SON .        AZ-XX-0906591820:  JOB NUMBER
 CTRY.              Azerbaijan:  COUNTRY NAME
 WELL.                     D37:  WELL NAME
 SRVC.     Turan Drilling & Engineering:  CONTRACTOR
 COMP.     BP Exploration (Caspian Sea) ltd.:  COMPANY
 WTYP.                Deviated:  WELL TYPE
 MDS .        Operator Entered:  MAG DATA SOURCE
 UWI .                     N/A:  UNIQUE WELL IDENTIFIER
 API .                     N/A:  API NUMBER
 BASE.              Azerbaijan:  LOGGING EQUIPMENT BASE LOCATION
 REGN.                   EESSA:  REGION
 PROV.                    Baku:  PROVINCE
 STAT.                    Baku:  STATE NAME
 MWDS.                    Baku:  MWD SHOP
 JOBN.        AZ-XX-0906591820:  JOB TICKET NUMB
 DOE .                     N/A:  DOE NUMBER
 DCON.         Sperry Drilling:  DIRECTNL CONTR
 UNIT.                     N/A:  LOGGING EQUIPMENT ID
 CNTY.                        :  COUNTY
 LOC .                        :  LOCATION
 LMF .             Drill Floor:  LOG MEASURED FROM
 TVDS.m                  43.60:  TVDSS CORRECTN
 LATI.deg                40.02:  LATITUDE
 LONG.deg                51.45:  LONGITUDE
 WHNS.m                  11.04:  WELL HEAD N/S
 WHEW.m                 -12.38:  WELL HEAD E/W
 UTMX.m              538763.98:  UTM X
 UTMY.m             4431880.20:  UTM Y
 DFWL.m                   0.00:  DISTANCE FWL
 DFSL.m                   0.00:  DISTANCE FSL
 SDEP.m                 300.00:  START DEPTH
 TDD .m                4900.01:  TOTAL DEPTH (DRILLER)
 VSDR.deg               185.64:  VERT SEC DIRECT
 GVFD.g                   1.00:  GRAVITY FIELD
 MFLD.nT              50301.00:  MAGNETIC FIELD
 MDIP.deg                59.46:  MAGNETIC DIP
 MDEC.deg                 6.43:  MAGNETIC DECL
 GRDC.deg                 0.29:  GRID CORRECTION
 AZTC.deg                 6.14:  AZM TOTAL CORR
 EPD .m                   0.00:  ELEVATION
 EGL .m                   0.00:  GROUND ELEVATION
 WDMS.m                 151.80:  WD ELEV
 APD .m                  43.60:  DEPTH ABOVE PD
 DEP .m                 571.69:  DEPTH
 AGAP.m                  43.60:  AIR GAP
 VSEW.m                 -12.38:  VERT SEC E/W
 VSNS.m                  11.04:  VERT SEC N/S
 EKB .m                  43.60:  KB ELEVATION
 EDF .m                  43.60:  DF ELEVATION
 TDL .m                 412.00:  TOTAL DEPTH (LOGGER)
 VSC .                       0:  VS TO CLOSURE
 MAGU.                 1849300:  MAGUTM CHECKSUM
~Parameter Information Block
#MNEM.UNIT       Value        Description
#---------     -----------    ---------------------------
 AV  .mps                 2.21:  Ann Velocity 
 AVMX.mps                 2.53:  Max Ann Veloc 
 AZIF.deg               144.83:  Azm, Final 
 BHAT.        Rotary Steerable:  BHA Type 
 BROT.°/30m              -0.52:  Build Rotating 
 BS  .in                  6.50:  Bit Size 
 BTPL.psig              209.00:  Bit Press Loss 
 CABU.                      No:  Customer Abuse 
 CGEO.        Ali Isfandiyarov:  Customer Geo 
 COMM.                     <»c:  Run Comments 1 
 TCS .hr                 61.31:  Time Ciculation Ended 
 CV  .mps                 4.66:  Crit Velocity 
 CVMX.mps                 5.02:  Max Crit Veloc 
 DD1 .          Fariz Nahmatov:  Direct Drillr 1 
 DD2 .            Musa Ahmadov:  Direct Drillr 2 
 DDSV.               Geo-Pilot:  DD Service 
 DEFF.%                 100.00:  % Det Eff 
 DLRX.°/30m               1.44:  Dogleg Rot Max 
 DLSO.°/30m               0.83:  Dogleg Oriented 
 DLSX.°/30m               1.44:  Dogleg Str Max 
 DRET.      08.30.00 30-Jan-21:  Drill End Time 
 DRST.      21.15.00 27-Jan-21:  Drill Start Tim 
 DTIM.hr                 37.28:  Time Drilling 
 EDEP.m                4867.01:  End Depth 
 ENG1.          Rasim Hashimov:  Engineer 1 
 ENG2.         Almaz Almadatov:  Engineer 2 
 ENG3.        Tamerlan Ahmadov:  Engineer 3 
 ETIM.      22.41.04 31-Jan-21:  End Time 
 FLOI.gpm               400.00:  Flow In 
 FLON.gpm               300.00:  Flow In Min 
 FLOS.cptm                0.00:  Fluid Loss 
 FLOX.gpm               400.00:  Flow In Max 
 HFLO.                      No:  High Flow 
 HPRE.                      No:  High Pressure 
 HTEM.                      No:  High Temp 
 HYDO.m                   1.80:  Hydro Offset 
 IFIN.deg                65.63:  Inc, Final 
 IMAX.deg                66.77:  Inc Max 
 IMIN.deg                65.61:  Inc Min 
 IMND.m                4612.67:  Inc Min Depth 
 IMXD.m                4811.63:  Inc Max Depth 
 JARR.                      No:  Jarring 
 LETM.      08.30.00 30-Jan-21:  Log End Time 
 LOST.hr                     0:  Lost Rig Time 
 LSTM.      21.15.00 27-Jan-21:  Log Start Time 
 MDCL.ppm             41000.00:  Mud Chlorides 
 MDES.     Inversion Oil/Synthetic:  Mud Desc 
 DFD .sg                  1.40:  Mud Density 
 MDMN.sg                  1.40:  Dens Mud Min 
 MDMX.sg                  1.40:  Dens Mud Max 
 MOIL.                      53:  Run Mud Oil % 
 MOWR.                   66:34:  Run Mud OWR 
 MSND.                     0.2:  Run Mud Sand % 
 MSOL.                    17.9:  Run Mud Solids% 
 DFV .spqt               77.00:  Mud Viscosity 
 MWOD.in                  4.75:  MWD Tool OD 
 MWSI.                      No:  Serv Intrp, MWD 
 OTIM.hr                110.38:  Time Operating 
 PCON.           Look Like New:  Pad Condition 
 PMAX.psia             5300.00:  Press Op, Max 
 PV  .cP                 57.00:  Mud PV 
 RUN .                    1200:  Run Number 
 ROPA.m/hr               13.00:  ROP Avg 
 ROPN.m/hr                9.00:  ROP Min 
 ROPX.m/hr               15.00:  ROP Max 
 RPMA.rpm               120.00:  RPM Surface Avg 
 RPMN.rpm               100.00:  RPM Surface Min 
 RPMX.rpm               135.00:  RPM Surface Max 
 RRUN.                    1200:  Rig Run Number 
 RTIM.hr                  2.65:  Time Reaming 
 SAZI.deg               145.04:  Azm, Start 
 SDEP.m                4455.01:  Start Depth 
 SIDD.                      No:  Serv Intrp, DD 
 SINC.deg                65.83:  Inc, Start 
 SPPA.psig             5037.00:  SPP Avg 
 SPPN.psig             4430.00:  SPP Min 
 SPPX.psig             5300.00:  SPP Max 
 STIM.      22.41.04 26-Jan-21:  Start Time 
 SVCS.                 DD, MWD:  Services 
 SVER.                    9.20:  Sperry Version 
 TDAT.m                 412.00:  Tot Depth Attmp 
 TDDF.                      No:  Trip for DD 
 TDLG.m                 412.00:  Tot Depth Loggd 
 TFF .                      No:  Trip for Fail 
 TQAA.f-kp               15.00:  Torque Abs Avg 
 TQAN.f-kp               12.00:  Torque Abs Min 
 TQAX.f-kp               17.00:  Torque Abs Max 
 TRRT.°/30m               1.18:  Turn Rotating 
 MRT .                     ADR:  Maximum Recorded Temperature 
 TTMX.degC               88.24:  Max Tool Temp 
 VS01.                90619458:  Virtual Str1 SN 
 VS02.                90519326:  Virtual Str2 SN 
 VS03.                90522176:  Virtual Str3 SN 
 VS04.                90512683:  Virtual Str4 SN 
 WBMN.klb                 1.00:  WOB Min 
 WITN.           Murad Giluyev:  Customer Rep 
 WITN.     Kamran Kemberlinski:  Customer Rep 2 
 WOBA.klb                 5.00:  WOB Avg 
 WOBX.klb                 9.00:  WOB Max 
 YP  .lhf2               41.00:  Yield Point 
~Curve Information Block
#MNEM.UNIT                 API CODE     Curve Description
#---------               -----------    ---------------------------
 TIME.HHMMSS            00 000 000 000:  GT Time & Date
 GTDEPTH.m              00 000 000 000:  GT Depth
 GTPQH.psia             00 000 000 000:  GT HR Quartz Pressure
 GTTQ.degC              00 000 000 000:  GT Quartz Temperature
 GTTN.NONE              00 000 000 000:  GT Test Number
 GTET.sec               00 000 000 000:  GT Elapsed Test Time
 GTTVD.m                00 000 000 000:  GT True Vertical Depth
#Other Information
#
#WARRANTY: Halliburton will use its best efforts to furnish customers with 
#accurate information and interpretations that are part of, and incident to, the services 
#provided.  However, Halliburton cannot and does not warrant the accuracy 
#or correctness of such information and interpretations.  Under no circumstances should any 
#such information or interpretation be relied upon as the sole basis for any drilling, 
#completion, production, or financial decision or any procedure involving any risk to the 
#safety of any drilling venture, drilling rig or its crew or any other third party.  The 
#Customer has full responsibility for all drilling, completion and production operation.  
#Halliburton makes no representations or warranties, either expressed or 
#implied, including, but not limited to, the implied warranties of merchantability or fitness 
#for a particular purpose, with respect to the services rendered.  In no event will 
#Halliburton be liable for failure to obtain any particular results or for 
#any damages, including, but not limited to, indirect, special or consequential damages, 
#resulting from the use of any information or interpretation provided by Halliburton.
#
~A           TIME           GTDEPTH  GTPQH  GTTQ  GTTN   GTET   GTTVD  
# ...
   11:33:27.785.30-Jan-2021 4826.01 5998.63 85.09 18.00  22.60 2635.88
   11:33:27.985.30-Jan-2021 4826.01 6000.19 85.09 18.00  22.80 2635.88
   11:33:28.185.30-Jan-2021 4826.01 6001.17 85.09 18.00  23.00 2635.88
   11:33:28.385.30-Jan-2021 4826.01 6001.17 85.09 18.00  23.20 2635.88
   11:33:28.585.30-Jan-2021 4826.01 6003.63 85.09 18.00  23.40 2635.88
   11:33:28.785.30-Jan-2021 4826.01 6004.97 85.09 18.00  23.60 2635.88
   11:33:28.985.30-Jan-2021 4826.01 6005.47 85.09 18.00  23.80 2635.88
   11:33:29.185.30-Jan-2021 4826.01 6005.92 85.09 18.00  24.00 2635.88
   11:33:29.385.30-Jan-2021 4826.01 6005.92 85.09 18.00  24.20 2635.88
   11:33:29.585.30-Jan-2021 4826.01 5477.15 85.08 18.00  24.40 2635.88
   11:33:29.785.30-Jan-2021 4826.01 4932.71 85.08 18.00  24.60 2635.88
   11:33:29.985.30-Jan-2021 4826.01 4194.37 85.08 18.00  24.80 2635.88
   11:33:30.185.30-Jan-2021 4826.01 3411.40 85.08 18.00  25.00 2635.88
   11:33:30.385.30-Jan-2021 4826.01 3411.40 85.08 18.00  25.20 2635.88
   11:33:30.585.30-Jan-2021 4826.01 3134.64 85.08 18.00  25.40 2635.88
   11:33:30.785.30-Jan-2021 4826.01 3134.12 85.08 18.00  25.60 2635.88
   11:33:30.985.30-Jan-2021 4826.01 3133.73 85.08 18.00  25.80 2635.88
   11:33:31.185.30-Jan-2021 4826.01 3133.48 85.08 18.00  26.00 2635.88
   11:33:31.385.30-Jan-2021 4826.01 3133.48 85.08 18.00  26.20 2635.88
   11:33:31.585.30-Jan-2021 4826.01 3132.21 85.08 18.00  26.40 2635.88
   11:33:31.785.30-Jan-2021 4826.01 3131.79 85.08 18.00  26.60 2635.88
   11:33:31.985.30-Jan-2021 4826.01 3131.32 85.08 18.00  26.80 2635.88
   11:33:32.185.30-Jan-2021 4826.01 3131.07 85.07 18.00  27.00 2635.88
   11:33:32.385.30-Jan-2021 4826.01 3131.07 85.07 18.00  27.20 2635.88
   11:33:32.585.30-Jan-2021 4826.01 3130.30 85.07 18.00  27.40 2635.88
   11:33:32.785.30-Jan-2021 4826.01 3130.35 85.07 18.00  27.60 2635.88
   11:33:32.985.30-Jan-2021 4826.01 3129.99 85.07 18.00  27.80 2635.88
   11:33:33.186.30-Jan-2021 4826.01 3129.99 85.07 18.00  28.00 2635.88
   11:33:33.386.30-Jan-2021 4826.01 3129.99 85.07 18.00  28.21 2635.88
   11:33:33.586.30-Jan-2021 4826.01 3129.48 85.07 18.00  28.41 2635.88
   11:33:33.786.30-Jan-2021 4826.01 3129.29 85.07 18.00  28.61 2635.88
   11:33:33.986.30-Jan-2021 4826.01 3129.13 85.07 18.00  28.81 2635.88
   11:33:34.186.30-Jan-2021 4826.01 3128.97 85.06 18.00  29.01 2635.88
   11:33:34.386.30-Jan-2021 4826.01 3128.97 85.06 18.00  29.21 2635.88
   11:33:34.586.30-Jan-2021 4826.01 3129.10 85.06 18.00  29.41 2635.88
   11:33:34.786.30-Jan-2021 4826.01 3129.18 85.06 18.00  29.61 2635.88
   11:33:34.986.30-Jan-2021 4826.01 3129.09 85.06 18.00  29.81 2635.88
   11:33:35.186.30-Jan-2021 4826.01 3129.33 85.06 18.00  30.01 2635.88
   11:33:35.386.30-Jan-2021 4826.01 3129.33 85.06 18.00  30.21 2635.88
   11:33:35.586.30-Jan-2021 4826.01 3129.11 85.06 18.00  30.41 2635.88
   11:33:35.786.30-Jan-2021 4826.01 3129.11 85.06 18.00  30.61 2635.88
   11:33:35.986.30-Jan-2021 4826.01 3129.11 85.05 18.00  30.81 2635.88
   11:33:36.186.30-Jan-2021 4826.01 3129.09 85.05 18.00  31.01 2635.88
   11:33:36.386.30-Jan-2021 4826.01 3129.09 85.05 18.00  31.21 2635.88
   11:33:36.586.30-Jan-2021 4826.01 3128.91 85.05 18.00  31.41 2635.88
   11:33:36.786.30-Jan-2021 4826.01 3129.38 85.05 18.00  31.61 2635.88
   11:33:36.986.30-Jan-2021 4826.01 3128.97 85.05 18.00  31.81 2635.88
   11:33:37.186.30-Jan-2021 4826.01 3129.07 85.05 18.00  32.01 2635.88
   11:33:37.386.30-Jan-2021 4826.01 3129.07 85.05 18.00  32.21 2635.88
   11:33:37.586.30-Jan-2021 4826.01 3129.37 85.05 18.00  32.41 2635.88
   11:33:37.786.30-Jan-2021 4826.01 3129.16 85.04 18.00  32.61 2635.88
   11:33:37.986.30-Jan-2021 4826.01 3129.06 85.04 18.00  32.81 2635.88
   11:33:38.186.30-Jan-2021 4826.01 3129.21 85.04 18.00  33.01 2635.88
   11:33:38.386.30-Jan-2021 4826.01 3129.21 85.04 18.00  33.21 2635.88
   11:33:38.586.30-Jan-2021 4826.01 3129.30 85.04 18.00  33.41 2635.88
   11:33:38.787.30-Jan-2021 4826.01 3129.31 85.04 18.00  33.61 2635.88
   11:33:38.987.30-Jan-2021 4826.01 3129.22 85.04 18.00  33.81 2635.88
   11:33:39.187.30-Jan-2021 4826.01 3129.15 85.04 18.00  34.01 2635.88
   11:33:39.387.30-Jan-2021 4826.01 3129.15 85.04 18.00  34.21 2635.88
   11:33:39.587.30-Jan-2021 4826.01 3153.88 85.03 18.00  34.41 2635.88
   11:33:39.787.30-Jan-2021 4826.01 3153.99 85.03 18.00  34.61 2635.88
   11:33:39.987.30-Jan-2021 4826.01 3153.99 85.03 18.00  34.81 2635.88
   11:33:40.187.30-Jan-2021 4826.01 3154.05 85.03 18.00  35.01 2635.88
   11:33:40.387.30-Jan-2021 4826.01 3154.05 85.03 18.00  35.21 2635.88
   11:33:40.587.30-Jan-2021 4826.01 3154.10 85.03 18.00  35.41 2635.88
   11:33:40.787.30-Jan-2021 4826.01 3154.13 85.03 18.00  35.61 2635.88
   11:33:40.987.30-Jan-2021 4826.01 3154.12 85.03 18.00  35.81 2635.88
   11:33:41.187.30-Jan-2021 4826.01 3154.18 85.03 18.00  36.01 2635.88
   11:33:41.387.30-Jan-2021 4826.01 3154.18 85.03 18.00  36.21 2635.88
   11:33:41.587.30-Jan-2021 4826.01 3154.20 85.02 18.00  36.41 2635.88
   11:33:41.787.30-Jan-2021 4826.01 3154.22 85.02 18.00  36.61 2635.88
   11:33:41.987.30-Jan-2021 4826.01 3154.23 85.02 18.00  36.81 2635.88
   11:33:42.187.30-Jan-2021 4826.01 3154.26 85.02 18.00  37.01 2635.88
   11:33:42.387.30-Jan-2021 4826.01 3154.26 85.02 18.00  37.21 2635.88
   11:33:42.587.30-Jan-2021 4826.01 3154.27 85.02 18.00  37.41 2635.88
   11:33:42.787.30-Jan-2021 4826.01 3154.28 85.02 18.00  37.61 2635.88
   11:33:42.987.30-Jan-2021 4826.01 3154.30 85.02 18.00  37.81 2635.88
   11:33:43.187.30-Jan-2021 4826.01 3154.30 85.02 18.00  38.01 2635.88
   11:33:43.387.30-Jan-2021 4826.01 3154.30 85.02 18.00  38.21 2635.88
   11:33:43.587.30-Jan-2021 4826.01 3154.33 85.01 18.00  38.41 2635.88
   11:33:43.787.30-Jan-2021 4826.01 3154.33 85.01 18.00  38.61 2635.88
   11:33:43.987.30-Jan-2021 4826.01 3154.36 85.01 18.00  38.81 2635.88
   11:33:44.187.30-Jan-2021 4826.01 3154.36 85.01 18.00  39.01 2635.88
   11:33:44.388.30-Jan-2021 4826.01 3154.36 85.01 18.00  39.21 2635.88
   11:33:44.588.30-Jan-2021 4826.01 3154.38 85.01 18.00  39.41 2635.88
   11:33:44.788.30-Jan-2021 4826.01 3154.35 85.01 18.00  39.61 2635.88
   11:33:44.988.30-Jan-2021 4826.01 3154.39 85.01 18.00  39.81 2635.88
   11:33:45.188.30-Jan-2021 4826.01 3154.41 85.00 18.00  40.01 2635.88
   11:33:45.388.30-Jan-2021 4826.01 3154.41 85.00 18.00  40.21 2635.88
   11:33:45.588.30-Jan-2021 4826.01 3154.41 85.00 18.00  40.41 2635.88
   11:33:45.788.30-Jan-2021 4826.01 3154.38 85.00 18.00  40.61 2635.88
   11:33:45.988.30-Jan-2021 4826.01 3154.45 85.00 18.00  40.81 2635.88
   11:33:46.188.30-Jan-2021 4826.01 3154.46 85.00 18.00  41.01 2635.88
   11:33:46.388.30-Jan-2021 4826.01 3154.46 85.00 18.00  41.21 2635.88
   11:33:46.588.30-Jan-2021 4826.01 3154.41 85.00 18.00  41.41 2635.88
   11:33:46.788.30-Jan-2021 4826.01 3154.49 85.00 18.00  41.61 2635.88
   11:33:46.988.30-Jan-2021 4826.01 3154.49 85.00 18.00  41.81 2635.88
   11:33:47.188.30-Jan-2021 4826.01 3154.49 85.00 18.00  42.01 2635.88
   11:33:47.388.30-Jan-2021 4826.01 3154.49 85.00 18.00  42.21 2635.88
   11:33:47.588.30-Jan-2021 4826.01 3154.48 84.99 18.00  42.41 2635.88
   11:33:47.788.30-Jan-2021 4826.01 3154.52 84.99 18.00  42.61 2635.88
   11:33:47.988.30-Jan-2021 4826.01 3154.48 84.99 18.00  42.81 2635.88
   11:33:48.188.30-Jan-2021 4826.01 3154.53 84.99 18.00  43.01 2635.88
   11:33:48.388.30-Jan-2021 4826.01 3154.53 84.99 18.00  43.21 2635.88
   11:33:48.588.30-Jan-2021 4826.01 3154.53 84.99 18.00  43.41 2635.88
   11:33:48.788.30-Jan-2021 4826.01 3154.55 84.99 18.00  43.61 2635.88
   11:33:48.988.30-Jan-2021 4826.01 3154.53 84.99 18.00  43.81 2635.88
   11:33:49.188.30-Jan-2021 4826.01 3154.54 84.99 18.00  44.01 2635.88
   11:33:49.388.30-Jan-2021 4826.01 3154.54 84.99 18.00  44.21 2635.88
   11:33:49.588.30-Jan-2021 4826.01 3154.58 84.98 18.00  44.41 2635.88
   11:33:49.788.30-Jan-2021 4826.01 3154.58 84.98 18.00  44.61 2635.88
   11:33:49.989.30-Jan-2021 4826.01 3154.56 84.98 18.00  44.81 2635.88
   11:33:50.189.30-Jan-2021 4826.01 3154.59 84.98 18.00  45.01 2635.88
