~Version Information
 VERS.                  2.0:   CWLS log ASCII Standard -VERSION 2.0
 WRAP.                   NO:   One line per depth step
~Well Information Block
#MNEM.UNIT     VALUE/NAME     DESCRIPTION
#---------     -----------    ---------------------------
 STRT.S             02:23:02 28-Jan-21: START TIME 02:23:02 28-Jan-21
 STOP.S             02:29:37 28-Jan-21: STOP TIME  02:29:37 28-Jan-21
 STEP.S                   0.00: STEP TIME
 NULL.                 -999.25: NULL VALUE
 DFWT.                        :  DIST FWL TEXT
 DFST.                        :  DIST FSL TEXT
 DMF .             Drill Floor:  DRILL MEAS FROM
 STIM.      00.00.00 25-Sep-20:  START TIME
 DATE.      16.12.48 31-Jan-21:  END TIME
 SPUD.               20-Sep-20:  SPUD DATE
 NREF.                    Grid:  NORTH REFERENCE
 HPTY.       Minimum Curvature:  HOLE POS TYPE
 DMOD.             Drill Model:  DRILL MOD DESC
 SVYD.                  Survey:  SURVEY DESC
 ILTD.               Lithology:  INTERP LTH DESC
 FTOP.          Formation Tops:  FORM TOPS DESC
 RIG .              East Azeri:  RIG NAME
 PDAT.          Mean Sea Level:  PERMANENT DATUM
 FLD .                     ACG:  FIELD NAME
 SON .        AZ-XX-0906591820:  JOB NUMBER
 CTRY.              Azerbaijan:  COUNTRY NAME
 WELL.                     D37:  WELL NAME
 SRVC.     Turan Drilling & Engineering:  CONTRACTOR
 COMP.     BP Exploration (Caspian Sea) ltd.:  COMPANY
 WTYP.                Deviated:  WELL TYPE
 MDS .        Operator Entered:  MAG DATA SOURCE
 UWI .                     N/A:  UNIQUE WELL IDENTIFIER
 API .                     N/A:  API NUMBER
 BASE.              Azerbaijan:  LOGGING EQUIPMENT BASE LOCATION
 REGN.                   EESSA:  REGION
 PROV.                    Baku:  PROVINCE
 STAT.                    Baku:  STATE NAME
 MWDS.                    Baku:  MWD SHOP
 JOBN.        AZ-XX-0906591820:  JOB TICKET NUMB
 DOE .                     N/A:  DOE NUMBER
 DCON.         Sperry Drilling:  DIRECTNL CONTR
 UNIT.                     N/A:  LOGGING EQUIPMENT ID
 CNTY.                        :  COUNTY
 LOC .                        :  LOCATION
 LMF .             Drill Floor:  LOG MEASURED FROM
 TVDS.m                  43.60:  TVDSS CORRECTN
 LATI.deg                40.02:  LATITUDE
 LONG.deg                51.45:  LONGITUDE
 WHNS.m                  11.04:  WELL HEAD N/S
 WHEW.m                 -12.38:  WELL HEAD E/W
 UTMX.m              538763.98:  UTM X
 UTMY.m             4431880.20:  UTM Y
 DFWL.m                   0.00:  DISTANCE FWL
 DFSL.m                   0.00:  DISTANCE FSL
 SDEP.m                 300.00:  START DEPTH
 TDD .m                4900.01:  TOTAL DEPTH (DRILLER)
 VSDR.deg               185.64:  VERT SEC DIRECT
 GVFD.g                   1.00:  GRAVITY FIELD
 MFLD.nT              50301.00:  MAGNETIC FIELD
 MDIP.deg                59.46:  MAGNETIC DIP
 MDEC.deg                 6.43:  MAGNETIC DECL
 GRDC.deg                 0.29:  GRID CORRECTION
 AZTC.deg                 6.14:  AZM TOTAL CORR
 EPD .m                   0.00:  ELEVATION
 EGL .m                   0.00:  GROUND ELEVATION
 WDMS.m                 151.80:  WD ELEV
 APD .m                  43.60:  DEPTH ABOVE PD
 DEP .m                 571.69:  DEPTH
 AGAP.m                  43.60:  AIR GAP
 VSEW.m                 -12.38:  VERT SEC E/W
 VSNS.m                  11.04:  VERT SEC N/S
 EKB .m                  43.60:  KB ELEVATION
 EDF .m                  43.60:  DF ELEVATION
 TDL .m                 412.00:  TOTAL DEPTH (LOGGER)
 VSC .                       0:  VS TO CLOSURE
 MAGU.                 1849300:  MAGUTM CHECKSUM
~Parameter Information Block
#MNEM.UNIT       Value        Description
#---------     -----------    ---------------------------
 AV  .mps                 2.21:  Ann Velocity 
 AVMX.mps                 2.53:  Max Ann Veloc 
 AZIF.deg               144.83:  Azm, Final 
 BHAT.        Rotary Steerable:  BHA Type 
 BROT.°/30m              -0.52:  Build Rotating 
 BS  .in                  6.50:  Bit Size 
 BTPL.psig              209.00:  Bit Press Loss 
 CABU.                      No:  Customer Abuse 
 CGEO.        Ali Isfandiyarov:  Customer Geo 
 TCS .hr                 61.31:  Time Ciculation Ended 
 CV  .mps                 4.66:  Crit Velocity 
 CVMX.mps                 5.02:  Max Crit Veloc 
 DD1 .          Fariz Nahmatov:  Direct Drillr 1 
 DD2 .            Musa Ahmadov:  Direct Drillr 2 
 DDSV.               Geo-Pilot:  DD Service 
 DEFF.%                 100.00:  % Det Eff 
 DLRX.°/30m               1.44:  Dogleg Rot Max 
 DLSO.°/30m               0.83:  Dogleg Oriented 
 DLSX.°/30m               1.44:  Dogleg Str Max 
 DRET.      08.30.00 30-Jan-21:  Drill End Time 
 DRST.      21.15.00 27-Jan-21:  Drill Start Tim 
 DTIM.hr                 37.28:  Time Drilling 
 EDEP.m                4867.01:  End Depth 
 ENG1.          Rasim Hashimov:  Engineer 1 
 ENG2.         Almaz Almadatov:  Engineer 2 
 ENG3.        Tamerlan Ahmadov:  Engineer 3 
 ETIM.      22.41.04 31-Jan-21:  End Time 
 FLOI.gpm               400.00:  Flow In 
 FLON.gpm               300.00:  Flow In Min 
 FLOS.cptm                0.00:  Fluid Loss 
 FLOX.gpm               400.00:  Flow In Max 
 HFLO.                      No:  High Flow 
 HPRE.                      No:  High Pressure 
 HTEM.                      No:  High Temp 
 HYDO.m                   1.80:  Hydro Offset 
 IFIN.deg                65.63:  Inc, Final 
 IMAX.deg                66.77:  Inc Max 
 IMIN.deg                65.61:  Inc Min 
 IMND.m                4612.67:  Inc Min Depth 
 IMXD.m                4811.63:  Inc Max Depth 
 JARR.                      No:  Jarring 
 LETM.      08.30.00 30-Jan-21:  Log End Time 
 LOST.hr                     0:  Lost Rig Time 
 LSTM.      21.15.00 27-Jan-21:  Log Start Time 
 MDCL.ppm             41000.00:  Mud Chlorides 
 MDES.     Inversion Oil/Synthetic:  Mud Desc 
 DFD .sg                  1.40:  Mud Density 
 MDMN.sg                  1.40:  Dens Mud Min 
 MDMX.sg                  1.40:  Dens Mud Max 
 MOIL.                      53:  Run Mud Oil % 
 MOWR.                   66:34:  Run Mud OWR 
 MSND.                     0.2:  Run Mud Sand % 
 MSOL.                    17.9:  Run Mud Solids% 
 DFV .spqt               77.00:  Mud Viscosity 
 MWOD.in                  4.75:  MWD Tool OD 
 MWSI.                      No:  Serv Intrp, MWD 
 OTIM.hr                110.38:  Time Operating 
 PCON.           Look Like New:  Pad Condition 
 PMAX.psia             5300.00:  Press Op, Max 
 PV  .cP                 57.00:  Mud PV 
 RUN .                    1200:  Run Number 
 ROPA.m/hr               13.00:  ROP Avg 
 ROPN.m/hr                9.00:  ROP Min 
 ROPX.m/hr               15.00:  ROP Max 
 RPMA.rpm               120.00:  RPM Surface Avg 
 RPMN.rpm               100.00:  RPM Surface Min 
 RPMX.rpm               135.00:  RPM Surface Max 
 RRUN.                    1200:  Rig Run Number 
 RTIM.hr                  2.65:  Time Reaming 
 SAZI.deg               145.04:  Azm, Start 
 SDEP.m                4455.01:  Start Depth 
 SIDD.                      No:  Serv Intrp, DD 
 SINC.deg                65.83:  Inc, Start 
 SPPA.psig             5037.00:  SPP Avg 
 SPPN.psig             4430.00:  SPP Min 
 SPPX.psig             5300.00:  SPP Max 
 STIM.      22.41.04 26-Jan-21:  Start Time 
 SVCS.                 DD, MWD:  Services 
 SVER.                    9.20:  Sperry Version 
 TDAT.m                 412.00:  Tot Depth Attmp 
 TDDF.                      No:  Trip for DD 
 TDLG.m                 412.00:  Tot Depth Loggd 
 TFF .                      No:  Trip for Fail 
 TQAA.f-kp               15.00:  Torque Abs Avg 
 TQAN.f-kp               12.00:  Torque Abs Min 
 TQAX.f-kp               17.00:  Torque Abs Max 
 TRRT.°/30m               1.18:  Turn Rotating 
 MRT .                     ADR:  Maximum Recorded Temperature 
 TTMX.degC               88.24:  Max Tool Temp 
 VS01.                90619458:  Virtual Str1 SN 
 VS02.                90519326:  Virtual Str2 SN 
 VS03.                90522176:  Virtual Str3 SN 
 VS04.                90512683:  Virtual Str4 SN 
 WBMN.klb                 1.00:  WOB Min 
 WITN.           Murad Giluyev:  Customer Rep 
 WITN.     Kamran Kemberlinski:  Customer Rep 2 
 WOBA.klb                 5.00:  WOB Avg 
 WOBX.klb                 9.00:  WOB Max 
 YP  .lhf2               41.00:  Yield Point 
~Curve Information Block
#MNEM.UNIT                 API CODE     Curve Description
#---------               -----------    ---------------------------
 TIME.HHMMSS            00 000 000 000:  GT Time & Date
 GTDEPTH.m              00 000 000 000:  GT Depth
 GTPQH.psia             00 000 000 000:  GT HR Quartz Pressure
 GTTQ.degC              00 000 000 000:  GT Quartz Temperature
 GTTN.NONE              00 000 000 000:  GT Test Number
 GTET.sec               00 000 000 000:  GT Elapsed Test Time
 GTTVD.m                00 000 000 000:  GT True Vertical Depth
#Other Information
#
#WARRANTY: Halliburton will use its best efforts to furnish customers with 
#accurate information and interpretations that are part of, and incident to, the services 
#provided.  However, Halliburton cannot and does not warrant the accuracy 
#or correctness of such information and interpretations.  Under no circumstances should any 
#such information or interpretation be relied upon as the sole basis for any drilling, 
#completion, production, or financial decision or any procedure involving any risk to the 
#safety of any drilling venture, drilling rig or its crew or any other third party.  The 
#Customer has full responsibility for all drilling, completion and production operation.  
#Halliburton makes no representations or warranties, either expressed or 
#implied, including, but not limited to, the implied warranties of merchantability or fitness 
#for a particular purpose, with respect to the services rendered.  In no event will 
#Halliburton be liable for failure to obtain any particular results or for 
#any damages, including, but not limited to, indirect, special or consequential damages, 
#resulting from the use of any information or interpretation provided by Halliburton.
#
~A           TIME           GTDEPTH  GTPQH  GTTQ  GTTN  GTET   GTTVD  
# ...
   02:23:25.000.28-Jan-2021 4453.81 5403.91 61.05 1.00  23.00 2485.38
   02:23:25.200.28-Jan-2021 4453.81 5403.91 61.05 1.00  23.20 2485.38
   02:23:25.400.28-Jan-2021 4453.81 5400.53 61.05 1.00  23.40 2485.38
   02:23:25.600.28-Jan-2021 4453.81 5405.16 61.05 1.00  23.60 2485.38
   02:23:25.800.28-Jan-2021 4453.81 5407.11 61.05 1.00  23.80 2485.38
   02:23:26.000.28-Jan-2021 4453.81 5406.60 61.05 1.00  24.00 2485.38
   02:23:26.200.28-Jan-2021 4453.81 5406.60 61.05 1.00  24.20 2485.38
   02:23:26.400.28-Jan-2021 4453.81 5406.48 61.05 1.00  24.40 2485.38
   02:23:26.600.28-Jan-2021 4453.81 5405.07 61.05 1.00  24.60 2485.38
   02:23:26.800.28-Jan-2021 4453.81 5406.46 61.05 1.00  24.80 2485.38
   02:23:27.000.28-Jan-2021 4453.81 5404.90 61.05 1.00  25.00 2485.38
   02:23:27.200.28-Jan-2021 4453.81 5404.90 61.05 1.00  25.20 2485.38
   02:23:27.400.28-Jan-2021 4453.81 5406.49 61.05 1.00  25.40 2485.38
   02:23:27.600.28-Jan-2021 4453.81 5405.20 61.05 1.00  25.60 2485.38
   02:23:27.800.28-Jan-2021 4453.81 5407.63 61.05 1.00  25.80 2485.38
   02:23:28.000.28-Jan-2021 4453.81 5405.40 61.05 1.00  26.00 2485.38
   02:23:28.200.28-Jan-2021 4453.81 5405.40 61.05 1.00  26.20 2485.38
   02:23:28.400.28-Jan-2021 4453.81 5406.92 61.05 1.00  26.40 2485.38
   02:23:28.600.28-Jan-2021 4453.81 5405.88 61.04 1.00  26.60 2485.38
   02:23:28.800.28-Jan-2021 4453.81 5400.84 61.04 1.00  26.80 2485.38
   02:23:29.000.28-Jan-2021 4453.81 5407.25 61.04 1.00  27.00 2485.38
   02:23:29.200.28-Jan-2021 4453.81 5407.25 61.04 1.00  27.20 2485.38
   02:23:29.400.28-Jan-2021 4453.81 5407.48 61.04 1.00  27.40 2485.38
   02:23:29.600.28-Jan-2021 4453.81 5399.61 61.04 1.00  27.60 2485.38
   02:23:29.800.28-Jan-2021 4453.81 5408.41 61.04 1.00  27.80 2485.38
   02:23:30.000.28-Jan-2021 4453.81 5407.94 61.04 1.00  28.00 2485.38
   02:23:30.200.28-Jan-2021 4453.81 5407.94 61.04 1.00  28.20 2485.38
   02:23:30.400.28-Jan-2021 4453.81 5401.01 61.04 1.00  28.40 2485.38
   02:23:30.600.28-Jan-2021 4453.81 5406.70 61.04 1.00  28.60 2485.38
   02:23:30.800.28-Jan-2021 4453.81 5407.57 61.04 1.00  28.80 2485.38
   02:23:31.000.28-Jan-2021 4453.81 5409.57 61.04 1.00  29.00 2485.38
   02:23:31.200.28-Jan-2021 4453.81 5409.57 61.04 1.00  29.20 2485.38
   02:23:31.400.28-Jan-2021 4453.81 5400.18 61.04 1.00  29.40 2485.38
   02:23:31.600.28-Jan-2021 4453.81 5405.85 61.04 1.00  29.60 2485.38
   02:23:31.800.28-Jan-2021 4453.81 5406.40 61.04 1.00  29.80 2485.38
   02:23:32.000.28-Jan-2021 4453.81 5410.81 61.04 1.00  30.00 2485.38
   02:23:32.200.28-Jan-2021 4453.81 5410.81 61.04 1.00  30.20 2485.38
   02:23:32.400.28-Jan-2021 4453.81 5408.03 61.04 1.00  30.40 2485.38
   02:23:32.600.28-Jan-2021 4453.81 5398.62 61.04 1.00  30.60 2485.38
   02:23:32.800.28-Jan-2021 4453.81 5405.91 61.04 1.00  30.80 2485.38
   02:23:33.000.28-Jan-2021 4453.81 5408.14 61.04 1.00  31.00 2485.38
   02:23:33.200.28-Jan-2021 4453.81 5408.14 61.04 1.00  31.20 2485.38
   02:23:33.400.28-Jan-2021 4453.81 5409.55 61.04 1.00  31.40 2485.38
   02:23:33.600.28-Jan-2021 4453.81 5407.32 61.04 1.00  31.60 2485.38
   02:23:33.800.28-Jan-2021 4453.81 5406.93 61.04 1.00  31.80 2485.38
   02:23:34.000.28-Jan-2021 4453.81 5406.55 61.04 1.00  32.00 2485.38
   02:23:34.200.28-Jan-2021 4453.81 5406.55 61.04 1.00  32.20 2485.38
   02:23:34.400.28-Jan-2021 4453.81 5406.89 61.04 1.00  32.40 2485.38
   02:23:34.600.28-Jan-2021 4453.81 5406.38 61.03 1.00  32.60 2485.38
   02:23:34.800.28-Jan-2021 4453.81 5405.25 61.03 1.00  32.80 2485.38
   02:23:35.000.28-Jan-2021 4453.81 5406.95 61.03 1.00  33.00 2485.38
   02:23:35.200.28-Jan-2021 4453.81 5406.95 61.03 1.00  33.20 2485.38
   02:23:35.400.28-Jan-2021 4453.81 5405.73 61.03 1.00  33.40 2485.38
   02:23:35.600.28-Jan-2021 4453.81 5406.08 61.03 1.00  33.60 2485.38
   02:23:35.800.28-Jan-2021 4453.81 5404.94 61.03 1.00  33.80 2485.38
   02:23:36.000.28-Jan-2021 4453.81 5403.77 61.03 1.00  34.00 2485.38
   02:23:36.200.28-Jan-2021 4453.81 5403.77 61.03 1.00  34.20 2485.38
   02:23:36.400.28-Jan-2021 4453.81 5405.69 61.03 1.00  34.40 2485.38
   02:23:36.600.28-Jan-2021 4453.81 5408.10 61.03 1.00  34.60 2485.38
   02:23:36.800.28-Jan-2021 4453.81 5407.41 61.03 1.00  34.80 2485.38
   02:23:37.000.28-Jan-2021 4453.81 5407.32 61.03 1.00  35.00 2485.38
   02:23:37.200.28-Jan-2021 4453.81 5407.32 61.03 1.00  35.20 2485.38
   02:23:37.400.28-Jan-2021 4453.81 5405.81 61.03 1.00  35.40 2485.38
   02:23:37.600.28-Jan-2021 4453.81 5407.18 61.03 1.00  35.60 2485.38
   02:23:37.800.28-Jan-2021 4453.81 5405.73 61.03 1.00  35.80 2485.38
   02:23:38.000.28-Jan-2021 4453.81 5407.43 61.03 1.00  36.00 2485.38
   02:23:38.200.28-Jan-2021 4453.81 5407.43 61.03 1.00  36.20 2485.38
   02:23:38.400.28-Jan-2021 4453.81 5406.20 61.03 1.00  36.40 2485.38
   02:23:38.600.28-Jan-2021 4453.81 5408.33 61.03 1.00  36.60 2485.38
   02:23:38.800.28-Jan-2021 4453.81 5405.73 61.03 1.00  36.80 2485.38
   02:23:39.000.28-Jan-2021 4453.81 5406.81 61.03 1.00  37.00 2485.38
   02:23:39.200.28-Jan-2021 4453.81 5406.81 61.03 1.00  37.20 2485.38
   02:23:39.400.28-Jan-2021 4453.81 5406.48 61.03 1.00  37.40 2485.38
   02:23:39.600.28-Jan-2021 4453.81 5401.03 61.03 1.00  37.60 2485.38
   02:23:39.800.28-Jan-2021 4453.81 5406.50 61.03 1.00  37.80 2485.38
   02:23:40.000.28-Jan-2021 4453.81 5407.28 61.03 1.00  38.00 2485.38
   02:23:40.200.28-Jan-2021 4453.81 5407.28 61.03 1.00  38.20 2485.38
   02:23:40.400.28-Jan-2021 4453.81 5398.96 61.02 1.00  38.40 2485.38
   02:23:40.600.28-Jan-2021 4453.81 5408.08 61.02 1.00  38.60 2485.38
   02:23:40.800.28-Jan-2021 4453.81 5406.88 61.02 1.00  38.80 2485.38
   02:23:41.000.28-Jan-2021 4453.81 5409.80 61.02 1.00  39.00 2485.38
   02:23:41.200.28-Jan-2021 4453.81 5409.80 61.02 1.00  39.20 2485.38
   02:23:41.400.28-Jan-2021 4453.81 5406.45 61.02 1.00  39.40 2485.38
   02:23:41.600.28-Jan-2021 4453.81 5408.21 61.02 1.00  39.60 2485.38
   02:23:41.800.28-Jan-2021 4453.81 5410.04 61.02 1.00  39.80 2485.38
   02:23:42.000.28-Jan-2021 4453.81 5408.72 61.02 1.00  40.00 2485.38
   02:23:42.200.28-Jan-2021 4453.81 5408.72 61.02 1.00  40.20 2485.38
   02:23:42.400.28-Jan-2021 4453.81 5405.79 61.02 1.00  40.40 2485.38
   02:23:42.600.28-Jan-2021 4453.81 5406.58 61.02 1.00  40.60 2485.38
   02:23:42.800.28-Jan-2021 4453.81 5409.64 61.02 1.00  40.80 2485.38
   02:23:43.000.28-Jan-2021 4453.81 5408.26 61.02 1.00  41.00 2485.38
   02:23:43.200.28-Jan-2021 4453.81 5408.26 61.02 1.00  41.20 2485.38
   02:23:43.400.28-Jan-2021 4453.81 5397.75 61.02 1.00  41.40 2485.38
   02:23:43.600.28-Jan-2021 4453.81 5406.39 61.02 1.00  41.60 2485.38
   02:23:43.800.28-Jan-2021 4453.81 5406.80 61.02 1.00  41.80 2485.38
   02:23:44.000.28-Jan-2021 4453.81 5408.86 61.02 1.00  42.00 2485.38
   02:23:44.200.28-Jan-2021 4453.81 5408.86 61.02 1.00  42.20 2485.38
   02:23:44.400.28-Jan-2021 4453.81 5407.98 61.02 1.00  42.40 2485.38
   02:23:44.600.28-Jan-2021 4453.81 5408.23 61.02 1.00  42.60 2485.38
   02:23:44.800.28-Jan-2021 4453.81 5408.83 61.02 1.00  42.80 2485.38
   02:23:45.000.28-Jan-2021 4453.81 5407.46 61.02 1.00  43.00 2485.38
   02:23:45.200.28-Jan-2021 4453.81 5407.46 61.02 1.00  43.20 2485.38
   02:23:45.400.28-Jan-2021 4453.81 5408.66 61.02 1.00  43.40 2485.38
   02:23:45.600.28-Jan-2021 4453.81 5408.52 61.02 1.00  43.60 2485.38
   02:23:45.800.28-Jan-2021 4453.81 5409.39 61.02 1.00  43.80 2485.38
   02:23:46.000.28-Jan-2021 4453.81 5407.90 61.02 1.00  44.00 2485.38
   02:23:46.200.28-Jan-2021 4453.81 5407.90 61.02 1.00  44.20 2485.38
   02:23:46.400.28-Jan-2021 4453.81 5408.22 61.02 1.00  44.40 2485.38
   02:23:46.600.28-Jan-2021 4453.81 5407.71 61.01 1.00  44.60 2485.38
   02:23:46.800.28-Jan-2021 4453.81 5409.14 61.01 1.00  44.80 2485.38
   02:23:47.000.28-Jan-2021 4453.81 5400.22 61.01 1.00  45.00 2485.38
   02:23:47.200.28-Jan-2021 4453.81 5400.22 61.01 1.00  45.20 2485.38
   02:23:47.400.28-Jan-2021 4453.81 5408.85 61.01 1.00  45.40 2485.38
   02:23:47.600.28-Jan-2021 4453.81 5410.40 61.01 1.00  45.60 2485.38
   02:23:47.800.28-Jan-2021 4453.81 5410.81 61.01 1.00  45.80 2485.38
