~Version Information
 VERS.                  2.0:   CWLS log ASCII Standard -VERSION 2.0
 WRAP.                   NO:   One line per depth step
~Well Information Block
#MNEM.UNIT     VALUE/NAME     DESCRIPTION
#---------     -----------    ---------------------------
 STRT.S             20:27:59 28-Jan-21: START TIME 20:27:59 28-Jan-21
 STOP.S             20:34:29 28-Jan-21: STOP TIME  20:34:29 28-Jan-21
 STEP.S                   0.00: STEP TIME
 NULL.                 -999.25: NULL VALUE
 DFWT.                        :  DIST FWL TEXT
 DFST.                        :  DIST FSL TEXT
 DMF .             Drill Floor:  DRILL MEAS FROM
 STIM.      00.00.00 25-Sep-20:  START TIME
 DATE.      16.12.48 31-Jan-21:  END TIME
 SPUD.               20-Sep-20:  SPUD DATE
 NREF.                    Grid:  NORTH REFERENCE
 HPTY.       Minimum Curvature:  HOLE POS TYPE
 DMOD.             Drill Model:  DRILL MOD DESC
 SVYD.                  Survey:  SURVEY DESC
 ILTD.               Lithology:  INTERP LTH DESC
 FTOP.          Formation Tops:  FORM TOPS DESC
 RIG .              East Azeri:  RIG NAME
 PDAT.          Mean Sea Level:  PERMANENT DATUM
 FLD .                     ACG:  FIELD NAME
 SON .        AZ-XX-0906591820:  JOB NUMBER
 CTRY.              Azerbaijan:  COUNTRY NAME
 WELL.                     D37:  WELL NAME
 SRVC.     Turan Drilling & Engineering:  CONTRACTOR
 COMP.     BP Exploration (Caspian Sea) ltd.:  COMPANY
 WTYP.                Deviated:  WELL TYPE
 MDS .        Operator Entered:  MAG DATA SOURCE
 UWI .                     N/A:  UNIQUE WELL IDENTIFIER
 API .                     N/A:  API NUMBER
 BASE.              Azerbaijan:  LOGGING EQUIPMENT BASE LOCATION
 REGN.                   EESSA:  REGION
 PROV.                    Baku:  PROVINCE
 STAT.                    Baku:  STATE NAME
 MWDS.                    Baku:  MWD SHOP
 JOBN.        AZ-XX-0906591820:  JOB TICKET NUMB
 DOE .                     N/A:  DOE NUMBER
 DCON.         Sperry Drilling:  DIRECTNL CONTR
 UNIT.                     N/A:  LOGGING EQUIPMENT ID
 CNTY.                        :  COUNTY
 LOC .                        :  LOCATION
 LMF .             Drill Floor:  LOG MEASURED FROM
 TVDS.m                  43.60:  TVDSS CORRECTN
 LATI.deg                40.02:  LATITUDE
 LONG.deg                51.45:  LONGITUDE
 WHNS.m                  11.04:  WELL HEAD N/S
 WHEW.m                 -12.38:  WELL HEAD E/W
 UTMX.m              538763.98:  UTM X
 UTMY.m             4431880.20:  UTM Y
 DFWL.m                   0.00:  DISTANCE FWL
 DFSL.m                   0.00:  DISTANCE FSL
 SDEP.m                 300.00:  START DEPTH
 TDD .m                4900.01:  TOTAL DEPTH (DRILLER)
 VSDR.deg               185.64:  VERT SEC DIRECT
 GVFD.g                   1.00:  GRAVITY FIELD
 MFLD.nT              50301.00:  MAGNETIC FIELD
 MDIP.deg                59.46:  MAGNETIC DIP
 MDEC.deg                 6.43:  MAGNETIC DECL
 GRDC.deg                 0.29:  GRID CORRECTION
 AZTC.deg                 6.14:  AZM TOTAL CORR
 EPD .m                   0.00:  ELEVATION
 EGL .m                   0.00:  GROUND ELEVATION
 WDMS.m                 151.80:  WD ELEV
 APD .m                  43.60:  DEPTH ABOVE PD
 DEP .m                 571.69:  DEPTH
 AGAP.m                  43.60:  AIR GAP
 VSEW.m                 -12.38:  VERT SEC E/W
 VSNS.m                  11.04:  VERT SEC N/S
 EKB .m                  43.60:  KB ELEVATION
 EDF .m                  43.60:  DF ELEVATION
 TDL .m                 412.00:  TOTAL DEPTH (LOGGER)
 VSC .                       0:  VS TO CLOSURE
 MAGU.                 1849300:  MAGUTM CHECKSUM
~Parameter Information Block
#MNEM.UNIT       Value        Description
#---------     -----------    ---------------------------
 AV  .mps                 2.21:  Ann Velocity 
 AVMX.mps                 2.53:  Max Ann Veloc 
 AZIF.deg               144.83:  Azm, Final 
 BHAT.        Rotary Steerable:  BHA Type 
 BROT.°/30m              -0.52:  Build Rotating 
 BS  .in                  6.50:  Bit Size 
 BTPL.psig              209.00:  Bit Press Loss 
 CABU.                      No:  Customer Abuse 
 CGEO.        Ali Isfandiyarov:  Customer Geo 
 COMM.                     ,´U:  Run Comments 1 
 TCS .hr                 61.31:  Time Ciculation Ended 
 CV  .mps                 4.66:  Crit Velocity 
 CVMX.mps                 5.02:  Max Crit Veloc 
 DD1 .          Fariz Nahmatov:  Direct Drillr 1 
 DD2 .            Musa Ahmadov:  Direct Drillr 2 
 DDSV.               Geo-Pilot:  DD Service 
 DEFF.%                 100.00:  % Det Eff 
 DLRX.°/30m               1.44:  Dogleg Rot Max 
 DLSO.°/30m               0.83:  Dogleg Oriented 
 DLSX.°/30m               1.44:  Dogleg Str Max 
 DRET.      08.30.00 30-Jan-21:  Drill End Time 
 DRST.      21.15.00 27-Jan-21:  Drill Start Tim 
 DTIM.hr                 37.28:  Time Drilling 
 EDEP.m                4867.01:  End Depth 
 ENG1.          Rasim Hashimov:  Engineer 1 
 ENG2.         Almaz Almadatov:  Engineer 2 
 ENG3.        Tamerlan Ahmadov:  Engineer 3 
 ETIM.      22.41.04 31-Jan-21:  End Time 
 FLOI.gpm               400.00:  Flow In 
 FLON.gpm               300.00:  Flow In Min 
 FLOS.cptm                0.00:  Fluid Loss 
 FLOX.gpm               400.00:  Flow In Max 
 HFLO.                      No:  High Flow 
 HPRE.                      No:  High Pressure 
 HTEM.                      No:  High Temp 
 HYDO.m                   1.80:  Hydro Offset 
 IFIN.deg                65.63:  Inc, Final 
 IMAX.deg                66.77:  Inc Max 
 IMIN.deg                65.61:  Inc Min 
 IMND.m                4612.67:  Inc Min Depth 
 IMXD.m                4811.63:  Inc Max Depth 
 JARR.                      No:  Jarring 
 LETM.      08.30.00 30-Jan-21:  Log End Time 
 LOST.hr                     0:  Lost Rig Time 
 LSTM.      21.15.00 27-Jan-21:  Log Start Time 
 MDCL.ppm             41000.00:  Mud Chlorides 
 MDES.     Inversion Oil/Synthetic:  Mud Desc 
 DFD .sg                  1.40:  Mud Density 
 MDMN.sg                  1.40:  Dens Mud Min 
 MDMX.sg                  1.40:  Dens Mud Max 
 MOIL.                      53:  Run Mud Oil % 
 MOWR.                   66:34:  Run Mud OWR 
 MSND.                     0.2:  Run Mud Sand % 
 MSOL.                    17.9:  Run Mud Solids% 
 DFV .spqt               77.00:  Mud Viscosity 
 MWOD.in                  4.75:  MWD Tool OD 
 MWSI.                      No:  Serv Intrp, MWD 
 OTIM.hr                110.38:  Time Operating 
 PCON.           Look Like New:  Pad Condition 
 PMAX.psia             5300.00:  Press Op, Max 
 PV  .cP                 57.00:  Mud PV 
 RUN .                    1200:  Run Number 
 ROPA.m/hr               13.00:  ROP Avg 
 ROPN.m/hr                9.00:  ROP Min 
 ROPX.m/hr               15.00:  ROP Max 
 RPMA.rpm               120.00:  RPM Surface Avg 
 RPMN.rpm               100.00:  RPM Surface Min 
 RPMX.rpm               135.00:  RPM Surface Max 
 RRUN.                    1200:  Rig Run Number 
 RTIM.hr                  2.65:  Time Reaming 
 SAZI.deg               145.04:  Azm, Start 
 SDEP.m                4455.01:  Start Depth 
 SIDD.                      No:  Serv Intrp, DD 
 SINC.deg                65.83:  Inc, Start 
 SPPA.psig             5037.00:  SPP Avg 
 SPPN.psig             4430.00:  SPP Min 
 SPPX.psig             5300.00:  SPP Max 
 STIM.      22.41.04 26-Jan-21:  Start Time 
 SVCS.                 DD, MWD:  Services 
 SVER.                    9.20:  Sperry Version 
 TDAT.m                 412.00:  Tot Depth Attmp 
 TDDF.                      No:  Trip for DD 
 TDLG.m                 412.00:  Tot Depth Loggd 
 TFF .                      No:  Trip for Fail 
 TQAA.f-kp               15.00:  Torque Abs Avg 
 TQAN.f-kp               12.00:  Torque Abs Min 
 TQAX.f-kp               17.00:  Torque Abs Max 
 TRRT.°/30m               1.18:  Turn Rotating 
 MRT .                     ADR:  Maximum Recorded Temperature 
 TTMX.degC               88.24:  Max Tool Temp 
 VS01.                90619458:  Virtual Str1 SN 
 VS02.                90519326:  Virtual Str2 SN 
 VS03.                90522176:  Virtual Str3 SN 
 VS04.                90512683:  Virtual Str4 SN 
 WBMN.klb                 1.00:  WOB Min 
 WITN.           Murad Giluyev:  Customer Rep 
 WITN.     Kamran Kemberlinski:  Customer Rep 2 
 WOBA.klb                 5.00:  WOB Avg 
 WOBX.klb                 9.00:  WOB Max 
 YP  .lhf2               41.00:  Yield Point 
~Curve Information Block
#MNEM.UNIT                 API CODE     Curve Description
#---------               -----------    ---------------------------
 TIME.HHMMSS            00 000 000 000:  GT Time & Date
 GTDEPTH.m              00 000 000 000:  GT Depth
 GTPQH.psia             00 000 000 000:  GT HR Quartz Pressure
 GTTQ.degC              00 000 000 000:  GT Quartz Temperature
 GTTN.NONE              00 000 000 000:  GT Test Number
 GTET.sec               00 000 000 000:  GT Elapsed Test Time
 GTTVD.m                00 000 000 000:  GT True Vertical Depth
#Other Information
#
#WARRANTY: Halliburton will use its best efforts to furnish customers with 
#accurate information and interpretations that are part of, and incident to, the services 
#provided.  However, Halliburton cannot and does not warrant the accuracy 
#or correctness of such information and interpretations.  Under no circumstances should any 
#such information or interpretation be relied upon as the sole basis for any drilling, 
#completion, production, or financial decision or any procedure involving any risk to the 
#safety of any drilling venture, drilling rig or its crew or any other third party.  The 
#Customer has full responsibility for all drilling, completion and production operation.  
#Halliburton makes no representations or warranties, either expressed or 
#implied, including, but not limited to, the implied warranties of merchantability or fitness 
#for a particular purpose, with respect to the services rendered.  In no event will 
#Halliburton be liable for failure to obtain any particular results or for 
#any damages, including, but not limited to, indirect, special or consequential damages, 
#resulting from the use of any information or interpretation provided by Halliburton.
#
~A           TIME           GTDEPTH  GTPQH  GTTQ  GTTN  GTET   GTTVD  
   20:27:59.369.28-Jan-2021 4575.01 5584.15 74.96 6.00   0.00 2534.93
   20:27:59.569.28-Jan-2021 4575.01 5584.15 74.96 6.00   0.20 2534.93
   20:27:59.769.28-Jan-2021 4575.01 5586.38 74.96 6.00   0.40 2534.93
   20:27:59.969.28-Jan-2021 4575.01 5587.41 74.95 6.00   0.60 2534.93
   20:28:00.169.28-Jan-2021 4575.01 5586.76 74.95 6.00   0.80 2534.93
   20:28:00.369.28-Jan-2021 4575.01 5587.05 74.95 6.00   1.00 2534.93
   20:28:00.569.28-Jan-2021 4575.01 5587.05 74.95 6.00   1.20 2534.93
   20:28:00.769.28-Jan-2021 4575.01 5586.49 74.95 6.00   1.40 2534.93
   20:28:00.969.28-Jan-2021 4575.01 5587.56 74.95 6.00   1.60 2534.93
   20:28:01.169.28-Jan-2021 4575.01 5586.03 74.95 6.00   1.80 2534.93
   20:28:01.369.28-Jan-2021 4575.01 5587.17 74.95 6.00   2.00 2534.93
   20:28:01.569.28-Jan-2021 4575.01 5587.17 74.95 6.00   2.20 2534.93
   20:28:01.769.28-Jan-2021 4575.01 5587.00 74.95 6.00   2.40 2534.93
   20:28:01.969.28-Jan-2021 4575.01 5585.03 74.95 6.00   2.60 2534.93
   20:28:02.169.28-Jan-2021 4575.01 5586.90 74.95 6.00   2.80 2534.93
   20:28:02.369.28-Jan-2021 4575.01 5584.23 74.95 6.00   3.00 2534.93
   20:28:02.569.28-Jan-2021 4575.01 5584.23 74.95 6.00   3.20 2534.93
   20:28:02.770.28-Jan-2021 4575.01 5581.98 74.95 6.00   3.40 2534.93
   20:28:02.970.28-Jan-2021 4575.01 5586.18 74.95 6.00   3.60 2534.93
   20:28:03.170.28-Jan-2021 4575.01 5584.04 74.94 6.00   3.80 2534.93
   20:28:03.370.28-Jan-2021 4575.01 5587.84 74.94 6.00   4.00 2534.93
   20:28:03.570.28-Jan-2021 4575.01 5587.84 74.94 6.00   4.20 2534.93
   20:28:03.770.28-Jan-2021 4575.01 5586.83 74.94 6.00   4.40 2534.93
   20:28:03.970.28-Jan-2021 4575.01 5586.98 74.94 6.00   4.60 2534.93
   20:28:04.170.28-Jan-2021 4575.01 5586.06 74.94 6.00   4.80 2534.93
   20:28:04.370.28-Jan-2021 4575.01 5587.25 74.94 6.00   5.00 2534.93
   20:28:04.570.28-Jan-2021 4575.01 5587.25 74.94 6.00   5.20 2534.93
   20:28:04.770.28-Jan-2021 4575.01 5587.39 74.94 6.00   5.40 2534.93
   20:28:04.970.28-Jan-2021 4575.01 5580.85 74.94 6.00   5.60 2534.93
   20:28:05.170.28-Jan-2021 4575.01 5587.00 74.94 6.00   5.80 2534.93
   20:28:05.370.28-Jan-2021 4575.01 5585.55 74.94 6.00   6.00 2534.93
   20:28:05.570.28-Jan-2021 4575.01 5585.55 74.94 6.00   6.20 2534.93
   20:28:05.770.28-Jan-2021 4575.01 5585.55 74.94 6.00   6.40 2534.93
   20:28:05.970.28-Jan-2021 4575.01 5584.16 74.94 6.00   6.60 2534.93
   20:28:06.170.28-Jan-2021 4575.01 5588.13 74.94 6.00   6.80 2534.93
   20:28:06.370.28-Jan-2021 4575.01 5586.67 74.94 6.00   7.00 2534.93
   20:28:06.570.28-Jan-2021 4575.01 5586.67 74.94 6.00   7.20 2534.93
   20:28:06.770.28-Jan-2021 4575.01 5586.32 74.93 6.00   7.40 2534.93
   20:28:06.970.28-Jan-2021 4575.01 5585.95 74.93 6.00   7.60 2534.93
   20:28:07.170.28-Jan-2021 4575.01 5584.24 74.93 6.00   7.80 2534.93
   20:28:07.370.28-Jan-2021 4575.01 5588.32 74.93 6.00   8.00 2534.93
   20:28:07.570.28-Jan-2021 4575.01 5588.32 74.93 6.00   8.20 2534.93
   20:28:07.771.28-Jan-2021 4575.01 5583.62 74.93 6.00   8.40 2534.93
   20:28:07.971.28-Jan-2021 4575.01 5587.25 74.93 6.00   8.60 2534.93
   20:28:08.171.28-Jan-2021 4575.01 5586.85 74.93 6.00   8.80 2534.93
   20:28:08.371.28-Jan-2021 4575.01 5586.20 74.93 6.00   9.00 2534.93
   20:28:08.571.28-Jan-2021 4575.01 5586.20 74.93 6.00   9.20 2534.93
   20:28:08.771.28-Jan-2021 4575.01 5589.15 74.93 6.00   9.40 2534.93
   20:28:08.971.28-Jan-2021 4575.01 5586.60 74.93 6.00   9.60 2534.93
   20:28:09.171.28-Jan-2021 4575.01 5586.60 74.93 6.00   9.80 2534.93
   20:28:09.371.28-Jan-2021 4575.01 5589.71 74.93 6.00  10.00 2534.93
   20:28:09.571.28-Jan-2021 4575.01 5589.71 74.93 6.00  10.20 2534.93
   20:28:09.771.28-Jan-2021 4575.01 5583.32 74.93 6.00  10.40 2534.93
   20:28:09.971.28-Jan-2021 4575.01 5588.53 74.92 6.00  10.60 2534.93
   20:28:10.171.28-Jan-2021 4575.01 5583.77 74.92 6.00  10.80 2534.93
   20:28:10.371.28-Jan-2021 4575.01 5587.77 74.92 6.00  11.00 2534.93
   20:28:10.571.28-Jan-2021 4575.01 5587.77 74.92 6.00  11.20 2534.93
   20:28:10.771.28-Jan-2021 4575.01 5588.14 74.92 6.00  11.40 2534.93
   20:28:10.971.28-Jan-2021 4575.01 5586.29 74.92 6.00  11.60 2534.93
   20:28:11.171.28-Jan-2021 4575.01 5586.11 74.92 6.00  11.80 2534.93
   20:28:11.371.28-Jan-2021 4575.01 5586.22 74.92 6.00  12.00 2534.93
   20:28:11.571.28-Jan-2021 4575.01 5586.22 74.92 6.00  12.20 2534.93
   20:28:11.771.28-Jan-2021 4575.01 5588.69 74.92 6.00  12.40 2534.93
   20:28:11.971.28-Jan-2021 4575.01 5581.85 74.92 6.00  12.60 2534.93
   20:28:12.171.28-Jan-2021 4575.01 5591.38 74.92 6.00  12.80 2534.93
   20:28:12.371.28-Jan-2021 4575.01 5585.05 74.92 6.00  13.00 2534.93
   20:28:12.571.28-Jan-2021 4575.01 5585.05 74.92 6.00  13.20 2534.93
   20:28:12.771.28-Jan-2021 4575.01 5587.45 74.92 6.00  13.40 2534.93
   20:28:12.972.28-Jan-2021 4575.01 5589.98 74.92 6.00  13.60 2534.93
   20:28:13.172.28-Jan-2021 4575.01 5588.16 74.92 6.00  13.80 2534.93
   20:28:13.372.28-Jan-2021 4575.01 5588.37 74.91 6.00  14.00 2534.93
   20:28:13.572.28-Jan-2021 4575.01 5588.37 74.91 6.00  14.20 2534.93
   20:28:13.772.28-Jan-2021 4575.01 5588.56 74.91 6.00  14.40 2534.93
   20:28:13.972.28-Jan-2021 4575.01 5587.27 74.91 6.00  14.60 2534.93
   20:28:14.172.28-Jan-2021 4575.01 5588.65 74.91 6.00  14.80 2534.93
   20:28:14.372.28-Jan-2021 4575.01 5587.12 74.91 6.00  15.00 2534.93
   20:28:14.572.28-Jan-2021 4575.01 5587.12 74.91 6.00  15.20 2534.93
   20:28:14.772.28-Jan-2021 4575.01 5587.41 74.91 6.00  15.40 2534.93
   20:28:14.972.28-Jan-2021 4575.01 5589.93 74.91 6.00  15.60 2534.93
   20:28:15.172.28-Jan-2021 4575.01 5588.05 74.91 6.00  15.80 2534.93
   20:28:15.372.28-Jan-2021 4575.01 5589.77 74.91 6.00  16.00 2534.93
   20:28:15.572.28-Jan-2021 4575.01 5589.77 74.91 6.00  16.20 2534.93
   20:28:15.772.28-Jan-2021 4575.01 5591.17 74.91 6.00  16.40 2534.93
   20:28:15.972.28-Jan-2021 4575.01 5587.44 74.91 6.00  16.60 2534.93
   20:28:16.172.28-Jan-2021 4575.01 5624.67 74.91 6.00  16.80 2534.93
   20:28:16.372.28-Jan-2021 4575.01 5677.87 74.91 6.00  17.00 2534.93
   20:28:16.572.28-Jan-2021 4575.01 5677.87 74.91 6.00  17.20 2534.93
   20:28:16.772.28-Jan-2021 4575.01 5746.16 74.90 6.00  17.40 2534.93
   20:28:16.972.28-Jan-2021 4575.01 5789.58 74.90 6.00  17.60 2534.93
   20:28:17.172.28-Jan-2021 4575.01 5840.25 74.90 6.00  17.80 2534.93
   20:28:17.372.28-Jan-2021 4575.01 5894.66 74.90 6.00  18.00 2534.93
   20:28:17.572.28-Jan-2021 4575.01 5894.66 74.90 6.00  18.20 2534.93
   20:28:17.772.28-Jan-2021 4575.01 6005.93 74.90 6.00  18.40 2534.93
   20:28:17.973.28-Jan-2021 4575.01 6059.36 74.90 6.00  18.60 2534.93
   20:28:18.173.28-Jan-2021 4575.01 6118.76 74.90 6.00  18.80 2534.93
   20:28:18.373.28-Jan-2021 4575.01 6115.04 74.90 6.00  19.00 2534.93
   20:28:18.573.28-Jan-2021 4575.01 6115.04 74.90 6.00  19.20 2534.93
   20:28:18.773.28-Jan-2021 4575.01 6158.60 74.90 6.00  19.40 2534.93
   20:28:18.973.28-Jan-2021 4575.01 5744.19 74.90 6.00  19.60 2534.93
   20:28:19.173.28-Jan-2021 4575.01 5794.08 74.90 6.00  19.80 2534.93
   20:28:19.373.28-Jan-2021 4575.01 5842.16 74.90 6.00  20.00 2534.93
   20:28:19.573.28-Jan-2021 4575.01 5842.16 74.90 6.00  20.20 2534.93
   20:28:19.773.28-Jan-2021 4575.01 5927.46 74.90 6.00  20.40 2534.93
   20:28:19.973.28-Jan-2021 4575.01 5962.13 74.90 6.00  20.60 2534.93
   20:28:20.173.28-Jan-2021 4575.01 6010.16 74.90 6.00  20.80 2534.93
   20:28:20.373.28-Jan-2021 4575.01 6021.69 74.89 6.00  21.00 2534.93
   20:28:20.573.28-Jan-2021 4575.01 6021.69 74.89 6.00  21.20 2534.93
   20:28:20.773.28-Jan-2021 4575.01 6002.54 74.89 6.00  21.40 2534.93
   20:28:20.973.28-Jan-2021 4575.01 5779.31 74.89 6.00  21.60 2534.93
   20:28:21.173.28-Jan-2021 4575.01 5801.79 74.89 6.00  21.80 2534.93
   20:28:21.373.28-Jan-2021 4575.01 5815.68 74.89 6.00  22.00 2534.93
   20:28:21.573.28-Jan-2021 4575.01 5815.68 74.89 6.00  22.20 2534.93
   20:28:21.773.28-Jan-2021 4575.01 5832.01 74.89 6.00  22.40 2534.93
   20:28:21.973.28-Jan-2021 4575.01 5833.35 74.89 6.00  22.60 2534.93
   20:28:22.173.28-Jan-2021 4575.01 5836.36 74.89 6.00  22.80 2534.93
