~Version Information
 VERS.                  2.0:   CWLS log ASCII Standard -VERSION 2.0
 WRAP.                   NO:   One line per depth step
~Well Information Block
#MNEM.UNIT     VALUE/NAME     DESCRIPTION
#---------     -----------    ---------------------------
 STRT.S             00:06:31 30-Jan-21: START TIME 00:06:31 30-Jan-21
 STOP.S             00:13:00 30-Jan-21: STOP TIME  00:13:00 30-Jan-21
 STEP.S                   0.00: STEP TIME
 NULL.                 -999.25: NULL VALUE
 DFWT.                        :  DIST FWL TEXT
 DFST.                        :  DIST FSL TEXT
 DMF .             Drill Floor:  DRILL MEAS FROM
 STIM.      00.00.00 25-Sep-20:  START TIME
 DATE.      16.12.48 31-Jan-21:  END TIME
 SPUD.               20-Sep-20:  SPUD DATE
 NREF.                    Grid:  NORTH REFERENCE
 HPTY.       Minimum Curvature:  HOLE POS TYPE
 DMOD.             Drill Model:  DRILL MOD DESC
 SVYD.                  Survey:  SURVEY DESC
 ILTD.               Lithology:  INTERP LTH DESC
 FTOP.          Formation Tops:  FORM TOPS DESC
 RIG .              East Azeri:  RIG NAME
 PDAT.          Mean Sea Level:  PERMANENT DATUM
 FLD .                     ACG:  FIELD NAME
 SON .        AZ-XX-0906591820:  JOB NUMBER
 CTRY.              Azerbaijan:  COUNTRY NAME
 WELL.                     D37:  WELL NAME
 SRVC.     Turan Drilling & Engineering:  CONTRACTOR
 COMP.     BP Exploration (Caspian Sea) ltd.:  COMPANY
 WTYP.                Deviated:  WELL TYPE
 MDS .        Operator Entered:  MAG DATA SOURCE
 UWI .                     N/A:  UNIQUE WELL IDENTIFIER
 API .                     N/A:  API NUMBER
 BASE.              Azerbaijan:  LOGGING EQUIPMENT BASE LOCATION
 REGN.                   EESSA:  REGION
 PROV.                    Baku:  PROVINCE
 STAT.                    Baku:  STATE NAME
 MWDS.                    Baku:  MWD SHOP
 JOBN.        AZ-XX-0906591820:  JOB TICKET NUMB
 DOE .                     N/A:  DOE NUMBER
 DCON.         Sperry Drilling:  DIRECTNL CONTR
 UNIT.                     N/A:  LOGGING EQUIPMENT ID
 CNTY.                        :  COUNTY
 LOC .                        :  LOCATION
 LMF .             Drill Floor:  LOG MEASURED FROM
 TVDS.m                  43.60:  TVDSS CORRECTN
 LATI.deg                40.02:  LATITUDE
 LONG.deg                51.45:  LONGITUDE
 WHNS.m                  11.04:  WELL HEAD N/S
 WHEW.m                 -12.38:  WELL HEAD E/W
 UTMX.m              538763.98:  UTM X
 UTMY.m             4431880.20:  UTM Y
 DFWL.m                   0.00:  DISTANCE FWL
 DFSL.m                   0.00:  DISTANCE FSL
 SDEP.m                 300.00:  START DEPTH
 TDD .m                4900.01:  TOTAL DEPTH (DRILLER)
 VSDR.deg               185.64:  VERT SEC DIRECT
 GVFD.g                   1.00:  GRAVITY FIELD
 MFLD.nT              50301.00:  MAGNETIC FIELD
 MDIP.deg                59.46:  MAGNETIC DIP
 MDEC.deg                 6.43:  MAGNETIC DECL
 GRDC.deg                 0.29:  GRID CORRECTION
 AZTC.deg                 6.14:  AZM TOTAL CORR
 EPD .m                   0.00:  ELEVATION
 EGL .m                   0.00:  GROUND ELEVATION
 WDMS.m                 151.80:  WD ELEV
 APD .m                  43.60:  DEPTH ABOVE PD
 DEP .m                 571.69:  DEPTH
 AGAP.m                  43.60:  AIR GAP
 VSEW.m                 -12.38:  VERT SEC E/W
 VSNS.m                  11.04:  VERT SEC N/S
 EKB .m                  43.60:  KB ELEVATION
 EDF .m                  43.60:  DF ELEVATION
 TDL .m                 412.00:  TOTAL DEPTH (LOGGER)
 VSC .                       0:  VS TO CLOSURE
 MAGU.                 1849300:  MAGUTM CHECKSUM
~Parameter Information Block
#MNEM.UNIT       Value        Description
#---------     -----------    ---------------------------
 AV  .mps                 2.21:  Ann Velocity 
 AVMX.mps                 2.53:  Max Ann Veloc 
 AZIF.deg               144.83:  Azm, Final 
 BHAT.        Rotary Steerable:  BHA Type 
 BROT.°/30m              -0.52:  Build Rotating 
 BS  .in                  6.50:  Bit Size 
 BTPL.psig              209.00:  Bit Press Loss 
 CABU.                      No:  Customer Abuse 
 CGEO.        Ali Isfandiyarov:  Customer Geo 
 COMM.                     Új:  Run Comments 1 
 TCS .hr                 61.31:  Time Ciculation Ended 
 CV  .mps                 4.66:  Crit Velocity 
 CVMX.mps                 5.02:  Max Crit Veloc 
 DD1 .          Fariz Nahmatov:  Direct Drillr 1 
 DD2 .            Musa Ahmadov:  Direct Drillr 2 
 DDSV.               Geo-Pilot:  DD Service 
 DEFF.%                 100.00:  % Det Eff 
 DLRX.°/30m               1.44:  Dogleg Rot Max 
 DLSO.°/30m               0.83:  Dogleg Oriented 
 DLSX.°/30m               1.44:  Dogleg Str Max 
 DRET.      08.30.00 30-Jan-21:  Drill End Time 
 DRST.      21.15.00 27-Jan-21:  Drill Start Tim 
 DTIM.hr                 37.28:  Time Drilling 
 EDEP.m                4867.01:  End Depth 
 ENG1.          Rasim Hashimov:  Engineer 1 
 ENG2.         Almaz Almadatov:  Engineer 2 
 ENG3.        Tamerlan Ahmadov:  Engineer 3 
 ETIM.      22.41.04 31-Jan-21:  End Time 
 FLOI.gpm               400.00:  Flow In 
 FLON.gpm               300.00:  Flow In Min 
 FLOS.cptm                0.00:  Fluid Loss 
 FLOX.gpm               400.00:  Flow In Max 
 HFLO.                      No:  High Flow 
 HPRE.                      No:  High Pressure 
 HTEM.                      No:  High Temp 
 HYDO.m                   1.80:  Hydro Offset 
 IFIN.deg                65.63:  Inc, Final 
 IMAX.deg                66.77:  Inc Max 
 IMIN.deg                65.61:  Inc Min 
 IMND.m                4612.67:  Inc Min Depth 
 IMXD.m                4811.63:  Inc Max Depth 
 JARR.                      No:  Jarring 
 LETM.      08.30.00 30-Jan-21:  Log End Time 
 LOST.hr                     0:  Lost Rig Time 
 LSTM.      21.15.00 27-Jan-21:  Log Start Time 
 MDCL.ppm             41000.00:  Mud Chlorides 
 MDES.     Inversion Oil/Synthetic:  Mud Desc 
 DFD .sg                  1.40:  Mud Density 
 MDMN.sg                  1.40:  Dens Mud Min 
 MDMX.sg                  1.40:  Dens Mud Max 
 MOIL.                      53:  Run Mud Oil % 
 MOWR.                   66:34:  Run Mud OWR 
 MSND.                     0.2:  Run Mud Sand % 
 MSOL.                    17.9:  Run Mud Solids% 
 DFV .spqt               77.00:  Mud Viscosity 
 MWOD.in                  4.75:  MWD Tool OD 
 MWSI.                      No:  Serv Intrp, MWD 
 OTIM.hr                110.38:  Time Operating 
 PCON.           Look Like New:  Pad Condition 
 PMAX.psia             5300.00:  Press Op, Max 
 PV  .cP                 57.00:  Mud PV 
 RUN .                    1200:  Run Number 
 ROPA.m/hr               13.00:  ROP Avg 
 ROPN.m/hr                9.00:  ROP Min 
 ROPX.m/hr               15.00:  ROP Max 
 RPMA.rpm               120.00:  RPM Surface Avg 
 RPMN.rpm               100.00:  RPM Surface Min 
 RPMX.rpm               135.00:  RPM Surface Max 
 RRUN.                    1200:  Rig Run Number 
 RTIM.hr                  2.65:  Time Reaming 
 SAZI.deg               145.04:  Azm, Start 
 SDEP.m                4455.01:  Start Depth 
 SIDD.                      No:  Serv Intrp, DD 
 SINC.deg                65.83:  Inc, Start 
 SPPA.psig             5037.00:  SPP Avg 
 SPPN.psig             4430.00:  SPP Min 
 SPPX.psig             5300.00:  SPP Max 
 STIM.      22.41.04 26-Jan-21:  Start Time 
 SVCS.                 DD, MWD:  Services 
 SVER.                    9.20:  Sperry Version 
 TDAT.m                 412.00:  Tot Depth Attmp 
 TDDF.                      No:  Trip for DD 
 TDLG.m                 412.00:  Tot Depth Loggd 
 TFF .                      No:  Trip for Fail 
 TQAA.f-kp               15.00:  Torque Abs Avg 
 TQAN.f-kp               12.00:  Torque Abs Min 
 TQAX.f-kp               17.00:  Torque Abs Max 
 TRRT.°/30m               1.18:  Turn Rotating 
 MRT .                     ADR:  Maximum Recorded Temperature 
 TTMX.degC               88.24:  Max Tool Temp 
 VS01.                90619458:  Virtual Str1 SN 
 VS02.                90519326:  Virtual Str2 SN 
 VS03.                90522176:  Virtual Str3 SN 
 VS04.                90512683:  Virtual Str4 SN 
 WBMN.klb                 1.00:  WOB Min 
 WITN.           Murad Giluyev:  Customer Rep 
 WITN.     Kamran Kemberlinski:  Customer Rep 2 
 WOBA.klb                 5.00:  WOB Avg 
 WOBX.klb                 9.00:  WOB Max 
 YP  .lhf2               41.00:  Yield Point 
~Curve Information Block
#MNEM.UNIT                 API CODE     Curve Description
#---------               -----------    ---------------------------
 TIME.HHMMSS            00 000 000 000:  GT Time & Date
 GTDEPTH.m              00 000 000 000:  GT Depth
 GTPQH.psia             00 000 000 000:  GT HR Quartz Pressure
 GTTQ.degC              00 000 000 000:  GT Quartz Temperature
 GTTN.NONE              00 000 000 000:  GT Test Number
 GTET.sec               00 000 000 000:  GT Elapsed Test Time
 GTTVD.m                00 000 000 000:  GT True Vertical Depth
#Other Information
#
#WARRANTY: Halliburton will use its best efforts to furnish customers with 
#accurate information and interpretations that are part of, and incident to, the services 
#provided.  However, Halliburton cannot and does not warrant the accuracy 
#or correctness of such information and interpretations.  Under no circumstances should any 
#such information or interpretation be relied upon as the sole basis for any drilling, 
#completion, production, or financial decision or any procedure involving any risk to the 
#safety of any drilling venture, drilling rig or its crew or any other third party.  The 
#Customer has full responsibility for all drilling, completion and production operation.  
#Halliburton makes no representations or warranties, either expressed or 
#implied, including, but not limited to, the implied warranties of merchantability or fitness 
#for a particular purpose, with respect to the services rendered.  In no event will 
#Halliburton be liable for failure to obtain any particular results or for 
#any damages, including, but not limited to, indirect, special or consequential damages, 
#resulting from the use of any information or interpretation provided by Halliburton.
#
~A           TIME           GTDEPTH  GTPQH  GTTQ  GTTN   GTET   GTTVD  
# ...
   00:08:02.100.30-Jan-2021 4782.01 3138.38 81.65 14.00  90.42 2618.40
   00:08:02.300.30-Jan-2021 4782.01 3138.42 81.65 14.00  90.62 2618.40
   00:08:02.500.30-Jan-2021 4782.01 3138.41 81.65 14.00  90.82 2618.40
   00:08:02.700.30-Jan-2021 4782.01 3138.40 81.64 14.00  91.02 2618.40
   00:08:02.900.30-Jan-2021 4782.01 3138.40 81.64 14.00  91.22 2618.40
   00:08:03.100.30-Jan-2021 4782.01 3138.40 81.64 14.00  91.42 2618.40
   00:08:03.300.30-Jan-2021 4782.01 3138.38 81.64 14.00  91.62 2618.40
   00:08:03.500.30-Jan-2021 4782.01 3138.35 81.64 14.00  91.82 2618.40
   00:08:03.700.30-Jan-2021 4782.01 3138.47 81.64 14.00  92.02 2618.40
   00:08:03.900.30-Jan-2021 4782.01 3138.47 81.64 14.00  92.22 2618.40
   00:08:04.100.30-Jan-2021 4782.01 3138.38 81.64 14.00  92.42 2618.40
   00:08:04.300.30-Jan-2021 4782.01 3138.38 81.64 14.00  92.62 2618.40
   00:08:04.500.30-Jan-2021 4782.01 3138.42 81.64 14.00  92.82 2618.40
   00:08:04.700.30-Jan-2021 4782.01 3138.39 81.64 14.00  93.02 2618.40
   00:08:04.900.30-Jan-2021 4782.01 3138.39 81.64 14.00  93.22 2618.40
   00:08:05.100.30-Jan-2021 4782.01 3138.39 81.64 14.00  93.42 2618.40
   00:08:05.300.30-Jan-2021 4782.01 3138.40 81.64 14.00  93.62 2618.40
   00:08:05.500.30-Jan-2021 4782.01 3138.40 81.64 14.00  93.82 2618.40
   00:08:05.700.30-Jan-2021 4782.01 3138.39 81.64 14.00  94.02 2618.40
   00:08:05.901.30-Jan-2021 4782.01 3138.39 81.64 14.00  94.22 2618.40
   00:08:06.101.30-Jan-2021 4782.01 3138.39 81.64 14.00  94.42 2618.40
   00:08:06.301.30-Jan-2021 4782.01 3138.40 81.64 14.00  94.62 2618.40
   00:08:06.501.30-Jan-2021 4782.01 3138.39 81.64 14.00  94.82 2618.40
   00:08:06.701.30-Jan-2021 4782.01 3138.40 81.64 14.00  95.02 2618.40
   00:08:06.901.30-Jan-2021 4782.01 3138.40 81.64 14.00  95.22 2618.40
   00:08:07.101.30-Jan-2021 4782.01 3138.32 81.64 14.00  95.42 2618.40
   00:08:07.301.30-Jan-2021 4782.01 3138.43 81.63 14.00  95.62 2618.40
   00:08:07.501.30-Jan-2021 4782.01 3138.39 81.63 14.00  95.82 2618.40
   00:08:07.701.30-Jan-2021 4782.01 3138.37 81.63 14.00  96.02 2618.40
   00:08:07.901.30-Jan-2021 4782.01 3138.37 81.63 14.00  96.22 2618.40
   00:08:08.101.30-Jan-2021 4782.01 3138.38 81.63 14.00  96.42 2618.40
   00:08:08.301.30-Jan-2021 4782.01 3138.39 81.63 14.00  96.62 2618.40
   00:08:08.501.30-Jan-2021 4782.01 3138.39 81.63 14.00  96.82 2618.40
   00:08:08.701.30-Jan-2021 4782.01 3138.37 81.63 14.00  97.02 2618.40
   00:08:08.901.30-Jan-2021 4782.01 3138.37 81.63 14.00  97.22 2618.40
   00:08:09.101.30-Jan-2021 4782.01 3138.38 81.63 14.00  97.42 2618.40
   00:08:09.301.30-Jan-2021 4782.01 3138.38 81.63 14.00  97.62 2618.40
   00:08:09.501.30-Jan-2021 4782.01 3138.37 81.63 14.00  97.82 2618.40
   00:08:09.701.30-Jan-2021 4782.01 3138.39 81.63 14.00  98.02 2618.40
   00:08:09.901.30-Jan-2021 4782.01 3138.39 81.63 14.00  98.22 2618.40
   00:08:10.101.30-Jan-2021 4782.01 3138.37 81.63 14.00  98.42 2618.40
   00:08:10.301.30-Jan-2021 4782.01 3138.30 81.63 14.00  98.62 2618.40
   00:08:10.501.30-Jan-2021 4782.01 3138.43 81.63 14.00  98.82 2618.40
   00:08:10.701.30-Jan-2021 4782.01 3138.38 81.63 14.00  99.02 2618.40
   00:08:10.901.30-Jan-2021 4782.01 3138.38 81.63 14.00  99.22 2618.40
   00:08:11.102.30-Jan-2021 4782.01 3138.33 81.63 14.00  99.42 2618.40
   00:08:11.302.30-Jan-2021 4782.01 3138.40 81.63 14.00  99.62 2618.40
   00:08:11.502.30-Jan-2021 4782.01 3138.36 81.62 14.00  99.82 2618.40
   00:08:11.702.30-Jan-2021 4782.01 3138.36 81.62 14.00 100.02 2618.40
   00:08:11.902.30-Jan-2021 4782.01 3138.36 81.62 14.00 100.22 2618.40
   00:08:12.102.30-Jan-2021 4782.01 3138.42 81.62 14.00 100.42 2618.40
   00:08:12.302.30-Jan-2021 4782.01 3138.37 81.62 14.00 100.62 2618.40
   00:08:12.502.30-Jan-2021 4782.01 3138.36 81.62 14.00 100.82 2618.40
   00:08:12.702.30-Jan-2021 4782.01 3138.33 81.62 14.00 101.02 2618.40
   00:08:12.902.30-Jan-2021 4782.01 3138.33 81.62 14.00 101.22 2618.40
   00:08:13.102.30-Jan-2021 4782.01 3138.36 81.62 14.00 101.42 2618.40
   00:08:13.302.30-Jan-2021 4782.01 3138.34 81.62 14.00 101.62 2618.40
   00:08:13.502.30-Jan-2021 4782.01 3138.35 81.62 14.00 101.82 2618.40
   00:08:13.702.30-Jan-2021 4782.01 3138.35 81.62 14.00 102.02 2618.40
   00:08:13.902.30-Jan-2021 4782.01 3138.35 81.62 14.00 102.22 2618.40
   00:08:14.102.30-Jan-2021 4782.01 3138.29 81.62 14.00 102.42 2618.40
   00:08:14.302.30-Jan-2021 4782.01 3138.42 81.62 14.00 102.62 2618.40
   00:08:14.502.30-Jan-2021 4782.01 3138.36 81.62 14.00 102.82 2618.40
   00:08:14.702.30-Jan-2021 4782.01 3138.34 81.62 14.00 103.02 2618.40
   00:08:14.902.30-Jan-2021 4782.01 3138.34 81.62 14.00 103.22 2618.40
   00:08:15.102.30-Jan-2021 4782.01 3138.35 81.62 14.00 103.42 2618.40
   00:08:15.302.30-Jan-2021 4782.01 3138.35 81.62 14.00 103.62 2618.40
   00:08:15.502.30-Jan-2021 4782.01 3138.35 81.62 14.00 103.82 2618.40
   00:08:15.702.30-Jan-2021 4782.01 3138.33 81.62 14.00 104.02 2618.40
   00:08:15.902.30-Jan-2021 4782.01 3138.33 81.62 14.00 104.22 2618.40
   00:08:16.102.30-Jan-2021 4782.01 3138.34 81.61 14.00 104.42 2618.40
   00:08:16.303.30-Jan-2021 4782.01 3138.34 81.61 14.00 104.62 2618.40
   00:08:16.503.30-Jan-2021 4782.01 3138.34 81.61 14.00 104.82 2618.40
   00:08:16.703.30-Jan-2021 4782.01 3138.34 81.61 14.00 105.02 2618.40
   00:08:16.903.30-Jan-2021 4782.01 3138.34 81.61 14.00 105.22 2618.40
   00:08:17.103.30-Jan-2021 4782.01 3138.34 81.61 14.00 105.42 2618.40
   00:08:17.303.30-Jan-2021 4782.01 3138.34 81.61 14.00 105.62 2618.40
   00:08:17.503.30-Jan-2021 4782.01 3138.33 81.61 14.00 105.82 2618.40
   00:08:17.703.30-Jan-2021 4782.01 3138.27 81.61 14.00 106.02 2618.40
   00:08:17.903.30-Jan-2021 4782.01 3138.27 81.61 14.00 106.22 2618.40
   00:08:18.103.30-Jan-2021 4782.01 3138.35 81.61 14.00 106.42 2618.40
   00:08:18.303.30-Jan-2021 4782.01 3138.32 81.61 14.00 106.62 2618.40
   00:08:18.503.30-Jan-2021 4782.01 3138.31 81.61 14.00 106.82 2618.40
   00:08:18.703.30-Jan-2021 4782.01 3138.35 81.61 14.00 107.02 2618.40
   00:08:18.903.30-Jan-2021 4782.01 3138.35 81.61 14.00 107.22 2618.40
   00:08:19.103.30-Jan-2021 4782.01 3138.34 81.61 14.00 107.42 2618.40
   00:08:19.303.30-Jan-2021 4782.01 3138.32 81.61 14.00 107.62 2618.40
   00:08:19.503.30-Jan-2021 4782.01 3138.32 81.61 14.00 107.82 2618.40
   00:08:19.703.30-Jan-2021 4782.01 3138.33 81.61 14.00 108.02 2618.40
   00:08:19.903.30-Jan-2021 4782.01 3138.33 81.61 14.00 108.22 2618.40
   00:08:20.103.30-Jan-2021 4782.01 3138.32 81.61 14.00 108.42 2618.40
   00:08:20.303.30-Jan-2021 4782.01 3138.34 81.60 14.00 108.62 2618.40
   00:08:20.503.30-Jan-2021 4782.01 3138.32 81.60 14.00 108.82 2618.40
   00:08:20.703.30-Jan-2021 4782.01 3138.32 81.60 14.00 109.02 2618.40
   00:08:20.903.30-Jan-2021 4782.01 3138.32 81.60 14.00 109.22 2618.40
   00:08:21.103.30-Jan-2021 4782.01 3138.38 81.60 14.00 109.42 2618.40
   00:08:21.303.30-Jan-2021 4782.01 3138.33 81.60 14.00 109.62 2618.40
   00:08:21.504.30-Jan-2021 4782.01 3138.31 81.60 14.00 109.82 2618.40
   00:08:21.704.30-Jan-2021 4782.01 3138.27 81.60 14.00 110.02 2618.40
   00:08:21.904.30-Jan-2021 4782.01 3138.27 81.60 14.00 110.22 2618.40
   00:08:22.104.30-Jan-2021 4782.01 3138.30 81.60 14.00 110.42 2618.40
   00:08:22.304.30-Jan-2021 4782.01 3138.31 81.60 14.00 110.62 2618.40
   00:08:22.504.30-Jan-2021 4782.01 3138.23 81.60 14.00 110.82 2618.40
   00:08:22.704.30-Jan-2021 4782.01 3138.35 81.60 14.00 111.02 2618.40
   00:08:22.904.30-Jan-2021 4782.01 3138.35 81.60 14.00 111.22 2618.40
   00:08:23.104.30-Jan-2021 4782.01 3138.30 81.60 14.00 111.42 2618.40
   00:08:23.304.30-Jan-2021 4782.01 3138.28 81.60 14.00 111.62 2618.40
   00:08:23.504.30-Jan-2021 4782.01 3138.30 81.60 14.00 111.82 2618.40
   00:08:23.704.30-Jan-2021 4782.01 3138.31 81.60 14.00 112.02 2618.40
   00:08:23.904.30-Jan-2021 4782.01 3138.31 81.60 14.00 112.22 2618.40
   00:08:24.104.30-Jan-2021 4782.01 3138.30 81.60 14.00 112.42 2618.40
   00:08:24.304.30-Jan-2021 4782.01 3138.29 81.60 14.00 112.62 2618.40
   00:08:24.504.30-Jan-2021 4782.01 3138.28 81.60 14.00 112.82 2618.40
