~Version Information
 VERS.                  2.0:   CWLS log ASCII Standard -VERSION 2.0
 WRAP.                   NO:   One line per depth step
~Well Information Block
#MNEM.UNIT     VALUE/NAME     DESCRIPTION
#---------     -----------    ---------------------------
 STRT.S             18:28:03 29-Jan-21: START TIME 18:28:03 29-Jan-21
 STOP.S             18:34:33 29-Jan-21: STOP TIME  18:34:33 29-Jan-21
 STEP.S                   0.00: STEP TIME
 NULL.                 -999.25: NULL VALUE
 DFWT.                        :  DIST FWL TEXT
 DFST.                        :  DIST FSL TEXT
 DMF .             Drill Floor:  DRILL MEAS FROM
 STIM.      00.00.00 25-Sep-20:  START TIME
 DATE.      16.12.48 31-Jan-21:  END TIME
 SPUD.               20-Sep-20:  SPUD DATE
 NREF.                    Grid:  NORTH REFERENCE
 HPTY.       Minimum Curvature:  HOLE POS TYPE
 DMOD.             Drill Model:  DRILL MOD DESC
 SVYD.                  Survey:  SURVEY DESC
 ILTD.               Lithology:  INTERP LTH DESC
 FTOP.          Formation Tops:  FORM TOPS DESC
 RIG .              East Azeri:  RIG NAME
 PDAT.          Mean Sea Level:  PERMANENT DATUM
 FLD .                     ACG:  FIELD NAME
 SON .        AZ-XX-0906591820:  JOB NUMBER
 CTRY.              Azerbaijan:  COUNTRY NAME
 WELL.                     D37:  WELL NAME
 SRVC.     Turan Drilling & Engineering:  CONTRACTOR
 COMP.     BP Exploration (Caspian Sea) ltd.:  COMPANY
 WTYP.                Deviated:  WELL TYPE
 MDS .        Operator Entered:  MAG DATA SOURCE
 UWI .                     N/A:  UNIQUE WELL IDENTIFIER
 API .                     N/A:  API NUMBER
 BASE.              Azerbaijan:  LOGGING EQUIPMENT BASE LOCATION
 REGN.                   EESSA:  REGION
 PROV.                    Baku:  PROVINCE
 STAT.                    Baku:  STATE NAME
 MWDS.                    Baku:  MWD SHOP
 JOBN.        AZ-XX-0906591820:  JOB TICKET NUMB
 DOE .                     N/A:  DOE NUMBER
 DCON.         Sperry Drilling:  DIRECTNL CONTR
 UNIT.                     N/A:  LOGGING EQUIPMENT ID
 CNTY.                        :  COUNTY
 LOC .                        :  LOCATION
 LMF .             Drill Floor:  LOG MEASURED FROM
 TVDS.m                  43.60:  TVDSS CORRECTN
 LATI.deg                40.02:  LATITUDE
 LONG.deg                51.45:  LONGITUDE
 WHNS.m                  11.04:  WELL HEAD N/S
 WHEW.m                 -12.38:  WELL HEAD E/W
 UTMX.m              538763.98:  UTM X
 UTMY.m             4431880.20:  UTM Y
 DFWL.m                   0.00:  DISTANCE FWL
 DFSL.m                   0.00:  DISTANCE FSL
 SDEP.m                 300.00:  START DEPTH
 TDD .m                4900.01:  TOTAL DEPTH (DRILLER)
 VSDR.deg               185.64:  VERT SEC DIRECT
 GVFD.g                   1.00:  GRAVITY FIELD
 MFLD.nT              50301.00:  MAGNETIC FIELD
 MDIP.deg                59.46:  MAGNETIC DIP
 MDEC.deg                 6.43:  MAGNETIC DECL
 GRDC.deg                 0.29:  GRID CORRECTION
 AZTC.deg                 6.14:  AZM TOTAL CORR
 EPD .m                   0.00:  ELEVATION
 EGL .m                   0.00:  GROUND ELEVATION
 WDMS.m                 151.80:  WD ELEV
 APD .m                  43.60:  DEPTH ABOVE PD
 DEP .m                 571.69:  DEPTH
 AGAP.m                  43.60:  AIR GAP
 VSEW.m                 -12.38:  VERT SEC E/W
 VSNS.m                  11.04:  VERT SEC N/S
 EKB .m                  43.60:  KB ELEVATION
 EDF .m                  43.60:  DF ELEVATION
 TDL .m                 412.00:  TOTAL DEPTH (LOGGER)
 VSC .                       0:  VS TO CLOSURE
 MAGU.                 1849300:  MAGUTM CHECKSUM
~Parameter Information Block
#MNEM.UNIT       Value        Description
#---------     -----------    ---------------------------
 AV  .mps                 2.21:  Ann Velocity 
 AVMX.mps                 2.53:  Max Ann Veloc 
 AZIF.deg               144.83:  Azm, Final 
 BHAT.        Rotary Steerable:  BHA Type 
 BROT.°/30m              -0.52:  Build Rotating 
 BS  .in                  6.50:  Bit Size 
 BTPL.psig              209.00:  Bit Press Loss 
 CABU.                      No:  Customer Abuse 
 CGEO.        Ali Isfandiyarov:  Customer Geo 
 COMM.                     tðz:  Run Comments 1 
 TCS .hr                 61.31:  Time Ciculation Ended 
 CV  .mps                 4.66:  Crit Velocity 
 CVMX.mps                 5.02:  Max Crit Veloc 
 DD1 .          Fariz Nahmatov:  Direct Drillr 1 
 DD2 .            Musa Ahmadov:  Direct Drillr 2 
 DDSV.               Geo-Pilot:  DD Service 
 DEFF.%                 100.00:  % Det Eff 
 DLRX.°/30m               1.44:  Dogleg Rot Max 
 DLSO.°/30m               0.83:  Dogleg Oriented 
 DLSX.°/30m               1.44:  Dogleg Str Max 
 DRET.      08.30.00 30-Jan-21:  Drill End Time 
 DRST.      21.15.00 27-Jan-21:  Drill Start Tim 
 DTIM.hr                 37.28:  Time Drilling 
 EDEP.m                4867.01:  End Depth 
 ENG1.          Rasim Hashimov:  Engineer 1 
 ENG2.         Almaz Almadatov:  Engineer 2 
 ENG3.        Tamerlan Ahmadov:  Engineer 3 
 ETIM.      22.41.04 31-Jan-21:  End Time 
 FLOI.gpm               400.00:  Flow In 
 FLON.gpm               300.00:  Flow In Min 
 FLOS.cptm                0.00:  Fluid Loss 
 FLOX.gpm               400.00:  Flow In Max 
 HFLO.                      No:  High Flow 
 HPRE.                      No:  High Pressure 
 HTEM.                      No:  High Temp 
 HYDO.m                   1.80:  Hydro Offset 
 IFIN.deg                65.63:  Inc, Final 
 IMAX.deg                66.77:  Inc Max 
 IMIN.deg                65.61:  Inc Min 
 IMND.m                4612.67:  Inc Min Depth 
 IMXD.m                4811.63:  Inc Max Depth 
 JARR.                      No:  Jarring 
 LETM.      08.30.00 30-Jan-21:  Log End Time 
 LOST.hr                     0:  Lost Rig Time 
 LSTM.      21.15.00 27-Jan-21:  Log Start Time 
 MDCL.ppm             41000.00:  Mud Chlorides 
 MDES.     Inversion Oil/Synthetic:  Mud Desc 
 DFD .sg                  1.40:  Mud Density 
 MDMN.sg                  1.40:  Dens Mud Min 
 MDMX.sg                  1.40:  Dens Mud Max 
 MOIL.                      53:  Run Mud Oil % 
 MOWR.                   66:34:  Run Mud OWR 
 MSND.                     0.2:  Run Mud Sand % 
 MSOL.                    17.9:  Run Mud Solids% 
 DFV .spqt               77.00:  Mud Viscosity 
 MWOD.in                  4.75:  MWD Tool OD 
 MWSI.                      No:  Serv Intrp, MWD 
 OTIM.hr                110.38:  Time Operating 
 PCON.           Look Like New:  Pad Condition 
 PMAX.psia             5300.00:  Press Op, Max 
 PV  .cP                 57.00:  Mud PV 
 RUN .                    1200:  Run Number 
 ROPA.m/hr               13.00:  ROP Avg 
 ROPN.m/hr                9.00:  ROP Min 
 ROPX.m/hr               15.00:  ROP Max 
 RPMA.rpm               120.00:  RPM Surface Avg 
 RPMN.rpm               100.00:  RPM Surface Min 
 RPMX.rpm               135.00:  RPM Surface Max 
 RRUN.                    1200:  Rig Run Number 
 RTIM.hr                  2.65:  Time Reaming 
 SAZI.deg               145.04:  Azm, Start 
 SDEP.m                4455.01:  Start Depth 
 SIDD.                      No:  Serv Intrp, DD 
 SINC.deg                65.83:  Inc, Start 
 SPPA.psig             5037.00:  SPP Avg 
 SPPN.psig             4430.00:  SPP Min 
 SPPX.psig             5300.00:  SPP Max 
 STIM.      22.41.04 26-Jan-21:  Start Time 
 SVCS.                 DD, MWD:  Services 
 SVER.                    9.20:  Sperry Version 
 TDAT.m                 412.00:  Tot Depth Attmp 
 TDDF.                      No:  Trip for DD 
 TDLG.m                 412.00:  Tot Depth Loggd 
 TFF .                      No:  Trip for Fail 
 TQAA.f-kp               15.00:  Torque Abs Avg 
 TQAN.f-kp               12.00:  Torque Abs Min 
 TQAX.f-kp               17.00:  Torque Abs Max 
 TRRT.°/30m               1.18:  Turn Rotating 
 MRT .                     ADR:  Maximum Recorded Temperature 
 TTMX.degC               88.24:  Max Tool Temp 
 VS01.                90619458:  Virtual Str1 SN 
 VS02.                90519326:  Virtual Str2 SN 
 VS03.                90522176:  Virtual Str3 SN 
 VS04.                90512683:  Virtual Str4 SN 
 WBMN.klb                 1.00:  WOB Min 
 WITN.           Murad Giluyev:  Customer Rep 
 WITN.     Kamran Kemberlinski:  Customer Rep 2 
 WOBA.klb                 5.00:  WOB Avg 
 WOBX.klb                 9.00:  WOB Max 
 YP  .lhf2               41.00:  Yield Point 
~Curve Information Block
#MNEM.UNIT                 API CODE     Curve Description
#---------               -----------    ---------------------------
 TIME.HHMMSS            00 000 000 000:  GT Time & Date
 GTDEPTH.m              00 000 000 000:  GT Depth
 GTPQH.psia             00 000 000 000:  GT HR Quartz Pressure
 GTTQ.degC              00 000 000 000:  GT Quartz Temperature
 GTTN.NONE              00 000 000 000:  GT Test Number
 GTET.sec               00 000 000 000:  GT Elapsed Test Time
 GTTVD.m                00 000 000 000:  GT True Vertical Depth
#Other Information
#
#WARRANTY: Halliburton will use its best efforts to furnish customers with 
#accurate information and interpretations that are part of, and incident to, the services 
#provided.  However, Halliburton cannot and does not warrant the accuracy 
#or correctness of such information and interpretations.  Under no circumstances should any 
#such information or interpretation be relied upon as the sole basis for any drilling, 
#completion, production, or financial decision or any procedure involving any risk to the 
#safety of any drilling venture, drilling rig or its crew or any other third party.  The 
#Customer has full responsibility for all drilling, completion and production operation.  
#Halliburton makes no representations or warranties, either expressed or 
#implied, including, but not limited to, the implied warranties of merchantability or fitness 
#for a particular purpose, with respect to the services rendered.  In no event will 
#Halliburton be liable for failure to obtain any particular results or for 
#any damages, including, but not limited to, indirect, special or consequential damages, 
#resulting from the use of any information or interpretation provided by Halliburton.
#
~A           TIME           GTDEPTH  GTPQH  GTTQ  GTTN   GTET   GTTVD  
# ...
   18:32:12.263.29-Jan-2021 4752.01 3111.35 82.51 12.00 248.63 2606.49
   18:32:12.463.29-Jan-2021 4752.01 3111.28 82.50 12.00 248.83 2606.49
   18:32:12.663.29-Jan-2021 4752.01 3111.42 82.50 12.00 249.03 2606.49
   18:32:12.863.29-Jan-2021 4752.01 3111.42 82.50 12.00 249.23 2606.49
   18:32:13.063.29-Jan-2021 4752.01 3111.43 82.50 12.00 249.43 2606.49
   18:32:13.263.29-Jan-2021 4752.01 3111.40 82.50 12.00 249.63 2606.49
   18:32:13.463.29-Jan-2021 4752.01 3111.47 82.50 12.00 249.83 2606.49
   18:32:13.663.29-Jan-2021 4752.01 3111.33 82.50 12.00 250.03 2606.49
   18:32:13.863.29-Jan-2021 4752.01 3111.33 82.50 12.00 250.23 2606.49
   18:32:14.063.29-Jan-2021 4752.01 3125.10 82.50 12.00 250.43 2606.49
   18:32:14.263.29-Jan-2021 4752.01 3125.15 82.50 12.00 250.63 2606.49
   18:32:14.463.29-Jan-2021 4752.01 3125.15 82.50 12.00 250.83 2606.49
   18:32:14.663.29-Jan-2021 4752.01 3125.18 82.50 12.00 251.03 2606.49
   18:32:14.863.29-Jan-2021 4752.01 3125.18 82.50 12.00 251.23 2606.49
   18:32:15.063.29-Jan-2021 4752.01 3125.20 82.50 12.00 251.43 2606.49
   18:32:15.263.29-Jan-2021 4752.01 3125.19 82.50 12.00 251.63 2606.49
   18:32:15.463.29-Jan-2021 4752.01 3125.20 82.50 12.00 251.83 2606.49
   18:32:15.663.29-Jan-2021 4752.01 3125.21 82.49 12.00 252.03 2606.49
   18:32:15.863.29-Jan-2021 4752.01 3125.21 82.49 12.00 252.23 2606.49
   18:32:16.063.29-Jan-2021 4752.01 3125.22 82.49 12.00 252.43 2606.49
   18:32:16.263.29-Jan-2021 4752.01 3125.22 82.49 12.00 252.63 2606.49
   18:32:16.463.29-Jan-2021 4752.01 3125.23 82.49 12.00 252.83 2606.49
   18:32:16.663.29-Jan-2021 4752.01 3125.23 82.49 12.00 253.03 2606.49
   18:32:16.863.29-Jan-2021 4752.01 3125.23 82.49 12.00 253.23 2606.49
   18:32:17.063.29-Jan-2021 4752.01 3125.25 82.49 12.00 253.43 2606.49
   18:32:17.263.29-Jan-2021 4752.01 3125.25 82.49 12.00 253.63 2606.49
   18:32:17.463.29-Jan-2021 4752.01 3125.26 82.49 12.00 253.83 2606.49
   18:32:17.663.29-Jan-2021 4752.01 3125.23 82.49 12.00 254.03 2606.49
   18:32:17.863.29-Jan-2021 4752.01 3125.23 82.49 12.00 254.23 2606.49
   18:32:18.063.29-Jan-2021 4752.01 3125.28 82.49 12.00 254.43 2606.49
   18:32:18.263.29-Jan-2021 4752.01 3125.27 82.49 12.00 254.63 2606.49
   18:32:18.463.29-Jan-2021 4752.01 3125.24 82.49 12.00 254.83 2606.49
   18:32:18.663.29-Jan-2021 4752.01 3125.25 82.48 12.00 255.03 2606.49
   18:32:18.864.29-Jan-2021 4752.01 3125.25 82.48 12.00 255.23 2606.49
   18:32:19.064.29-Jan-2021 4752.01 3125.28 82.48 12.00 255.43 2606.49
   18:32:19.264.29-Jan-2021 4752.01 3125.25 82.48 12.00 255.63 2606.49
   18:32:19.464.29-Jan-2021 4752.01 3125.24 82.48 12.00 255.83 2606.49
   18:32:19.664.29-Jan-2021 4752.01 3125.24 82.48 12.00 256.03 2606.49
   18:32:19.864.29-Jan-2021 4752.01 3125.24 82.48 12.00 256.23 2606.49
   18:32:20.064.29-Jan-2021 4752.01 3125.26 82.48 12.00 256.43 2606.49
   18:32:20.264.29-Jan-2021 4752.01 3125.25 82.48 12.00 256.63 2606.49
   18:32:20.464.29-Jan-2021 4752.01 3125.25 82.48 12.00 256.83 2606.49
   18:32:20.664.29-Jan-2021 4752.01 3125.25 82.48 12.00 257.03 2606.49
   18:32:20.864.29-Jan-2021 4752.01 3125.25 82.48 12.00 257.23 2606.49
   18:32:21.064.29-Jan-2021 4752.01 3125.23 82.48 12.00 257.43 2606.49
   18:32:21.264.29-Jan-2021 4752.01 3125.27 82.48 12.00 257.63 2606.49
   18:32:21.464.29-Jan-2021 4752.01 3125.25 82.48 12.00 257.83 2606.49
   18:32:21.664.29-Jan-2021 4752.01 3125.25 82.47 12.00 258.03 2606.49
   18:32:21.864.29-Jan-2021 4752.01 3125.25 82.47 12.00 258.23 2606.49
   18:32:22.064.29-Jan-2021 4752.01 3125.24 82.47 12.00 258.43 2606.49
   18:32:22.264.29-Jan-2021 4752.01 3125.24 82.47 12.00 258.63 2606.49
   18:32:22.464.29-Jan-2021 4752.01 3125.24 82.47 12.00 258.83 2606.49
   18:32:22.664.29-Jan-2021 4752.01 3125.24 82.47 12.00 259.03 2606.49
   18:32:22.864.29-Jan-2021 4752.01 3125.24 82.47 12.00 259.23 2606.49
   18:32:23.064.29-Jan-2021 4752.01 3125.24 82.47 12.00 259.43 2606.49
   18:32:23.264.29-Jan-2021 4752.01 3125.24 82.47 12.00 259.63 2606.49
   18:32:23.464.29-Jan-2021 4752.01 3125.23 82.47 12.00 259.83 2606.49
   18:32:23.664.29-Jan-2021 4752.01 3125.25 82.47 12.00 260.03 2606.49
   18:32:23.864.29-Jan-2021 4752.01 3125.25 82.47 12.00 260.23 2606.49
   18:32:24.064.29-Jan-2021 4752.01 3125.24 82.47 12.00 260.43 2606.49
   18:32:24.264.29-Jan-2021 4752.01 3125.24 82.47 12.00 260.63 2606.49
   18:32:24.464.29-Jan-2021 4752.01 3125.23 82.47 12.00 260.83 2606.49
   18:32:24.664.29-Jan-2021 4752.01 3125.23 82.46 12.00 261.03 2606.49
   18:32:24.864.29-Jan-2021 4752.01 3125.23 82.46 12.00 261.23 2606.49
   18:32:25.064.29-Jan-2021 4752.01 3125.25 82.46 12.00 261.43 2606.49
   18:32:25.264.29-Jan-2021 4752.01 3125.25 82.46 12.00 261.63 2606.49
   18:32:25.464.29-Jan-2021 4752.01 3125.25 82.46 12.00 261.83 2606.49
   18:32:25.664.29-Jan-2021 4752.01 3125.24 82.46 12.00 262.03 2606.49
   18:32:25.864.29-Jan-2021 4752.01 3125.24 82.46 12.00 262.23 2606.49
   18:32:26.064.29-Jan-2021 4752.01 3125.23 82.46 12.00 262.43 2606.49
   18:32:26.264.29-Jan-2021 4752.01 3125.24 82.46 12.00 262.63 2606.49
   18:32:26.464.29-Jan-2021 4752.01 3125.23 82.46 12.00 262.83 2606.49
   18:32:26.664.29-Jan-2021 4752.01 3125.24 82.46 12.00 263.03 2606.49
   18:32:26.864.29-Jan-2021 4752.01 3125.24 82.46 12.00 263.23 2606.49
   18:32:27.064.29-Jan-2021 4752.01 3125.24 82.46 12.00 263.43 2606.49
   18:32:27.265.29-Jan-2021 4752.01 3125.23 82.46 12.00 263.63 2606.49
   18:32:27.465.29-Jan-2021 4752.01 3125.23 82.46 12.00 263.83 2606.49
   18:32:27.665.29-Jan-2021 4752.01 3125.24 82.46 12.00 264.03 2606.49
   18:32:27.865.29-Jan-2021 4752.01 3125.24 82.46 12.00 264.23 2606.49
   18:32:28.065.29-Jan-2021 4752.01 3125.27 82.45 12.00 264.43 2606.49
   18:32:28.265.29-Jan-2021 4752.01 3125.25 82.45 12.00 264.63 2606.49
   18:32:28.465.29-Jan-2021 4752.01 3125.24 82.45 12.00 264.83 2606.49
   18:32:28.665.29-Jan-2021 4752.01 3125.19 82.45 12.00 265.03 2606.49
   18:32:28.865.29-Jan-2021 4752.01 3125.19 82.45 12.00 265.23 2606.49
   18:32:29.065.29-Jan-2021 4752.01 3125.26 82.45 12.00 265.43 2606.49
   18:32:29.265.29-Jan-2021 4752.01 3125.25 82.45 12.00 265.63 2606.49
   18:32:29.465.29-Jan-2021 4752.01 3125.22 82.45 12.00 265.83 2606.49
   18:32:29.665.29-Jan-2021 4752.01 3125.25 82.45 12.00 266.03 2606.49
   18:32:29.865.29-Jan-2021 4752.01 3125.25 82.45 12.00 266.23 2606.49
   18:32:30.065.29-Jan-2021 4752.01 3125.25 82.45 12.00 266.43 2606.49
   18:32:30.265.29-Jan-2021 4752.01 3125.22 82.45 12.00 266.63 2606.49
   18:32:30.465.29-Jan-2021 4752.01 3125.26 82.45 12.00 266.83 2606.49
   18:32:30.665.29-Jan-2021 4752.01 3125.23 82.45 12.00 267.03 2606.49
   18:32:30.865.29-Jan-2021 4752.01 3125.23 82.45 12.00 267.23 2606.49
   18:32:31.065.29-Jan-2021 4752.01 3125.24 82.44 12.00 267.43 2606.49
   18:32:31.265.29-Jan-2021 4752.01 3125.24 82.44 12.00 267.63 2606.49
   18:32:31.465.29-Jan-2021 4752.01 3125.23 82.44 12.00 267.83 2606.49
   18:32:31.665.29-Jan-2021 4752.01 3125.28 82.44 12.00 268.03 2606.49
   18:32:31.865.29-Jan-2021 4752.01 3125.28 82.44 12.00 268.23 2606.49
   18:32:32.065.29-Jan-2021 4752.01 3125.23 82.44 12.00 268.43 2606.49
   18:32:32.265.29-Jan-2021 4752.01 3125.25 82.44 12.00 268.63 2606.49
   18:32:32.465.29-Jan-2021 4752.01 3125.23 82.44 12.00 268.83 2606.49
   18:32:32.665.29-Jan-2021 4752.01 3125.25 82.44 12.00 269.03 2606.49
   18:32:32.865.29-Jan-2021 4752.01 3125.25 82.44 12.00 269.23 2606.49
   18:32:33.065.29-Jan-2021 4752.01 3125.22 82.44 12.00 269.43 2606.49
   18:32:33.265.29-Jan-2021 4752.01 3125.23 82.44 12.00 269.63 2606.49
   18:32:33.465.29-Jan-2021 4752.01 3125.23 82.44 12.00 269.83 2606.49
   18:32:33.665.29-Jan-2021 4752.01 3125.22 82.44 12.00 270.03 2606.49
   18:32:33.865.29-Jan-2021 4752.01 3125.22 82.44 12.00 270.23 2606.49
   18:32:34.065.29-Jan-2021 4752.01 3125.23 82.43 12.00 270.43 2606.49
   18:32:34.265.29-Jan-2021 4752.01 3125.22 82.43 12.00 270.63 2606.49
   18:32:34.465.29-Jan-2021 4752.01 3125.22 82.43 12.00 270.83 2606.49
   18:32:34.665.29-Jan-2021 4752.01 3125.22 82.43 12.00 271.03 2606.49
