~Version Information
 VERS.                  2.0:   CWLS log ASCII Standard -VERSION 2.0
 WRAP.                   NO:   One line per depth step
~Well Information Block
#MNEM.UNIT     VALUE/NAME     DESCRIPTION
#---------     -----------    ---------------------------
 STRT.S             13:18:38 29-Jan-21: START TIME 13:18:38 29-Jan-21
 STOP.S             13:25:08 29-Jan-21: STOP TIME  13:25:08 29-Jan-21
 STEP.S                   0.00: STEP TIME
 NULL.                 -999.25: NULL VALUE
 DFWT.                        :  DIST FWL TEXT
 DFST.                        :  DIST FSL TEXT
 DMF .             Drill Floor:  DRILL MEAS FROM
 STIM.      00.00.00 25-Sep-20:  START TIME
 DATE.      16.12.48 31-Jan-21:  END TIME
 SPUD.               20-Sep-20:  SPUD DATE
 NREF.                    Grid:  NORTH REFERENCE
 HPTY.       Minimum Curvature:  HOLE POS TYPE
 DMOD.             Drill Model:  DRILL MOD DESC
 SVYD.                  Survey:  SURVEY DESC
 ILTD.               Lithology:  INTERP LTH DESC
 FTOP.          Formation Tops:  FORM TOPS DESC
 RIG .              East Azeri:  RIG NAME
 PDAT.          Mean Sea Level:  PERMANENT DATUM
 FLD .                     ACG:  FIELD NAME
 SON .        AZ-XX-0906591820:  JOB NUMBER
 CTRY.              Azerbaijan:  COUNTRY NAME
 WELL.                     D37:  WELL NAME
 SRVC.     Turan Drilling & Engineering:  CONTRACTOR
 COMP.     BP Exploration (Caspian Sea) ltd.:  COMPANY
 WTYP.                Deviated:  WELL TYPE
 MDS .        Operator Entered:  MAG DATA SOURCE
 UWI .                     N/A:  UNIQUE WELL IDENTIFIER
 API .                     N/A:  API NUMBER
 BASE.              Azerbaijan:  LOGGING EQUIPMENT BASE LOCATION
 REGN.                   EESSA:  REGION
 PROV.                    Baku:  PROVINCE
 STAT.                    Baku:  STATE NAME
 MWDS.                    Baku:  MWD SHOP
 JOBN.        AZ-XX-0906591820:  JOB TICKET NUMB
 DOE .                     N/A:  DOE NUMBER
 DCON.         Sperry Drilling:  DIRECTNL CONTR
 UNIT.                     N/A:  LOGGING EQUIPMENT ID
 CNTY.                        :  COUNTY
 LOC .                        :  LOCATION
 LMF .             Drill Floor:  LOG MEASURED FROM
 TVDS.m                  43.60:  TVDSS CORRECTN
 LATI.deg                40.02:  LATITUDE
 LONG.deg                51.45:  LONGITUDE
 WHNS.m                  11.04:  WELL HEAD N/S
 WHEW.m                 -12.38:  WELL HEAD E/W
 UTMX.m              538763.98:  UTM X
 UTMY.m             4431880.20:  UTM Y
 DFWL.m                   0.00:  DISTANCE FWL
 DFSL.m                   0.00:  DISTANCE FSL
 SDEP.m                 300.00:  START DEPTH
 TDD .m                4900.01:  TOTAL DEPTH (DRILLER)
 VSDR.deg               185.64:  VERT SEC DIRECT
 GVFD.g                   1.00:  GRAVITY FIELD
 MFLD.nT              50301.00:  MAGNETIC FIELD
 MDIP.deg                59.46:  MAGNETIC DIP
 MDEC.deg                 6.43:  MAGNETIC DECL
 GRDC.deg                 0.29:  GRID CORRECTION
 AZTC.deg                 6.14:  AZM TOTAL CORR
 EPD .m                   0.00:  ELEVATION
 EGL .m                   0.00:  GROUND ELEVATION
 WDMS.m                 151.80:  WD ELEV
 APD .m                  43.60:  DEPTH ABOVE PD
 DEP .m                 571.69:  DEPTH
 AGAP.m                  43.60:  AIR GAP
 VSEW.m                 -12.38:  VERT SEC E/W
 VSNS.m                  11.04:  VERT SEC N/S
 EKB .m                  43.60:  KB ELEVATION
 EDF .m                  43.60:  DF ELEVATION
 TDL .m                 412.00:  TOTAL DEPTH (LOGGER)
 VSC .                       0:  VS TO CLOSURE
 MAGU.                 1849300:  MAGUTM CHECKSUM
~Parameter Information Block
#MNEM.UNIT       Value        Description
#---------     -----------    ---------------------------
 AV  .mps                 2.21:  Ann Velocity 
 AVMX.mps                 2.53:  Max Ann Veloc 
 AZIF.deg               144.83:  Azm, Final 
 BHAT.        Rotary Steerable:  BHA Type 
 BROT.°/30m              -0.52:  Build Rotating 
 BS  .in                  6.50:  Bit Size 
 BTPL.psig              209.00:  Bit Press Loss 
 CABU.                      No:  Customer Abuse 
 CGEO.        Ali Isfandiyarov:  Customer Geo 
 COMM.                     lÄt:  Run Comments 1 
 TCS .hr                 61.31:  Time Ciculation Ended 
 CV  .mps                 4.66:  Crit Velocity 
 CVMX.mps                 5.02:  Max Crit Veloc 
 DD1 .          Fariz Nahmatov:  Direct Drillr 1 
 DD2 .            Musa Ahmadov:  Direct Drillr 2 
 DDSV.               Geo-Pilot:  DD Service 
 DEFF.%                 100.00:  % Det Eff 
 DLRX.°/30m               1.44:  Dogleg Rot Max 
 DLSO.°/30m               0.83:  Dogleg Oriented 
 DLSX.°/30m               1.44:  Dogleg Str Max 
 DRET.      08.30.00 30-Jan-21:  Drill End Time 
 DRST.      21.15.00 27-Jan-21:  Drill Start Tim 
 DTIM.hr                 37.28:  Time Drilling 
 EDEP.m                4867.01:  End Depth 
 ENG1.          Rasim Hashimov:  Engineer 1 
 ENG2.         Almaz Almadatov:  Engineer 2 
 ENG3.        Tamerlan Ahmadov:  Engineer 3 
 ETIM.      22.41.04 31-Jan-21:  End Time 
 FLOI.gpm               400.00:  Flow In 
 FLON.gpm               300.00:  Flow In Min 
 FLOS.cptm                0.00:  Fluid Loss 
 FLOX.gpm               400.00:  Flow In Max 
 HFLO.                      No:  High Flow 
 HPRE.                      No:  High Pressure 
 HTEM.                      No:  High Temp 
 HYDO.m                   1.80:  Hydro Offset 
 IFIN.deg                65.63:  Inc, Final 
 IMAX.deg                66.77:  Inc Max 
 IMIN.deg                65.61:  Inc Min 
 IMND.m                4612.67:  Inc Min Depth 
 IMXD.m                4811.63:  Inc Max Depth 
 JARR.                      No:  Jarring 
 LETM.      08.30.00 30-Jan-21:  Log End Time 
 LOST.hr                     0:  Lost Rig Time 
 LSTM.      21.15.00 27-Jan-21:  Log Start Time 
 MDCL.ppm             41000.00:  Mud Chlorides 
 MDES.     Inversion Oil/Synthetic:  Mud Desc 
 DFD .sg                  1.40:  Mud Density 
 MDMN.sg                  1.40:  Dens Mud Min 
 MDMX.sg                  1.40:  Dens Mud Max 
 MOIL.                      53:  Run Mud Oil % 
 MOWR.                   66:34:  Run Mud OWR 
 MSND.                     0.2:  Run Mud Sand % 
 MSOL.                    17.9:  Run Mud Solids% 
 DFV .spqt               77.00:  Mud Viscosity 
 MWOD.in                  4.75:  MWD Tool OD 
 MWSI.                      No:  Serv Intrp, MWD 
 OTIM.hr                110.38:  Time Operating 
 PCON.           Look Like New:  Pad Condition 
 PMAX.psia             5300.00:  Press Op, Max 
 PV  .cP                 57.00:  Mud PV 
 RUN .                    1200:  Run Number 
 ROPA.m/hr               13.00:  ROP Avg 
 ROPN.m/hr                9.00:  ROP Min 
 ROPX.m/hr               15.00:  ROP Max 
 RPMA.rpm               120.00:  RPM Surface Avg 
 RPMN.rpm               100.00:  RPM Surface Min 
 RPMX.rpm               135.00:  RPM Surface Max 
 RRUN.                    1200:  Rig Run Number 
 RTIM.hr                  2.65:  Time Reaming 
 SAZI.deg               145.04:  Azm, Start 
 SDEP.m                4455.01:  Start Depth 
 SIDD.                      No:  Serv Intrp, DD 
 SINC.deg                65.83:  Inc, Start 
 SPPA.psig             5037.00:  SPP Avg 
 SPPN.psig             4430.00:  SPP Min 
 SPPX.psig             5300.00:  SPP Max 
 STIM.      22.41.04 26-Jan-21:  Start Time 
 SVCS.                 DD, MWD:  Services 
 SVER.                    9.20:  Sperry Version 
 TDAT.m                 412.00:  Tot Depth Attmp 
 TDDF.                      No:  Trip for DD 
 TDLG.m                 412.00:  Tot Depth Loggd 
 TFF .                      No:  Trip for Fail 
 TQAA.f-kp               15.00:  Torque Abs Avg 
 TQAN.f-kp               12.00:  Torque Abs Min 
 TQAX.f-kp               17.00:  Torque Abs Max 
 TRRT.°/30m               1.18:  Turn Rotating 
 MRT .                     ADR:  Maximum Recorded Temperature 
 TTMX.degC               88.24:  Max Tool Temp 
 VS01.                90619458:  Virtual Str1 SN 
 VS02.                90519326:  Virtual Str2 SN 
 VS03.                90522176:  Virtual Str3 SN 
 VS04.                90512683:  Virtual Str4 SN 
 WBMN.klb                 1.00:  WOB Min 
 WITN.           Murad Giluyev:  Customer Rep 
 WITN.     Kamran Kemberlinski:  Customer Rep 2 
 WOBA.klb                 5.00:  WOB Avg 
 WOBX.klb                 9.00:  WOB Max 
 YP  .lhf2               41.00:  Yield Point 
~Curve Information Block
#MNEM.UNIT                 API CODE     Curve Description
#---------               -----------    ---------------------------
 TIME.HHMMSS            00 000 000 000:  GT Time & Date
 GTDEPTH.m              00 000 000 000:  GT Depth
 GTPQH.psia             00 000 000 000:  GT HR Quartz Pressure
 GTTQ.degC              00 000 000 000:  GT Quartz Temperature
 GTTN.NONE              00 000 000 000:  GT Test Number
 GTET.sec               00 000 000 000:  GT Elapsed Test Time
 GTTVD.m                00 000 000 000:  GT True Vertical Depth
#Other Information
#
#WARRANTY: Halliburton will use its best efforts to furnish customers with 
#accurate information and interpretations that are part of, and incident to, the services 
#provided.  However, Halliburton cannot and does not warrant the accuracy 
#or correctness of such information and interpretations.  Under no circumstances should any 
#such information or interpretation be relied upon as the sole basis for any drilling, 
#completion, production, or financial decision or any procedure involving any risk to the 
#safety of any drilling venture, drilling rig or its crew or any other third party.  The 
#Customer has full responsibility for all drilling, completion and production operation.  
#Halliburton makes no representations or warranties, either expressed or 
#implied, including, but not limited to, the implied warranties of merchantability or fitness 
#for a particular purpose, with respect to the services rendered.  In no event will 
#Halliburton be liable for failure to obtain any particular results or for 
#any damages, including, but not limited to, indirect, special or consequential damages, 
#resulting from the use of any information or interpretation provided by Halliburton.
#
~A           TIME           GTDEPTH  GTPQH  GTTQ  GTTN   GTET   GTTVD  
# ...
   13:23:10.053.29-Jan-2021 4712.01 3106.55 81.50 11.00 271.22 2590.47
   13:23:10.253.29-Jan-2021 4712.01 3106.57 81.50 11.00 271.42 2590.47
   13:23:10.453.29-Jan-2021 4712.01 3106.56 81.50 11.00 271.62 2590.47
   13:23:10.653.29-Jan-2021 4712.01 3106.58 81.50 11.00 271.82 2590.47
   13:23:10.853.29-Jan-2021 4712.01 3106.55 81.50 11.00 272.02 2590.47
   13:23:11.053.29-Jan-2021 4712.01 3106.55 81.50 11.00 272.22 2590.47
   13:23:11.253.29-Jan-2021 4712.01 3106.57 81.50 11.00 272.42 2590.47
   13:23:11.453.29-Jan-2021 4712.01 3106.56 81.50 11.00 272.62 2590.47
   13:23:11.653.29-Jan-2021 4712.01 3106.41 81.50 11.00 272.82 2590.47
   13:23:11.853.29-Jan-2021 4712.01 3106.74 81.49 11.00 273.02 2590.47
   13:23:12.053.29-Jan-2021 4712.01 3106.74 81.49 11.00 273.22 2590.47
   13:23:12.253.29-Jan-2021 4712.01 3106.60 81.49 11.00 273.42 2590.47
   13:23:12.453.29-Jan-2021 4712.01 3106.63 81.49 11.00 273.62 2590.47
   13:23:12.653.29-Jan-2021 4712.01 3106.59 81.49 11.00 273.82 2590.47
   13:23:12.853.29-Jan-2021 4712.01 3106.60 81.49 11.00 274.02 2590.47
   13:23:13.053.29-Jan-2021 4712.01 3106.60 81.49 11.00 274.22 2590.47
   13:23:13.253.29-Jan-2021 4712.01 3106.58 81.49 11.00 274.42 2590.47
   13:23:13.453.29-Jan-2021 4712.01 3106.57 81.49 11.00 274.62 2590.47
   13:23:13.653.29-Jan-2021 4712.01 3106.58 81.49 11.00 274.82 2590.47
   13:23:13.853.29-Jan-2021 4712.01 3106.57 81.49 11.00 275.02 2590.47
   13:23:14.053.29-Jan-2021 4712.01 3106.57 81.49 11.00 275.22 2590.47
   13:23:14.253.29-Jan-2021 4712.01 3106.58 81.49 11.00 275.42 2590.47
   13:23:14.453.29-Jan-2021 4712.01 3106.56 81.49 11.00 275.62 2590.47
   13:23:14.653.29-Jan-2021 4712.01 3106.56 81.49 11.00 275.82 2590.47
   13:23:14.853.29-Jan-2021 4712.01 3106.42 81.49 11.00 276.02 2590.47
   13:23:15.053.29-Jan-2021 4712.01 3106.42 81.49 11.00 276.22 2590.47
   13:23:15.253.29-Jan-2021 4712.01 3106.61 81.48 11.00 276.42 2590.47
   13:23:15.453.29-Jan-2021 4712.01 3106.54 81.48 11.00 276.62 2590.47
   13:23:15.653.29-Jan-2021 4712.01 3106.53 81.48 11.00 276.82 2590.47
   13:23:15.853.29-Jan-2021 4712.01 3106.69 81.48 11.00 277.02 2590.47
   13:23:16.053.29-Jan-2021 4712.01 3106.69 81.48 11.00 277.22 2590.47
   13:23:16.253.29-Jan-2021 4712.01 3106.62 81.48 11.00 277.42 2590.47
   13:23:16.454.29-Jan-2021 4712.01 3106.59 81.48 11.00 277.62 2590.47
   13:23:16.654.29-Jan-2021 4712.01 3106.45 81.48 11.00 277.82 2590.47
   13:23:16.854.29-Jan-2021 4712.01 3106.78 81.48 11.00 278.02 2590.47
   13:23:17.054.29-Jan-2021 4712.01 3106.78 81.48 11.00 278.22 2590.47
   13:23:17.254.29-Jan-2021 4712.01 3106.54 81.48 11.00 278.42 2590.47
   13:23:17.454.29-Jan-2021 4712.01 3106.64 81.48 11.00 278.62 2590.47
   13:23:17.654.29-Jan-2021 4712.01 3106.60 81.48 11.00 278.82 2590.47
   13:23:17.854.29-Jan-2021 4712.01 3106.65 81.48 11.00 279.02 2590.47
   13:23:18.054.29-Jan-2021 4712.01 3106.65 81.48 11.00 279.22 2590.47
   13:23:18.254.29-Jan-2021 4712.01 3106.64 81.48 11.00 279.42 2590.47
   13:23:18.454.29-Jan-2021 4712.01 3106.45 81.47 11.00 279.62 2590.47
   13:23:18.654.29-Jan-2021 4712.01 3106.73 81.47 11.00 279.82 2590.47
   13:23:18.854.29-Jan-2021 4712.01 3106.62 81.47 11.00 280.02 2590.47
   13:23:19.054.29-Jan-2021 4712.01 3106.62 81.47 11.00 280.22 2590.47
   13:23:19.254.29-Jan-2021 4712.01 3106.64 81.47 11.00 280.42 2590.47
   13:23:19.454.29-Jan-2021 4712.01 3106.58 81.47 11.00 280.62 2590.47
   13:23:19.654.29-Jan-2021 4712.01 3106.60 81.47 11.00 280.82 2590.47
   13:23:19.854.29-Jan-2021 4712.01 3106.58 81.47 11.00 281.02 2590.47
   13:23:20.054.29-Jan-2021 4712.01 3106.58 81.47 11.00 281.22 2590.47
   13:23:20.254.29-Jan-2021 4712.01 3106.59 81.47 11.00 281.42 2590.47
   13:23:20.454.29-Jan-2021 4712.01 3106.58 81.47 11.00 281.62 2590.47
   13:23:20.654.29-Jan-2021 4712.01 3106.58 81.47 11.00 281.82 2590.47
   13:23:20.854.29-Jan-2021 4712.01 3106.57 81.47 11.00 282.02 2590.47
   13:23:21.054.29-Jan-2021 4712.01 3106.57 81.47 11.00 282.22 2590.47
   13:23:21.254.29-Jan-2021 4712.01 3106.56 81.47 11.00 282.42 2590.47
   13:23:21.454.29-Jan-2021 4712.01 3106.57 81.47 11.00 282.62 2590.47
   13:23:21.654.29-Jan-2021 4712.01 3106.57 81.47 11.00 282.82 2590.47
   13:23:21.854.29-Jan-2021 4712.01 3106.57 81.46 11.00 283.02 2590.47
   13:23:22.054.29-Jan-2021 4712.01 3106.57 81.46 11.00 283.22 2590.47
   13:23:22.254.29-Jan-2021 4712.01 3106.74 81.46 11.00 283.42 2590.47
   13:23:22.454.29-Jan-2021 4712.01 3106.62 81.46 11.00 283.62 2590.47
   13:23:22.654.29-Jan-2021 4712.01 3106.54 81.46 11.00 283.82 2590.47
   13:23:22.854.29-Jan-2021 4712.01 3106.64 81.46 11.00 284.02 2590.47
   13:23:23.054.29-Jan-2021 4712.01 3106.64 81.46 11.00 284.22 2590.47
   13:23:23.254.29-Jan-2021 4712.01 3106.61 81.46 11.00 284.42 2590.47
   13:23:23.454.29-Jan-2021 4712.01 3106.56 81.46 11.00 284.62 2590.47
   13:23:23.654.29-Jan-2021 4712.01 3106.60 81.46 11.00 284.82 2590.47
   13:23:23.854.29-Jan-2021 4712.01 3106.58 81.46 11.00 285.02 2590.47
   13:23:24.054.29-Jan-2021 4712.01 3106.58 81.46 11.00 285.22 2590.47
   13:23:24.254.29-Jan-2021 4712.01 3106.58 81.46 11.00 285.42 2590.47
   13:23:24.454.29-Jan-2021 4712.01 3106.57 81.46 11.00 285.62 2590.47
   13:23:24.654.29-Jan-2021 4712.01 3106.59 81.46 11.00 285.82 2590.47
   13:23:24.854.29-Jan-2021 4712.01 3106.57 81.46 11.00 286.02 2590.47
   13:23:25.054.29-Jan-2021 4712.01 3106.57 81.46 11.00 286.22 2590.47
   13:23:25.254.29-Jan-2021 4712.01 3106.42 81.45 11.00 286.42 2590.47
   13:23:25.454.29-Jan-2021 4712.01 3106.75 81.45 11.00 286.62 2590.47
   13:23:25.654.29-Jan-2021 4712.01 3106.61 81.45 11.00 286.82 2590.47
   13:23:25.854.29-Jan-2021 4712.01 3106.54 81.45 11.00 287.02 2590.47
   13:23:26.054.29-Jan-2021 4712.01 3106.54 81.45 11.00 287.22 2590.47
   13:23:26.254.29-Jan-2021 4712.01 3106.70 81.45 11.00 287.42 2590.47
   13:23:26.454.29-Jan-2021 4712.01 3106.61 81.45 11.00 287.62 2590.47
   13:23:26.654.29-Jan-2021 4712.01 3106.59 81.45 11.00 287.82 2590.47
   13:23:26.854.29-Jan-2021 4712.01 3106.59 81.45 11.00 288.02 2590.47
   13:23:27.054.29-Jan-2021 4712.01 3106.59 81.45 11.00 288.22 2590.47
   13:23:27.254.29-Jan-2021 4712.01 3106.77 81.45 11.00 288.42 2590.47
   13:23:27.454.29-Jan-2021 4712.01 3106.60 81.45 11.00 288.62 2590.47
   13:23:27.654.29-Jan-2021 4712.01 3106.53 81.45 11.00 288.82 2590.47
   13:23:27.854.29-Jan-2021 4712.01 3106.64 81.45 11.00 289.02 2590.47
   13:23:28.054.29-Jan-2021 4712.01 3106.64 81.45 11.00 289.22 2590.47
   13:23:28.254.29-Jan-2021 4712.01 3106.59 81.45 11.00 289.42 2590.47
   13:23:28.454.29-Jan-2021 4712.01 3106.52 81.44 11.00 289.62 2590.47
   13:23:28.654.29-Jan-2021 4712.01 3106.64 81.44 11.00 289.82 2590.47
   13:23:28.854.29-Jan-2021 4712.01 3106.46 81.44 11.00 290.02 2590.47
   13:23:29.054.29-Jan-2021 4712.01 3106.46 81.44 11.00 290.22 2590.47
   13:23:29.254.29-Jan-2021 4712.01 3106.63 81.44 11.00 290.42 2590.47
   13:23:29.454.29-Jan-2021 4712.01 3106.54 81.44 11.00 290.62 2590.47
   13:23:29.654.29-Jan-2021 4712.01 3106.66 81.44 11.00 290.82 2590.47
   13:23:29.854.29-Jan-2021 4712.01 3106.57 81.44 11.00 291.02 2590.47
   13:23:30.054.29-Jan-2021 4712.01 3106.57 81.44 11.00 291.22 2590.47
   13:23:30.254.29-Jan-2021 4712.01 3106.57 81.44 11.00 291.42 2590.47
   13:23:30.454.29-Jan-2021 4712.01 3106.59 81.44 11.00 291.62 2590.47
   13:23:30.655.29-Jan-2021 4712.01 3106.57 81.44 11.00 291.82 2590.47
   13:23:30.855.29-Jan-2021 4712.01 3106.58 81.44 11.00 292.02 2590.47
   13:23:31.055.29-Jan-2021 4712.01 3106.58 81.44 11.00 292.22 2590.47
   13:23:31.255.29-Jan-2021 4712.01 3106.57 81.44 11.00 292.42 2590.47
   13:23:31.455.29-Jan-2021 4712.01 3106.59 81.44 11.00 292.62 2590.47
   13:23:31.655.29-Jan-2021 4712.01 3106.56 81.44 11.00 292.82 2590.47
   13:23:31.855.29-Jan-2021 4712.01 3106.58 81.44 11.00 293.02 2590.47
   13:23:32.055.29-Jan-2021 4712.01 3106.58 81.44 11.00 293.22 2590.47
   13:23:32.255.29-Jan-2021 4712.01 3106.57 81.43 11.00 293.42 2590.47
   13:23:32.455.29-Jan-2021 4712.01 3106.41 81.43 11.00 293.62 2590.47
