~Version Information
 VERS.                  2.0:   CWLS log ASCII Standard -VERSION 2.0
 WRAP.                   NO:   One line per depth step
~Well Information Block
#MNEM.UNIT     VALUE/NAME     DESCRIPTION
#---------     -----------    ---------------------------
 STRT.S             02:23:02 28-Jan-21: START TIME 02:23:02 28-Jan-21
 STOP.S             02:29:37 28-Jan-21: STOP TIME  02:29:37 28-Jan-21
 STEP.S                   0.00: STEP TIME
 NULL.                 -999.25: NULL VALUE
 DFWT.                        :  DIST FWL TEXT
 DFST.                        :  DIST FSL TEXT
 DMF .             Drill Floor:  DRILL MEAS FROM
 STIM.      00.00.00 25-Sep-20:  START TIME
 DATE.      16.12.48 31-Jan-21:  END TIME
 SPUD.               20-Sep-20:  SPUD DATE
 NREF.                    Grid:  NORTH REFERENCE
 HPTY.       Minimum Curvature:  HOLE POS TYPE
 DMOD.             Drill Model:  DRILL MOD DESC
 SVYD.                  Survey:  SURVEY DESC
 ILTD.               Lithology:  INTERP LTH DESC
 FTOP.          Formation Tops:  FORM TOPS DESC
 RIG .              East Azeri:  RIG NAME
 PDAT.          Mean Sea Level:  PERMANENT DATUM
 FLD .                     ACG:  FIELD NAME
 SON .        AZ-XX-0906591820:  JOB NUMBER
 CTRY.              Azerbaijan:  COUNTRY NAME
 WELL.                     D37:  WELL NAME
 SRVC.     Turan Drilling & Engineering:  CONTRACTOR
 COMP.     BP Exploration (Caspian Sea) ltd.:  COMPANY
 WTYP.                Deviated:  WELL TYPE
 MDS .        Operator Entered:  MAG DATA SOURCE
 UWI .                     N/A:  UNIQUE WELL IDENTIFIER
 API .                     N/A:  API NUMBER
 BASE.              Azerbaijan:  LOGGING EQUIPMENT BASE LOCATION
 REGN.                   EESSA:  REGION
 PROV.                    Baku:  PROVINCE
 STAT.                    Baku:  STATE NAME
 MWDS.                    Baku:  MWD SHOP
 JOBN.        AZ-XX-0906591820:  JOB TICKET NUMB
 DOE .                     N/A:  DOE NUMBER
 DCON.         Sperry Drilling:  DIRECTNL CONTR
 UNIT.                     N/A:  LOGGING EQUIPMENT ID
 CNTY.                        :  COUNTY
 LOC .                        :  LOCATION
 LMF .             Drill Floor:  LOG MEASURED FROM
 TVDS.m                  43.60:  TVDSS CORRECTN
 LATI.deg                40.02:  LATITUDE
 LONG.deg                51.45:  LONGITUDE
 WHNS.m                  11.04:  WELL HEAD N/S
 WHEW.m                 -12.38:  WELL HEAD E/W
 UTMX.m              538763.98:  UTM X
 UTMY.m             4431880.20:  UTM Y
 DFWL.m                   0.00:  DISTANCE FWL
 DFSL.m                   0.00:  DISTANCE FSL
 SDEP.m                 300.00:  START DEPTH
 TDD .m                4900.01:  TOTAL DEPTH (DRILLER)
 VSDR.deg               185.64:  VERT SEC DIRECT
 GVFD.g                   1.00:  GRAVITY FIELD
 MFLD.nT              50301.00:  MAGNETIC FIELD
 MDIP.deg                59.46:  MAGNETIC DIP
 MDEC.deg                 6.43:  MAGNETIC DECL
 GRDC.deg                 0.29:  GRID CORRECTION
 AZTC.deg                 6.14:  AZM TOTAL CORR
 EPD .m                   0.00:  ELEVATION
 EGL .m                   0.00:  GROUND ELEVATION
 WDMS.m                 151.80:  WD ELEV
 APD .m                  43.60:  DEPTH ABOVE PD
 DEP .m                 571.69:  DEPTH
 AGAP.m                  43.60:  AIR GAP
 VSEW.m                 -12.38:  VERT SEC E/W
 VSNS.m                  11.04:  VERT SEC N/S
 EKB .m                  43.60:  KB ELEVATION
 EDF .m                  43.60:  DF ELEVATION
 TDL .m                 412.00:  TOTAL DEPTH (LOGGER)
 VSC .                       0:  VS TO CLOSURE
 MAGU.                 1849300:  MAGUTM CHECKSUM
~Parameter Information Block
#MNEM.UNIT       Value        Description
#---------     -----------    ---------------------------
 AV  .mps                 2.21:  Ann Velocity 
 AVMX.mps                 2.53:  Max Ann Veloc 
 AZIF.deg               144.83:  Azm, Final 
 BHAT.        Rotary Steerable:  BHA Type 
 BROT.°/30m              -0.52:  Build Rotating 
 BS  .in                  6.50:  Bit Size 
 BTPL.psig              209.00:  Bit Press Loss 
 CABU.                      No:  Customer Abuse 
 CGEO.        Ali Isfandiyarov:  Customer Geo 
 TCS .hr                 61.31:  Time Ciculation Ended 
 CV  .mps                 4.66:  Crit Velocity 
 CVMX.mps                 5.02:  Max Crit Veloc 
 DD1 .          Fariz Nahmatov:  Direct Drillr 1 
 DD2 .            Musa Ahmadov:  Direct Drillr 2 
 DDSV.               Geo-Pilot:  DD Service 
 DEFF.%                 100.00:  % Det Eff 
 DLRX.°/30m               1.44:  Dogleg Rot Max 
 DLSO.°/30m               0.83:  Dogleg Oriented 
 DLSX.°/30m               1.44:  Dogleg Str Max 
 DRET.      08.30.00 30-Jan-21:  Drill End Time 
 DRST.      21.15.00 27-Jan-21:  Drill Start Tim 
 DTIM.hr                 37.28:  Time Drilling 
 EDEP.m                4867.01:  End Depth 
 ENG1.          Rasim Hashimov:  Engineer 1 
 ENG2.         Almaz Almadatov:  Engineer 2 
 ENG3.        Tamerlan Ahmadov:  Engineer 3 
 ETIM.      22.41.04 31-Jan-21:  End Time 
 FLOI.gpm               400.00:  Flow In 
 FLON.gpm               300.00:  Flow In Min 
 FLOS.cptm                0.00:  Fluid Loss 
 FLOX.gpm               400.00:  Flow In Max 
 HFLO.                      No:  High Flow 
 HPRE.                      No:  High Pressure 
 HTEM.                      No:  High Temp 
 HYDO.m                   1.80:  Hydro Offset 
 IFIN.deg                65.63:  Inc, Final 
 IMAX.deg                66.77:  Inc Max 
 IMIN.deg                65.61:  Inc Min 
 IMND.m                4612.67:  Inc Min Depth 
 IMXD.m                4811.63:  Inc Max Depth 
 JARR.                      No:  Jarring 
 LETM.      08.30.00 30-Jan-21:  Log End Time 
 LOST.hr                     0:  Lost Rig Time 
 LSTM.      21.15.00 27-Jan-21:  Log Start Time 
 MDCL.ppm             41000.00:  Mud Chlorides 
 MDES.     Inversion Oil/Synthetic:  Mud Desc 
 DFD .sg                  1.40:  Mud Density 
 MDMN.sg                  1.40:  Dens Mud Min 
 MDMX.sg                  1.40:  Dens Mud Max 
 MOIL.                      53:  Run Mud Oil % 
 MOWR.                   66:34:  Run Mud OWR 
 MSND.                     0.2:  Run Mud Sand % 
 MSOL.                    17.9:  Run Mud Solids% 
 DFV .spqt               77.00:  Mud Viscosity 
 MWOD.in                  4.75:  MWD Tool OD 
 MWSI.                      No:  Serv Intrp, MWD 
 OTIM.hr                110.38:  Time Operating 
 PCON.           Look Like New:  Pad Condition 
 PMAX.psia             5300.00:  Press Op, Max 
 PV  .cP                 57.00:  Mud PV 
 RUN .                    1200:  Run Number 
 ROPA.m/hr               13.00:  ROP Avg 
 ROPN.m/hr                9.00:  ROP Min 
 ROPX.m/hr               15.00:  ROP Max 
 RPMA.rpm               120.00:  RPM Surface Avg 
 RPMN.rpm               100.00:  RPM Surface Min 
 RPMX.rpm               135.00:  RPM Surface Max 
 RRUN.                    1200:  Rig Run Number 
 RTIM.hr                  2.65:  Time Reaming 
 SAZI.deg               145.04:  Azm, Start 
 SDEP.m                4455.01:  Start Depth 
 SIDD.                      No:  Serv Intrp, DD 
 SINC.deg                65.83:  Inc, Start 
 SPPA.psig             5037.00:  SPP Avg 
 SPPN.psig             4430.00:  SPP Min 
 SPPX.psig             5300.00:  SPP Max 
 STIM.      22.41.04 26-Jan-21:  Start Time 
 SVCS.                 DD, MWD:  Services 
 SVER.                    9.20:  Sperry Version 
 TDAT.m                 412.00:  Tot Depth Attmp 
 TDDF.                      No:  Trip for DD 
 TDLG.m                 412.00:  Tot Depth Loggd 
 TFF .                      No:  Trip for Fail 
 TQAA.f-kp               15.00:  Torque Abs Avg 
 TQAN.f-kp               12.00:  Torque Abs Min 
 TQAX.f-kp               17.00:  Torque Abs Max 
 TRRT.°/30m               1.18:  Turn Rotating 
 MRT .                     ADR:  Maximum Recorded Temperature 
 TTMX.degC               88.24:  Max Tool Temp 
 VS01.                90619458:  Virtual Str1 SN 
 VS02.                90519326:  Virtual Str2 SN 
 VS03.                90522176:  Virtual Str3 SN 
 VS04.                90512683:  Virtual Str4 SN 
 WBMN.klb                 1.00:  WOB Min 
 WITN.           Murad Giluyev:  Customer Rep 
 WITN.     Kamran Kemberlinski:  Customer Rep 2 
 WOBA.klb                 5.00:  WOB Avg 
 WOBX.klb                 9.00:  WOB Max 
 YP  .lhf2               41.00:  Yield Point 
~Curve Information Block
#MNEM.UNIT                 API CODE     Curve Description
#---------               -----------    ---------------------------
 TIME.HHMMSS            00 000 000 000:  GT Time & Date
 GTDEPTH.m              00 000 000 000:  GT Depth
 GTPQH.psia             00 000 000 000:  GT HR Quartz Pressure
 GTTQ.degC              00 000 000 000:  GT Quartz Temperature
 GTTN.NONE              00 000 000 000:  GT Test Number
 GTET.sec               00 000 000 000:  GT Elapsed Test Time
 GTTVD.m                00 000 000 000:  GT True Vertical Depth
#Other Information
#
#WARRANTY: Halliburton will use its best efforts to furnish customers with 
#accurate information and interpretations that are part of, and incident to, the services 
#provided.  However, Halliburton cannot and does not warrant the accuracy 
#or correctness of such information and interpretations.  Under no circumstances should any 
#such information or interpretation be relied upon as the sole basis for any drilling, 
#completion, production, or financial decision or any procedure involving any risk to the 
#safety of any drilling venture, drilling rig or its crew or any other third party.  The 
#Customer has full responsibility for all drilling, completion and production operation.  
#Halliburton makes no representations or warranties, either expressed or 
#implied, including, but not limited to, the implied warranties of merchantability or fitness 
#for a particular purpose, with respect to the services rendered.  In no event will 
#Halliburton be liable for failure to obtain any particular results or for 
#any damages, including, but not limited to, indirect, special or consequential damages, 
#resulting from the use of any information or interpretation provided by Halliburton.
#
~A           TIME           GTDEPTH  GTPQH  GTTQ  GTTN  GTET   GTTVD  
# ...
   02:28:01.000.28-Jan-2021 4453.81 5414.87 60.66 1.00 299.00 2485.38
   02:28:01.200.28-Jan-2021 4453.81 5414.87 60.66 1.00 299.20 2485.38
   02:28:01.400.28-Jan-2021 4453.81 5412.00 60.66 1.00 299.40 2485.38
   02:28:01.600.28-Jan-2021 4453.81 5404.33 60.66 1.00 299.60 2485.38
   02:28:01.800.28-Jan-2021 4453.81 5409.09 60.66 1.00 299.80 2485.38
   02:28:02.000.28-Jan-2021 4453.81 5412.05 60.66 1.00 300.00 2485.38
   02:28:02.200.28-Jan-2021 4453.81 5412.05 60.66 1.00 300.20 2485.38
   02:28:02.400.28-Jan-2021 4453.81 5413.70 60.66 1.00 300.40 2485.38
   02:28:02.600.28-Jan-2021 4453.81 5412.85 60.66 1.00 300.60 2485.38
   02:28:02.800.28-Jan-2021 4453.81 5410.56 60.66 1.00 300.80 2485.38
   02:28:03.000.28-Jan-2021 4453.81 5412.07 60.66 1.00 301.00 2485.38
   02:28:03.200.28-Jan-2021 4453.81 5412.07 60.66 1.00 301.20 2485.38
   02:28:03.400.28-Jan-2021 4453.81 5411.57 60.66 1.00 301.40 2485.38
   02:28:03.600.28-Jan-2021 4453.81 5413.44 60.66 1.00 301.60 2485.38
   02:28:03.800.28-Jan-2021 4453.81 5411.13 60.66 1.00 301.80 2485.38
   02:28:04.000.28-Jan-2021 4453.81 5412.54 60.66 1.00 302.00 2485.38
   02:28:04.200.28-Jan-2021 4453.81 5412.54 60.66 1.00 302.20 2485.38
   02:28:04.400.28-Jan-2021 4453.81 5410.56 60.66 1.00 302.40 2485.38
   02:28:04.600.28-Jan-2021 4453.81 5412.71 60.66 1.00 302.60 2485.38
   02:28:04.800.28-Jan-2021 4453.81 5410.48 60.66 1.00 302.80 2485.38
   02:28:05.000.28-Jan-2021 4453.81 5411.84 60.66 1.00 303.00 2485.38
   02:28:05.200.28-Jan-2021 4453.81 5411.84 60.66 1.00 303.20 2485.38
   02:28:05.400.28-Jan-2021 4453.81 5410.28 60.66 1.00 303.40 2485.38
   02:28:05.600.28-Jan-2021 4453.81 5413.14 60.66 1.00 303.60 2485.38
   02:28:05.800.28-Jan-2021 4453.81 5413.97 60.66 1.00 303.80 2485.38
   02:28:06.000.28-Jan-2021 4453.81 5412.13 60.66 1.00 304.00 2485.38
   02:28:06.200.28-Jan-2021 4453.81 5412.13 60.66 1.00 304.20 2485.38
   02:28:06.400.28-Jan-2021 4453.81 5411.99 60.66 1.00 304.40 2485.38
   02:28:06.600.28-Jan-2021 4453.81 5412.85 60.66 1.00 304.60 2485.38
   02:28:06.800.28-Jan-2021 4453.81 5411.80 60.66 1.00 304.80 2485.38
   02:28:07.000.28-Jan-2021 4453.81 5411.66 60.66 1.00 305.00 2485.38
   02:28:07.200.28-Jan-2021 4453.81 5411.66 60.66 1.00 305.20 2485.38
   02:28:07.400.28-Jan-2021 4453.81 5410.65 60.65 1.00 305.40 2485.38
   02:28:07.600.28-Jan-2021 4453.81 5413.36 60.65 1.00 305.60 2485.38
   02:28:07.800.28-Jan-2021 4453.81 5411.78 60.65 1.00 305.80 2485.38
   02:28:08.000.28-Jan-2021 4453.81 5411.00 60.65 1.00 306.00 2485.38
   02:28:08.200.28-Jan-2021 4453.81 5411.00 60.65 1.00 306.20 2485.38
   02:28:08.400.28-Jan-2021 4453.81 5410.78 60.65 1.00 306.40 2485.38
   02:28:08.600.28-Jan-2021 4453.81 5405.21 60.65 1.00 306.60 2485.38
   02:28:08.800.28-Jan-2021 4453.81 5412.06 60.65 1.00 306.80 2485.38
   02:28:09.000.28-Jan-2021 4453.81 5410.71 60.65 1.00 307.00 2485.38
   02:28:09.200.28-Jan-2021 4453.81 5410.71 60.65 1.00 307.20 2485.38
   02:28:09.400.28-Jan-2021 4453.81 5404.37 60.65 1.00 307.40 2485.38
   02:28:09.600.28-Jan-2021 4453.81 5412.40 60.65 1.00 307.60 2485.38
   02:28:09.800.28-Jan-2021 4453.81 5412.45 60.65 1.00 307.80 2485.38
   02:28:10.000.28-Jan-2021 4453.81 5413.08 60.65 1.00 308.00 2485.38
   02:28:10.200.28-Jan-2021 4453.81 5413.08 60.65 1.00 308.20 2485.38
   02:28:10.400.28-Jan-2021 4453.81 5403.42 60.65 1.00 308.40 2485.38
   02:28:10.600.28-Jan-2021 4453.81 5411.82 60.65 1.00 308.60 2485.38
   02:28:10.800.28-Jan-2021 4453.81 5412.74 60.65 1.00 308.80 2485.38
   02:28:11.000.28-Jan-2021 4453.81 5410.64 60.65 1.00 309.00 2485.38
   02:28:11.200.28-Jan-2021 4453.81 5410.64 60.65 1.00 309.20 2485.38
   02:28:11.400.28-Jan-2021 4453.81 5411.45 60.65 1.00 309.40 2485.38
   02:28:11.600.28-Jan-2021 4453.81 5412.36 60.65 1.00 309.60 2485.38
   02:28:11.800.28-Jan-2021 4453.81 5414.71 60.65 1.00 309.80 2485.38
   02:28:12.000.28-Jan-2021 4453.81 5411.59 60.65 1.00 310.00 2485.38
   02:28:12.200.28-Jan-2021 4453.81 5411.59 60.65 1.00 310.20 2485.38
   02:28:12.400.28-Jan-2021 4453.81 5410.39 60.65 1.00 310.40 2485.38
   02:28:12.600.28-Jan-2021 4453.81 5409.41 60.65 1.00 310.60 2485.38
   02:28:12.800.28-Jan-2021 4453.81 5414.84 60.65 1.00 310.80 2485.38
   02:28:13.000.28-Jan-2021 4453.81 5413.05 60.65 1.00 311.00 2485.38
   02:28:13.200.28-Jan-2021 4453.81 5413.05 60.65 1.00 311.20 2485.38
   02:28:13.400.28-Jan-2021 4453.81 5411.77 60.65 1.00 311.40 2485.38
   02:28:13.600.28-Jan-2021 4453.81 5410.32 60.65 1.00 311.60 2485.38
   02:28:13.800.28-Jan-2021 4453.81 5412.28 60.65 1.00 311.80 2485.38
   02:28:14.000.28-Jan-2021 4453.81 5411.29 60.65 1.00 312.00 2485.38
   02:28:14.200.28-Jan-2021 4453.81 5411.29 60.65 1.00 312.20 2485.38
   02:28:14.400.28-Jan-2021 4453.81 5412.12 60.65 1.00 312.40 2485.38
   02:28:14.600.28-Jan-2021 4453.81 5410.93 60.65 1.00 312.60 2485.38
   02:28:14.800.28-Jan-2021 4453.81 5413.05 60.65 1.00 312.80 2485.38
   02:28:15.000.28-Jan-2021 4453.81 5410.80 60.65 1.00 313.00 2485.38
   02:28:15.200.28-Jan-2021 4453.81 5410.80 60.65 1.00 313.20 2485.38
   02:28:15.400.28-Jan-2021 4453.81 5412.24 60.64 1.00 313.40 2485.38
   02:28:15.600.28-Jan-2021 4453.81 5410.15 60.64 1.00 313.60 2485.38
   02:28:15.800.28-Jan-2021 4453.81 5404.76 60.64 1.00 313.80 2485.38
   02:28:16.000.28-Jan-2021 4453.81 5411.20 60.64 1.00 314.00 2485.38
   02:28:16.200.28-Jan-2021 4453.81 5411.20 60.64 1.00 314.20 2485.38
   02:28:16.400.28-Jan-2021 4453.81 5415.99 60.64 1.00 314.40 2485.38
   02:28:16.600.28-Jan-2021 4453.81 5411.70 60.64 1.00 314.60 2485.38
   02:28:16.800.28-Jan-2021 4453.81 5412.27 60.64 1.00 314.80 2485.38
   02:28:17.000.28-Jan-2021 4453.81 5411.59 60.64 1.00 315.00 2485.38
   02:28:17.200.28-Jan-2021 4453.81 5411.59 60.64 1.00 315.20 2485.38
   02:28:17.400.28-Jan-2021 4453.81 5413.08 60.64 1.00 315.40 2485.38
   02:28:17.600.28-Jan-2021 4453.81 5411.38 60.64 1.00 315.60 2485.38
   02:28:17.800.28-Jan-2021 4453.81 5412.01 60.64 1.00 315.80 2485.38
   02:28:18.000.28-Jan-2021 4453.81 5411.93 60.64 1.00 316.00 2485.38
   02:28:18.200.28-Jan-2021 4453.81 5411.93 60.64 1.00 316.20 2485.38
   02:28:18.400.28-Jan-2021 4453.81 5412.83 60.64 1.00 316.40 2485.38
   02:28:18.600.28-Jan-2021 4453.81 5411.26 60.64 1.00 316.60 2485.38
   02:28:18.800.28-Jan-2021 4453.81 5411.88 60.64 1.00 316.80 2485.38
   02:28:19.000.28-Jan-2021 4453.81 5412.63 60.64 1.00 317.00 2485.38
   02:28:19.200.28-Jan-2021 4453.81 5412.63 60.64 1.00 317.20 2485.38
   02:28:19.400.28-Jan-2021 4453.81 5412.68 60.64 1.00 317.40 2485.38
   02:28:19.600.28-Jan-2021 4453.81 5411.68 60.64 1.00 317.60 2485.38
   02:28:19.800.28-Jan-2021 4453.81 5413.83 60.64 1.00 317.80 2485.38
   02:28:20.000.28-Jan-2021 4453.81 5406.18 60.64 1.00 318.00 2485.38
   02:28:20.200.28-Jan-2021 4453.81 5406.18 60.64 1.00 318.20 2485.38
   02:28:20.400.28-Jan-2021 4453.81 5412.59 60.64 1.00 318.40 2485.38
   02:28:20.600.28-Jan-2021 4453.81 5414.17 60.64 1.00 318.60 2485.38
   02:28:20.800.28-Jan-2021 4453.81 5413.13 60.64 1.00 318.80 2485.38
   02:28:21.000.28-Jan-2021 4453.81 5405.08 60.64 1.00 319.00 2485.38
   02:28:21.200.28-Jan-2021 4453.81 5405.08 60.64 1.00 319.20 2485.38
   02:28:21.400.28-Jan-2021 4453.81 5412.11 60.64 1.00 319.40 2485.38
   02:28:21.600.28-Jan-2021 4453.81 5415.44 60.64 1.00 319.60 2485.38
   02:28:21.800.28-Jan-2021 4453.81 5403.62 60.64 1.00 319.80 2485.38
   02:28:22.000.28-Jan-2021 4453.81 5412.72 60.64 1.00 320.00 2485.38
   02:28:22.200.28-Jan-2021 4453.81 5412.72 60.64 1.00 320.20 2485.38
   02:28:22.400.28-Jan-2021 4453.81 5411.15 60.64 1.00 320.40 2485.38
   02:28:22.600.28-Jan-2021 4453.81 5413.66 60.64 1.00 320.60 2485.38
   02:28:22.800.28-Jan-2021 4453.81 5410.42 60.64 1.00 320.80 2485.38
   02:28:23.000.28-Jan-2021 4453.81 5404.21 60.64 1.00 321.00 2485.38
   02:28:23.200.28-Jan-2021 4453.81 5404.21 60.64 1.00 321.20 2485.38
   02:28:23.400.28-Jan-2021 4453.81 5411.05 60.63 1.00 321.40 2485.38
   02:28:23.600.28-Jan-2021 4453.81 5415.62 60.63 1.00 321.60 2485.38
   02:28:23.800.28-Jan-2021 4453.81 5411.98 60.63 1.00 321.80 2485.38
