~Version Information
 VERS.                  2.0:   CWLS log ASCII Standard -VERSION 2.0
 WRAP.                   NO:   One line per depth step
~Well Information Block
#MNEM.UNIT     VALUE/NAME     DESCRIPTION
#---------     -----------    ---------------------------
 STRT.S             10:42:31 29-Jan-21: START TIME 10:42:31 29-Jan-21
 STOP.S             10:49:01 29-Jan-21: STOP TIME  10:49:01 29-Jan-21
 STEP.S                   0.00: STEP TIME
 NULL.                 -999.25: NULL VALUE
 DFWT.                        :  DIST FWL TEXT
 DFST.                        :  DIST FSL TEXT
 DMF .             Drill Floor:  DRILL MEAS FROM
 STIM.      00.00.00 25-Sep-20:  START TIME
 DATE.      16.12.48 31-Jan-21:  END TIME
 SPUD.               20-Sep-20:  SPUD DATE
 NREF.                    Grid:  NORTH REFERENCE
 HPTY.       Minimum Curvature:  HOLE POS TYPE
 DMOD.             Drill Model:  DRILL MOD DESC
 SVYD.                  Survey:  SURVEY DESC
 ILTD.               Lithology:  INTERP LTH DESC
 FTOP.          Formation Tops:  FORM TOPS DESC
 RIG .              East Azeri:  RIG NAME
 PDAT.          Mean Sea Level:  PERMANENT DATUM
 FLD .                     ACG:  FIELD NAME
 SON .        AZ-XX-0906591820:  JOB NUMBER
 CTRY.              Azerbaijan:  COUNTRY NAME
 WELL.                     D37:  WELL NAME
 SRVC.     Turan Drilling & Engineering:  CONTRACTOR
 COMP.     BP Exploration (Caspian Sea) ltd.:  COMPANY
 WTYP.                Deviated:  WELL TYPE
 MDS .        Operator Entered:  MAG DATA SOURCE
 UWI .                     N/A:  UNIQUE WELL IDENTIFIER
 API .                     N/A:  API NUMBER
 BASE.              Azerbaijan:  LOGGING EQUIPMENT BASE LOCATION
 REGN.                   EESSA:  REGION
 PROV.                    Baku:  PROVINCE
 STAT.                    Baku:  STATE NAME
 MWDS.                    Baku:  MWD SHOP
 JOBN.        AZ-XX-0906591820:  JOB TICKET NUMB
 DOE .                     N/A:  DOE NUMBER
 DCON.         Sperry Drilling:  DIRECTNL CONTR
 UNIT.                     N/A:  LOGGING EQUIPMENT ID
 CNTY.                        :  COUNTY
 LOC .                        :  LOCATION
 LMF .             Drill Floor:  LOG MEASURED FROM
 TVDS.m                  43.60:  TVDSS CORRECTN
 LATI.deg                40.02:  LATITUDE
 LONG.deg                51.45:  LONGITUDE
 WHNS.m                  11.04:  WELL HEAD N/S
 WHEW.m                 -12.38:  WELL HEAD E/W
 UTMX.m              538763.98:  UTM X
 UTMY.m             4431880.20:  UTM Y
 DFWL.m                   0.00:  DISTANCE FWL
 DFSL.m                   0.00:  DISTANCE FSL
 SDEP.m                 300.00:  START DEPTH
 TDD .m                4900.01:  TOTAL DEPTH (DRILLER)
 VSDR.deg               185.64:  VERT SEC DIRECT
 GVFD.g                   1.00:  GRAVITY FIELD
 MFLD.nT              50301.00:  MAGNETIC FIELD
 MDIP.deg                59.46:  MAGNETIC DIP
 MDEC.deg                 6.43:  MAGNETIC DECL
 GRDC.deg                 0.29:  GRID CORRECTION
 AZTC.deg                 6.14:  AZM TOTAL CORR
 EPD .m                   0.00:  ELEVATION
 EGL .m                   0.00:  GROUND ELEVATION
 WDMS.m                 151.80:  WD ELEV
 APD .m                  43.60:  DEPTH ABOVE PD
 DEP .m                 571.69:  DEPTH
 AGAP.m                  43.60:  AIR GAP
 VSEW.m                 -12.38:  VERT SEC E/W
 VSNS.m                  11.04:  VERT SEC N/S
 EKB .m                  43.60:  KB ELEVATION
 EDF .m                  43.60:  DF ELEVATION
 TDL .m                 412.00:  TOTAL DEPTH (LOGGER)
 VSC .                       0:  VS TO CLOSURE
 MAGU.                 1849300:  MAGUTM CHECKSUM
~Parameter Information Block
#MNEM.UNIT       Value        Description
#---------     -----------    ---------------------------
 AV  .mps                 2.21:  Ann Velocity 
 AVMX.mps                 2.53:  Max Ann Veloc 
 AZIF.deg               144.83:  Azm, Final 
 BHAT.        Rotary Steerable:  BHA Type 
 BROT.°/30m              -0.52:  Build Rotating 
 BS  .in                  6.50:  Bit Size 
 BTPL.psig              209.00:  Bit Press Loss 
 CABU.                      No:  Customer Abuse 
 CGEO.        Ali Isfandiyarov:  Customer Geo 
 COMM.                     ,H:  Run Comments 1 
 TCS .hr                 61.31:  Time Ciculation Ended 
 CV  .mps                 4.66:  Crit Velocity 
 CVMX.mps                 5.02:  Max Crit Veloc 
 DD1 .          Fariz Nahmatov:  Direct Drillr 1 
 DD2 .            Musa Ahmadov:  Direct Drillr 2 
 DDSV.               Geo-Pilot:  DD Service 
 DEFF.%                 100.00:  % Det Eff 
 DLRX.°/30m               1.44:  Dogleg Rot Max 
 DLSO.°/30m               0.83:  Dogleg Oriented 
 DLSX.°/30m               1.44:  Dogleg Str Max 
 DRET.      08.30.00 30-Jan-21:  Drill End Time 
 DRST.      21.15.00 27-Jan-21:  Drill Start Tim 
 DTIM.hr                 37.28:  Time Drilling 
 EDEP.m                4867.01:  End Depth 
 ENG1.          Rasim Hashimov:  Engineer 1 
 ENG2.         Almaz Almadatov:  Engineer 2 
 ENG3.        Tamerlan Ahmadov:  Engineer 3 
 ETIM.      22.41.04 31-Jan-21:  End Time 
 FLOI.gpm               400.00:  Flow In 
 FLON.gpm               300.00:  Flow In Min 
 FLOS.cptm                0.00:  Fluid Loss 
 FLOX.gpm               400.00:  Flow In Max 
 HFLO.                      No:  High Flow 
 HPRE.                      No:  High Pressure 
 HTEM.                      No:  High Temp 
 HYDO.m                   1.80:  Hydro Offset 
 IFIN.deg                65.63:  Inc, Final 
 IMAX.deg                66.77:  Inc Max 
 IMIN.deg                65.61:  Inc Min 
 IMND.m                4612.67:  Inc Min Depth 
 IMXD.m                4811.63:  Inc Max Depth 
 JARR.                      No:  Jarring 
 LETM.      08.30.00 30-Jan-21:  Log End Time 
 LOST.hr                     0:  Lost Rig Time 
 LSTM.      21.15.00 27-Jan-21:  Log Start Time 
 MDCL.ppm             41000.00:  Mud Chlorides 
 MDES.     Inversion Oil/Synthetic:  Mud Desc 
 DFD .sg                  1.40:  Mud Density 
 MDMN.sg                  1.40:  Dens Mud Min 
 MDMX.sg                  1.40:  Dens Mud Max 
 MOIL.                      53:  Run Mud Oil % 
 MOWR.                   66:34:  Run Mud OWR 
 MSND.                     0.2:  Run Mud Sand % 
 MSOL.                    17.9:  Run Mud Solids% 
 DFV .spqt               77.00:  Mud Viscosity 
 MWOD.in                  4.75:  MWD Tool OD 
 MWSI.                      No:  Serv Intrp, MWD 
 OTIM.hr                110.38:  Time Operating 
 PCON.           Look Like New:  Pad Condition 
 PMAX.psia             5300.00:  Press Op, Max 
 PV  .cP                 57.00:  Mud PV 
 RUN .                    1200:  Run Number 
 ROPA.m/hr               13.00:  ROP Avg 
 ROPN.m/hr                9.00:  ROP Min 
 ROPX.m/hr               15.00:  ROP Max 
 RPMA.rpm               120.00:  RPM Surface Avg 
 RPMN.rpm               100.00:  RPM Surface Min 
 RPMX.rpm               135.00:  RPM Surface Max 
 RRUN.                    1200:  Rig Run Number 
 RTIM.hr                  2.65:  Time Reaming 
 SAZI.deg               145.04:  Azm, Start 
 SDEP.m                4455.01:  Start Depth 
 SIDD.                      No:  Serv Intrp, DD 
 SINC.deg                65.83:  Inc, Start 
 SPPA.psig             5037.00:  SPP Avg 
 SPPN.psig             4430.00:  SPP Min 
 SPPX.psig             5300.00:  SPP Max 
 STIM.      22.41.04 26-Jan-21:  Start Time 
 SVCS.                 DD, MWD:  Services 
 SVER.                    9.20:  Sperry Version 
 TDAT.m                 412.00:  Tot Depth Attmp 
 TDDF.                      No:  Trip for DD 
 TDLG.m                 412.00:  Tot Depth Loggd 
 TFF .                      No:  Trip for Fail 
 TQAA.f-kp               15.00:  Torque Abs Avg 
 TQAN.f-kp               12.00:  Torque Abs Min 
 TQAX.f-kp               17.00:  Torque Abs Max 
 TRRT.°/30m               1.18:  Turn Rotating 
 MRT .                     ADR:  Maximum Recorded Temperature 
 TTMX.degC               88.24:  Max Tool Temp 
 VS01.                90619458:  Virtual Str1 SN 
 VS02.                90519326:  Virtual Str2 SN 
 VS03.                90522176:  Virtual Str3 SN 
 VS04.                90512683:  Virtual Str4 SN 
 WBMN.klb                 1.00:  WOB Min 
 WITN.           Murad Giluyev:  Customer Rep 
 WITN.     Kamran Kemberlinski:  Customer Rep 2 
 WOBA.klb                 5.00:  WOB Avg 
 WOBX.klb                 9.00:  WOB Max 
 YP  .lhf2               41.00:  Yield Point 
~Curve Information Block
#MNEM.UNIT                 API CODE     Curve Description
#---------               -----------    ---------------------------
 TIME.HHMMSS            00 000 000 000:  GT Time & Date
 GTDEPTH.m              00 000 000 000:  GT Depth
 GTPQH.psia             00 000 000 000:  GT HR Quartz Pressure
 GTTQ.degC              00 000 000 000:  GT Quartz Temperature
 GTTN.NONE              00 000 000 000:  GT Test Number
 GTET.sec               00 000 000 000:  GT Elapsed Test Time
 GTTVD.m                00 000 000 000:  GT True Vertical Depth
#Other Information
#
#WARRANTY: Halliburton will use its best efforts to furnish customers with 
#accurate information and interpretations that are part of, and incident to, the services 
#provided.  However, Halliburton cannot and does not warrant the accuracy 
#or correctness of such information and interpretations.  Under no circumstances should any 
#such information or interpretation be relied upon as the sole basis for any drilling, 
#completion, production, or financial decision or any procedure involving any risk to the 
#safety of any drilling venture, drilling rig or its crew or any other third party.  The 
#Customer has full responsibility for all drilling, completion and production operation.  
#Halliburton makes no representations or warranties, either expressed or 
#implied, including, but not limited to, the implied warranties of merchantability or fitness 
#for a particular purpose, with respect to the services rendered.  In no event will 
#Halliburton be liable for failure to obtain any particular results or for 
#any damages, including, but not limited to, indirect, special or consequential damages, 
#resulting from the use of any information or interpretation provided by Halliburton.
#
~A           TIME           GTDEPTH  GTPQH  GTTQ  GTTN   GTET   GTTVD  
# ...
   10:43:16.379.29-Jan-2021 4690.01 3067.99 80.74 10.00  45.20 2581.69
   10:43:16.579.29-Jan-2021 4690.01 3068.00 80.74 10.00  45.40 2581.69
   10:43:16.779.29-Jan-2021 4690.01 3068.01 80.74 10.00  45.60 2581.69
   10:43:16.979.29-Jan-2021 4690.01 3068.02 80.74 10.00  45.80 2581.69
   10:43:17.179.29-Jan-2021 4690.01 3068.02 80.74 10.00  46.00 2581.69
   10:43:17.379.29-Jan-2021 4690.01 3068.02 80.74 10.00  46.20 2581.69
   10:43:17.579.29-Jan-2021 4690.01 3068.03 80.73 10.00  46.40 2581.69
   10:43:17.779.29-Jan-2021 4690.01 3068.03 80.73 10.00  46.60 2581.69
   10:43:17.979.29-Jan-2021 4690.01 3068.04 80.73 10.00  46.80 2581.69
   10:43:18.179.29-Jan-2021 4690.01 3068.06 80.73 10.00  47.00 2581.69
   10:43:18.379.29-Jan-2021 4690.01 3068.06 80.73 10.00  47.20 2581.69
   10:43:18.579.29-Jan-2021 4690.01 3068.07 80.73 10.00  47.40 2581.69
   10:43:18.779.29-Jan-2021 4690.01 3068.01 80.73 10.00  47.60 2581.69
   10:43:18.979.29-Jan-2021 4690.01 3068.09 80.73 10.00  47.80 2581.69
   10:43:19.179.29-Jan-2021 4690.01 3068.07 80.73 10.00  48.00 2581.69
   10:43:19.379.29-Jan-2021 4690.01 3068.07 80.73 10.00  48.20 2581.69
   10:43:19.579.29-Jan-2021 4690.01 3068.04 80.73 10.00  48.40 2581.69
   10:43:19.779.29-Jan-2021 4690.01 3068.10 80.73 10.00  48.60 2581.69
   10:43:19.979.29-Jan-2021 4690.01 3068.09 80.72 10.00  48.80 2581.69
   10:43:20.179.29-Jan-2021 4690.01 3068.07 80.72 10.00  49.00 2581.69
   10:43:20.379.29-Jan-2021 4690.01 3068.07 80.72 10.00  49.20 2581.69
   10:43:20.579.29-Jan-2021 4690.01 3068.10 80.72 10.00  49.40 2581.69
   10:43:20.780.29-Jan-2021 4690.01 3068.11 80.72 10.00  49.60 2581.69
   10:43:20.980.29-Jan-2021 4690.01 3068.07 80.72 10.00  49.80 2581.69
   10:43:21.180.29-Jan-2021 4690.01 3068.11 80.72 10.00  50.00 2581.69
   10:43:21.380.29-Jan-2021 4690.01 3068.11 80.72 10.00  50.20 2581.69
   10:43:21.580.29-Jan-2021 4690.01 3068.12 80.72 10.00  50.40 2581.69
   10:43:21.780.29-Jan-2021 4690.01 3068.12 80.72 10.00  50.60 2581.69
   10:43:21.980.29-Jan-2021 4690.01 3068.12 80.72 10.00  50.80 2581.69
   10:43:22.180.29-Jan-2021 4690.01 3068.10 80.71 10.00  51.00 2581.69
   10:43:22.380.29-Jan-2021 4690.01 3068.10 80.71 10.00  51.20 2581.69
   10:43:22.580.29-Jan-2021 4690.01 3068.14 80.71 10.00  51.40 2581.69
   10:43:22.780.29-Jan-2021 4690.01 3068.13 80.71 10.00  51.60 2581.69
   10:43:22.980.29-Jan-2021 4690.01 3068.15 80.71 10.00  51.80 2581.69
   10:43:23.180.29-Jan-2021 4690.01 3068.15 80.71 10.00  52.00 2581.69
   10:43:23.380.29-Jan-2021 4690.01 3068.15 80.71 10.00  52.20 2581.69
   10:43:23.580.29-Jan-2021 4690.01 3068.15 80.71 10.00  52.40 2581.69
   10:43:23.780.29-Jan-2021 4690.01 3068.15 80.71 10.00  52.60 2581.69
   10:43:23.980.29-Jan-2021 4690.01 3068.15 80.71 10.00  52.80 2581.69
   10:43:24.180.29-Jan-2021 4690.01 3068.17 80.71 10.00  53.00 2581.69
   10:43:24.380.29-Jan-2021 4690.01 3068.17 80.71 10.00  53.20 2581.69
   10:43:24.580.29-Jan-2021 4690.01 3068.17 80.70 10.00  53.40 2581.69
   10:43:24.780.29-Jan-2021 4690.01 3068.17 80.70 10.00  53.60 2581.69
   10:43:24.980.29-Jan-2021 4690.01 3068.18 80.70 10.00  53.80 2581.69
   10:43:25.180.29-Jan-2021 4690.01 3068.17 80.70 10.00  54.00 2581.69
   10:43:25.380.29-Jan-2021 4690.01 3068.17 80.70 10.00  54.20 2581.69
   10:43:25.580.29-Jan-2021 4690.01 3068.17 80.70 10.00  54.40 2581.69
   10:43:25.780.29-Jan-2021 4690.01 3068.14 80.70 10.00  54.60 2581.69
   10:43:25.980.29-Jan-2021 4690.01 3068.20 80.70 10.00  54.80 2581.69
   10:43:26.180.29-Jan-2021 4690.01 3068.19 80.70 10.00  55.00 2581.69
   10:43:26.380.29-Jan-2021 4690.01 3068.19 80.70 10.00  55.20 2581.69
   10:43:26.580.29-Jan-2021 4690.01 3068.20 80.70 10.00  55.40 2581.69
   10:43:26.780.29-Jan-2021 4690.01 3068.20 80.70 10.00  55.60 2581.69
   10:43:26.980.29-Jan-2021 4690.01 3068.19 80.70 10.00  55.80 2581.69
   10:43:27.180.29-Jan-2021 4690.01 3068.20 80.69 10.00  56.00 2581.69
   10:43:27.380.29-Jan-2021 4690.01 3068.20 80.69 10.00  56.20 2581.69
   10:43:27.580.29-Jan-2021 4690.01 3068.20 80.69 10.00  56.40 2581.69
   10:43:27.780.29-Jan-2021 4690.01 3068.20 80.69 10.00  56.60 2581.69
   10:43:27.980.29-Jan-2021 4690.01 3068.20 80.69 10.00  56.80 2581.69
   10:43:28.180.29-Jan-2021 4690.01 3068.20 80.69 10.00  57.00 2581.69
   10:43:28.380.29-Jan-2021 4690.01 3068.20 80.69 10.00  57.20 2581.69
   10:43:28.580.29-Jan-2021 4690.01 3068.20 80.69 10.00  57.40 2581.69
   10:43:28.780.29-Jan-2021 4690.01 3068.20 80.69 10.00  57.60 2581.69
   10:43:28.980.29-Jan-2021 4690.01 3068.19 80.69 10.00  57.80 2581.69
   10:43:29.180.29-Jan-2021 4690.01 3068.21 80.69 10.00  58.00 2581.69
   10:43:29.380.29-Jan-2021 4690.01 3068.21 80.69 10.00  58.20 2581.69
   10:43:29.580.29-Jan-2021 4690.01 3068.19 80.68 10.00  58.40 2581.69
   10:43:29.780.29-Jan-2021 4690.01 3068.17 80.68 10.00  58.60 2581.69
   10:43:29.980.29-Jan-2021 4690.01 3068.24 80.68 10.00  58.80 2581.69
   10:43:30.180.29-Jan-2021 4690.01 3068.23 80.68 10.00  59.00 2581.69
   10:43:30.380.29-Jan-2021 4690.01 3068.23 80.68 10.00  59.20 2581.69
   10:43:30.580.29-Jan-2021 4690.01 3068.24 80.68 10.00  59.40 2581.69
   10:43:30.780.29-Jan-2021 4690.01 3068.22 80.68 10.00  59.60 2581.69
   10:43:30.980.29-Jan-2021 4690.01 3068.23 80.68 10.00  59.80 2581.69
   10:43:31.180.29-Jan-2021 4690.01 3068.17 80.68 10.00  60.00 2581.69
   10:43:31.380.29-Jan-2021 4690.01 3068.17 80.68 10.00  60.20 2581.69
   10:43:31.580.29-Jan-2021 4690.01 3068.22 80.68 10.00  60.40 2581.69
   10:43:31.780.29-Jan-2021 4690.01 3068.20 80.68 10.00  60.60 2581.69
   10:43:31.980.29-Jan-2021 4690.01 3068.23 80.68 10.00  60.80 2581.69
   10:43:32.180.29-Jan-2021 4690.01 3068.23 80.67 10.00  61.00 2581.69
   10:43:32.380.29-Jan-2021 4690.01 3068.23 80.67 10.00  61.20 2581.69
   10:43:32.580.29-Jan-2021 4690.01 3068.18 80.67 10.00  61.40 2581.69
   10:43:32.780.29-Jan-2021 4690.01 3068.24 80.67 10.00  61.60 2581.69
   10:43:32.980.29-Jan-2021 4690.01 3068.22 80.67 10.00  61.80 2581.69
   10:43:33.180.29-Jan-2021 4690.01 3068.21 80.67 10.00  62.00 2581.69
   10:43:33.380.29-Jan-2021 4690.01 3068.21 80.67 10.00  62.20 2581.69
   10:43:33.580.29-Jan-2021 4690.01 3068.24 80.67 10.00  62.40 2581.69
   10:43:33.780.29-Jan-2021 4690.01 3068.18 80.67 10.00  62.60 2581.69
   10:43:33.980.29-Jan-2021 4690.01 3068.25 80.67 10.00  62.80 2581.69
   10:43:34.180.29-Jan-2021 4690.01 3068.22 80.67 10.00  63.00 2581.69
   10:43:34.380.29-Jan-2021 4690.01 3068.22 80.67 10.00  63.20 2581.69
   10:43:34.580.29-Jan-2021 4690.01 3068.24 80.67 10.00  63.40 2581.69
   10:43:34.780.29-Jan-2021 4690.01 3068.24 80.66 10.00  63.60 2581.69
   10:43:34.981.29-Jan-2021 4690.01 3068.24 80.66 10.00  63.80 2581.69
   10:43:35.181.29-Jan-2021 4690.01 3068.24 80.66 10.00  64.00 2581.69
   10:43:35.381.29-Jan-2021 4690.01 3068.24 80.66 10.00  64.20 2581.69
   10:43:35.581.29-Jan-2021 4690.01 3068.24 80.66 10.00  64.40 2581.69
   10:43:35.781.29-Jan-2021 4690.01 3068.23 80.66 10.00  64.60 2581.69
   10:43:35.981.29-Jan-2021 4690.01 3068.24 80.66 10.00  64.80 2581.69
   10:43:36.181.29-Jan-2021 4690.01 3068.24 80.66 10.00  65.00 2581.69
   10:43:36.381.29-Jan-2021 4690.01 3068.24 80.66 10.00  65.20 2581.69
   10:43:36.581.29-Jan-2021 4690.01 3068.23 80.66 10.00  65.40 2581.69
   10:43:36.781.29-Jan-2021 4690.01 3068.24 80.66 10.00  65.60 2581.69
   10:43:36.981.29-Jan-2021 4690.01 3068.24 80.66 10.00  65.80 2581.69
   10:43:37.181.29-Jan-2021 4690.01 3068.24 80.66 10.00  66.00 2581.69
   10:43:37.381.29-Jan-2021 4690.01 3068.24 80.66 10.00  66.20 2581.69
   10:43:37.581.29-Jan-2021 4690.01 3068.25 80.65 10.00  66.40 2581.69
   10:43:37.781.29-Jan-2021 4690.01 3068.24 80.65 10.00  66.60 2581.69
   10:43:37.981.29-Jan-2021 4690.01 3068.22 80.65 10.00  66.80 2581.69
   10:43:38.181.29-Jan-2021 4690.01 3068.25 80.65 10.00  67.00 2581.69
   10:43:38.381.29-Jan-2021 4690.01 3068.25 80.65 10.00  67.20 2581.69
   10:43:38.581.29-Jan-2021 4690.01 3068.24 80.65 10.00  67.40 2581.69
   10:43:38.781.29-Jan-2021 4690.01 3068.24 80.65 10.00  67.60 2581.69
