~Version Information
 VERS.                  2.0:   CWLS log ASCII Standard -VERSION 2.0
 WRAP.                   NO:   One line per depth step
~Well Information Block
#MNEM.UNIT     VALUE/NAME     DESCRIPTION
#---------     -----------    ---------------------------
 STRT.S             11:33:05 30-Jan-21: START TIME 11:33:05 30-Jan-21
 STOP.S             11:39:34 30-Jan-21: STOP TIME  11:39:34 30-Jan-21
 STEP.S                   0.00: STEP TIME
 NULL.                 -999.25: NULL VALUE
 DFWT.                        :  DIST FWL TEXT
 DFST.                        :  DIST FSL TEXT
 DMF .             Drill Floor:  DRILL MEAS FROM
 STIM.      00.00.00 25-Sep-20:  START TIME
 DATE.      16.12.48 31-Jan-21:  END TIME
 SPUD.               20-Sep-20:  SPUD DATE
 NREF.                    Grid:  NORTH REFERENCE
 HPTY.       Minimum Curvature:  HOLE POS TYPE
 DMOD.             Drill Model:  DRILL MOD DESC
 SVYD.                  Survey:  SURVEY DESC
 ILTD.               Lithology:  INTERP LTH DESC
 FTOP.          Formation Tops:  FORM TOPS DESC
 RIG .              East Azeri:  RIG NAME
 PDAT.          Mean Sea Level:  PERMANENT DATUM
 FLD .                     ACG:  FIELD NAME
 SON .        AZ-XX-0906591820:  JOB NUMBER
 CTRY.              Azerbaijan:  COUNTRY NAME
 WELL.                     D37:  WELL NAME
 SRVC.     Turan Drilling & Engineering:  CONTRACTOR
 COMP.     BP Exploration (Caspian Sea) ltd.:  COMPANY
 WTYP.                Deviated:  WELL TYPE
 MDS .        Operator Entered:  MAG DATA SOURCE
 UWI .                     N/A:  UNIQUE WELL IDENTIFIER
 API .                     N/A:  API NUMBER
 BASE.              Azerbaijan:  LOGGING EQUIPMENT BASE LOCATION
 REGN.                   EESSA:  REGION
 PROV.                    Baku:  PROVINCE
 STAT.                    Baku:  STATE NAME
 MWDS.                    Baku:  MWD SHOP
 JOBN.        AZ-XX-0906591820:  JOB TICKET NUMB
 DOE .                     N/A:  DOE NUMBER
 DCON.         Sperry Drilling:  DIRECTNL CONTR
 UNIT.                     N/A:  LOGGING EQUIPMENT ID
 CNTY.                        :  COUNTY
 LOC .                        :  LOCATION
 LMF .             Drill Floor:  LOG MEASURED FROM
 TVDS.m                  43.60:  TVDSS CORRECTN
 LATI.deg                40.02:  LATITUDE
 LONG.deg                51.45:  LONGITUDE
 WHNS.m                  11.04:  WELL HEAD N/S
 WHEW.m                 -12.38:  WELL HEAD E/W
 UTMX.m              538763.98:  UTM X
 UTMY.m             4431880.20:  UTM Y
 DFWL.m                   0.00:  DISTANCE FWL
 DFSL.m                   0.00:  DISTANCE FSL
 SDEP.m                 300.00:  START DEPTH
 TDD .m                4900.01:  TOTAL DEPTH (DRILLER)
 VSDR.deg               185.64:  VERT SEC DIRECT
 GVFD.g                   1.00:  GRAVITY FIELD
 MFLD.nT              50301.00:  MAGNETIC FIELD
 MDIP.deg                59.46:  MAGNETIC DIP
 MDEC.deg                 6.43:  MAGNETIC DECL
 GRDC.deg                 0.29:  GRID CORRECTION
 AZTC.deg                 6.14:  AZM TOTAL CORR
 EPD .m                   0.00:  ELEVATION
 EGL .m                   0.00:  GROUND ELEVATION
 WDMS.m                 151.80:  WD ELEV
 APD .m                  43.60:  DEPTH ABOVE PD
 DEP .m                 571.69:  DEPTH
 AGAP.m                  43.60:  AIR GAP
 VSEW.m                 -12.38:  VERT SEC E/W
 VSNS.m                  11.04:  VERT SEC N/S
 EKB .m                  43.60:  KB ELEVATION
 EDF .m                  43.60:  DF ELEVATION
 TDL .m                 412.00:  TOTAL DEPTH (LOGGER)
 VSC .                       0:  VS TO CLOSURE
 MAGU.                 1849300:  MAGUTM CHECKSUM
~Parameter Information Block
#MNEM.UNIT       Value        Description
#---------     -----------    ---------------------------
 AV  .mps                 2.21:  Ann Velocity 
 AVMX.mps                 2.53:  Max Ann Veloc 
 AZIF.deg               144.83:  Azm, Final 
 BHAT.        Rotary Steerable:  BHA Type 
 BROT.°/30m              -0.52:  Build Rotating 
 BS  .in                  6.50:  Bit Size 
 BTPL.psig              209.00:  Bit Press Loss 
 CABU.                      No:  Customer Abuse 
 CGEO.        Ali Isfandiyarov:  Customer Geo 
 COMM.                     <»c:  Run Comments 1 
 TCS .hr                 61.31:  Time Ciculation Ended 
 CV  .mps                 4.66:  Crit Velocity 
 CVMX.mps                 5.02:  Max Crit Veloc 
 DD1 .          Fariz Nahmatov:  Direct Drillr 1 
 DD2 .            Musa Ahmadov:  Direct Drillr 2 
 DDSV.               Geo-Pilot:  DD Service 
 DEFF.%                 100.00:  % Det Eff 
 DLRX.°/30m               1.44:  Dogleg Rot Max 
 DLSO.°/30m               0.83:  Dogleg Oriented 
 DLSX.°/30m               1.44:  Dogleg Str Max 
 DRET.      08.30.00 30-Jan-21:  Drill End Time 
 DRST.      21.15.00 27-Jan-21:  Drill Start Tim 
 DTIM.hr                 37.28:  Time Drilling 
 EDEP.m                4867.01:  End Depth 
 ENG1.          Rasim Hashimov:  Engineer 1 
 ENG2.         Almaz Almadatov:  Engineer 2 
 ENG3.        Tamerlan Ahmadov:  Engineer 3 
 ETIM.      22.41.04 31-Jan-21:  End Time 
 FLOI.gpm               400.00:  Flow In 
 FLON.gpm               300.00:  Flow In Min 
 FLOS.cptm                0.00:  Fluid Loss 
 FLOX.gpm               400.00:  Flow In Max 
 HFLO.                      No:  High Flow 
 HPRE.                      No:  High Pressure 
 HTEM.                      No:  High Temp 
 HYDO.m                   1.80:  Hydro Offset 
 IFIN.deg                65.63:  Inc, Final 
 IMAX.deg                66.77:  Inc Max 
 IMIN.deg                65.61:  Inc Min 
 IMND.m                4612.67:  Inc Min Depth 
 IMXD.m                4811.63:  Inc Max Depth 
 JARR.                      No:  Jarring 
 LETM.      08.30.00 30-Jan-21:  Log End Time 
 LOST.hr                     0:  Lost Rig Time 
 LSTM.      21.15.00 27-Jan-21:  Log Start Time 
 MDCL.ppm             41000.00:  Mud Chlorides 
 MDES.     Inversion Oil/Synthetic:  Mud Desc 
 DFD .sg                  1.40:  Mud Density 
 MDMN.sg                  1.40:  Dens Mud Min 
 MDMX.sg                  1.40:  Dens Mud Max 
 MOIL.                      53:  Run Mud Oil % 
 MOWR.                   66:34:  Run Mud OWR 
 MSND.                     0.2:  Run Mud Sand % 
 MSOL.                    17.9:  Run Mud Solids% 
 DFV .spqt               77.00:  Mud Viscosity 
 MWOD.in                  4.75:  MWD Tool OD 
 MWSI.                      No:  Serv Intrp, MWD 
 OTIM.hr                110.38:  Time Operating 
 PCON.           Look Like New:  Pad Condition 
 PMAX.psia             5300.00:  Press Op, Max 
 PV  .cP                 57.00:  Mud PV 
 RUN .                    1200:  Run Number 
 ROPA.m/hr               13.00:  ROP Avg 
 ROPN.m/hr                9.00:  ROP Min 
 ROPX.m/hr               15.00:  ROP Max 
 RPMA.rpm               120.00:  RPM Surface Avg 
 RPMN.rpm               100.00:  RPM Surface Min 
 RPMX.rpm               135.00:  RPM Surface Max 
 RRUN.                    1200:  Rig Run Number 
 RTIM.hr                  2.65:  Time Reaming 
 SAZI.deg               145.04:  Azm, Start 
 SDEP.m                4455.01:  Start Depth 
 SIDD.                      No:  Serv Intrp, DD 
 SINC.deg                65.83:  Inc, Start 
 SPPA.psig             5037.00:  SPP Avg 
 SPPN.psig             4430.00:  SPP Min 
 SPPX.psig             5300.00:  SPP Max 
 STIM.      22.41.04 26-Jan-21:  Start Time 
 SVCS.                 DD, MWD:  Services 
 SVER.                    9.20:  Sperry Version 
 TDAT.m                 412.00:  Tot Depth Attmp 
 TDDF.                      No:  Trip for DD 
 TDLG.m                 412.00:  Tot Depth Loggd 
 TFF .                      No:  Trip for Fail 
 TQAA.f-kp               15.00:  Torque Abs Avg 
 TQAN.f-kp               12.00:  Torque Abs Min 
 TQAX.f-kp               17.00:  Torque Abs Max 
 TRRT.°/30m               1.18:  Turn Rotating 
 MRT .                     ADR:  Maximum Recorded Temperature 
 TTMX.degC               88.24:  Max Tool Temp 
 VS01.                90619458:  Virtual Str1 SN 
 VS02.                90519326:  Virtual Str2 SN 
 VS03.                90522176:  Virtual Str3 SN 
 VS04.                90512683:  Virtual Str4 SN 
 WBMN.klb                 1.00:  WOB Min 
 WITN.           Murad Giluyev:  Customer Rep 
 WITN.     Kamran Kemberlinski:  Customer Rep 2 
 WOBA.klb                 5.00:  WOB Avg 
 WOBX.klb                 9.00:  WOB Max 
 YP  .lhf2               41.00:  Yield Point 
~Curve Information Block
#MNEM.UNIT                 API CODE     Curve Description
#---------               -----------    ---------------------------
 TIME.HHMMSS            00 000 000 000:  GT Time & Date
 GTDEPTH.m              00 000 000 000:  GT Depth
 GTPQH.psia             00 000 000 000:  GT HR Quartz Pressure
 GTTQ.degC              00 000 000 000:  GT Quartz Temperature
 GTTN.NONE              00 000 000 000:  GT Test Number
 GTET.sec               00 000 000 000:  GT Elapsed Test Time
 GTTVD.m                00 000 000 000:  GT True Vertical Depth
#Other Information
#
#WARRANTY: Halliburton will use its best efforts to furnish customers with 
#accurate information and interpretations that are part of, and incident to, the services 
#provided.  However, Halliburton cannot and does not warrant the accuracy 
#or correctness of such information and interpretations.  Under no circumstances should any 
#such information or interpretation be relied upon as the sole basis for any drilling, 
#completion, production, or financial decision or any procedure involving any risk to the 
#safety of any drilling venture, drilling rig or its crew or any other third party.  The 
#Customer has full responsibility for all drilling, completion and production operation.  
#Halliburton makes no representations or warranties, either expressed or 
#implied, including, but not limited to, the implied warranties of merchantability or fitness 
#for a particular purpose, with respect to the services rendered.  In no event will 
#Halliburton be liable for failure to obtain any particular results or for 
#any damages, including, but not limited to, indirect, special or consequential damages, 
#resulting from the use of any information or interpretation provided by Halliburton.
#
~A           TIME           GTDEPTH  GTPQH  GTTQ  GTTN   GTET   GTTVD  
# ...
   11:37:13.825.30-Jan-2021 4826.01 3153.04 84.34 18.00 248.64 2635.88
   11:37:14.025.30-Jan-2021 4826.01 3154.10 84.34 18.00 248.84 2635.88
   11:37:14.225.30-Jan-2021 4826.01 3154.05 84.34 18.00 249.04 2635.88
   11:37:14.425.30-Jan-2021 4826.01 3154.05 84.34 18.00 249.24 2635.88
   11:37:14.625.30-Jan-2021 4826.01 3154.05 84.34 18.00 249.44 2635.88
   11:37:14.825.30-Jan-2021 4826.01 3154.12 84.34 18.00 249.64 2635.88
   11:37:15.025.30-Jan-2021 4826.01 3154.13 84.34 18.00 249.84 2635.88
   11:37:15.225.30-Jan-2021 4826.01 3154.14 84.34 18.00 250.04 2635.88
   11:37:15.425.30-Jan-2021 4826.01 3154.14 84.34 18.00 250.24 2635.88
   11:37:15.625.30-Jan-2021 4826.01 3154.19 84.34 18.00 250.44 2635.88
   11:37:15.825.30-Jan-2021 4826.01 3154.16 84.34 18.00 250.64 2635.88
   11:37:16.025.30-Jan-2021 4826.01 3154.16 84.34 18.00 250.84 2635.88
   11:37:16.225.30-Jan-2021 4826.01 3154.19 84.34 18.00 251.04 2635.88
   11:37:16.425.30-Jan-2021 4826.01 3154.19 84.34 18.00 251.24 2635.88
   11:37:16.625.30-Jan-2021 4826.01 3154.15 84.34 18.00 251.44 2635.88
   11:37:16.825.30-Jan-2021 4826.01 3154.18 84.33 18.00 251.64 2635.88
   11:37:17.025.30-Jan-2021 4826.01 3154.21 84.33 18.00 251.84 2635.88
   11:37:17.225.30-Jan-2021 4826.01 3154.18 84.33 18.00 252.04 2635.88
   11:37:17.425.30-Jan-2021 4826.01 3154.18 84.33 18.00 252.24 2635.88
   11:37:17.626.30-Jan-2021 4826.01 3154.24 84.33 18.00 252.44 2635.88
   11:37:17.826.30-Jan-2021 4826.01 3154.18 84.33 18.00 252.65 2635.88
   11:37:18.026.30-Jan-2021 4826.01 3154.20 84.33 18.00 252.85 2635.88
   11:37:18.226.30-Jan-2021 4826.01 3154.21 84.33 18.00 253.05 2635.88
   11:37:18.426.30-Jan-2021 4826.01 3154.21 84.33 18.00 253.25 2635.88
   11:37:18.626.30-Jan-2021 4826.01 3154.20 84.33 18.00 253.45 2635.88
   11:37:18.826.30-Jan-2021 4826.01 3154.18 84.33 18.00 253.65 2635.88
   11:37:19.026.30-Jan-2021 4826.01 3154.21 84.33 18.00 253.85 2635.88
   11:37:19.226.30-Jan-2021 4826.01 3154.18 84.33 18.00 254.05 2635.88
   11:37:19.426.30-Jan-2021 4826.01 3154.18 84.33 18.00 254.25 2635.88
   11:37:19.626.30-Jan-2021 4826.01 3154.18 84.33 18.00 254.45 2635.88
   11:37:19.826.30-Jan-2021 4826.01 3154.18 84.33 18.00 254.65 2635.88
   11:37:20.026.30-Jan-2021 4826.01 3154.20 84.33 18.00 254.85 2635.88
   11:37:20.226.30-Jan-2021 4826.01 3154.18 84.33 18.00 255.05 2635.88
   11:37:20.426.30-Jan-2021 4826.01 3154.18 84.33 18.00 255.25 2635.88
   11:37:20.626.30-Jan-2021 4826.01 3154.18 84.32 18.00 255.45 2635.88
   11:37:20.826.30-Jan-2021 4826.01 3154.19 84.32 18.00 255.65 2635.88
   11:37:21.026.30-Jan-2021 4826.01 3154.13 84.32 18.00 255.85 2635.88
   11:37:21.226.30-Jan-2021 4826.01 3154.26 84.32 18.00 256.05 2635.88
   11:37:21.426.30-Jan-2021 4826.01 3154.26 84.32 18.00 256.25 2635.88
   11:37:21.626.30-Jan-2021 4826.01 3154.21 84.32 18.00 256.45 2635.88
   11:37:21.826.30-Jan-2021 4826.01 3154.19 84.32 18.00 256.65 2635.88
   11:37:22.026.30-Jan-2021 4826.01 3154.17 84.32 18.00 256.85 2635.88
   11:37:22.226.30-Jan-2021 4826.01 3154.22 84.32 18.00 257.05 2635.88
   11:37:22.426.30-Jan-2021 4826.01 3154.22 84.32 18.00 257.25 2635.88
   11:37:22.626.30-Jan-2021 4826.01 3154.20 84.32 18.00 257.45 2635.88
   11:37:22.826.30-Jan-2021 4826.01 3154.17 84.32 18.00 257.65 2635.88
   11:37:23.026.30-Jan-2021 4826.01 3154.19 84.32 18.00 257.85 2635.88
   11:37:23.227.30-Jan-2021 4826.01 3154.19 84.32 18.00 258.05 2635.88
   11:37:23.427.30-Jan-2021 4826.01 3154.19 84.32 18.00 258.25 2635.88
   11:37:23.627.30-Jan-2021 4826.01 3154.19 84.32 18.00 258.45 2635.88
   11:37:23.827.30-Jan-2021 4826.01 3154.19 84.32 18.00 258.65 2635.88
   11:37:24.027.30-Jan-2021 4826.01 3154.19 84.32 18.00 258.85 2635.88
   11:37:24.227.30-Jan-2021 4826.01 3154.14 84.32 18.00 259.05 2635.88
   11:37:24.427.30-Jan-2021 4826.01 3154.14 84.32 18.00 259.25 2635.88
   11:37:24.627.30-Jan-2021 4826.01 3154.20 84.31 18.00 259.45 2635.88
   11:37:24.827.30-Jan-2021 4826.01 3154.19 84.31 18.00 259.65 2635.88
   11:37:25.027.30-Jan-2021 4826.01 3154.16 84.31 18.00 259.85 2635.88
   11:37:25.227.30-Jan-2021 4826.01 3154.23 84.31 18.00 260.05 2635.88
   11:37:25.427.30-Jan-2021 4826.01 3154.23 84.31 18.00 260.25 2635.88
   11:37:25.627.30-Jan-2021 4826.01 3154.21 84.31 18.00 260.45 2635.88
   11:37:25.827.30-Jan-2021 4826.01 3154.21 84.31 18.00 260.65 2635.88
   11:37:26.027.30-Jan-2021 4826.01 3154.16 84.31 18.00 260.85 2635.88
   11:37:26.227.30-Jan-2021 4826.01 3154.21 84.31 18.00 261.05 2635.88
   11:37:26.427.30-Jan-2021 4826.01 3154.21 84.31 18.00 261.25 2635.88
   11:37:26.627.30-Jan-2021 4826.01 3154.22 84.31 18.00 261.45 2635.88
   11:37:26.827.30-Jan-2021 4826.01 3154.22 84.31 18.00 261.65 2635.88
   11:37:27.027.30-Jan-2021 4826.01 3154.11 84.31 18.00 261.85 2635.88
   11:37:27.227.30-Jan-2021 4826.01 3154.27 84.31 18.00 262.05 2635.88
   11:37:27.427.30-Jan-2021 4826.01 3154.27 84.31 18.00 262.25 2635.88
   11:37:27.627.30-Jan-2021 4826.01 3154.22 84.31 18.00 262.45 2635.88
   11:37:27.827.30-Jan-2021 4826.01 3154.21 84.31 18.00 262.65 2635.88
   11:37:28.027.30-Jan-2021 4826.01 3154.14 84.31 18.00 262.85 2635.88
   11:37:28.227.30-Jan-2021 4826.01 3154.21 84.30 18.00 263.05 2635.88
   11:37:28.427.30-Jan-2021 4826.01 3154.21 84.30 18.00 263.25 2635.88
   11:37:28.627.30-Jan-2021 4826.01 3154.22 84.30 18.00 263.45 2635.88
   11:37:28.828.30-Jan-2021 4826.01 3154.19 84.30 18.00 263.65 2635.88
   11:37:29.028.30-Jan-2021 4826.01 3154.18 84.30 18.00 263.85 2635.88
   11:37:29.228.30-Jan-2021 4826.01 3154.19 84.30 18.00 264.05 2635.88
   11:37:29.428.30-Jan-2021 4826.01 3154.19 84.30 18.00 264.25 2635.88
   11:37:29.628.30-Jan-2021 4826.01 3154.21 84.30 18.00 264.45 2635.88
   11:37:29.828.30-Jan-2021 4826.01 3154.19 84.30 18.00 264.65 2635.88
   11:37:30.028.30-Jan-2021 4826.01 3154.17 84.30 18.00 264.85 2635.88
   11:37:30.228.30-Jan-2021 4826.01 3154.19 84.30 18.00 265.05 2635.88
   11:37:30.428.30-Jan-2021 4826.01 3154.19 84.30 18.00 265.25 2635.88
   11:37:30.628.30-Jan-2021 4826.01 3154.20 84.30 18.00 265.45 2635.88
   11:37:30.828.30-Jan-2021 4826.01 3154.19 84.30 18.00 265.65 2635.88
   11:37:31.028.30-Jan-2021 4826.01 3154.19 84.30 18.00 265.85 2635.88
   11:37:31.228.30-Jan-2021 4826.01 3154.18 84.30 18.00 266.05 2635.88
   11:37:31.428.30-Jan-2021 4826.01 3154.18 84.30 18.00 266.25 2635.88
   11:37:31.628.30-Jan-2021 4826.01 3154.16 84.30 18.00 266.45 2635.88
   11:37:31.828.30-Jan-2021 4826.01 3154.20 84.30 18.00 266.65 2635.88
   11:37:32.028.30-Jan-2021 4826.01 3154.22 84.29 18.00 266.85 2635.88
   11:37:32.228.30-Jan-2021 4826.01 3154.21 84.29 18.00 267.05 2635.88
   11:37:32.428.30-Jan-2021 4826.01 3154.21 84.29 18.00 267.25 2635.88
   11:37:32.628.30-Jan-2021 4826.01 3154.18 84.29 18.00 267.45 2635.88
   11:37:32.828.30-Jan-2021 4826.01 3154.20 84.29 18.00 267.65 2635.88
   11:37:33.028.30-Jan-2021 4826.01 3154.19 84.29 18.00 267.85 2635.88
   11:37:33.228.30-Jan-2021 4826.01 3154.21 84.29 18.00 268.05 2635.88
   11:37:33.428.30-Jan-2021 4826.01 3154.21 84.29 18.00 268.25 2635.88
   11:37:33.628.30-Jan-2021 4826.01 3154.18 84.29 18.00 268.45 2635.88
   11:37:33.828.30-Jan-2021 4826.01 3154.18 84.29 18.00 268.65 2635.88
   11:37:34.028.30-Jan-2021 4826.01 3154.20 84.29 18.00 268.85 2635.88
   11:37:34.228.30-Jan-2021 4826.01 3154.18 84.29 18.00 269.05 2635.88
   11:37:34.429.30-Jan-2021 4826.01 3154.18 84.29 18.00 269.25 2635.88
   11:37:34.629.30-Jan-2021 4826.01 3154.18 84.29 18.00 269.45 2635.88
   11:37:34.829.30-Jan-2021 4826.01 3154.15 84.29 18.00 269.65 2635.88
   11:37:35.029.30-Jan-2021 4826.01 3154.20 84.29 18.00 269.85 2635.88
   11:37:35.229.30-Jan-2021 4826.01 3154.23 84.29 18.00 270.05 2635.88
   11:37:35.429.30-Jan-2021 4826.01 3154.23 84.29 18.00 270.25 2635.88
   11:37:35.629.30-Jan-2021 4826.01 3154.18 84.29 18.00 270.45 2635.88
   11:37:35.829.30-Jan-2021 4826.01 3154.14 84.29 18.00 270.65 2635.88
   11:37:36.029.30-Jan-2021 4826.01 3154.23 84.28 18.00 270.85 2635.88
   11:37:36.229.30-Jan-2021 4826.01 3154.23 84.28 18.00 271.05 2635.88
