~Version Information
 VERS.                  2.0:   CWLS log ASCII Standard -VERSION 2.0
 WRAP.                   NO:   One line per depth step
~Well Information Block
#MNEM.UNIT     VALUE/NAME     DESCRIPTION
#---------     -----------    ---------------------------
 STRT.S             02:53:50 29-Jan-21: START TIME 02:53:50 29-Jan-21
 STOP.S             03:00:20 29-Jan-21: STOP TIME  03:00:20 29-Jan-21
 STEP.S                   0.00: STEP TIME
 NULL.                 -999.25: NULL VALUE
 DFWT.                        :  DIST FWL TEXT
 DFST.                        :  DIST FSL TEXT
 DMF .             Drill Floor:  DRILL MEAS FROM
 STIM.      00.00.00 25-Sep-20:  START TIME
 DATE.      16.12.48 31-Jan-21:  END TIME
 SPUD.               20-Sep-20:  SPUD DATE
 NREF.                    Grid:  NORTH REFERENCE
 HPTY.       Minimum Curvature:  HOLE POS TYPE
 DMOD.             Drill Model:  DRILL MOD DESC
 SVYD.                  Survey:  SURVEY DESC
 ILTD.               Lithology:  INTERP LTH DESC
 FTOP.          Formation Tops:  FORM TOPS DESC
 RIG .              East Azeri:  RIG NAME
 PDAT.          Mean Sea Level:  PERMANENT DATUM
 FLD .                     ACG:  FIELD NAME
 SON .        AZ-XX-0906591820:  JOB NUMBER
 CTRY.              Azerbaijan:  COUNTRY NAME
 WELL.                     D37:  WELL NAME
 SRVC.     Turan Drilling & Engineering:  CONTRACTOR
 COMP.     BP Exploration (Caspian Sea) ltd.:  COMPANY
 WTYP.                Deviated:  WELL TYPE
 MDS .        Operator Entered:  MAG DATA SOURCE
 UWI .                     N/A:  UNIQUE WELL IDENTIFIER
 API .                     N/A:  API NUMBER
 BASE.              Azerbaijan:  LOGGING EQUIPMENT BASE LOCATION
 REGN.                   EESSA:  REGION
 PROV.                    Baku:  PROVINCE
 STAT.                    Baku:  STATE NAME
 MWDS.                    Baku:  MWD SHOP
 JOBN.        AZ-XX-0906591820:  JOB TICKET NUMB
 DOE .                     N/A:  DOE NUMBER
 DCON.         Sperry Drilling:  DIRECTNL CONTR
 UNIT.                     N/A:  LOGGING EQUIPMENT ID
 CNTY.                        :  COUNTY
 LOC .                        :  LOCATION
 LMF .             Drill Floor:  LOG MEASURED FROM
 TVDS.m                  43.60:  TVDSS CORRECTN
 LATI.deg                40.02:  LATITUDE
 LONG.deg                51.45:  LONGITUDE
 WHNS.m                  11.04:  WELL HEAD N/S
 WHEW.m                 -12.38:  WELL HEAD E/W
 UTMX.m              538763.98:  UTM X
 UTMY.m             4431880.20:  UTM Y
 DFWL.m                   0.00:  DISTANCE FWL
 DFSL.m                   0.00:  DISTANCE FSL
 SDEP.m                 300.00:  START DEPTH
 TDD .m                4900.01:  TOTAL DEPTH (DRILLER)
 VSDR.deg               185.64:  VERT SEC DIRECT
 GVFD.g                   1.00:  GRAVITY FIELD
 MFLD.nT              50301.00:  MAGNETIC FIELD
 MDIP.deg                59.46:  MAGNETIC DIP
 MDEC.deg                 6.43:  MAGNETIC DECL
 GRDC.deg                 0.29:  GRID CORRECTION
 AZTC.deg                 6.14:  AZM TOTAL CORR
 EPD .m                   0.00:  ELEVATION
 EGL .m                   0.00:  GROUND ELEVATION
 WDMS.m                 151.80:  WD ELEV
 APD .m                  43.60:  DEPTH ABOVE PD
 DEP .m                 571.69:  DEPTH
 AGAP.m                  43.60:  AIR GAP
 VSEW.m                 -12.38:  VERT SEC E/W
 VSNS.m                  11.04:  VERT SEC N/S
 EKB .m                  43.60:  KB ELEVATION
 EDF .m                  43.60:  DF ELEVATION
 TDL .m                 412.00:  TOTAL DEPTH (LOGGER)
 VSC .                       0:  VS TO CLOSURE
 MAGU.                 1849300:  MAGUTM CHECKSUM
~Parameter Information Block
#MNEM.UNIT       Value        Description
#---------     -----------    ---------------------------
 AV  .mps                 2.21:  Ann Velocity 
 AVMX.mps                 2.53:  Max Ann Veloc 
 AZIF.deg               144.83:  Azm, Final 
 BHAT.        Rotary Steerable:  BHA Type 
 BROT.°/30m              -0.52:  Build Rotating 
 BS  .in                  6.50:  Bit Size 
 BTPL.psig              209.00:  Bit Press Loss 
 CABU.                      No:  Customer Abuse 
 CGEO.        Ali Isfandiyarov:  Customer Geo 
 COMM.                     tÿr:  Run Comments 1 
 TCS .hr                 61.31:  Time Ciculation Ended 
 CV  .mps                 4.66:  Crit Velocity 
 CVMX.mps                 5.02:  Max Crit Veloc 
 DD1 .          Fariz Nahmatov:  Direct Drillr 1 
 DD2 .            Musa Ahmadov:  Direct Drillr 2 
 DDSV.               Geo-Pilot:  DD Service 
 DEFF.%                 100.00:  % Det Eff 
 DLRX.°/30m               1.44:  Dogleg Rot Max 
 DLSO.°/30m               0.83:  Dogleg Oriented 
 DLSX.°/30m               1.44:  Dogleg Str Max 
 DRET.      08.30.00 30-Jan-21:  Drill End Time 
 DRST.      21.15.00 27-Jan-21:  Drill Start Tim 
 DTIM.hr                 37.28:  Time Drilling 
 EDEP.m                4867.01:  End Depth 
 ENG1.          Rasim Hashimov:  Engineer 1 
 ENG2.         Almaz Almadatov:  Engineer 2 
 ENG3.        Tamerlan Ahmadov:  Engineer 3 
 ETIM.      22.41.04 31-Jan-21:  End Time 
 FLOI.gpm               400.00:  Flow In 
 FLON.gpm               300.00:  Flow In Min 
 FLOS.cptm                0.00:  Fluid Loss 
 FLOX.gpm               400.00:  Flow In Max 
 HFLO.                      No:  High Flow 
 HPRE.                      No:  High Pressure 
 HTEM.                      No:  High Temp 
 HYDO.m                   1.80:  Hydro Offset 
 IFIN.deg                65.63:  Inc, Final 
 IMAX.deg                66.77:  Inc Max 
 IMIN.deg                65.61:  Inc Min 
 IMND.m                4612.67:  Inc Min Depth 
 IMXD.m                4811.63:  Inc Max Depth 
 JARR.                      No:  Jarring 
 LETM.      08.30.00 30-Jan-21:  Log End Time 
 LOST.hr                     0:  Lost Rig Time 
 LSTM.      21.15.00 27-Jan-21:  Log Start Time 
 MDCL.ppm             41000.00:  Mud Chlorides 
 MDES.     Inversion Oil/Synthetic:  Mud Desc 
 DFD .sg                  1.40:  Mud Density 
 MDMN.sg                  1.40:  Dens Mud Min 
 MDMX.sg                  1.40:  Dens Mud Max 
 MOIL.                      53:  Run Mud Oil % 
 MOWR.                   66:34:  Run Mud OWR 
 MSND.                     0.2:  Run Mud Sand % 
 MSOL.                    17.9:  Run Mud Solids% 
 DFV .spqt               77.00:  Mud Viscosity 
 MWOD.in                  4.75:  MWD Tool OD 
 MWSI.                      No:  Serv Intrp, MWD 
 OTIM.hr                110.38:  Time Operating 
 PCON.           Look Like New:  Pad Condition 
 PMAX.psia             5300.00:  Press Op, Max 
 PV  .cP                 57.00:  Mud PV 
 RUN .                    1200:  Run Number 
 ROPA.m/hr               13.00:  ROP Avg 
 ROPN.m/hr                9.00:  ROP Min 
 ROPX.m/hr               15.00:  ROP Max 
 RPMA.rpm               120.00:  RPM Surface Avg 
 RPMN.rpm               100.00:  RPM Surface Min 
 RPMX.rpm               135.00:  RPM Surface Max 
 RRUN.                    1200:  Rig Run Number 
 RTIM.hr                  2.65:  Time Reaming 
 SAZI.deg               145.04:  Azm, Start 
 SDEP.m                4455.01:  Start Depth 
 SIDD.                      No:  Serv Intrp, DD 
 SINC.deg                65.83:  Inc, Start 
 SPPA.psig             5037.00:  SPP Avg 
 SPPN.psig             4430.00:  SPP Min 
 SPPX.psig             5300.00:  SPP Max 
 STIM.      22.41.04 26-Jan-21:  Start Time 
 SVCS.                 DD, MWD:  Services 
 SVER.                    9.20:  Sperry Version 
 TDAT.m                 412.00:  Tot Depth Attmp 
 TDDF.                      No:  Trip for DD 
 TDLG.m                 412.00:  Tot Depth Loggd 
 TFF .                      No:  Trip for Fail 
 TQAA.f-kp               15.00:  Torque Abs Avg 
 TQAN.f-kp               12.00:  Torque Abs Min 
 TQAX.f-kp               17.00:  Torque Abs Max 
 TRRT.°/30m               1.18:  Turn Rotating 
 MRT .                     ADR:  Maximum Recorded Temperature 
 TTMX.degC               88.24:  Max Tool Temp 
 VS01.                90619458:  Virtual Str1 SN 
 VS02.                90519326:  Virtual Str2 SN 
 VS03.                90522176:  Virtual Str3 SN 
 VS04.                90512683:  Virtual Str4 SN 
 WBMN.klb                 1.00:  WOB Min 
 WITN.           Murad Giluyev:  Customer Rep 
 WITN.     Kamran Kemberlinski:  Customer Rep 2 
 WOBA.klb                 5.00:  WOB Avg 
 WOBX.klb                 9.00:  WOB Max 
 YP  .lhf2               41.00:  Yield Point 
~Curve Information Block
#MNEM.UNIT                 API CODE     Curve Description
#---------               -----------    ---------------------------
 TIME.HHMMSS            00 000 000 000:  GT Time & Date
 GTDEPTH.m              00 000 000 000:  GT Depth
 GTPQH.psia             00 000 000 000:  GT HR Quartz Pressure
 GTTQ.degC              00 000 000 000:  GT Quartz Temperature
 GTTN.NONE              00 000 000 000:  GT Test Number
 GTET.sec               00 000 000 000:  GT Elapsed Test Time
 GTTVD.m                00 000 000 000:  GT True Vertical Depth
#Other Information
#
#WARRANTY: Halliburton will use its best efforts to furnish customers with 
#accurate information and interpretations that are part of, and incident to, the services 
#provided.  However, Halliburton cannot and does not warrant the accuracy 
#or correctness of such information and interpretations.  Under no circumstances should any 
#such information or interpretation be relied upon as the sole basis for any drilling, 
#completion, production, or financial decision or any procedure involving any risk to the 
#safety of any drilling venture, drilling rig or its crew or any other third party.  The 
#Customer has full responsibility for all drilling, completion and production operation.  
#Halliburton makes no representations or warranties, either expressed or 
#implied, including, but not limited to, the implied warranties of merchantability or fitness 
#for a particular purpose, with respect to the services rendered.  In no event will 
#Halliburton be liable for failure to obtain any particular results or for 
#any damages, including, but not limited to, indirect, special or consequential damages, 
#resulting from the use of any information or interpretation provided by Halliburton.
#
~A           TIME           GTDEPTH  GTPQH  GTTQ  GTTN  GTET   GTTVD  
# ...
   02:59:35.826.29-Jan-2021 4635.01 3260.49 77.00 7.00 345.05 2559.44
   02:59:36.026.29-Jan-2021 4635.01 3260.49 77.00 7.00 345.25 2559.44
   02:59:36.226.29-Jan-2021 4635.01 3260.50 77.00 7.00 345.45 2559.44
   02:59:36.427.29-Jan-2021 4635.01 3260.46 77.00 7.00 345.65 2559.44
   02:59:36.627.29-Jan-2021 4635.01 3260.38 77.00 7.00 345.85 2559.44
   02:59:36.827.29-Jan-2021 4635.01 3260.59 77.00 7.00 346.05 2559.44
   02:59:37.027.29-Jan-2021 4635.01 3260.59 77.00 7.00 346.25 2559.44
   02:59:37.227.29-Jan-2021 4635.01 3260.53 77.00 7.00 346.45 2559.44
   02:59:37.427.29-Jan-2021 4635.01 3260.53 77.00 7.00 346.65 2559.44
   02:59:37.627.29-Jan-2021 4635.01 3260.52 77.00 7.00 346.85 2559.44
   02:59:37.827.29-Jan-2021 4635.01 3273.55 77.00 7.00 347.05 2559.44
   02:59:38.027.29-Jan-2021 4635.01 3273.55 77.00 7.00 347.25 2559.44
   02:59:38.227.29-Jan-2021 4635.01 3429.83 77.00 7.00 347.45 2559.44
   02:59:38.427.29-Jan-2021 4635.01 5188.33 77.00 7.00 347.65 2559.44
   02:59:38.627.29-Jan-2021 4635.01 5612.86 77.00 7.00 347.85 2559.44
   02:59:38.827.29-Jan-2021 4635.01 5613.00 77.00 7.00 348.05 2559.44
   02:59:39.027.29-Jan-2021 4635.01 5613.00 77.00 7.00 348.25 2559.44
   02:59:39.227.29-Jan-2021 4635.01 5613.81 77.00 7.00 348.45 2559.44
   02:59:39.427.29-Jan-2021 4635.01 5612.96 77.00 7.00 348.65 2559.44
   02:59:39.627.29-Jan-2021 4635.01 5615.03 77.00 7.00 348.85 2559.44
   02:59:39.827.29-Jan-2021 4635.01 5608.97 77.00 7.00 349.05 2559.44
   02:59:40.027.29-Jan-2021 4635.01 5608.97 77.00 7.00 349.25 2559.44
   02:59:40.227.29-Jan-2021 4635.01 5613.43 77.00 7.00 349.45 2559.44
   02:59:40.427.29-Jan-2021 4635.01 5615.86 77.00 7.00 349.65 2559.44
   02:59:40.627.29-Jan-2021 4635.01 5609.76 77.00 7.00 349.85 2559.44
   02:59:40.827.29-Jan-2021 4635.01 5619.21 77.00 7.00 350.05 2559.44
   02:59:41.027.29-Jan-2021 4635.01 5619.21 77.00 7.00 350.25 2559.44
   02:59:41.227.29-Jan-2021 4635.01 5616.00 77.00 7.00 350.45 2559.44
   02:59:41.427.29-Jan-2021 4635.01 5619.05 77.00 7.00 350.65 2559.44
   02:59:41.627.29-Jan-2021 4635.01 5618.96 77.00 7.00 350.85 2559.44
   02:59:41.827.29-Jan-2021 4635.01 5620.19 77.00 7.00 351.05 2559.44
   02:59:42.027.29-Jan-2021 4635.01 5620.19 77.00 7.00 351.25 2559.44
   02:59:42.227.29-Jan-2021 4635.01 5621.92 77.00 7.00 351.45 2559.44
   02:59:42.427.29-Jan-2021 4635.01 5618.19 77.00 7.00 351.65 2559.44
   02:59:42.627.29-Jan-2021 4635.01 5617.73 77.00 7.00 351.85 2559.44
   02:59:42.827.29-Jan-2021 4635.01 5618.51 77.00 7.00 352.05 2559.44
   02:59:43.027.29-Jan-2021 4635.01 5618.51 77.00 7.00 352.25 2559.44
   02:59:43.227.29-Jan-2021 4635.01 5621.07 77.00 7.00 352.45 2559.44
   02:59:43.427.29-Jan-2021 4635.01 5618.37 77.00 7.00 352.65 2559.44
   02:59:43.628.29-Jan-2021 4635.01 5618.05 77.00 7.00 352.85 2559.44
   02:59:43.828.29-Jan-2021 4635.01 5619.20 77.00 7.00 353.05 2559.44
   02:59:44.028.29-Jan-2021 4635.01 5619.20 77.00 7.00 353.25 2559.44
   02:59:44.228.29-Jan-2021 4635.01 5613.07 77.00 7.00 353.45 2559.44
   02:59:44.428.29-Jan-2021 4635.01 5620.58 77.00 7.00 353.65 2559.44
   02:59:44.628.29-Jan-2021 4635.01 5619.24 77.00 7.00 353.85 2559.44
   02:59:44.828.29-Jan-2021 4635.01 5617.51 77.00 7.00 354.05 2559.44
   02:59:45.028.29-Jan-2021 4635.01 5617.51 77.00 7.00 354.25 2559.44
   02:59:45.228.29-Jan-2021 4635.01 5620.15 77.00 7.00 354.45 2559.44
   02:59:45.428.29-Jan-2021 4635.01 5619.07 77.00 7.00 354.65 2559.44
   02:59:45.628.29-Jan-2021 4635.01 5619.93 77.00 7.00 354.85 2559.44
   02:59:45.828.29-Jan-2021 4635.01 5619.10 77.00 7.00 355.05 2559.44
   02:59:46.028.29-Jan-2021 4635.01 5619.10 77.00 7.00 355.25 2559.44
   02:59:46.228.29-Jan-2021 4635.01 5618.61 77.00 7.00 355.45 2559.44
   02:59:46.428.29-Jan-2021 4635.01 5619.42 77.00 7.00 355.65 2559.44
   02:59:46.628.29-Jan-2021 4635.01 5618.45 77.00 7.00 355.85 2559.44
   02:59:46.828.29-Jan-2021 4635.01 5619.59 77.00 7.00 356.05 2559.44
   02:59:47.028.29-Jan-2021 4635.01 5619.59 77.00 7.00 356.25 2559.44
   02:59:47.228.29-Jan-2021 4635.01 5618.95 77.00 7.00 356.45 2559.44
   02:59:47.428.29-Jan-2021 4635.01 5619.07 77.00 7.00 356.65 2559.44
   02:59:47.628.29-Jan-2021 4635.01 5618.14 77.00 7.00 356.85 2559.44
   02:59:47.828.29-Jan-2021 4635.01 5614.43 77.00 7.00 357.05 2559.44
   02:59:48.028.29-Jan-2021 4635.01 5614.43 77.00 7.00 357.25 2559.44
   02:59:48.228.29-Jan-2021 4635.01 5615.93 77.00 7.00 357.45 2559.44
   02:59:48.428.29-Jan-2021 4635.01 5618.10 77.00 7.00 357.65 2559.44
   02:59:48.628.29-Jan-2021 4635.01 5619.11 77.00 7.00 357.85 2559.44
   02:59:48.828.29-Jan-2021 4635.01 5619.45 77.00 7.00 358.05 2559.44
   02:59:49.028.29-Jan-2021 4635.01 5619.45 77.00 7.00 358.25 2559.44
   02:59:49.228.29-Jan-2021 4635.01 5618.80 77.00 7.00 358.45 2559.44
   02:59:49.428.29-Jan-2021 4635.01 5620.30 77.00 7.00 358.65 2559.44
   02:59:49.628.29-Jan-2021 4635.01 5618.66 77.00 7.00 358.85 2559.44
   02:59:49.828.29-Jan-2021 4635.01 5619.62 77.00 7.00 359.05 2559.44
   02:59:50.028.29-Jan-2021 4635.01 5619.62 77.00 7.00 359.25 2559.44
   02:59:50.228.29-Jan-2021 4635.01 5620.01 77.00 7.00 359.45 2559.44
   02:59:50.428.29-Jan-2021 4635.01 5619.14 77.00 7.00 359.65 2559.44
   02:59:50.628.29-Jan-2021 4635.01 5619.10 77.00 7.00 359.85 2559.44
   02:59:50.829.29-Jan-2021 4635.01 5619.36 77.00 7.00 360.05 2559.44
   02:59:51.029.29-Jan-2021 4635.01 5619.36 77.00 7.00 360.25 2559.44
   02:59:51.229.29-Jan-2021 4635.01 5613.42 77.00 7.00 360.45 2559.44
   02:59:51.429.29-Jan-2021 4635.01 5619.65 77.00 7.00 360.65 2559.44
   02:59:51.629.29-Jan-2021 4635.01 5617.27 77.00 7.00 360.85 2559.44
   02:59:51.829.29-Jan-2021 4635.01 5617.63 77.00 7.00 361.05 2559.44
   02:59:52.029.29-Jan-2021 4635.01 5617.63 77.00 7.00 361.25 2559.44
   02:59:52.229.29-Jan-2021 4635.01 5620.88 77.00 7.00 361.45 2559.44
   02:59:52.429.29-Jan-2021 4635.01 5619.17 77.00 7.00 361.65 2559.44
   02:59:52.629.29-Jan-2021 4635.01 5617.31 77.00 7.00 361.85 2559.44
   02:59:52.829.29-Jan-2021 4635.01 5620.85 77.00 7.00 362.05 2559.44
   02:59:53.029.29-Jan-2021 4635.01 5620.85 77.00 7.00 362.25 2559.44
   02:59:53.229.29-Jan-2021 4635.01 5621.11 77.00 7.00 362.45 2559.44
   02:59:53.429.29-Jan-2021 4635.01 5613.03 77.00 7.00 362.65 2559.44
   02:59:53.629.29-Jan-2021 4635.01 5622.58 77.00 7.00 362.85 2559.44
   02:59:53.829.29-Jan-2021 4635.01 5619.08 77.00 7.00 363.05 2559.44
   02:59:54.029.29-Jan-2021 4635.01 5619.08 77.00 7.00 363.25 2559.44
   02:59:54.229.29-Jan-2021 4635.01 5619.38 77.00 7.00 363.45 2559.44
   02:59:54.429.29-Jan-2021 4635.01 5619.31 77.00 7.00 363.65 2559.44
   02:59:54.629.29-Jan-2021 4635.01 5616.67 77.00 7.00 363.85 2559.44
   02:59:54.829.29-Jan-2021 4635.01 5616.71 77.00 7.00 364.05 2559.44
   02:59:55.029.29-Jan-2021 4635.01 5616.71 77.00 7.00 364.25 2559.44
   02:59:55.229.29-Jan-2021 4635.01 5615.19 77.00 7.00 364.45 2559.44
   02:59:55.429.29-Jan-2021 4635.01 5612.64 77.00 7.00 364.65 2559.44
   02:59:55.629.29-Jan-2021 4635.01 5619.22 76.99 7.00 364.85 2559.44
   02:59:55.829.29-Jan-2021 4635.01 5617.49 76.99 7.00 365.05 2559.44
   02:59:56.029.29-Jan-2021 4635.01 5617.49 76.99 7.00 365.25 2559.44
   02:59:56.229.29-Jan-2021 4635.01 5619.38 76.99 7.00 365.45 2559.44
   02:59:56.429.29-Jan-2021 4635.01 5619.71 76.99 7.00 365.65 2559.44
   02:59:56.629.29-Jan-2021 4635.01 5619.40 76.99 7.00 365.85 2559.44
   02:59:56.829.29-Jan-2021 4635.01 5618.97 76.99 7.00 366.05 2559.44
   02:59:57.029.29-Jan-2021 4635.01 5618.97 76.99 7.00 366.25 2559.44
   02:59:57.229.29-Jan-2021 4635.01 5619.53 76.99 7.00 366.45 2559.44
   02:59:57.429.29-Jan-2021 4635.01 5619.19 76.99 7.00 366.65 2559.44
   02:59:57.629.29-Jan-2021 4635.01 5619.00 76.99 7.00 366.85 2559.44
   02:59:57.830.29-Jan-2021 4635.01 5619.11 76.99 7.00 367.05 2559.44
   02:59:58.030.29-Jan-2021 4635.01 5619.11 76.99 7.00 367.25 2559.44
   02:59:58.230.29-Jan-2021 4635.01 5617.98 76.99 7.00 367.45 2559.44
   02:59:58.430.29-Jan-2021 4635.01 5619.26 76.99 7.00 367.65 2559.44
   02:59:58.630.29-Jan-2021 4635.01 5618.13 76.99 7.00 367.85 2559.44
