~Version Information
 VERS.                  2.0:   CWLS log ASCII Standard -VERSION 2.0
 WRAP.                   NO:   One line per depth step
~Well Information Block
#MNEM.UNIT     VALUE/NAME     DESCRIPTION
#---------     -----------    ---------------------------
 STRT.S             20:44:12 29-Jan-21: START TIME 20:44:12 29-Jan-21
 STOP.S             20:50:42 29-Jan-21: STOP TIME  20:50:42 29-Jan-21
 STEP.S                   0.00: STEP TIME
 NULL.                 -999.25: NULL VALUE
 DFWT.                        :  DIST FWL TEXT
 DFST.                        :  DIST FSL TEXT
 DMF .             Drill Floor:  DRILL MEAS FROM
 STIM.      00.00.00 25-Sep-20:  START TIME
 DATE.      16.12.48 31-Jan-21:  END TIME
 SPUD.               20-Sep-20:  SPUD DATE
 NREF.                    Grid:  NORTH REFERENCE
 HPTY.       Minimum Curvature:  HOLE POS TYPE
 DMOD.             Drill Model:  DRILL MOD DESC
 SVYD.                  Survey:  SURVEY DESC
 ILTD.               Lithology:  INTERP LTH DESC
 FTOP.          Formation Tops:  FORM TOPS DESC
 RIG .              East Azeri:  RIG NAME
 PDAT.          Mean Sea Level:  PERMANENT DATUM
 FLD .                     ACG:  FIELD NAME
 SON .        AZ-XX-0906591820:  JOB NUMBER
 CTRY.              Azerbaijan:  COUNTRY NAME
 WELL.                     D37:  WELL NAME
 SRVC.     Turan Drilling & Engineering:  CONTRACTOR
 COMP.     BP Exploration (Caspian Sea) ltd.:  COMPANY
 WTYP.                Deviated:  WELL TYPE
 MDS .        Operator Entered:  MAG DATA SOURCE
 UWI .                     N/A:  UNIQUE WELL IDENTIFIER
 API .                     N/A:  API NUMBER
 BASE.              Azerbaijan:  LOGGING EQUIPMENT BASE LOCATION
 REGN.                   EESSA:  REGION
 PROV.                    Baku:  PROVINCE
 STAT.                    Baku:  STATE NAME
 MWDS.                    Baku:  MWD SHOP
 JOBN.        AZ-XX-0906591820:  JOB TICKET NUMB
 DOE .                     N/A:  DOE NUMBER
 DCON.         Sperry Drilling:  DIRECTNL CONTR
 UNIT.                     N/A:  LOGGING EQUIPMENT ID
 CNTY.                        :  COUNTY
 LOC .                        :  LOCATION
 LMF .             Drill Floor:  LOG MEASURED FROM
 TVDS.m                  43.60:  TVDSS CORRECTN
 LATI.deg                40.02:  LATITUDE
 LONG.deg                51.45:  LONGITUDE
 WHNS.m                  11.04:  WELL HEAD N/S
 WHEW.m                 -12.38:  WELL HEAD E/W
 UTMX.m              538763.98:  UTM X
 UTMY.m             4431880.20:  UTM Y
 DFWL.m                   0.00:  DISTANCE FWL
 DFSL.m                   0.00:  DISTANCE FSL
 SDEP.m                 300.00:  START DEPTH
 TDD .m                4900.01:  TOTAL DEPTH (DRILLER)
 VSDR.deg               185.64:  VERT SEC DIRECT
 GVFD.g                   1.00:  GRAVITY FIELD
 MFLD.nT              50301.00:  MAGNETIC FIELD
 MDIP.deg                59.46:  MAGNETIC DIP
 MDEC.deg                 6.43:  MAGNETIC DECL
 GRDC.deg                 0.29:  GRID CORRECTION
 AZTC.deg                 6.14:  AZM TOTAL CORR
 EPD .m                   0.00:  ELEVATION
 EGL .m                   0.00:  GROUND ELEVATION
 WDMS.m                 151.80:  WD ELEV
 APD .m                  43.60:  DEPTH ABOVE PD
 DEP .m                 571.69:  DEPTH
 AGAP.m                  43.60:  AIR GAP
 VSEW.m                 -12.38:  VERT SEC E/W
 VSNS.m                  11.04:  VERT SEC N/S
 EKB .m                  43.60:  KB ELEVATION
 EDF .m                  43.60:  DF ELEVATION
 TDL .m                 412.00:  TOTAL DEPTH (LOGGER)
 VSC .                       0:  VS TO CLOSURE
 MAGU.                 1849300:  MAGUTM CHECKSUM
~Parameter Information Block
#MNEM.UNIT       Value        Description
#---------     -----------    ---------------------------
 AV  .mps                 2.21:  Ann Velocity 
 AVMX.mps                 2.53:  Max Ann Veloc 
 AZIF.deg               144.83:  Azm, Final 
 BHAT.        Rotary Steerable:  BHA Type 
 BROT.°/30m              -0.52:  Build Rotating 
 BS  .in                  6.50:  Bit Size 
 BTPL.psig              209.00:  Bit Press Loss 
 CABU.                      No:  Customer Abuse 
 CGEO.        Ali Isfandiyarov:  Customer Geo 
 TCS .hr                 61.31:  Time Ciculation Ended 
 CV  .mps                 4.66:  Crit Velocity 
 CVMX.mps                 5.02:  Max Crit Veloc 
 DD1 .          Fariz Nahmatov:  Direct Drillr 1 
 DD2 .            Musa Ahmadov:  Direct Drillr 2 
 DDSV.               Geo-Pilot:  DD Service 
 DEFF.%                 100.00:  % Det Eff 
 DLRX.°/30m               1.44:  Dogleg Rot Max 
 DLSO.°/30m               0.83:  Dogleg Oriented 
 DLSX.°/30m               1.44:  Dogleg Str Max 
 DRET.      08.30.00 30-Jan-21:  Drill End Time 
 DRST.      21.15.00 27-Jan-21:  Drill Start Tim 
 DTIM.hr                 37.28:  Time Drilling 
 EDEP.m                4867.01:  End Depth 
 ENG1.          Rasim Hashimov:  Engineer 1 
 ENG2.         Almaz Almadatov:  Engineer 2 
 ENG3.        Tamerlan Ahmadov:  Engineer 3 
 ETIM.      22.41.04 31-Jan-21:  End Time 
 FLOI.gpm               400.00:  Flow In 
 FLON.gpm               300.00:  Flow In Min 
 FLOS.cptm                0.00:  Fluid Loss 
 FLOX.gpm               400.00:  Flow In Max 
 HFLO.                      No:  High Flow 
 HPRE.                      No:  High Pressure 
 HTEM.                      No:  High Temp 
 HYDO.m                   1.80:  Hydro Offset 
 IFIN.deg                65.63:  Inc, Final 
 IMAX.deg                66.77:  Inc Max 
 IMIN.deg                65.61:  Inc Min 
 IMND.m                4612.67:  Inc Min Depth 
 IMXD.m                4811.63:  Inc Max Depth 
 JARR.                      No:  Jarring 
 LETM.      08.30.00 30-Jan-21:  Log End Time 
 LOST.hr                     0:  Lost Rig Time 
 LSTM.      21.15.00 27-Jan-21:  Log Start Time 
 MDCL.ppm             41000.00:  Mud Chlorides 
 MDES.     Inversion Oil/Synthetic:  Mud Desc 
 DFD .sg                  1.40:  Mud Density 
 MDMN.sg                  1.40:  Dens Mud Min 
 MDMX.sg                  1.40:  Dens Mud Max 
 MOIL.                      53:  Run Mud Oil % 
 MOWR.                   66:34:  Run Mud OWR 
 MSND.                     0.2:  Run Mud Sand % 
 MSOL.                    17.9:  Run Mud Solids% 
 DFV .spqt               77.00:  Mud Viscosity 
 MWOD.in                  4.75:  MWD Tool OD 
 MWSI.                      No:  Serv Intrp, MWD 
 OTIM.hr                110.38:  Time Operating 
 PCON.           Look Like New:  Pad Condition 
 PMAX.psia             5300.00:  Press Op, Max 
 PV  .cP                 57.00:  Mud PV 
 RUN .                    1200:  Run Number 
 ROPA.m/hr               13.00:  ROP Avg 
 ROPN.m/hr                9.00:  ROP Min 
 ROPX.m/hr               15.00:  ROP Max 
 RPMA.rpm               120.00:  RPM Surface Avg 
 RPMN.rpm               100.00:  RPM Surface Min 
 RPMX.rpm               135.00:  RPM Surface Max 
 RRUN.                    1200:  Rig Run Number 
 RTIM.hr                  2.65:  Time Reaming 
 SAZI.deg               145.04:  Azm, Start 
 SDEP.m                4455.01:  Start Depth 
 SIDD.                      No:  Serv Intrp, DD 
 SINC.deg                65.83:  Inc, Start 
 SPPA.psig             5037.00:  SPP Avg 
 SPPN.psig             4430.00:  SPP Min 
 SPPX.psig             5300.00:  SPP Max 
 STIM.      22.41.04 26-Jan-21:  Start Time 
 SVCS.                 DD, MWD:  Services 
 SVER.                    9.20:  Sperry Version 
 TDAT.m                 412.00:  Tot Depth Attmp 
 TDDF.                      No:  Trip for DD 
 TDLG.m                 412.00:  Tot Depth Loggd 
 TFF .                      No:  Trip for Fail 
 TQAA.f-kp               15.00:  Torque Abs Avg 
 TQAN.f-kp               12.00:  Torque Abs Min 
 TQAX.f-kp               17.00:  Torque Abs Max 
 TRRT.°/30m               1.18:  Turn Rotating 
 MRT .                     ADR:  Maximum Recorded Temperature 
 TTMX.degC               88.24:  Max Tool Temp 
 VS01.                90619458:  Virtual Str1 SN 
 VS02.                90519326:  Virtual Str2 SN 
 VS03.                90522176:  Virtual Str3 SN 
 VS04.                90512683:  Virtual Str4 SN 
 WBMN.klb                 1.00:  WOB Min 
 WITN.           Murad Giluyev:  Customer Rep 
 WITN.     Kamran Kemberlinski:  Customer Rep 2 
 WOBA.klb                 5.00:  WOB Avg 
 WOBX.klb                 9.00:  WOB Max 
 YP  .lhf2               41.00:  Yield Point 
~Curve Information Block
#MNEM.UNIT                 API CODE     Curve Description
#---------               -----------    ---------------------------
 TIME.HHMMSS            00 000 000 000:  GT Time & Date
 GTDEPTH.m              00 000 000 000:  GT Depth
 GTPQH.psia             00 000 000 000:  GT HR Quartz Pressure
 GTTQ.degC              00 000 000 000:  GT Quartz Temperature
 GTTN.NONE              00 000 000 000:  GT Test Number
 GTET.sec               00 000 000 000:  GT Elapsed Test Time
 GTTVD.m                00 000 000 000:  GT True Vertical Depth
#Other Information
#
#WARRANTY: Halliburton will use its best efforts to furnish customers with 
#accurate information and interpretations that are part of, and incident to, the services 
#provided.  However, Halliburton cannot and does not warrant the accuracy 
#or correctness of such information and interpretations.  Under no circumstances should any 
#such information or interpretation be relied upon as the sole basis for any drilling, 
#completion, production, or financial decision or any procedure involving any risk to the 
#safety of any drilling venture, drilling rig or its crew or any other third party.  The 
#Customer has full responsibility for all drilling, completion and production operation.  
#Halliburton makes no representations or warranties, either expressed or 
#implied, including, but not limited to, the implied warranties of merchantability or fitness 
#for a particular purpose, with respect to the services rendered.  In no event will 
#Halliburton be liable for failure to obtain any particular results or for 
#any damages, including, but not limited to, indirect, special or consequential damages, 
#resulting from the use of any information or interpretation provided by Halliburton.
#
~A           TIME           GTDEPTH  GTPQH  GTTQ  GTTN   GTET   GTTVD  
# ...
   20:46:05.612.29-Jan-2021 4766.51 3131.69 83.50 13.00 113.01 2612.24
   20:46:05.812.29-Jan-2021 4766.51 3131.69 83.50 13.00 113.21 2612.24
   20:46:06.012.29-Jan-2021 4766.51 3131.67 83.50 13.00 113.41 2612.24
   20:46:06.212.29-Jan-2021 4766.51 3131.63 83.50 13.00 113.61 2612.24
   20:46:06.412.29-Jan-2021 4766.51 3131.68 83.50 13.00 113.81 2612.24
   20:46:06.612.29-Jan-2021 4766.51 3131.66 83.50 13.00 114.01 2612.24
   20:46:06.812.29-Jan-2021 4766.51 3131.66 83.50 13.00 114.21 2612.24
   20:46:07.012.29-Jan-2021 4766.51 3131.63 83.50 13.00 114.41 2612.24
   20:46:07.212.29-Jan-2021 4766.51 3131.67 83.50 13.00 114.61 2612.24
   20:46:07.412.29-Jan-2021 4766.51 3131.64 83.50 13.00 114.81 2612.24
   20:46:07.612.29-Jan-2021 4766.51 3131.65 83.50 13.00 115.01 2612.24
   20:46:07.812.29-Jan-2021 4766.51 3131.65 83.50 13.00 115.21 2612.24
   20:46:08.012.29-Jan-2021 4766.51 3131.65 83.49 13.00 115.41 2612.24
   20:46:08.212.29-Jan-2021 4766.51 3131.63 83.49 13.00 115.61 2612.24
   20:46:08.412.29-Jan-2021 4766.51 3131.64 83.49 13.00 115.81 2612.24
   20:46:08.612.29-Jan-2021 4766.51 3131.65 83.49 13.00 116.01 2612.24
   20:46:08.812.29-Jan-2021 4766.51 3131.65 83.49 13.00 116.21 2612.24
   20:46:09.012.29-Jan-2021 4766.51 3131.64 83.49 13.00 116.41 2612.24
   20:46:09.212.29-Jan-2021 4766.51 3131.63 83.49 13.00 116.61 2612.24
   20:46:09.412.29-Jan-2021 4766.51 3131.64 83.49 13.00 116.81 2612.24
   20:46:09.612.29-Jan-2021 4766.51 3131.63 83.49 13.00 117.01 2612.24
   20:46:09.812.29-Jan-2021 4766.51 3131.63 83.49 13.00 117.21 2612.24
   20:46:10.012.29-Jan-2021 4766.51 3131.62 83.49 13.00 117.41 2612.24
   20:46:10.212.29-Jan-2021 4766.51 3131.62 83.49 13.00 117.61 2612.24
   20:46:10.412.29-Jan-2021 4766.51 3131.62 83.49 13.00 117.81 2612.24
   20:46:10.612.29-Jan-2021 4766.51 3131.63 83.49 13.00 118.01 2612.24
   20:46:10.812.29-Jan-2021 4766.51 3131.63 83.49 13.00 118.21 2612.24
   20:46:11.012.29-Jan-2021 4766.51 3131.60 83.48 13.00 118.41 2612.24
   20:46:11.212.29-Jan-2021 4766.51 3131.63 83.48 13.00 118.61 2612.24
   20:46:11.412.29-Jan-2021 4766.51 3131.63 83.48 13.00 118.81 2612.24
   20:46:11.612.29-Jan-2021 4766.51 3131.62 83.48 13.00 119.01 2612.24
   20:46:11.812.29-Jan-2021 4766.51 3131.62 83.48 13.00 119.21 2612.24
   20:46:12.012.29-Jan-2021 4766.51 3131.63 83.48 13.00 119.41 2612.24
   20:46:12.212.29-Jan-2021 4766.51 3131.61 83.48 13.00 119.61 2612.24
   20:46:12.412.29-Jan-2021 4766.51 3131.62 83.48 13.00 119.81 2612.24
   20:46:12.612.29-Jan-2021 4766.51 3131.61 83.48 13.00 120.01 2612.24
   20:46:12.812.29-Jan-2021 4766.51 3131.61 83.48 13.00 120.21 2612.24
   20:46:13.012.29-Jan-2021 4766.51 3131.61 83.48 13.00 120.41 2612.24
   20:46:13.212.29-Jan-2021 4766.51 3131.61 83.48 13.00 120.61 2612.24
   20:46:13.412.29-Jan-2021 4766.51 3131.60 83.48 13.00 120.81 2612.24
   20:46:13.613.29-Jan-2021 4766.51 3131.61 83.47 13.00 121.01 2612.24
   20:46:13.813.29-Jan-2021 4766.51 3131.61 83.47 13.00 121.21 2612.24
   20:46:14.013.29-Jan-2021 4766.51 3131.60 83.47 13.00 121.41 2612.24
   20:46:14.213.29-Jan-2021 4766.51 3131.59 83.47 13.00 121.61 2612.24
   20:46:14.413.29-Jan-2021 4766.51 3131.60 83.47 13.00 121.81 2612.24
   20:46:14.613.29-Jan-2021 4766.51 3131.60 83.47 13.00 122.01 2612.24
   20:46:14.813.29-Jan-2021 4766.51 3131.60 83.47 13.00 122.21 2612.24
   20:46:15.013.29-Jan-2021 4766.51 3131.60 83.47 13.00 122.41 2612.24
   20:46:15.213.29-Jan-2021 4766.51 3131.57 83.47 13.00 122.61 2612.24
   20:46:15.413.29-Jan-2021 4766.51 3131.62 83.47 13.00 122.81 2612.24
   20:46:15.613.29-Jan-2021 4766.51 3131.60 83.47 13.00 123.01 2612.24
   20:46:15.813.29-Jan-2021 4766.51 3131.60 83.47 13.00 123.21 2612.24
   20:46:16.013.29-Jan-2021 4766.51 3131.58 83.47 13.00 123.41 2612.24
   20:46:16.213.29-Jan-2021 4766.51 3131.55 83.47 13.00 123.61 2612.24
   20:46:16.413.29-Jan-2021 4766.51 3131.64 83.47 13.00 123.81 2612.24
   20:46:16.613.29-Jan-2021 4766.51 3131.61 83.46 13.00 124.01 2612.24
   20:46:16.813.29-Jan-2021 4766.51 3131.61 83.46 13.00 124.21 2612.24
   20:46:17.013.29-Jan-2021 4766.51 3131.58 83.46 13.00 124.41 2612.24
   20:46:17.213.29-Jan-2021 4766.51 3131.58 83.46 13.00 124.61 2612.24
   20:46:17.413.29-Jan-2021 4766.51 3131.60 83.46 13.00 124.81 2612.24
   20:46:17.613.29-Jan-2021 4766.51 3131.59 83.46 13.00 125.01 2612.24
   20:46:17.813.29-Jan-2021 4766.51 3131.59 83.46 13.00 125.21 2612.24
   20:46:18.013.29-Jan-2021 4766.51 3131.58 83.46 13.00 125.41 2612.24
   20:46:18.213.29-Jan-2021 4766.51 3131.59 83.46 13.00 125.61 2612.24
   20:46:18.413.29-Jan-2021 4766.51 3131.57 83.46 13.00 125.81 2612.24
   20:46:18.613.29-Jan-2021 4766.51 3131.59 83.46 13.00 126.01 2612.24
   20:46:18.813.29-Jan-2021 4766.51 3131.59 83.46 13.00 126.21 2612.24
   20:46:19.013.29-Jan-2021 4766.51 3131.58 83.46 13.00 126.41 2612.24
   20:46:19.213.29-Jan-2021 4766.51 3131.57 83.46 13.00 126.61 2612.24
   20:46:19.413.29-Jan-2021 4766.51 3131.58 83.45 13.00 126.81 2612.24
   20:46:19.613.29-Jan-2021 4766.51 3131.58 83.45 13.00 127.02 2612.24
   20:46:19.813.29-Jan-2021 4766.51 3131.58 83.45 13.00 127.22 2612.24
   20:46:20.013.29-Jan-2021 4766.51 3131.57 83.45 13.00 127.42 2612.24
   20:46:20.213.29-Jan-2021 4766.51 3131.57 83.45 13.00 127.62 2612.24
   20:46:20.413.29-Jan-2021 4766.51 3131.58 83.45 13.00 127.82 2612.24
   20:46:20.613.29-Jan-2021 4766.51 3131.56 83.45 13.00 128.02 2612.24
   20:46:20.813.29-Jan-2021 4766.51 3131.56 83.45 13.00 128.22 2612.24
   20:46:21.013.29-Jan-2021 4766.51 3131.56 83.45 13.00 128.42 2612.24
   20:46:21.213.29-Jan-2021 4766.51 3131.56 83.45 13.00 128.62 2612.24
   20:46:21.413.29-Jan-2021 4766.51 3131.57 83.45 13.00 128.82 2612.24
   20:46:21.613.29-Jan-2021 4766.51 3131.55 83.45 13.00 129.02 2612.24
   20:46:21.813.29-Jan-2021 4766.51 3131.55 83.45 13.00 129.22 2612.24
   20:46:22.014.29-Jan-2021 4766.51 3131.53 83.45 13.00 129.42 2612.24
   20:46:22.214.29-Jan-2021 4766.51 3131.58 83.45 13.00 129.62 2612.24
   20:46:22.414.29-Jan-2021 4766.51 3131.55 83.44 13.00 129.82 2612.24
   20:46:22.614.29-Jan-2021 4766.51 3131.57 83.44 13.00 130.02 2612.24
   20:46:22.814.29-Jan-2021 4766.51 3131.57 83.44 13.00 130.22 2612.24
   20:46:23.014.29-Jan-2021 4766.51 3131.56 83.44 13.00 130.42 2612.24
   20:46:23.214.29-Jan-2021 4766.51 3131.56 83.44 13.00 130.62 2612.24
   20:46:23.414.29-Jan-2021 4766.51 3131.56 83.44 13.00 130.82 2612.24
   20:46:23.614.29-Jan-2021 4766.51 3131.54 83.44 13.00 131.02 2612.24
   20:46:23.814.29-Jan-2021 4766.51 3131.54 83.44 13.00 131.22 2612.24
   20:46:24.014.29-Jan-2021 4766.51 3131.55 83.44 13.00 131.42 2612.24
   20:46:24.214.29-Jan-2021 4766.51 3131.55 83.44 13.00 131.62 2612.24
   20:46:24.414.29-Jan-2021 4766.51 3131.54 83.44 13.00 131.82 2612.24
   20:46:24.614.29-Jan-2021 4766.51 3131.54 83.44 13.00 132.02 2612.24
   20:46:24.814.29-Jan-2021 4766.51 3131.54 83.44 13.00 132.22 2612.24
   20:46:25.014.29-Jan-2021 4766.51 3131.55 83.44 13.00 132.42 2612.24
   20:46:25.214.29-Jan-2021 4766.51 3131.18 83.44 13.00 132.62 2612.24
   20:46:25.414.29-Jan-2021 4766.51 3118.75 83.43 13.00 132.82 2612.24
   20:46:25.614.29-Jan-2021 4766.51 3118.24 83.43 13.00 133.02 2612.24
   20:46:25.814.29-Jan-2021 4766.51 3118.24 83.43 13.00 133.22 2612.24
   20:46:26.014.29-Jan-2021 4766.51 3117.88 83.43 13.00 133.42 2612.24
   20:46:26.214.29-Jan-2021 4766.51 3118.24 83.43 13.00 133.62 2612.24
   20:46:26.414.29-Jan-2021 4766.51 3118.13 83.43 13.00 133.82 2612.24
   20:46:26.614.29-Jan-2021 4766.51 3118.06 83.43 13.00 134.02 2612.24
   20:46:26.814.29-Jan-2021 4766.51 3118.06 83.43 13.00 134.22 2612.24
   20:46:27.014.29-Jan-2021 4766.51 3118.06 83.43 13.00 134.42 2612.24
   20:46:27.214.29-Jan-2021 4766.51 3118.13 83.43 13.00 134.62 2612.24
   20:46:27.414.29-Jan-2021 4766.51 3118.11 83.43 13.00 134.82 2612.24
   20:46:27.614.29-Jan-2021 4766.51 3118.05 83.43 13.00 135.02 2612.24
   20:46:27.814.29-Jan-2021 4766.51 3118.05 83.43 13.00 135.22 2612.24
   20:46:28.014.29-Jan-2021 4766.51 3117.91 83.43 13.00 135.42 2612.24
