~Version Information
 VERS.                  2.0:   CWLS log ASCII Standard -VERSION 2.0
 WRAP.                   NO:   One line per depth step
~Well Information Block
#MNEM.UNIT     VALUE/NAME     DESCRIPTION
#---------     -----------    ---------------------------
 STRT.S             20:27:59 28-Jan-21: START TIME 20:27:59 28-Jan-21
 STOP.S             20:34:29 28-Jan-21: STOP TIME  20:34:29 28-Jan-21
 STEP.S                   0.00: STEP TIME
 NULL.                 -999.25: NULL VALUE
 DFWT.                        :  DIST FWL TEXT
 DFST.                        :  DIST FSL TEXT
 DMF .             Drill Floor:  DRILL MEAS FROM
 STIM.      00.00.00 25-Sep-20:  START TIME
 DATE.      16.12.48 31-Jan-21:  END TIME
 SPUD.               20-Sep-20:  SPUD DATE
 NREF.                    Grid:  NORTH REFERENCE
 HPTY.       Minimum Curvature:  HOLE POS TYPE
 DMOD.             Drill Model:  DRILL MOD DESC
 SVYD.                  Survey:  SURVEY DESC
 ILTD.               Lithology:  INTERP LTH DESC
 FTOP.          Formation Tops:  FORM TOPS DESC
 RIG .              East Azeri:  RIG NAME
 PDAT.          Mean Sea Level:  PERMANENT DATUM
 FLD .                     ACG:  FIELD NAME
 SON .        AZ-XX-0906591820:  JOB NUMBER
 CTRY.              Azerbaijan:  COUNTRY NAME
 WELL.                     D37:  WELL NAME
 SRVC.     Turan Drilling & Engineering:  CONTRACTOR
 COMP.     BP Exploration (Caspian Sea) ltd.:  COMPANY
 WTYP.                Deviated:  WELL TYPE
 MDS .        Operator Entered:  MAG DATA SOURCE
 UWI .                     N/A:  UNIQUE WELL IDENTIFIER
 API .                     N/A:  API NUMBER
 BASE.              Azerbaijan:  LOGGING EQUIPMENT BASE LOCATION
 REGN.                   EESSA:  REGION
 PROV.                    Baku:  PROVINCE
 STAT.                    Baku:  STATE NAME
 MWDS.                    Baku:  MWD SHOP
 JOBN.        AZ-XX-0906591820:  JOB TICKET NUMB
 DOE .                     N/A:  DOE NUMBER
 DCON.         Sperry Drilling:  DIRECTNL CONTR
 UNIT.                     N/A:  LOGGING EQUIPMENT ID
 CNTY.                        :  COUNTY
 LOC .                        :  LOCATION
 LMF .             Drill Floor:  LOG MEASURED FROM
 TVDS.m                  43.60:  TVDSS CORRECTN
 LATI.deg                40.02:  LATITUDE
 LONG.deg                51.45:  LONGITUDE
 WHNS.m                  11.04:  WELL HEAD N/S
 WHEW.m                 -12.38:  WELL HEAD E/W
 UTMX.m              538763.98:  UTM X
 UTMY.m             4431880.20:  UTM Y
 DFWL.m                   0.00:  DISTANCE FWL
 DFSL.m                   0.00:  DISTANCE FSL
 SDEP.m                 300.00:  START DEPTH
 TDD .m                4900.01:  TOTAL DEPTH (DRILLER)
 VSDR.deg               185.64:  VERT SEC DIRECT
 GVFD.g                   1.00:  GRAVITY FIELD
 MFLD.nT              50301.00:  MAGNETIC FIELD
 MDIP.deg                59.46:  MAGNETIC DIP
 MDEC.deg                 6.43:  MAGNETIC DECL
 GRDC.deg                 0.29:  GRID CORRECTION
 AZTC.deg                 6.14:  AZM TOTAL CORR
 EPD .m                   0.00:  ELEVATION
 EGL .m                   0.00:  GROUND ELEVATION
 WDMS.m                 151.80:  WD ELEV
 APD .m                  43.60:  DEPTH ABOVE PD
 DEP .m                 571.69:  DEPTH
 AGAP.m                  43.60:  AIR GAP
 VSEW.m                 -12.38:  VERT SEC E/W
 VSNS.m                  11.04:  VERT SEC N/S
 EKB .m                  43.60:  KB ELEVATION
 EDF .m                  43.60:  DF ELEVATION
 TDL .m                 412.00:  TOTAL DEPTH (LOGGER)
 VSC .                       0:  VS TO CLOSURE
 MAGU.                 1849300:  MAGUTM CHECKSUM
~Parameter Information Block
#MNEM.UNIT       Value        Description
#---------     -----------    ---------------------------
 AV  .mps                 2.21:  Ann Velocity 
 AVMX.mps                 2.53:  Max Ann Veloc 
 AZIF.deg               144.83:  Azm, Final 
 BHAT.        Rotary Steerable:  BHA Type 
 BROT.°/30m              -0.52:  Build Rotating 
 BS  .in                  6.50:  Bit Size 
 BTPL.psig              209.00:  Bit Press Loss 
 CABU.                      No:  Customer Abuse 
 CGEO.        Ali Isfandiyarov:  Customer Geo 
 COMM.                     ,´U:  Run Comments 1 
 TCS .hr                 61.31:  Time Ciculation Ended 
 CV  .mps                 4.66:  Crit Velocity 
 CVMX.mps                 5.02:  Max Crit Veloc 
 DD1 .          Fariz Nahmatov:  Direct Drillr 1 
 DD2 .            Musa Ahmadov:  Direct Drillr 2 
 DDSV.               Geo-Pilot:  DD Service 
 DEFF.%                 100.00:  % Det Eff 
 DLRX.°/30m               1.44:  Dogleg Rot Max 
 DLSO.°/30m               0.83:  Dogleg Oriented 
 DLSX.°/30m               1.44:  Dogleg Str Max 
 DRET.      08.30.00 30-Jan-21:  Drill End Time 
 DRST.      21.15.00 27-Jan-21:  Drill Start Tim 
 DTIM.hr                 37.28:  Time Drilling 
 EDEP.m                4867.01:  End Depth 
 ENG1.          Rasim Hashimov:  Engineer 1 
 ENG2.         Almaz Almadatov:  Engineer 2 
 ENG3.        Tamerlan Ahmadov:  Engineer 3 
 ETIM.      22.41.04 31-Jan-21:  End Time 
 FLOI.gpm               400.00:  Flow In 
 FLON.gpm               300.00:  Flow In Min 
 FLOS.cptm                0.00:  Fluid Loss 
 FLOX.gpm               400.00:  Flow In Max 
 HFLO.                      No:  High Flow 
 HPRE.                      No:  High Pressure 
 HTEM.                      No:  High Temp 
 HYDO.m                   1.80:  Hydro Offset 
 IFIN.deg                65.63:  Inc, Final 
 IMAX.deg                66.77:  Inc Max 
 IMIN.deg                65.61:  Inc Min 
 IMND.m                4612.67:  Inc Min Depth 
 IMXD.m                4811.63:  Inc Max Depth 
 JARR.                      No:  Jarring 
 LETM.      08.30.00 30-Jan-21:  Log End Time 
 LOST.hr                     0:  Lost Rig Time 
 LSTM.      21.15.00 27-Jan-21:  Log Start Time 
 MDCL.ppm             41000.00:  Mud Chlorides 
 MDES.     Inversion Oil/Synthetic:  Mud Desc 
 DFD .sg                  1.40:  Mud Density 
 MDMN.sg                  1.40:  Dens Mud Min 
 MDMX.sg                  1.40:  Dens Mud Max 
 MOIL.                      53:  Run Mud Oil % 
 MOWR.                   66:34:  Run Mud OWR 
 MSND.                     0.2:  Run Mud Sand % 
 MSOL.                    17.9:  Run Mud Solids% 
 DFV .spqt               77.00:  Mud Viscosity 
 MWOD.in                  4.75:  MWD Tool OD 
 MWSI.                      No:  Serv Intrp, MWD 
 OTIM.hr                110.38:  Time Operating 
 PCON.           Look Like New:  Pad Condition 
 PMAX.psia             5300.00:  Press Op, Max 
 PV  .cP                 57.00:  Mud PV 
 RUN .                    1200:  Run Number 
 ROPA.m/hr               13.00:  ROP Avg 
 ROPN.m/hr                9.00:  ROP Min 
 ROPX.m/hr               15.00:  ROP Max 
 RPMA.rpm               120.00:  RPM Surface Avg 
 RPMN.rpm               100.00:  RPM Surface Min 
 RPMX.rpm               135.00:  RPM Surface Max 
 RRUN.                    1200:  Rig Run Number 
 RTIM.hr                  2.65:  Time Reaming 
 SAZI.deg               145.04:  Azm, Start 
 SDEP.m                4455.01:  Start Depth 
 SIDD.                      No:  Serv Intrp, DD 
 SINC.deg                65.83:  Inc, Start 
 SPPA.psig             5037.00:  SPP Avg 
 SPPN.psig             4430.00:  SPP Min 
 SPPX.psig             5300.00:  SPP Max 
 STIM.      22.41.04 26-Jan-21:  Start Time 
 SVCS.                 DD, MWD:  Services 
 SVER.                    9.20:  Sperry Version 
 TDAT.m                 412.00:  Tot Depth Attmp 
 TDDF.                      No:  Trip for DD 
 TDLG.m                 412.00:  Tot Depth Loggd 
 TFF .                      No:  Trip for Fail 
 TQAA.f-kp               15.00:  Torque Abs Avg 
 TQAN.f-kp               12.00:  Torque Abs Min 
 TQAX.f-kp               17.00:  Torque Abs Max 
 TRRT.°/30m               1.18:  Turn Rotating 
 MRT .                     ADR:  Maximum Recorded Temperature 
 TTMX.degC               88.24:  Max Tool Temp 
 VS01.                90619458:  Virtual Str1 SN 
 VS02.                90519326:  Virtual Str2 SN 
 VS03.                90522176:  Virtual Str3 SN 
 VS04.                90512683:  Virtual Str4 SN 
 WBMN.klb                 1.00:  WOB Min 
 WITN.           Murad Giluyev:  Customer Rep 
 WITN.     Kamran Kemberlinski:  Customer Rep 2 
 WOBA.klb                 5.00:  WOB Avg 
 WOBX.klb                 9.00:  WOB Max 
 YP  .lhf2               41.00:  Yield Point 
~Curve Information Block
#MNEM.UNIT                 API CODE     Curve Description
#---------               -----------    ---------------------------
 TIME.HHMMSS            00 000 000 000:  GT Time & Date
 GTDEPTH.m              00 000 000 000:  GT Depth
 GTPQH.psia             00 000 000 000:  GT HR Quartz Pressure
 GTTQ.degC              00 000 000 000:  GT Quartz Temperature
 GTTN.NONE              00 000 000 000:  GT Test Number
 GTET.sec               00 000 000 000:  GT Elapsed Test Time
 GTTVD.m                00 000 000 000:  GT True Vertical Depth
#Other Information
#
#WARRANTY: Halliburton will use its best efforts to furnish customers with 
#accurate information and interpretations that are part of, and incident to, the services 
#provided.  However, Halliburton cannot and does not warrant the accuracy 
#or correctness of such information and interpretations.  Under no circumstances should any 
#such information or interpretation be relied upon as the sole basis for any drilling, 
#completion, production, or financial decision or any procedure involving any risk to the 
#safety of any drilling venture, drilling rig or its crew or any other third party.  The 
#Customer has full responsibility for all drilling, completion and production operation.  
#Halliburton makes no representations or warranties, either expressed or 
#implied, including, but not limited to, the implied warranties of merchantability or fitness 
#for a particular purpose, with respect to the services rendered.  In no event will 
#Halliburton be liable for failure to obtain any particular results or for 
#any damages, including, but not limited to, indirect, special or consequential damages, 
#resulting from the use of any information or interpretation provided by Halliburton.
#
~A           TIME           GTDEPTH  GTPQH  GTTQ  GTTN  GTET   GTTVD  
# ...
   20:33:44.437.28-Jan-2021 4575.01 3008.83 74.25 6.00 345.07 2534.93
   20:33:44.637.28-Jan-2021 4575.01 3008.83 74.25 6.00 345.27 2534.93
   20:33:44.837.28-Jan-2021 4575.01 3008.84 74.25 6.00 345.47 2534.93
   20:33:45.037.28-Jan-2021 4575.01 3008.86 74.25 6.00 345.67 2534.93
   20:33:45.237.28-Jan-2021 4575.01 3008.84 74.25 6.00 345.87 2534.93
   20:33:45.437.28-Jan-2021 4575.01 3008.86 74.25 6.00 346.07 2534.93
   20:33:45.637.28-Jan-2021 4575.01 3008.86 74.25 6.00 346.27 2534.93
   20:33:45.837.28-Jan-2021 4575.01 3008.84 74.25 6.00 346.47 2534.93
   20:33:46.037.28-Jan-2021 4575.01 3008.79 74.24 6.00 346.67 2534.93
   20:33:46.237.28-Jan-2021 4575.01 3009.47 74.24 6.00 346.87 2534.93
   20:33:46.437.28-Jan-2021 4575.01 3012.35 74.24 6.00 347.07 2534.93
   20:33:46.637.28-Jan-2021 4575.01 3012.35 74.24 6.00 347.27 2534.93
   20:33:46.837.28-Jan-2021 4575.01 4061.76 74.24 6.00 347.47 2534.93
   20:33:47.037.28-Jan-2021 4575.01 5584.93 74.24 6.00 347.67 2534.93
   20:33:47.237.28-Jan-2021 4575.01 5587.96 74.24 6.00 347.87 2534.93
   20:33:47.437.28-Jan-2021 4575.01 5589.11 74.24 6.00 348.07 2534.93
   20:33:47.637.28-Jan-2021 4575.01 5589.11 74.24 6.00 348.27 2534.93
   20:33:47.837.28-Jan-2021 4575.01 5591.61 74.24 6.00 348.47 2534.93
   20:33:48.037.28-Jan-2021 4575.01 5584.85 74.24 6.00 348.67 2534.93
   20:33:48.237.28-Jan-2021 4575.01 5594.21 74.24 6.00 348.87 2534.93
   20:33:48.437.28-Jan-2021 4575.01 5588.58 74.24 6.00 349.07 2534.93
   20:33:48.637.28-Jan-2021 4575.01 5588.58 74.24 6.00 349.27 2534.93
   20:33:48.837.28-Jan-2021 4575.01 5592.14 74.24 6.00 349.47 2534.93
   20:33:49.037.28-Jan-2021 4575.01 5596.00 74.24 6.00 349.67 2534.93
   20:33:49.238.28-Jan-2021 4575.01 5588.56 74.24 6.00 349.87 2534.93
   20:33:49.438.28-Jan-2021 4575.01 5594.48 74.24 6.00 350.07 2534.93
   20:33:49.638.28-Jan-2021 4575.01 5594.48 74.24 6.00 350.27 2534.93
   20:33:49.838.28-Jan-2021 4575.01 5593.87 74.24 6.00 350.47 2534.93
   20:33:50.038.28-Jan-2021 4575.01 5595.80 74.24 6.00 350.67 2534.93
   20:33:50.238.28-Jan-2021 4575.01 5595.44 74.24 6.00 350.87 2534.93
   20:33:50.438.28-Jan-2021 4575.01 5594.88 74.24 6.00 351.07 2534.93
   20:33:50.638.28-Jan-2021 4575.01 5594.88 74.24 6.00 351.27 2534.93
   20:33:50.838.28-Jan-2021 4575.01 5595.73 74.24 6.00 351.47 2534.93
   20:33:51.038.28-Jan-2021 4575.01 5593.22 74.24 6.00 351.67 2534.93
   20:33:51.238.28-Jan-2021 4575.01 5594.31 74.24 6.00 351.87 2534.93
   20:33:51.438.28-Jan-2021 4575.01 5596.15 74.24 6.00 352.07 2534.93
   20:33:51.638.28-Jan-2021 4575.01 5596.15 74.24 6.00 352.27 2534.93
   20:33:51.838.28-Jan-2021 4575.01 5596.58 74.24 6.00 352.47 2534.93
   20:33:52.038.28-Jan-2021 4575.01 5596.29 74.24 6.00 352.67 2534.93
   20:33:52.238.28-Jan-2021 4575.01 5596.27 74.24 6.00 352.87 2534.93
   20:33:52.438.28-Jan-2021 4575.01 5596.54 74.24 6.00 353.07 2534.93
   20:33:52.638.28-Jan-2021 4575.01 5596.54 74.24 6.00 353.27 2534.93
   20:33:52.838.28-Jan-2021 4575.01 5596.79 74.24 6.00 353.47 2534.93
   20:33:53.038.28-Jan-2021 4575.01 5595.60 74.24 6.00 353.67 2534.93
   20:33:53.238.28-Jan-2021 4575.01 5597.13 74.24 6.00 353.87 2534.93
   20:33:53.438.28-Jan-2021 4575.01 5595.27 74.24 6.00 354.07 2534.93
   20:33:53.638.28-Jan-2021 4575.01 5595.27 74.24 6.00 354.27 2534.93
   20:33:53.838.28-Jan-2021 4575.01 5595.03 74.24 6.00 354.47 2534.93
   20:33:54.038.28-Jan-2021 4575.01 5596.42 74.24 6.00 354.67 2534.93
   20:33:54.238.28-Jan-2021 4575.01 5589.05 74.24 6.00 354.87 2534.93
   20:33:54.439.28-Jan-2021 4575.01 5598.01 74.24 6.00 355.07 2534.93
   20:33:54.639.28-Jan-2021 4575.01 5598.01 74.24 6.00 355.27 2534.93
   20:33:54.839.28-Jan-2021 4575.01 5596.32 74.24 6.00 355.47 2534.93
   20:33:55.039.28-Jan-2021 4575.01 5595.08 74.24 6.00 355.67 2534.93
   20:33:55.239.28-Jan-2021 4575.01 5597.73 74.24 6.00 355.87 2534.93
   20:33:55.439.28-Jan-2021 4575.01 5596.97 74.24 6.00 356.07 2534.93
   20:33:55.639.28-Jan-2021 4575.01 5596.97 74.24 6.00 356.27 2534.93
   20:33:55.839.28-Jan-2021 4575.01 5597.69 74.24 6.00 356.47 2534.93
   20:33:56.039.28-Jan-2021 4575.01 5596.07 74.24 6.00 356.67 2534.93
   20:33:56.239.28-Jan-2021 4575.01 5597.73 74.24 6.00 356.87 2534.93
   20:33:56.439.28-Jan-2021 4575.01 5595.76 74.24 6.00 357.07 2534.93
   20:33:56.639.28-Jan-2021 4575.01 5595.76 74.24 6.00 357.27 2534.93
   20:33:56.839.28-Jan-2021 4575.01 5595.59 74.25 6.00 357.47 2534.93
   20:33:57.039.28-Jan-2021 4575.01 5596.81 74.25 6.00 357.67 2534.93
   20:33:57.239.28-Jan-2021 4575.01 5595.41 74.25 6.00 357.87 2534.93
   20:33:57.439.28-Jan-2021 4575.01 5590.58 74.24 6.00 358.07 2534.93
   20:33:57.639.28-Jan-2021 4575.01 5590.58 74.24 6.00 358.27 2534.93
   20:33:57.839.28-Jan-2021 4575.01 5594.03 74.25 6.00 358.47 2534.93
   20:33:58.039.28-Jan-2021 4575.01 5595.42 74.25 6.00 358.67 2534.93
   20:33:58.239.28-Jan-2021 4575.01 5590.99 74.25 6.00 358.87 2534.93
   20:33:58.439.28-Jan-2021 4575.01 5598.94 74.25 6.00 359.07 2534.93
   20:33:58.639.28-Jan-2021 4575.01 5598.94 74.25 6.00 359.27 2534.93
   20:33:58.839.28-Jan-2021 4575.01 5597.61 74.25 6.00 359.47 2534.93
   20:33:59.039.28-Jan-2021 4575.01 5596.38 74.25 6.00 359.67 2534.93
   20:33:59.239.28-Jan-2021 4575.01 5598.90 74.25 6.00 359.87 2534.93
   20:33:59.440.28-Jan-2021 4575.01 5591.24 74.25 6.00 360.07 2534.93
   20:33:59.640.28-Jan-2021 4575.01 5591.24 74.25 6.00 360.27 2534.93
   20:33:59.840.28-Jan-2021 4575.01 5595.86 74.25 6.00 360.47 2534.93
   20:34:00.040.28-Jan-2021 4575.01 5595.84 74.25 6.00 360.67 2534.93
   20:34:00.240.28-Jan-2021 4575.01 5597.56 74.25 6.00 360.87 2534.93
   20:34:00.440.28-Jan-2021 4575.01 5591.23 74.25 6.00 361.07 2534.93
   20:34:00.640.28-Jan-2021 4575.01 5591.23 74.25 6.00 361.27 2534.93
   20:34:00.840.28-Jan-2021 4575.01 5593.67 74.25 6.00 361.47 2534.93
   20:34:01.040.28-Jan-2021 4575.01 5596.64 74.25 6.00 361.67 2534.93
   20:34:01.240.28-Jan-2021 4575.01 5595.45 74.25 6.00 361.87 2534.93
   20:34:01.440.28-Jan-2021 4575.01 5597.61 74.25 6.00 362.07 2534.93
   20:34:01.640.28-Jan-2021 4575.01 5597.61 74.25 6.00 362.27 2534.93
   20:34:01.840.28-Jan-2021 4575.01 5594.73 74.25 6.00 362.47 2534.93
   20:34:02.040.28-Jan-2021 4575.01 5593.72 74.25 6.00 362.67 2534.93
   20:34:02.240.28-Jan-2021 4575.01 5592.53 74.25 6.00 362.87 2534.93
   20:34:02.440.28-Jan-2021 4575.01 5595.61 74.25 6.00 363.07 2534.93
   20:34:02.640.28-Jan-2021 4575.01 5595.61 74.25 6.00 363.27 2534.93
   20:34:02.840.28-Jan-2021 4575.01 5597.09 74.25 6.00 363.47 2534.93
   20:34:03.040.28-Jan-2021 4575.01 5596.94 74.25 6.00 363.67 2534.93
   20:34:03.240.28-Jan-2021 4575.01 5596.16 74.25 6.00 363.87 2534.93
   20:34:03.440.28-Jan-2021 4575.01 5597.23 74.25 6.00 364.07 2534.93
   20:34:03.640.28-Jan-2021 4575.01 5597.23 74.25 6.00 364.27 2534.93
   20:34:03.840.28-Jan-2021 4575.01 5596.88 74.25 6.00 364.47 2534.93
   20:34:04.040.28-Jan-2021 4575.01 5595.64 74.25 6.00 364.67 2534.93
   20:34:04.240.28-Jan-2021 4575.01 5596.50 74.25 6.00 364.87 2534.93
   20:34:04.440.28-Jan-2021 4575.01 5596.07 74.25 6.00 365.07 2534.93
   20:34:04.641.28-Jan-2021 4575.01 5596.07 74.25 6.00 365.27 2534.93
   20:34:04.841.28-Jan-2021 4575.01 5595.71 74.24 6.00 365.47 2534.93
   20:34:05.041.28-Jan-2021 4575.01 5595.67 74.24 6.00 365.67 2534.93
   20:34:05.241.28-Jan-2021 4575.01 5595.77 74.24 6.00 365.87 2534.93
   20:34:05.441.28-Jan-2021 4575.01 5589.23 74.24 6.00 366.07 2534.93
   20:34:05.641.28-Jan-2021 4575.01 5589.23 74.24 6.00 366.27 2534.93
   20:34:05.841.28-Jan-2021 4575.01 5592.73 74.24 6.00 366.47 2534.93
   20:34:06.041.28-Jan-2021 4575.01 5595.99 74.24 6.00 366.67 2534.93
   20:34:06.241.28-Jan-2021 4575.01 5596.07 74.24 6.00 366.87 2534.93
   20:34:06.441.28-Jan-2021 4575.01 5597.70 74.24 6.00 367.07 2534.93
   20:34:06.641.28-Jan-2021 4575.01 5597.70 74.24 6.00 367.27 2534.93
   20:34:06.841.28-Jan-2021 4575.01 5597.51 74.24 6.00 367.47 2534.93
   20:34:07.041.28-Jan-2021 4575.01 5596.29 74.24 6.00 367.67 2534.93
   20:34:07.241.28-Jan-2021 4575.01 5596.82 74.24 6.00 367.87 2534.93
