~Version Information
 VERS.                  2.0:   CWLS log ASCII Standard -VERSION 2.0
 WRAP.                   NO:   One line per depth step
~Well Information Block
#MNEM.UNIT     VALUE/NAME     DESCRIPTION
#---------     -----------    ---------------------------
 STRT.S             07:03:45 29-Jan-21: START TIME 07:03:45 29-Jan-21
 STOP.S             07:10:14 29-Jan-21: STOP TIME  07:10:14 29-Jan-21
 STEP.S                   0.00: STEP TIME
 NULL.                 -999.25: NULL VALUE
 DFWT.                        :  DIST FWL TEXT
 DFST.                        :  DIST FSL TEXT
 DMF .             Drill Floor:  DRILL MEAS FROM
 STIM.      00.00.00 25-Sep-20:  START TIME
 DATE.      16.12.48 31-Jan-21:  END TIME
 SPUD.               20-Sep-20:  SPUD DATE
 NREF.                    Grid:  NORTH REFERENCE
 HPTY.       Minimum Curvature:  HOLE POS TYPE
 DMOD.             Drill Model:  DRILL MOD DESC
 SVYD.                  Survey:  SURVEY DESC
 ILTD.               Lithology:  INTERP LTH DESC
 FTOP.          Formation Tops:  FORM TOPS DESC
 RIG .              East Azeri:  RIG NAME
 PDAT.          Mean Sea Level:  PERMANENT DATUM
 FLD .                     ACG:  FIELD NAME
 SON .        AZ-XX-0906591820:  JOB NUMBER
 CTRY.              Azerbaijan:  COUNTRY NAME
 WELL.                     D37:  WELL NAME
 SRVC.     Turan Drilling & Engineering:  CONTRACTOR
 COMP.     BP Exploration (Caspian Sea) ltd.:  COMPANY
 WTYP.                Deviated:  WELL TYPE
 MDS .        Operator Entered:  MAG DATA SOURCE
 UWI .                     N/A:  UNIQUE WELL IDENTIFIER
 API .                     N/A:  API NUMBER
 BASE.              Azerbaijan:  LOGGING EQUIPMENT BASE LOCATION
 REGN.                   EESSA:  REGION
 PROV.                    Baku:  PROVINCE
 STAT.                    Baku:  STATE NAME
 MWDS.                    Baku:  MWD SHOP
 JOBN.        AZ-XX-0906591820:  JOB TICKET NUMB
 DOE .                     N/A:  DOE NUMBER
 DCON.         Sperry Drilling:  DIRECTNL CONTR
 UNIT.                     N/A:  LOGGING EQUIPMENT ID
 CNTY.                        :  COUNTY
 LOC .                        :  LOCATION
 LMF .             Drill Floor:  LOG MEASURED FROM
 TVDS.m                  43.60:  TVDSS CORRECTN
 LATI.deg                40.02:  LATITUDE
 LONG.deg                51.45:  LONGITUDE
 WHNS.m                  11.04:  WELL HEAD N/S
 WHEW.m                 -12.38:  WELL HEAD E/W
 UTMX.m              538763.98:  UTM X
 UTMY.m             4431880.20:  UTM Y
 DFWL.m                   0.00:  DISTANCE FWL
 DFSL.m                   0.00:  DISTANCE FSL
 SDEP.m                 300.00:  START DEPTH
 TDD .m                4900.01:  TOTAL DEPTH (DRILLER)
 VSDR.deg               185.64:  VERT SEC DIRECT
 GVFD.g                   1.00:  GRAVITY FIELD
 MFLD.nT              50301.00:  MAGNETIC FIELD
 MDIP.deg                59.46:  MAGNETIC DIP
 MDEC.deg                 6.43:  MAGNETIC DECL
 GRDC.deg                 0.29:  GRID CORRECTION
 AZTC.deg                 6.14:  AZM TOTAL CORR
 EPD .m                   0.00:  ELEVATION
 EGL .m                   0.00:  GROUND ELEVATION
 WDMS.m                 151.80:  WD ELEV
 APD .m                  43.60:  DEPTH ABOVE PD
 DEP .m                 571.69:  DEPTH
 AGAP.m                  43.60:  AIR GAP
 VSEW.m                 -12.38:  VERT SEC E/W
 VSNS.m                  11.04:  VERT SEC N/S
 EKB .m                  43.60:  KB ELEVATION
 EDF .m                  43.60:  DF ELEVATION
 TDL .m                 412.00:  TOTAL DEPTH (LOGGER)
 VSC .                       0:  VS TO CLOSURE
 MAGU.                 1849300:  MAGUTM CHECKSUM
~Parameter Information Block
#MNEM.UNIT       Value        Description
#---------     -----------    ---------------------------
 AV  .mps                 2.21:  Ann Velocity 
 AVMX.mps                 2.53:  Max Ann Veloc 
 AZIF.deg               144.83:  Azm, Final 
 BHAT.        Rotary Steerable:  BHA Type 
 BROT.°/30m              -0.52:  Build Rotating 
 BS  .in                  6.50:  Bit Size 
 BTPL.psig              209.00:  Bit Press Loss 
 CABU.                      No:  Customer Abuse 
 CGEO.        Ali Isfandiyarov:  Customer Geo 
 COMM.                     ü®q:  Run Comments 1 
 TCS .hr                 61.31:  Time Ciculation Ended 
 CV  .mps                 4.66:  Crit Velocity 
 CVMX.mps                 5.02:  Max Crit Veloc 
 DD1 .          Fariz Nahmatov:  Direct Drillr 1 
 DD2 .            Musa Ahmadov:  Direct Drillr 2 
 DDSV.               Geo-Pilot:  DD Service 
 DEFF.%                 100.00:  % Det Eff 
 DLRX.°/30m               1.44:  Dogleg Rot Max 
 DLSO.°/30m               0.83:  Dogleg Oriented 
 DLSX.°/30m               1.44:  Dogleg Str Max 
 DRET.      08.30.00 30-Jan-21:  Drill End Time 
 DRST.      21.15.00 27-Jan-21:  Drill Start Tim 
 DTIM.hr                 37.28:  Time Drilling 
 EDEP.m                4867.01:  End Depth 
 ENG1.          Rasim Hashimov:  Engineer 1 
 ENG2.         Almaz Almadatov:  Engineer 2 
 ENG3.        Tamerlan Ahmadov:  Engineer 3 
 ETIM.      22.41.04 31-Jan-21:  End Time 
 FLOI.gpm               400.00:  Flow In 
 FLON.gpm               300.00:  Flow In Min 
 FLOS.cptm                0.00:  Fluid Loss 
 FLOX.gpm               400.00:  Flow In Max 
 HFLO.                      No:  High Flow 
 HPRE.                      No:  High Pressure 
 HTEM.                      No:  High Temp 
 HYDO.m                   1.80:  Hydro Offset 
 IFIN.deg                65.63:  Inc, Final 
 IMAX.deg                66.77:  Inc Max 
 IMIN.deg                65.61:  Inc Min 
 IMND.m                4612.67:  Inc Min Depth 
 IMXD.m                4811.63:  Inc Max Depth 
 JARR.                      No:  Jarring 
 LETM.      08.30.00 30-Jan-21:  Log End Time 
 LOST.hr                     0:  Lost Rig Time 
 LSTM.      21.15.00 27-Jan-21:  Log Start Time 
 MDCL.ppm             41000.00:  Mud Chlorides 
 MDES.     Inversion Oil/Synthetic:  Mud Desc 
 DFD .sg                  1.40:  Mud Density 
 MDMN.sg                  1.40:  Dens Mud Min 
 MDMX.sg                  1.40:  Dens Mud Max 
 MOIL.                      53:  Run Mud Oil % 
 MOWR.                   66:34:  Run Mud OWR 
 MSND.                     0.2:  Run Mud Sand % 
 MSOL.                    17.9:  Run Mud Solids% 
 DFV .spqt               77.00:  Mud Viscosity 
 MWOD.in                  4.75:  MWD Tool OD 
 MWSI.                      No:  Serv Intrp, MWD 
 OTIM.hr                110.38:  Time Operating 
 PCON.           Look Like New:  Pad Condition 
 PMAX.psia             5300.00:  Press Op, Max 
 PV  .cP                 57.00:  Mud PV 
 RUN .                    1200:  Run Number 
 ROPA.m/hr               13.00:  ROP Avg 
 ROPN.m/hr                9.00:  ROP Min 
 ROPX.m/hr               15.00:  ROP Max 
 RPMA.rpm               120.00:  RPM Surface Avg 
 RPMN.rpm               100.00:  RPM Surface Min 
 RPMX.rpm               135.00:  RPM Surface Max 
 RRUN.                    1200:  Rig Run Number 
 RTIM.hr                  2.65:  Time Reaming 
 SAZI.deg               145.04:  Azm, Start 
 SDEP.m                4455.01:  Start Depth 
 SIDD.                      No:  Serv Intrp, DD 
 SINC.deg                65.83:  Inc, Start 
 SPPA.psig             5037.00:  SPP Avg 
 SPPN.psig             4430.00:  SPP Min 
 SPPX.psig             5300.00:  SPP Max 
 STIM.      22.41.04 26-Jan-21:  Start Time 
 SVCS.                 DD, MWD:  Services 
 SVER.                    9.20:  Sperry Version 
 TDAT.m                 412.00:  Tot Depth Attmp 
 TDDF.                      No:  Trip for DD 
 TDLG.m                 412.00:  Tot Depth Loggd 
 TFF .                      No:  Trip for Fail 
 TQAA.f-kp               15.00:  Torque Abs Avg 
 TQAN.f-kp               12.00:  Torque Abs Min 
 TQAX.f-kp               17.00:  Torque Abs Max 
 TRRT.°/30m               1.18:  Turn Rotating 
 MRT .                     ADR:  Maximum Recorded Temperature 
 TTMX.degC               88.24:  Max Tool Temp 
 VS01.                90619458:  Virtual Str1 SN 
 VS02.                90519326:  Virtual Str2 SN 
 VS03.                90522176:  Virtual Str3 SN 
 VS04.                90512683:  Virtual Str4 SN 
 WBMN.klb                 1.00:  WOB Min 
 WITN.           Murad Giluyev:  Customer Rep 
 WITN.     Kamran Kemberlinski:  Customer Rep 2 
 WOBA.klb                 5.00:  WOB Avg 
 WOBX.klb                 9.00:  WOB Max 
 YP  .lhf2               41.00:  Yield Point 
~Curve Information Block
#MNEM.UNIT                 API CODE     Curve Description
#---------               -----------    ---------------------------
 TIME.HHMMSS            00 000 000 000:  GT Time & Date
 GTDEPTH.m              00 000 000 000:  GT Depth
 GTPQH.psia             00 000 000 000:  GT HR Quartz Pressure
 GTTQ.degC              00 000 000 000:  GT Quartz Temperature
 GTTN.NONE              00 000 000 000:  GT Test Number
 GTET.sec               00 000 000 000:  GT Elapsed Test Time
 GTTVD.m                00 000 000 000:  GT True Vertical Depth
#Other Information
#
#WARRANTY: Halliburton will use its best efforts to furnish customers with 
#accurate information and interpretations that are part of, and incident to, the services 
#provided.  However, Halliburton cannot and does not warrant the accuracy 
#or correctness of such information and interpretations.  Under no circumstances should any 
#such information or interpretation be relied upon as the sole basis for any drilling, 
#completion, production, or financial decision or any procedure involving any risk to the 
#safety of any drilling venture, drilling rig or its crew or any other third party.  The 
#Customer has full responsibility for all drilling, completion and production operation.  
#Halliburton makes no representations or warranties, either expressed or 
#implied, including, but not limited to, the implied warranties of merchantability or fitness 
#for a particular purpose, with respect to the services rendered.  In no event will 
#Halliburton be liable for failure to obtain any particular results or for 
#any damages, including, but not limited to, indirect, special or consequential damages, 
#resulting from the use of any information or interpretation provided by Halliburton.
#
~A           TIME           GTDEPTH  GTPQH  GTTQ  GTTN  GTET   GTTVD  
# ...
   07:05:40.343.29-Jan-2021 4666.01 3052.07 79.80 8.00 115.02 2572.07
   07:05:40.543.29-Jan-2021 4666.01 3052.07 79.80 8.00 115.22 2572.07
   07:05:40.743.29-Jan-2021 4666.01 3051.99 79.80 8.00 115.42 2572.07
   07:05:40.943.29-Jan-2021 4666.01 3052.08 79.80 8.00 115.62 2572.07
   07:05:41.143.29-Jan-2021 4666.01 3052.05 79.80 8.00 115.82 2572.07
   07:05:41.343.29-Jan-2021 4666.01 3052.01 79.80 8.00 116.02 2572.07
   07:05:41.543.29-Jan-2021 4666.01 3052.01 79.80 8.00 116.22 2572.07
   07:05:41.743.29-Jan-2021 4666.01 3052.09 79.80 8.00 116.42 2572.07
   07:05:41.943.29-Jan-2021 4666.01 3052.05 79.79 8.00 116.62 2572.07
   07:05:42.143.29-Jan-2021 4666.01 3052.00 79.79 8.00 116.82 2572.07
   07:05:42.343.29-Jan-2021 4666.01 3052.03 79.79 8.00 117.02 2572.07
   07:05:42.543.29-Jan-2021 4666.01 3052.03 79.79 8.00 117.22 2572.07
   07:05:42.743.29-Jan-2021 4666.01 3052.03 79.79 8.00 117.42 2572.07
   07:05:42.943.29-Jan-2021 4666.01 3052.04 79.79 8.00 117.62 2572.07
   07:05:43.144.29-Jan-2021 4666.01 3052.02 79.79 8.00 117.82 2572.07
   07:05:43.344.29-Jan-2021 4666.01 3052.03 79.79 8.00 118.02 2572.07
   07:05:43.544.29-Jan-2021 4666.01 3052.03 79.79 8.00 118.22 2572.07
   07:05:43.744.29-Jan-2021 4666.01 3052.02 79.79 8.00 118.42 2572.07
   07:05:43.944.29-Jan-2021 4666.01 3052.02 79.79 8.00 118.63 2572.07
   07:05:44.144.29-Jan-2021 4666.01 3052.02 79.79 8.00 118.83 2572.07
   07:05:44.344.29-Jan-2021 4666.01 3052.00 79.79 8.00 119.03 2572.07
   07:05:44.544.29-Jan-2021 4666.01 3052.00 79.79 8.00 119.23 2572.07
   07:05:44.744.29-Jan-2021 4666.01 3052.01 79.79 8.00 119.43 2572.07
   07:05:44.944.29-Jan-2021 4666.01 3052.00 79.79 8.00 119.63 2572.07
   07:05:45.144.29-Jan-2021 4666.01 3052.01 79.78 8.00 119.83 2572.07
   07:05:45.344.29-Jan-2021 4666.01 3052.00 79.78 8.00 120.03 2572.07
   07:05:45.544.29-Jan-2021 4666.01 3052.00 79.78 8.00 120.23 2572.07
   07:05:45.744.29-Jan-2021 4666.01 3051.97 79.78 8.00 120.43 2572.07
   07:05:45.944.29-Jan-2021 4666.01 3052.04 79.78 8.00 120.63 2572.07
   07:05:46.144.29-Jan-2021 4666.01 3051.99 79.78 8.00 120.83 2572.07
   07:05:46.344.29-Jan-2021 4666.01 3052.01 79.78 8.00 121.03 2572.07
   07:05:46.544.29-Jan-2021 4666.01 3052.01 79.78 8.00 121.23 2572.07
   07:05:46.744.29-Jan-2021 4666.01 3051.99 79.78 8.00 121.43 2572.07
   07:05:46.944.29-Jan-2021 4666.01 3052.00 79.78 8.00 121.63 2572.07
   07:05:47.144.29-Jan-2021 4666.01 3051.99 79.78 8.00 121.83 2572.07
   07:05:47.344.29-Jan-2021 4666.01 3051.99 79.78 8.00 122.03 2572.07
   07:05:47.544.29-Jan-2021 4666.01 3051.99 79.78 8.00 122.23 2572.07
   07:05:47.744.29-Jan-2021 4666.01 3051.99 79.78 8.00 122.43 2572.07
   07:05:47.945.29-Jan-2021 4666.01 3051.97 79.78 8.00 122.63 2572.07
   07:05:48.145.29-Jan-2021 4666.01 3051.98 79.78 8.00 122.83 2572.07
   07:05:48.345.29-Jan-2021 4666.01 3051.92 79.77 8.00 123.03 2572.07
   07:05:48.545.29-Jan-2021 4666.01 3051.92 79.77 8.00 123.23 2572.07
   07:05:48.745.29-Jan-2021 4666.01 3052.00 79.77 8.00 123.43 2572.07
   07:05:48.945.29-Jan-2021 4666.01 3051.95 79.77 8.00 123.63 2572.07
   07:05:49.145.29-Jan-2021 4666.01 3052.00 79.77 8.00 123.83 2572.07
   07:05:49.345.29-Jan-2021 4666.01 3051.98 79.77 8.00 124.03 2572.07
   07:05:49.545.29-Jan-2021 4666.01 3051.98 79.77 8.00 124.23 2572.07
   07:05:49.745.29-Jan-2021 4666.01 3051.96 79.77 8.00 124.43 2572.07
   07:05:49.945.29-Jan-2021 4666.01 3052.00 79.77 8.00 124.63 2572.07
   07:05:50.145.29-Jan-2021 4666.01 3051.98 79.77 8.00 124.83 2572.07
   07:05:50.345.29-Jan-2021 4666.01 3051.98 79.77 8.00 125.03 2572.07
   07:05:50.545.29-Jan-2021 4666.01 3051.98 79.77 8.00 125.23 2572.07
   07:05:50.745.29-Jan-2021 4666.01 3051.96 79.77 8.00 125.43 2572.07
   07:05:50.945.29-Jan-2021 4666.01 3051.98 79.77 8.00 125.63 2572.07
   07:05:51.145.29-Jan-2021 4666.01 3051.93 79.77 8.00 125.83 2572.07
   07:05:51.345.29-Jan-2021 4666.01 3051.98 79.76 8.00 126.03 2572.07
   07:05:51.545.29-Jan-2021 4666.01 3051.98 79.76 8.00 126.23 2572.07
   07:05:51.745.29-Jan-2021 4666.01 3051.97 79.76 8.00 126.43 2572.07
   07:05:51.945.29-Jan-2021 4666.01 3051.97 79.76 8.00 126.63 2572.07
   07:05:52.145.29-Jan-2021 4666.01 3051.95 79.76 8.00 126.83 2572.07
   07:05:52.345.29-Jan-2021 4666.01 3051.96 79.76 8.00 127.03 2572.07
   07:05:52.546.29-Jan-2021 4666.01 3051.96 79.76 8.00 127.23 2572.07
   07:05:52.746.29-Jan-2021 4666.01 3051.96 79.76 8.00 127.43 2572.07
   07:05:52.946.29-Jan-2021 4666.01 3051.97 79.76 8.00 127.63 2572.07
   07:05:53.146.29-Jan-2021 4666.01 3051.93 79.76 8.00 127.83 2572.07
   07:05:53.346.29-Jan-2021 4666.01 3051.99 79.76 8.00 128.03 2572.07
   07:05:53.546.29-Jan-2021 4666.01 3051.99 79.76 8.00 128.23 2572.07
   07:05:53.746.29-Jan-2021 4666.01 3051.95 79.76 8.00 128.43 2572.07
   07:05:53.946.29-Jan-2021 4666.01 3051.94 79.76 8.00 128.63 2572.07
   07:05:54.146.29-Jan-2021 4666.01 3051.95 79.76 8.00 128.83 2572.07
   07:05:54.346.29-Jan-2021 4666.01 3051.95 79.76 8.00 129.03 2572.07
   07:05:54.546.29-Jan-2021 4666.01 3051.95 79.76 8.00 129.23 2572.07
   07:05:54.746.29-Jan-2021 4666.01 3051.94 79.75 8.00 129.43 2572.07
   07:05:54.946.29-Jan-2021 4666.01 3051.94 79.75 8.00 129.63 2572.07
   07:05:55.146.29-Jan-2021 4666.01 3051.94 79.75 8.00 129.83 2572.07
   07:05:55.346.29-Jan-2021 4666.01 3051.94 79.75 8.00 130.03 2572.07
   07:05:55.546.29-Jan-2021 4666.01 3051.94 79.75 8.00 130.23 2572.07
   07:05:55.746.29-Jan-2021 4666.01 3051.95 79.75 8.00 130.43 2572.07
   07:05:55.946.29-Jan-2021 4666.01 3051.92 79.75 8.00 130.63 2572.07
   07:05:56.146.29-Jan-2021 4666.01 3051.94 79.75 8.00 130.83 2572.07
   07:05:56.346.29-Jan-2021 4666.01 3051.90 79.75 8.00 131.03 2572.07
   07:05:56.546.29-Jan-2021 4666.01 3051.90 79.75 8.00 131.23 2572.07
   07:05:56.746.29-Jan-2021 4666.01 3051.94 79.75 8.00 131.43 2572.07
   07:05:56.946.29-Jan-2021 4666.01 3051.93 79.75 8.00 131.63 2572.07
   07:05:57.146.29-Jan-2021 4666.01 3051.95 79.75 8.00 131.83 2572.07
   07:05:57.347.29-Jan-2021 4666.01 3051.91 79.75 8.00 132.03 2572.07
   07:05:57.547.29-Jan-2021 4666.01 3051.91 79.75 8.00 132.23 2572.07
   07:05:57.747.29-Jan-2021 4666.01 2995.88 79.75 8.00 132.43 2572.07
   07:05:57.947.29-Jan-2021 4666.01 2994.68 79.74 8.00 132.63 2572.07
   07:05:58.147.29-Jan-2021 4666.01 2994.18 79.74 8.00 132.83 2572.07
   07:05:58.347.29-Jan-2021 4666.01 2994.45 79.74 8.00 133.03 2572.07
   07:05:58.547.29-Jan-2021 4666.01 2994.45 79.74 8.00 133.23 2572.07
   07:05:58.747.29-Jan-2021 4666.01 2994.47 79.74 8.00 133.43 2572.07
   07:05:58.947.29-Jan-2021 4666.01 2994.09 79.74 8.00 133.63 2572.07
   07:05:59.147.29-Jan-2021 4666.01 2993.94 79.74 8.00 133.83 2572.07
   07:05:59.347.29-Jan-2021 4666.01 2993.57 79.74 8.00 134.03 2572.07
   07:05:59.547.29-Jan-2021 4666.01 2993.57 79.74 8.00 134.23 2572.07
   07:05:59.747.29-Jan-2021 4666.01 2994.35 79.74 8.00 134.43 2572.07
   07:05:59.947.29-Jan-2021 4666.01 2993.59 79.74 8.00 134.63 2572.07
   07:06:00.147.29-Jan-2021 4666.01 2993.74 79.74 8.00 134.83 2572.07
   07:06:00.347.29-Jan-2021 4666.01 2993.38 79.74 8.00 135.03 2572.07
   07:06:00.547.29-Jan-2021 4666.01 2993.38 79.74 8.00 135.23 2572.07
   07:06:00.747.29-Jan-2021 4666.01 2993.62 79.74 8.00 135.43 2572.07
   07:06:00.947.29-Jan-2021 4666.01 2993.60 79.74 8.00 135.63 2572.07
   07:06:01.147.29-Jan-2021 4666.01 2993.80 79.73 8.00 135.83 2572.07
   07:06:01.347.29-Jan-2021 4666.01 2993.94 79.73 8.00 136.03 2572.07
   07:06:01.547.29-Jan-2021 4666.01 2993.94 79.73 8.00 136.23 2572.07
   07:06:01.747.29-Jan-2021 4666.01 2992.72 79.73 8.00 136.43 2572.07
   07:06:01.947.29-Jan-2021 4666.01 2994.36 79.73 8.00 136.63 2572.07
   07:06:02.148.29-Jan-2021 4666.01 2993.50 79.73 8.00 136.83 2572.07
   07:06:02.348.29-Jan-2021 4666.01 2993.05 79.73 8.00 137.03 2572.07
   07:06:02.548.29-Jan-2021 4666.01 2993.05 79.73 8.00 137.23 2572.07
   07:06:02.748.29-Jan-2021 4666.01 2993.61 79.73 8.00 137.43 2572.07
   07:06:02.948.29-Jan-2021 4666.01 2993.23 79.73 8.00 137.63 2572.07
   07:06:03.148.29-Jan-2021 4666.01 2994.13 79.73 8.00 137.83 2572.07
