~Version Information
 VERS.                  2.0:   CWLS log ASCII Standard -VERSION 2.0
 WRAP.                   NO:   One line per depth step
~Well Information Block
#MNEM.UNIT     VALUE/NAME     DESCRIPTION
#---------     -----------    ---------------------------
 STRT.S             10:42:31 29-Jan-21: START TIME 10:42:31 29-Jan-21
 STOP.S             10:49:01 29-Jan-21: STOP TIME  10:49:01 29-Jan-21
 STEP.S                   0.00: STEP TIME
 NULL.                 -999.25: NULL VALUE
 DFWT.                        :  DIST FWL TEXT
 DFST.                        :  DIST FSL TEXT
 DMF .             Drill Floor:  DRILL MEAS FROM
 STIM.      00.00.00 25-Sep-20:  START TIME
 DATE.      16.12.48 31-Jan-21:  END TIME
 SPUD.               20-Sep-20:  SPUD DATE
 NREF.                    Grid:  NORTH REFERENCE
 HPTY.       Minimum Curvature:  HOLE POS TYPE
 DMOD.             Drill Model:  DRILL MOD DESC
 SVYD.                  Survey:  SURVEY DESC
 ILTD.               Lithology:  INTERP LTH DESC
 FTOP.          Formation Tops:  FORM TOPS DESC
 RIG .              East Azeri:  RIG NAME
 PDAT.          Mean Sea Level:  PERMANENT DATUM
 FLD .                     ACG:  FIELD NAME
 SON .        AZ-XX-0906591820:  JOB NUMBER
 CTRY.              Azerbaijan:  COUNTRY NAME
 WELL.                     D37:  WELL NAME
 SRVC.     Turan Drilling & Engineering:  CONTRACTOR
 COMP.     BP Exploration (Caspian Sea) ltd.:  COMPANY
 WTYP.                Deviated:  WELL TYPE
 MDS .        Operator Entered:  MAG DATA SOURCE
 UWI .                     N/A:  UNIQUE WELL IDENTIFIER
 API .                     N/A:  API NUMBER
 BASE.              Azerbaijan:  LOGGING EQUIPMENT BASE LOCATION
 REGN.                   EESSA:  REGION
 PROV.                    Baku:  PROVINCE
 STAT.                    Baku:  STATE NAME
 MWDS.                    Baku:  MWD SHOP
 JOBN.        AZ-XX-0906591820:  JOB TICKET NUMB
 DOE .                     N/A:  DOE NUMBER
 DCON.         Sperry Drilling:  DIRECTNL CONTR
 UNIT.                     N/A:  LOGGING EQUIPMENT ID
 CNTY.                        :  COUNTY
 LOC .                        :  LOCATION
 LMF .             Drill Floor:  LOG MEASURED FROM
 TVDS.m                  43.60:  TVDSS CORRECTN
 LATI.deg                40.02:  LATITUDE
 LONG.deg                51.45:  LONGITUDE
 WHNS.m                  11.04:  WELL HEAD N/S
 WHEW.m                 -12.38:  WELL HEAD E/W
 UTMX.m              538763.98:  UTM X
 UTMY.m             4431880.20:  UTM Y
 DFWL.m                   0.00:  DISTANCE FWL
 DFSL.m                   0.00:  DISTANCE FSL
 SDEP.m                 300.00:  START DEPTH
 TDD .m                4900.01:  TOTAL DEPTH (DRILLER)
 VSDR.deg               185.64:  VERT SEC DIRECT
 GVFD.g                   1.00:  GRAVITY FIELD
 MFLD.nT              50301.00:  MAGNETIC FIELD
 MDIP.deg                59.46:  MAGNETIC DIP
 MDEC.deg                 6.43:  MAGNETIC DECL
 GRDC.deg                 0.29:  GRID CORRECTION
 AZTC.deg                 6.14:  AZM TOTAL CORR
 EPD .m                   0.00:  ELEVATION
 EGL .m                   0.00:  GROUND ELEVATION
 WDMS.m                 151.80:  WD ELEV
 APD .m                  43.60:  DEPTH ABOVE PD
 DEP .m                 571.69:  DEPTH
 AGAP.m                  43.60:  AIR GAP
 VSEW.m                 -12.38:  VERT SEC E/W
 VSNS.m                  11.04:  VERT SEC N/S
 EKB .m                  43.60:  KB ELEVATION
 EDF .m                  43.60:  DF ELEVATION
 TDL .m                 412.00:  TOTAL DEPTH (LOGGER)
 VSC .                       0:  VS TO CLOSURE
 MAGU.                 1849300:  MAGUTM CHECKSUM
~Parameter Information Block
#MNEM.UNIT       Value        Description
#---------     -----------    ---------------------------
 AV  .mps                 2.21:  Ann Velocity 
 AVMX.mps                 2.53:  Max Ann Veloc 
 AZIF.deg               144.83:  Azm, Final 
 BHAT.        Rotary Steerable:  BHA Type 
 BROT.°/30m              -0.52:  Build Rotating 
 BS  .in                  6.50:  Bit Size 
 BTPL.psig              209.00:  Bit Press Loss 
 CABU.                      No:  Customer Abuse 
 CGEO.        Ali Isfandiyarov:  Customer Geo 
 COMM.                     ,H:  Run Comments 1 
 TCS .hr                 61.31:  Time Ciculation Ended 
 CV  .mps                 4.66:  Crit Velocity 
 CVMX.mps                 5.02:  Max Crit Veloc 
 DD1 .          Fariz Nahmatov:  Direct Drillr 1 
 DD2 .            Musa Ahmadov:  Direct Drillr 2 
 DDSV.               Geo-Pilot:  DD Service 
 DEFF.%                 100.00:  % Det Eff 
 DLRX.°/30m               1.44:  Dogleg Rot Max 
 DLSO.°/30m               0.83:  Dogleg Oriented 
 DLSX.°/30m               1.44:  Dogleg Str Max 
 DRET.      08.30.00 30-Jan-21:  Drill End Time 
 DRST.      21.15.00 27-Jan-21:  Drill Start Tim 
 DTIM.hr                 37.28:  Time Drilling 
 EDEP.m                4867.01:  End Depth 
 ENG1.          Rasim Hashimov:  Engineer 1 
 ENG2.         Almaz Almadatov:  Engineer 2 
 ENG3.        Tamerlan Ahmadov:  Engineer 3 
 ETIM.      22.41.04 31-Jan-21:  End Time 
 FLOI.gpm               400.00:  Flow In 
 FLON.gpm               300.00:  Flow In Min 
 FLOS.cptm                0.00:  Fluid Loss 
 FLOX.gpm               400.00:  Flow In Max 
 HFLO.                      No:  High Flow 
 HPRE.                      No:  High Pressure 
 HTEM.                      No:  High Temp 
 HYDO.m                   1.80:  Hydro Offset 
 IFIN.deg                65.63:  Inc, Final 
 IMAX.deg                66.77:  Inc Max 
 IMIN.deg                65.61:  Inc Min 
 IMND.m                4612.67:  Inc Min Depth 
 IMXD.m                4811.63:  Inc Max Depth 
 JARR.                      No:  Jarring 
 LETM.      08.30.00 30-Jan-21:  Log End Time 
 LOST.hr                     0:  Lost Rig Time 
 LSTM.      21.15.00 27-Jan-21:  Log Start Time 
 MDCL.ppm             41000.00:  Mud Chlorides 
 MDES.     Inversion Oil/Synthetic:  Mud Desc 
 DFD .sg                  1.40:  Mud Density 
 MDMN.sg                  1.40:  Dens Mud Min 
 MDMX.sg                  1.40:  Dens Mud Max 
 MOIL.                      53:  Run Mud Oil % 
 MOWR.                   66:34:  Run Mud OWR 
 MSND.                     0.2:  Run Mud Sand % 
 MSOL.                    17.9:  Run Mud Solids% 
 DFV .spqt               77.00:  Mud Viscosity 
 MWOD.in                  4.75:  MWD Tool OD 
 MWSI.                      No:  Serv Intrp, MWD 
 OTIM.hr                110.38:  Time Operating 
 PCON.           Look Like New:  Pad Condition 
 PMAX.psia             5300.00:  Press Op, Max 
 PV  .cP                 57.00:  Mud PV 
 RUN .                    1200:  Run Number 
 ROPA.m/hr               13.00:  ROP Avg 
 ROPN.m/hr                9.00:  ROP Min 
 ROPX.m/hr               15.00:  ROP Max 
 RPMA.rpm               120.00:  RPM Surface Avg 
 RPMN.rpm               100.00:  RPM Surface Min 
 RPMX.rpm               135.00:  RPM Surface Max 
 RRUN.                    1200:  Rig Run Number 
 RTIM.hr                  2.65:  Time Reaming 
 SAZI.deg               145.04:  Azm, Start 
 SDEP.m                4455.01:  Start Depth 
 SIDD.                      No:  Serv Intrp, DD 
 SINC.deg                65.83:  Inc, Start 
 SPPA.psig             5037.00:  SPP Avg 
 SPPN.psig             4430.00:  SPP Min 
 SPPX.psig             5300.00:  SPP Max 
 STIM.      22.41.04 26-Jan-21:  Start Time 
 SVCS.                 DD, MWD:  Services 
 SVER.                    9.20:  Sperry Version 
 TDAT.m                 412.00:  Tot Depth Attmp 
 TDDF.                      No:  Trip for DD 
 TDLG.m                 412.00:  Tot Depth Loggd 
 TFF .                      No:  Trip for Fail 
 TQAA.f-kp               15.00:  Torque Abs Avg 
 TQAN.f-kp               12.00:  Torque Abs Min 
 TQAX.f-kp               17.00:  Torque Abs Max 
 TRRT.°/30m               1.18:  Turn Rotating 
 MRT .                     ADR:  Maximum Recorded Temperature 
 TTMX.degC               88.24:  Max Tool Temp 
 VS01.                90619458:  Virtual Str1 SN 
 VS02.                90519326:  Virtual Str2 SN 
 VS03.                90522176:  Virtual Str3 SN 
 VS04.                90512683:  Virtual Str4 SN 
 WBMN.klb                 1.00:  WOB Min 
 WITN.           Murad Giluyev:  Customer Rep 
 WITN.     Kamran Kemberlinski:  Customer Rep 2 
 WOBA.klb                 5.00:  WOB Avg 
 WOBX.klb                 9.00:  WOB Max 
 YP  .lhf2               41.00:  Yield Point 
~Curve Information Block
#MNEM.UNIT                 API CODE     Curve Description
#---------               -----------    ---------------------------
 TIME.HHMMSS            00 000 000 000:  GT Time & Date
 GTDEPTH.m              00 000 000 000:  GT Depth
 GTPQH.psia             00 000 000 000:  GT HR Quartz Pressure
 GTTQ.degC              00 000 000 000:  GT Quartz Temperature
 GTTN.NONE              00 000 000 000:  GT Test Number
 GTET.sec               00 000 000 000:  GT Elapsed Test Time
 GTTVD.m                00 000 000 000:  GT True Vertical Depth
#Other Information
#
#WARRANTY: Halliburton will use its best efforts to furnish customers with 
#accurate information and interpretations that are part of, and incident to, the services 
#provided.  However, Halliburton cannot and does not warrant the accuracy 
#or correctness of such information and interpretations.  Under no circumstances should any 
#such information or interpretation be relied upon as the sole basis for any drilling, 
#completion, production, or financial decision or any procedure involving any risk to the 
#safety of any drilling venture, drilling rig or its crew or any other third party.  The 
#Customer has full responsibility for all drilling, completion and production operation.  
#Halliburton makes no representations or warranties, either expressed or 
#implied, including, but not limited to, the implied warranties of merchantability or fitness 
#for a particular purpose, with respect to the services rendered.  In no event will 
#Halliburton be liable for failure to obtain any particular results or for 
#any damages, including, but not limited to, indirect, special or consequential damages, 
#resulting from the use of any information or interpretation provided by Halliburton.
#
~A           TIME           GTDEPTH  GTPQH  GTTQ  GTTN   GTET   GTTVD  
# ...
   10:47:47.598.29-Jan-2021 4690.01 3067.47 79.88 10.00 316.42 2581.69
   10:47:47.798.29-Jan-2021 4690.01 3067.51 79.88 10.00 316.62 2581.69
   10:47:47.998.29-Jan-2021 4690.01 3067.47 79.88 10.00 316.82 2581.69
   10:47:48.198.29-Jan-2021 4690.01 3067.50 79.88 10.00 317.02 2581.69
   10:47:48.398.29-Jan-2021 4690.01 3067.50 79.88 10.00 317.22 2581.69
   10:47:48.598.29-Jan-2021 4690.01 3067.50 79.88 10.00 317.42 2581.69
   10:47:48.798.29-Jan-2021 4690.01 3067.50 79.88 10.00 317.62 2581.69
   10:47:48.998.29-Jan-2021 4690.01 3067.49 79.88 10.00 317.82 2581.69
   10:47:49.198.29-Jan-2021 4690.01 3067.49 79.88 10.00 318.02 2581.69
   10:47:49.398.29-Jan-2021 4690.01 3067.49 79.88 10.00 318.22 2581.69
   10:47:49.598.29-Jan-2021 4690.01 3067.49 79.87 10.00 318.42 2581.69
   10:47:49.798.29-Jan-2021 4690.01 3067.48 79.87 10.00 318.62 2581.69
   10:47:49.998.29-Jan-2021 4690.01 3067.48 79.87 10.00 318.82 2581.69
   10:47:50.198.29-Jan-2021 4690.01 3067.48 79.87 10.00 319.02 2581.69
   10:47:50.398.29-Jan-2021 4690.01 3067.48 79.87 10.00 319.22 2581.69
   10:47:50.598.29-Jan-2021 4690.01 3067.48 79.87 10.00 319.42 2581.69
   10:47:50.798.29-Jan-2021 4690.01 3067.49 79.87 10.00 319.62 2581.69
   10:47:50.998.29-Jan-2021 4690.01 3067.47 79.87 10.00 319.82 2581.69
   10:47:51.199.29-Jan-2021 4690.01 3067.47 79.87 10.00 320.02 2581.69
   10:47:51.399.29-Jan-2021 4690.01 3067.47 79.87 10.00 320.22 2581.69
   10:47:51.599.29-Jan-2021 4690.01 3067.48 79.87 10.00 320.42 2581.69
   10:47:51.799.29-Jan-2021 4690.01 3067.48 79.87 10.00 320.62 2581.69
   10:47:51.999.29-Jan-2021 4690.01 3067.50 79.87 10.00 320.82 2581.69
   10:47:52.199.29-Jan-2021 4690.01 3067.50 79.87 10.00 321.02 2581.69
   10:47:52.399.29-Jan-2021 4690.01 3067.50 79.87 10.00 321.22 2581.69
   10:47:52.599.29-Jan-2021 4690.01 3067.50 79.87 10.00 321.42 2581.69
   10:47:52.799.29-Jan-2021 4690.01 3067.48 79.87 10.00 321.62 2581.69
   10:47:52.999.29-Jan-2021 4690.01 3067.49 79.87 10.00 321.82 2581.69
   10:47:53.199.29-Jan-2021 4690.01 3067.48 79.86 10.00 322.02 2581.69
   10:47:53.399.29-Jan-2021 4690.01 3067.48 79.86 10.00 322.22 2581.69
   10:47:53.599.29-Jan-2021 4690.01 3067.48 79.86 10.00 322.42 2581.69
   10:47:53.799.29-Jan-2021 4690.01 3067.48 79.86 10.00 322.62 2581.69
   10:47:53.999.29-Jan-2021 4690.01 3067.47 79.86 10.00 322.82 2581.69
   10:47:54.199.29-Jan-2021 4690.01 3067.48 79.86 10.00 323.02 2581.69
   10:47:54.399.29-Jan-2021 4690.01 3067.48 79.86 10.00 323.22 2581.69
   10:47:54.599.29-Jan-2021 4690.01 3067.47 79.86 10.00 323.42 2581.69
   10:47:54.799.29-Jan-2021 4690.01 3067.45 79.86 10.00 323.62 2581.69
   10:47:54.999.29-Jan-2021 4690.01 3067.50 79.86 10.00 323.82 2581.69
   10:47:55.199.29-Jan-2021 4690.01 3067.49 79.86 10.00 324.02 2581.69
   10:47:55.399.29-Jan-2021 4690.01 3067.49 79.86 10.00 324.22 2581.69
   10:47:55.599.29-Jan-2021 4690.01 3067.48 79.86 10.00 324.42 2581.69
   10:47:55.799.29-Jan-2021 4690.01 3067.47 79.86 10.00 324.62 2581.69
   10:47:55.999.29-Jan-2021 4690.01 3067.51 79.86 10.00 324.82 2581.69
   10:47:56.199.29-Jan-2021 4690.01 3067.49 79.86 10.00 325.02 2581.69
   10:47:56.399.29-Jan-2021 4690.01 3067.49 79.86 10.00 325.22 2581.69
   10:47:56.599.29-Jan-2021 4690.01 3067.49 79.86 10.00 325.42 2581.69
   10:47:56.799.29-Jan-2021 4690.01 3067.50 79.86 10.00 325.62 2581.69
   10:47:56.999.29-Jan-2021 4690.01 3067.47 79.85 10.00 325.82 2581.69
   10:47:57.199.29-Jan-2021 4690.01 3067.44 79.85 10.00 326.02 2581.69
   10:47:57.399.29-Jan-2021 4690.01 3067.44 79.85 10.00 326.22 2581.69
   10:47:57.599.29-Jan-2021 4690.01 3067.50 79.85 10.00 326.42 2581.69
   10:47:57.799.29-Jan-2021 4690.01 3067.47 79.85 10.00 326.62 2581.69
   10:47:57.999.29-Jan-2021 4690.01 3067.50 79.85 10.00 326.82 2581.69
   10:47:58.199.29-Jan-2021 4690.01 3067.48 79.85 10.00 327.02 2581.69
   10:47:58.399.29-Jan-2021 4690.01 3067.48 79.85 10.00 327.22 2581.69
   10:47:58.599.29-Jan-2021 4690.01 3067.47 79.85 10.00 327.42 2581.69
   10:47:58.799.29-Jan-2021 4690.01 3067.49 79.85 10.00 327.62 2581.69
   10:47:58.999.29-Jan-2021 4690.01 3067.50 79.85 10.00 327.82 2581.69
   10:47:59.199.29-Jan-2021 4690.01 3067.46 79.85 10.00 328.02 2581.69
   10:47:59.399.29-Jan-2021 4690.01 3067.46 79.85 10.00 328.22 2581.69
   10:47:59.599.29-Jan-2021 4690.01 3067.44 79.85 10.00 328.42 2581.69
   10:47:59.799.29-Jan-2021 4690.01 3067.53 79.85 10.00 328.62 2581.69
   10:47:59.999.29-Jan-2021 4690.01 3067.50 79.85 10.00 328.82 2581.69
   10:48:00.199.29-Jan-2021 4690.01 3067.48 79.85 10.00 329.02 2581.69
   10:48:00.399.29-Jan-2021 4690.01 3067.48 79.85 10.00 329.22 2581.69
   10:48:00.599.29-Jan-2021 4690.01 3067.48 79.84 10.00 329.42 2581.69
   10:48:00.799.29-Jan-2021 4690.01 3067.48 79.84 10.00 329.62 2581.69
   10:48:00.999.29-Jan-2021 4690.01 3067.48 79.84 10.00 329.82 2581.69
   10:48:01.199.29-Jan-2021 4690.01 3067.48 79.84 10.00 330.02 2581.69
   10:48:01.399.29-Jan-2021 4690.01 3067.48 79.84 10.00 330.22 2581.69
   10:48:01.599.29-Jan-2021 4690.01 3067.47 79.84 10.00 330.42 2581.69
   10:48:01.799.29-Jan-2021 4690.01 3067.48 79.84 10.00 330.62 2581.69
   10:48:01.999.29-Jan-2021 4690.01 3067.47 79.84 10.00 330.82 2581.69
   10:48:02.199.29-Jan-2021 4690.01 3067.47 79.84 10.00 331.02 2581.69
   10:48:02.399.29-Jan-2021 4690.01 3067.47 79.84 10.00 331.22 2581.69
   10:48:02.599.29-Jan-2021 4690.01 3067.47 79.84 10.00 331.42 2581.69
   10:48:02.799.29-Jan-2021 4690.01 3067.47 79.84 10.00 331.62 2581.69
   10:48:02.999.29-Jan-2021 4690.01 3067.47 79.84 10.00 331.82 2581.69
   10:48:03.199.29-Jan-2021 4690.01 3067.45 79.84 10.00 332.02 2581.69
   10:48:03.399.29-Jan-2021 4690.01 3067.45 79.84 10.00 332.22 2581.69
   10:48:03.599.29-Jan-2021 4690.01 3067.49 79.84 10.00 332.42 2581.69
   10:48:03.799.29-Jan-2021 4690.01 3067.47 79.84 10.00 332.62 2581.69
   10:48:03.999.29-Jan-2021 4690.01 3067.48 79.84 10.00 332.82 2581.69
   10:48:04.199.29-Jan-2021 4690.01 3067.48 79.84 10.00 333.02 2581.69
   10:48:04.399.29-Jan-2021 4690.01 3067.48 79.84 10.00 333.22 2581.69
   10:48:04.599.29-Jan-2021 4690.01 3067.48 79.83 10.00 333.42 2581.69
   10:48:04.799.29-Jan-2021 4690.01 3067.47 79.83 10.00 333.62 2581.69
   10:48:04.999.29-Jan-2021 4690.01 3067.47 79.83 10.00 333.82 2581.69
   10:48:05.199.29-Jan-2021 4690.01 3067.48 79.83 10.00 334.02 2581.69
   10:48:05.400.29-Jan-2021 4690.01 3067.48 79.83 10.00 334.22 2581.69
   10:48:05.600.29-Jan-2021 4690.01 3067.46 79.83 10.00 334.42 2581.69
   10:48:05.800.29-Jan-2021 4690.01 3067.46 79.83 10.00 334.62 2581.69
   10:48:06.000.29-Jan-2021 4690.01 3067.47 79.83 10.00 334.82 2581.69
   10:48:06.200.29-Jan-2021 4690.01 3067.46 79.83 10.00 335.02 2581.69
   10:48:06.400.29-Jan-2021 4690.01 3067.46 79.83 10.00 335.22 2581.69
   10:48:06.600.29-Jan-2021 4690.01 3067.52 79.83 10.00 335.42 2581.69
   10:48:06.800.29-Jan-2021 4690.01 3067.49 79.83 10.00 335.62 2581.69
   10:48:07.000.29-Jan-2021 4690.01 3067.46 79.83 10.00 335.82 2581.69
   10:48:07.200.29-Jan-2021 4690.01 3067.46 79.83 10.00 336.02 2581.69
   10:48:07.400.29-Jan-2021 4690.01 3067.46 79.83 10.00 336.22 2581.69
   10:48:07.600.29-Jan-2021 4690.01 3067.48 79.83 10.00 336.42 2581.69
   10:48:07.800.29-Jan-2021 4690.01 3067.48 79.83 10.00 336.62 2581.69
   10:48:08.000.29-Jan-2021 4690.01 3067.48 79.83 10.00 336.82 2581.69
   10:48:08.200.29-Jan-2021 4690.01 3067.48 79.83 10.00 337.02 2581.69
   10:48:08.400.29-Jan-2021 4690.01 3067.48 79.83 10.00 337.22 2581.69
   10:48:08.600.29-Jan-2021 4690.01 3067.47 79.82 10.00 337.42 2581.69
   10:48:08.800.29-Jan-2021 4690.01 3067.46 79.82 10.00 337.62 2581.69
   10:48:09.000.29-Jan-2021 4690.01 3067.50 79.82 10.00 337.82 2581.69
   10:48:09.200.29-Jan-2021 4690.01 3067.49 79.82 10.00 338.02 2581.69
   10:48:09.400.29-Jan-2021 4690.01 3067.49 79.82 10.00 338.22 2581.69
   10:48:09.600.29-Jan-2021 4690.01 3067.48 79.82 10.00 338.42 2581.69
   10:48:09.800.29-Jan-2021 4690.01 3067.48 79.82 10.00 338.62 2581.69
   10:48:10.000.29-Jan-2021 4690.01 3067.45 79.82 10.00 338.82 2581.69
