~Version Information
 VERS.                  2.0:   CWLS log ASCII Standard -VERSION 2.0
 WRAP.                   NO:   One line per depth step
~Well Information Block
#MNEM.UNIT     VALUE/NAME     DESCRIPTION
#---------     -----------    ---------------------------
 STRT.S             01:29:12 30-Jan-21: START TIME 01:29:12 30-Jan-21
 STOP.S             01:35:33 30-Jan-21: STOP TIME  01:35:33 30-Jan-21
 STEP.S                   0.00: STEP TIME
 NULL.                 -999.25: NULL VALUE
 DFWT.                        :  DIST FWL TEXT
 DFST.                        :  DIST FSL TEXT
 DMF .             Drill Floor:  DRILL MEAS FROM
 STIM.      00.00.00 25-Sep-20:  START TIME
 DATE.      16.12.48 31-Jan-21:  END TIME
 SPUD.               20-Sep-20:  SPUD DATE
 NREF.                    Grid:  NORTH REFERENCE
 HPTY.       Minimum Curvature:  HOLE POS TYPE
 DMOD.             Drill Model:  DRILL MOD DESC
 SVYD.                  Survey:  SURVEY DESC
 ILTD.               Lithology:  INTERP LTH DESC
 FTOP.          Formation Tops:  FORM TOPS DESC
 RIG .              East Azeri:  RIG NAME
 PDAT.          Mean Sea Level:  PERMANENT DATUM
 FLD .                     ACG:  FIELD NAME
 SON .        AZ-XX-0906591820:  JOB NUMBER
 CTRY.              Azerbaijan:  COUNTRY NAME
 WELL.                     D37:  WELL NAME
 SRVC.     Turan Drilling & Engineering:  CONTRACTOR
 COMP.     BP Exploration (Caspian Sea) ltd.:  COMPANY
 WTYP.                Deviated:  WELL TYPE
 MDS .        Operator Entered:  MAG DATA SOURCE
 UWI .                     N/A:  UNIQUE WELL IDENTIFIER
 API .                     N/A:  API NUMBER
 BASE.              Azerbaijan:  LOGGING EQUIPMENT BASE LOCATION
 REGN.                   EESSA:  REGION
 PROV.                    Baku:  PROVINCE
 STAT.                    Baku:  STATE NAME
 MWDS.                    Baku:  MWD SHOP
 JOBN.        AZ-XX-0906591820:  JOB TICKET NUMB
 DOE .                     N/A:  DOE NUMBER
 DCON.         Sperry Drilling:  DIRECTNL CONTR
 UNIT.                     N/A:  LOGGING EQUIPMENT ID
 CNTY.                        :  COUNTY
 LOC .                        :  LOCATION
 LMF .             Drill Floor:  LOG MEASURED FROM
 TVDS.m                  43.60:  TVDSS CORRECTN
 LATI.deg                40.02:  LATITUDE
 LONG.deg                51.45:  LONGITUDE
 WHNS.m                  11.04:  WELL HEAD N/S
 WHEW.m                 -12.38:  WELL HEAD E/W
 UTMX.m              538763.98:  UTM X
 UTMY.m             4431880.20:  UTM Y
 DFWL.m                   0.00:  DISTANCE FWL
 DFSL.m                   0.00:  DISTANCE FSL
 SDEP.m                 300.00:  START DEPTH
 TDD .m                4900.01:  TOTAL DEPTH (DRILLER)
 VSDR.deg               185.64:  VERT SEC DIRECT
 GVFD.g                   1.00:  GRAVITY FIELD
 MFLD.nT              50301.00:  MAGNETIC FIELD
 MDIP.deg                59.46:  MAGNETIC DIP
 MDEC.deg                 6.43:  MAGNETIC DECL
 GRDC.deg                 0.29:  GRID CORRECTION
 AZTC.deg                 6.14:  AZM TOTAL CORR
 EPD .m                   0.00:  ELEVATION
 EGL .m                   0.00:  GROUND ELEVATION
 WDMS.m                 151.80:  WD ELEV
 APD .m                  43.60:  DEPTH ABOVE PD
 DEP .m                 571.69:  DEPTH
 AGAP.m                  43.60:  AIR GAP
 VSEW.m                 -12.38:  VERT SEC E/W
 VSNS.m                  11.04:  VERT SEC N/S
 EKB .m                  43.60:  KB ELEVATION
 EDF .m                  43.60:  DF ELEVATION
 TDL .m                 412.00:  TOTAL DEPTH (LOGGER)
 VSC .                       0:  VS TO CLOSURE
 MAGU.                 1849300:  MAGUTM CHECKSUM
~Parameter Information Block
#MNEM.UNIT       Value        Description
#---------     -----------    ---------------------------
 AV  .mps                 2.21:  Ann Velocity 
 AVMX.mps                 2.53:  Max Ann Veloc 
 AZIF.deg               144.83:  Azm, Final 
 BHAT.        Rotary Steerable:  BHA Type 
 BROT.°/30m              -0.52:  Build Rotating 
 BS  .in                  6.50:  Bit Size 
 BTPL.psig              209.00:  Bit Press Loss 
 CABU.                      No:  Customer Abuse 
 CGEO.        Ali Isfandiyarov:  Customer Geo 
 COMM.                     5j:  Run Comments 1 
 TCS .hr                 61.31:  Time Ciculation Ended 
 CV  .mps                 4.66:  Crit Velocity 
 CVMX.mps                 5.02:  Max Crit Veloc 
 DD1 .          Fariz Nahmatov:  Direct Drillr 1 
 DD2 .            Musa Ahmadov:  Direct Drillr 2 
 DDSV.               Geo-Pilot:  DD Service 
 DEFF.%                 100.00:  % Det Eff 
 DLRX.°/30m               1.44:  Dogleg Rot Max 
 DLSO.°/30m               0.83:  Dogleg Oriented 
 DLSX.°/30m               1.44:  Dogleg Str Max 
 DRET.      08.30.00 30-Jan-21:  Drill End Time 
 DRST.      21.15.00 27-Jan-21:  Drill Start Tim 
 DTIM.hr                 37.28:  Time Drilling 
 EDEP.m                4867.01:  End Depth 
 ENG1.          Rasim Hashimov:  Engineer 1 
 ENG2.         Almaz Almadatov:  Engineer 2 
 ENG3.        Tamerlan Ahmadov:  Engineer 3 
 ETIM.      22.41.04 31-Jan-21:  End Time 
 FLOI.gpm               400.00:  Flow In 
 FLON.gpm               300.00:  Flow In Min 
 FLOS.cptm                0.00:  Fluid Loss 
 FLOX.gpm               400.00:  Flow In Max 
 HFLO.                      No:  High Flow 
 HPRE.                      No:  High Pressure 
 HTEM.                      No:  High Temp 
 HYDO.m                   1.80:  Hydro Offset 
 IFIN.deg                65.63:  Inc, Final 
 IMAX.deg                66.77:  Inc Max 
 IMIN.deg                65.61:  Inc Min 
 IMND.m                4612.67:  Inc Min Depth 
 IMXD.m                4811.63:  Inc Max Depth 
 JARR.                      No:  Jarring 
 LETM.      08.30.00 30-Jan-21:  Log End Time 
 LOST.hr                     0:  Lost Rig Time 
 LSTM.      21.15.00 27-Jan-21:  Log Start Time 
 MDCL.ppm             41000.00:  Mud Chlorides 
 MDES.     Inversion Oil/Synthetic:  Mud Desc 
 DFD .sg                  1.40:  Mud Density 
 MDMN.sg                  1.40:  Dens Mud Min 
 MDMX.sg                  1.40:  Dens Mud Max 
 MOIL.                      53:  Run Mud Oil % 
 MOWR.                   66:34:  Run Mud OWR 
 MSND.                     0.2:  Run Mud Sand % 
 MSOL.                    17.9:  Run Mud Solids% 
 DFV .spqt               77.00:  Mud Viscosity 
 MWOD.in                  4.75:  MWD Tool OD 
 MWSI.                      No:  Serv Intrp, MWD 
 OTIM.hr                110.38:  Time Operating 
 PCON.           Look Like New:  Pad Condition 
 PMAX.psia             5300.00:  Press Op, Max 
 PV  .cP                 57.00:  Mud PV 
 RUN .                    1200:  Run Number 
 ROPA.m/hr               13.00:  ROP Avg 
 ROPN.m/hr                9.00:  ROP Min 
 ROPX.m/hr               15.00:  ROP Max 
 RPMA.rpm               120.00:  RPM Surface Avg 
 RPMN.rpm               100.00:  RPM Surface Min 
 RPMX.rpm               135.00:  RPM Surface Max 
 RRUN.                    1200:  Rig Run Number 
 RTIM.hr                  2.65:  Time Reaming 
 SAZI.deg               145.04:  Azm, Start 
 SDEP.m                4455.01:  Start Depth 
 SIDD.                      No:  Serv Intrp, DD 
 SINC.deg                65.83:  Inc, Start 
 SPPA.psig             5037.00:  SPP Avg 
 SPPN.psig             4430.00:  SPP Min 
 SPPX.psig             5300.00:  SPP Max 
 STIM.      22.41.04 26-Jan-21:  Start Time 
 SVCS.                 DD, MWD:  Services 
 SVER.                    9.20:  Sperry Version 
 TDAT.m                 412.00:  Tot Depth Attmp 
 TDDF.                      No:  Trip for DD 
 TDLG.m                 412.00:  Tot Depth Loggd 
 TFF .                      No:  Trip for Fail 
 TQAA.f-kp               15.00:  Torque Abs Avg 
 TQAN.f-kp               12.00:  Torque Abs Min 
 TQAX.f-kp               17.00:  Torque Abs Max 
 TRRT.°/30m               1.18:  Turn Rotating 
 MRT .                     ADR:  Maximum Recorded Temperature 
 TTMX.degC               88.24:  Max Tool Temp 
 VS01.                90619458:  Virtual Str1 SN 
 VS02.                90519326:  Virtual Str2 SN 
 VS03.                90522176:  Virtual Str3 SN 
 VS04.                90512683:  Virtual Str4 SN 
 WBMN.klb                 1.00:  WOB Min 
 WITN.           Murad Giluyev:  Customer Rep 
 WITN.     Kamran Kemberlinski:  Customer Rep 2 
 WOBA.klb                 5.00:  WOB Avg 
 WOBX.klb                 9.00:  WOB Max 
 YP  .lhf2               41.00:  Yield Point 
~Curve Information Block
#MNEM.UNIT                 API CODE     Curve Description
#---------               -----------    ---------------------------
 TIME.HHMMSS            00 000 000 000:  GT Time & Date
 GTDEPTH.m              00 000 000 000:  GT Depth
 GTPQH.psia             00 000 000 000:  GT HR Quartz Pressure
 GTTQ.degC              00 000 000 000:  GT Quartz Temperature
 GTTN.NONE              00 000 000 000:  GT Test Number
 GTET.sec               00 000 000 000:  GT Elapsed Test Time
 GTTVD.m                00 000 000 000:  GT True Vertical Depth
#Other Information
#
#WARRANTY: Halliburton will use its best efforts to furnish customers with 
#accurate information and interpretations that are part of, and incident to, the services 
#provided.  However, Halliburton cannot and does not warrant the accuracy 
#or correctness of such information and interpretations.  Under no circumstances should any 
#such information or interpretation be relied upon as the sole basis for any drilling, 
#completion, production, or financial decision or any procedure involving any risk to the 
#safety of any drilling venture, drilling rig or its crew or any other third party.  The 
#Customer has full responsibility for all drilling, completion and production operation.  
#Halliburton makes no representations or warranties, either expressed or 
#implied, including, but not limited to, the implied warranties of merchantability or fitness 
#for a particular purpose, with respect to the services rendered.  In no event will 
#Halliburton be liable for failure to obtain any particular results or for 
#any damages, including, but not limited to, indirect, special or consequential damages, 
#resulting from the use of any information or interpretation provided by Halliburton.
#
~A           TIME           GTDEPTH  GTPQH  GTTQ  GTTN   GTET   GTTVD  
# ...
   01:34:29.098.30-Jan-2021 4789.01   27.35 81.68 15.00 316.46 2621.19
   01:34:29.298.30-Jan-2021 4789.01   27.35 81.68 15.00 316.66 2621.19
   01:34:29.498.30-Jan-2021 4789.01   27.35 81.68 15.00 316.86 2621.19
   01:34:29.698.30-Jan-2021 4789.01   27.35 81.68 15.00 317.06 2621.19
   01:34:29.898.30-Jan-2021 4789.01   27.35 81.68 15.00 317.26 2621.19
   01:34:30.099.30-Jan-2021 4789.01   27.36 81.68 15.00 317.46 2621.19
   01:34:30.299.30-Jan-2021 4789.01   27.36 81.68 15.00 317.66 2621.19
   01:34:30.499.30-Jan-2021 4789.01   27.37 81.68 15.00 317.86 2621.19
   01:34:30.699.30-Jan-2021 4789.01   27.37 81.68 15.00 318.06 2621.19
   01:34:30.899.30-Jan-2021 4789.01   27.37 81.68 15.00 318.26 2621.19
   01:34:31.099.30-Jan-2021 4789.01   27.37 81.68 15.00 318.46 2621.19
   01:34:31.299.30-Jan-2021 4789.01   27.38 81.68 15.00 318.66 2621.19
   01:34:31.499.30-Jan-2021 4789.01   27.38 81.68 15.00 318.86 2621.19
   01:34:31.699.30-Jan-2021 4789.01   27.39 81.68 15.00 319.06 2621.19
   01:34:31.899.30-Jan-2021 4789.01   27.39 81.68 15.00 319.26 2621.19
   01:34:32.099.30-Jan-2021 4789.01   27.39 81.68 15.00 319.46 2621.19
   01:34:32.299.30-Jan-2021 4789.01   27.39 81.68 15.00 319.66 2621.19
   01:34:32.499.30-Jan-2021 4789.01   27.40 81.68 15.00 319.86 2621.19
   01:34:32.699.30-Jan-2021 4789.01   27.40 81.68 15.00 320.06 2621.19
   01:34:32.899.30-Jan-2021 4789.01   27.40 81.68 15.00 320.26 2621.19
   01:34:33.099.30-Jan-2021 4789.01   27.40 81.68 15.00 320.46 2621.19
   01:34:33.299.30-Jan-2021 4789.01   27.41 81.68 15.00 320.66 2621.19
   01:34:33.499.30-Jan-2021 4789.01   27.41 81.68 15.00 320.86 2621.19
   01:34:33.699.30-Jan-2021 4789.01   27.41 81.68 15.00 321.06 2621.19
   01:34:33.899.30-Jan-2021 4789.01   27.41 81.68 15.00 321.26 2621.19
   01:34:34.099.30-Jan-2021 4789.01   27.42 81.67 15.00 321.46 2621.19
   01:34:34.299.30-Jan-2021 4789.01   27.42 81.67 15.00 321.66 2621.19
   01:34:34.499.30-Jan-2021 4789.01   27.43 81.67 15.00 321.86 2621.19
   01:34:34.699.30-Jan-2021 4789.01   27.42 81.67 15.00 322.06 2621.19
   01:34:34.899.30-Jan-2021 4789.01   27.42 81.67 15.00 322.26 2621.19
   01:34:35.099.30-Jan-2021 4789.01   27.43 81.67 15.00 322.46 2621.19
   01:34:35.300.30-Jan-2021 4789.01   27.43 81.67 15.00 322.66 2621.19
   01:34:35.500.30-Jan-2021 4789.01   27.44 81.67 15.00 322.86 2621.19
   01:34:35.700.30-Jan-2021 4789.01   27.44 81.67 15.00 323.06 2621.19
   01:34:35.900.30-Jan-2021 4789.01   27.44 81.67 15.00 323.26 2621.19
   01:34:36.100.30-Jan-2021 4789.01   27.44 81.67 15.00 323.46 2621.19
   01:34:36.300.30-Jan-2021 4789.01   27.45 81.67 15.00 323.66 2621.19
   01:34:36.500.30-Jan-2021 4789.01   27.45 81.67 15.00 323.86 2621.19
   01:34:36.700.30-Jan-2021 4789.01   27.45 81.67 15.00 324.06 2621.19
   01:34:36.900.30-Jan-2021 4789.01   27.45 81.67 15.00 324.26 2621.19
   01:34:37.100.30-Jan-2021 4789.01   27.46 81.67 15.00 324.46 2621.19
   01:34:37.300.30-Jan-2021 4789.01   27.46 81.67 15.00 324.66 2621.19
   01:34:37.500.30-Jan-2021 4789.01   27.47 81.67 15.00 324.86 2621.19
   01:34:37.700.30-Jan-2021 4789.01   27.47 81.67 15.00 325.06 2621.19
   01:34:37.900.30-Jan-2021 4789.01   27.47 81.67 15.00 325.26 2621.19
   01:34:38.100.30-Jan-2021 4789.01   27.48 81.67 15.00 325.46 2621.19
   01:34:38.300.30-Jan-2021 4789.01   27.48 81.67 15.00 325.66 2621.19
   01:34:38.500.30-Jan-2021 4789.01   27.48 81.67 15.00 325.86 2621.19
   01:34:38.700.30-Jan-2021 4789.01   27.49 81.67 15.00 326.06 2621.19
   01:34:38.900.30-Jan-2021 4789.01   27.49 81.67 15.00 326.26 2621.19
   01:34:39.100.30-Jan-2021 4789.01   27.49 81.67 15.00 326.46 2621.19
   01:34:39.300.30-Jan-2021 4789.01   27.50 81.67 15.00 326.66 2621.19
   01:34:39.500.30-Jan-2021 4789.01   27.50 81.67 15.00 326.86 2621.19
   01:34:39.700.30-Jan-2021 4789.01   27.51 81.67 15.00 327.06 2621.19
   01:34:39.900.30-Jan-2021 4789.01   27.51 81.67 15.00 327.26 2621.19
   01:34:40.100.30-Jan-2021 4789.01   27.51 81.66 15.00 327.46 2621.19
   01:34:40.300.30-Jan-2021 4789.01   27.51 81.66 15.00 327.66 2621.19
   01:34:40.501.30-Jan-2021 4789.01   27.52 81.66 15.00 327.86 2621.19
   01:34:40.701.30-Jan-2021 4789.01   27.52 81.66 15.00 328.06 2621.19
   01:34:40.901.30-Jan-2021 4789.01   27.52 81.66 15.00 328.26 2621.19
   01:34:41.101.30-Jan-2021 4789.01   27.53 81.66 15.00 328.46 2621.19
   01:34:41.301.30-Jan-2021 4789.01   27.53 81.66 15.00 328.66 2621.19
   01:34:41.501.30-Jan-2021 4789.01   27.53 81.66 15.00 328.86 2621.19
   01:34:41.701.30-Jan-2021 4789.01   27.54 81.66 15.00 329.06 2621.19
   01:34:41.901.30-Jan-2021 4789.01   27.54 81.66 15.00 329.26 2621.19
   01:34:42.101.30-Jan-2021 4789.01   27.54 81.66 15.00 329.46 2621.19
   01:34:42.301.30-Jan-2021 4789.01   27.55 81.66 15.00 329.66 2621.19
   01:34:42.501.30-Jan-2021 4789.01   27.55 81.66 15.00 329.86 2621.19
   01:34:42.701.30-Jan-2021 4789.01   27.55 81.66 15.00 330.06 2621.19
   01:34:42.901.30-Jan-2021 4789.01   27.55 81.66 15.00 330.26 2621.19
   01:34:43.101.30-Jan-2021 4789.01   27.56 81.66 15.00 330.46 2621.19
   01:34:43.301.30-Jan-2021 4789.01   27.56 81.66 15.00 330.66 2621.19
   01:34:43.501.30-Jan-2021 4789.01   27.57 81.66 15.00 330.86 2621.19
   01:34:43.701.30-Jan-2021 4789.01   27.57 81.66 15.00 331.06 2621.19
   01:34:43.901.30-Jan-2021 4789.01   27.57 81.66 15.00 331.26 2621.19
   01:34:44.101.30-Jan-2021 4789.01   27.57 81.66 15.00 331.46 2621.19
   01:34:44.301.30-Jan-2021 4789.01   27.58 81.66 15.00 331.66 2621.19
   01:34:44.501.30-Jan-2021 4789.01   27.58 81.66 15.00 331.86 2621.19
   01:34:44.701.30-Jan-2021 4789.01   27.58 81.66 15.00 332.06 2621.19
   01:34:44.901.30-Jan-2021 4789.01   27.58 81.66 15.00 332.26 2621.19
   01:34:45.101.30-Jan-2021 4789.01   27.59 81.66 15.00 332.46 2621.19
   01:34:45.301.30-Jan-2021 4789.01   27.60 81.66 15.00 332.66 2621.19
   01:34:45.501.30-Jan-2021 4789.01   27.59 81.66 15.00 332.86 2621.19
   01:34:45.702.30-Jan-2021 4789.01   27.60 81.66 15.00 333.06 2621.19
   01:34:45.902.30-Jan-2021 4789.01   27.60 81.66 15.00 333.26 2621.19
   01:34:46.102.30-Jan-2021 4789.01   27.61 81.65 15.00 333.46 2621.19
   01:34:46.302.30-Jan-2021 4789.01   27.61 81.65 15.00 333.66 2621.19
   01:34:46.502.30-Jan-2021 4789.01   27.61 81.65 15.00 333.86 2621.19
   01:34:46.702.30-Jan-2021 4789.01   27.61 81.65 15.00 334.06 2621.19
   01:34:46.902.30-Jan-2021 4789.01   27.61 81.65 15.00 334.26 2621.19
   01:34:47.102.30-Jan-2021 4789.01   27.62 81.65 15.00 334.46 2621.19
   01:34:47.302.30-Jan-2021 4789.01   27.63 81.65 15.00 334.66 2621.19
   01:34:47.502.30-Jan-2021 4789.01   27.63 81.65 15.00 334.86 2621.19
   01:34:47.702.30-Jan-2021 4789.01   27.62 81.65 15.00 335.06 2621.19
   01:34:47.902.30-Jan-2021 4789.01   27.62 81.65 15.00 335.26 2621.19
   01:34:48.102.30-Jan-2021 4789.01   27.64 81.65 15.00 335.46 2621.19
   01:34:48.302.30-Jan-2021 4789.01   27.64 81.65 15.00 335.66 2621.19
   01:34:48.502.30-Jan-2021 4789.01   27.64 81.65 15.00 335.86 2621.19
   01:34:48.702.30-Jan-2021 4789.01   27.65 81.65 15.00 336.06 2621.19
   01:34:48.902.30-Jan-2021 4789.01   27.65 81.65 15.00 336.26 2621.19
   01:34:49.102.30-Jan-2021 4789.01   27.65 81.65 15.00 336.46 2621.19
   01:34:49.302.30-Jan-2021 4789.01   27.65 81.65 15.00 336.66 2621.19
   01:34:49.502.30-Jan-2021 4789.01   27.66 81.65 15.00 336.86 2621.19
   01:34:49.702.30-Jan-2021 4789.01   27.66 81.65 15.00 337.06 2621.19
   01:34:49.902.30-Jan-2021 4789.01   27.66 81.65 15.00 337.26 2621.19
   01:34:50.102.30-Jan-2021 4789.01   27.66 81.65 15.00 337.46 2621.19
   01:34:50.302.30-Jan-2021 4789.01   27.67 81.65 15.00 337.67 2621.19
   01:34:50.502.30-Jan-2021 4789.01   27.67 81.65 15.00 337.87 2621.19
   01:34:50.702.30-Jan-2021 4789.01   27.68 81.65 15.00 338.07 2621.19
   01:34:50.903.30-Jan-2021 4789.01   27.68 81.65 15.00 338.27 2621.19
   01:34:51.103.30-Jan-2021 4789.01   27.67 81.65 15.00 338.47 2621.19
   01:34:51.303.30-Jan-2021 4789.01   27.69 81.65 15.00 338.67 2621.19
   01:34:51.503.30-Jan-2021 4789.01   27.69 81.65 15.00 338.87 2621.19
