~Version Information
 VERS.                  2.0:   CWLS log ASCII Standard -VERSION 2.0
 WRAP.                   NO:   One line per depth step
~Well Information Block
#MNEM.UNIT     VALUE/NAME     DESCRIPTION
#---------     -----------    ---------------------------
 STRT.S             02:53:50 29-Jan-21: START TIME 02:53:50 29-Jan-21
 STOP.S             03:00:20 29-Jan-21: STOP TIME  03:00:20 29-Jan-21
 STEP.S                   0.00: STEP TIME
 NULL.                 -999.25: NULL VALUE
 DFWT.                        :  DIST FWL TEXT
 DFST.                        :  DIST FSL TEXT
 DMF .             Drill Floor:  DRILL MEAS FROM
 STIM.      00.00.00 25-Sep-20:  START TIME
 DATE.      16.12.48 31-Jan-21:  END TIME
 SPUD.               20-Sep-20:  SPUD DATE
 NREF.                    Grid:  NORTH REFERENCE
 HPTY.       Minimum Curvature:  HOLE POS TYPE
 DMOD.             Drill Model:  DRILL MOD DESC
 SVYD.                  Survey:  SURVEY DESC
 ILTD.               Lithology:  INTERP LTH DESC
 FTOP.          Formation Tops:  FORM TOPS DESC
 RIG .              East Azeri:  RIG NAME
 PDAT.          Mean Sea Level:  PERMANENT DATUM
 FLD .                     ACG:  FIELD NAME
 SON .        AZ-XX-0906591820:  JOB NUMBER
 CTRY.              Azerbaijan:  COUNTRY NAME
 WELL.                     D37:  WELL NAME
 SRVC.     Turan Drilling & Engineering:  CONTRACTOR
 COMP.     BP Exploration (Caspian Sea) ltd.:  COMPANY
 WTYP.                Deviated:  WELL TYPE
 MDS .        Operator Entered:  MAG DATA SOURCE
 UWI .                     N/A:  UNIQUE WELL IDENTIFIER
 API .                     N/A:  API NUMBER
 BASE.              Azerbaijan:  LOGGING EQUIPMENT BASE LOCATION
 REGN.                   EESSA:  REGION
 PROV.                    Baku:  PROVINCE
 STAT.                    Baku:  STATE NAME
 MWDS.                    Baku:  MWD SHOP
 JOBN.        AZ-XX-0906591820:  JOB TICKET NUMB
 DOE .                     N/A:  DOE NUMBER
 DCON.         Sperry Drilling:  DIRECTNL CONTR
 UNIT.                     N/A:  LOGGING EQUIPMENT ID
 CNTY.                        :  COUNTY
 LOC .                        :  LOCATION
 LMF .             Drill Floor:  LOG MEASURED FROM
 TVDS.m                  43.60:  TVDSS CORRECTN
 LATI.deg                40.02:  LATITUDE
 LONG.deg                51.45:  LONGITUDE
 WHNS.m                  11.04:  WELL HEAD N/S
 WHEW.m                 -12.38:  WELL HEAD E/W
 UTMX.m              538763.98:  UTM X
 UTMY.m             4431880.20:  UTM Y
 DFWL.m                   0.00:  DISTANCE FWL
 DFSL.m                   0.00:  DISTANCE FSL
 SDEP.m                 300.00:  START DEPTH
 TDD .m                4900.01:  TOTAL DEPTH (DRILLER)
 VSDR.deg               185.64:  VERT SEC DIRECT
 GVFD.g                   1.00:  GRAVITY FIELD
 MFLD.nT              50301.00:  MAGNETIC FIELD
 MDIP.deg                59.46:  MAGNETIC DIP
 MDEC.deg                 6.43:  MAGNETIC DECL
 GRDC.deg                 0.29:  GRID CORRECTION
 AZTC.deg                 6.14:  AZM TOTAL CORR
 EPD .m                   0.00:  ELEVATION
 EGL .m                   0.00:  GROUND ELEVATION
 WDMS.m                 151.80:  WD ELEV
 APD .m                  43.60:  DEPTH ABOVE PD
 DEP .m                 571.69:  DEPTH
 AGAP.m                  43.60:  AIR GAP
 VSEW.m                 -12.38:  VERT SEC E/W
 VSNS.m                  11.04:  VERT SEC N/S
 EKB .m                  43.60:  KB ELEVATION
 EDF .m                  43.60:  DF ELEVATION
 TDL .m                 412.00:  TOTAL DEPTH (LOGGER)
 VSC .                       0:  VS TO CLOSURE
 MAGU.                 1849300:  MAGUTM CHECKSUM
~Parameter Information Block
#MNEM.UNIT       Value        Description
#---------     -----------    ---------------------------
 AV  .mps                 2.21:  Ann Velocity 
 AVMX.mps                 2.53:  Max Ann Veloc 
 AZIF.deg               144.83:  Azm, Final 
 BHAT.        Rotary Steerable:  BHA Type 
 BROT.°/30m              -0.52:  Build Rotating 
 BS  .in                  6.50:  Bit Size 
 BTPL.psig              209.00:  Bit Press Loss 
 CABU.                      No:  Customer Abuse 
 CGEO.        Ali Isfandiyarov:  Customer Geo 
 COMM.                     tÿr:  Run Comments 1 
 TCS .hr                 61.31:  Time Ciculation Ended 
 CV  .mps                 4.66:  Crit Velocity 
 CVMX.mps                 5.02:  Max Crit Veloc 
 DD1 .          Fariz Nahmatov:  Direct Drillr 1 
 DD2 .            Musa Ahmadov:  Direct Drillr 2 
 DDSV.               Geo-Pilot:  DD Service 
 DEFF.%                 100.00:  % Det Eff 
 DLRX.°/30m               1.44:  Dogleg Rot Max 
 DLSO.°/30m               0.83:  Dogleg Oriented 
 DLSX.°/30m               1.44:  Dogleg Str Max 
 DRET.      08.30.00 30-Jan-21:  Drill End Time 
 DRST.      21.15.00 27-Jan-21:  Drill Start Tim 
 DTIM.hr                 37.28:  Time Drilling 
 EDEP.m                4867.01:  End Depth 
 ENG1.          Rasim Hashimov:  Engineer 1 
 ENG2.         Almaz Almadatov:  Engineer 2 
 ENG3.        Tamerlan Ahmadov:  Engineer 3 
 ETIM.      22.41.04 31-Jan-21:  End Time 
 FLOI.gpm               400.00:  Flow In 
 FLON.gpm               300.00:  Flow In Min 
 FLOS.cptm                0.00:  Fluid Loss 
 FLOX.gpm               400.00:  Flow In Max 
 HFLO.                      No:  High Flow 
 HPRE.                      No:  High Pressure 
 HTEM.                      No:  High Temp 
 HYDO.m                   1.80:  Hydro Offset 
 IFIN.deg                65.63:  Inc, Final 
 IMAX.deg                66.77:  Inc Max 
 IMIN.deg                65.61:  Inc Min 
 IMND.m                4612.67:  Inc Min Depth 
 IMXD.m                4811.63:  Inc Max Depth 
 JARR.                      No:  Jarring 
 LETM.      08.30.00 30-Jan-21:  Log End Time 
 LOST.hr                     0:  Lost Rig Time 
 LSTM.      21.15.00 27-Jan-21:  Log Start Time 
 MDCL.ppm             41000.00:  Mud Chlorides 
 MDES.     Inversion Oil/Synthetic:  Mud Desc 
 DFD .sg                  1.40:  Mud Density 
 MDMN.sg                  1.40:  Dens Mud Min 
 MDMX.sg                  1.40:  Dens Mud Max 
 MOIL.                      53:  Run Mud Oil % 
 MOWR.                   66:34:  Run Mud OWR 
 MSND.                     0.2:  Run Mud Sand % 
 MSOL.                    17.9:  Run Mud Solids% 
 DFV .spqt               77.00:  Mud Viscosity 
 MWOD.in                  4.75:  MWD Tool OD 
 MWSI.                      No:  Serv Intrp, MWD 
 OTIM.hr                110.38:  Time Operating 
 PCON.           Look Like New:  Pad Condition 
 PMAX.psia             5300.00:  Press Op, Max 
 PV  .cP                 57.00:  Mud PV 
 RUN .                    1200:  Run Number 
 ROPA.m/hr               13.00:  ROP Avg 
 ROPN.m/hr                9.00:  ROP Min 
 ROPX.m/hr               15.00:  ROP Max 
 RPMA.rpm               120.00:  RPM Surface Avg 
 RPMN.rpm               100.00:  RPM Surface Min 
 RPMX.rpm               135.00:  RPM Surface Max 
 RRUN.                    1200:  Rig Run Number 
 RTIM.hr                  2.65:  Time Reaming 
 SAZI.deg               145.04:  Azm, Start 
 SDEP.m                4455.01:  Start Depth 
 SIDD.                      No:  Serv Intrp, DD 
 SINC.deg                65.83:  Inc, Start 
 SPPA.psig             5037.00:  SPP Avg 
 SPPN.psig             4430.00:  SPP Min 
 SPPX.psig             5300.00:  SPP Max 
 STIM.      22.41.04 26-Jan-21:  Start Time 
 SVCS.                 DD, MWD:  Services 
 SVER.                    9.20:  Sperry Version 
 TDAT.m                 412.00:  Tot Depth Attmp 
 TDDF.                      No:  Trip for DD 
 TDLG.m                 412.00:  Tot Depth Loggd 
 TFF .                      No:  Trip for Fail 
 TQAA.f-kp               15.00:  Torque Abs Avg 
 TQAN.f-kp               12.00:  Torque Abs Min 
 TQAX.f-kp               17.00:  Torque Abs Max 
 TRRT.°/30m               1.18:  Turn Rotating 
 MRT .                     ADR:  Maximum Recorded Temperature 
 TTMX.degC               88.24:  Max Tool Temp 
 VS01.                90619458:  Virtual Str1 SN 
 VS02.                90519326:  Virtual Str2 SN 
 VS03.                90522176:  Virtual Str3 SN 
 VS04.                90512683:  Virtual Str4 SN 
 WBMN.klb                 1.00:  WOB Min 
 WITN.           Murad Giluyev:  Customer Rep 
 WITN.     Kamran Kemberlinski:  Customer Rep 2 
 WOBA.klb                 5.00:  WOB Avg 
 WOBX.klb                 9.00:  WOB Max 
 YP  .lhf2               41.00:  Yield Point 
~Curve Information Block
#MNEM.UNIT                 API CODE     Curve Description
#---------               -----------    ---------------------------
 TIME.HHMMSS            00 000 000 000:  GT Time & Date
 GTDEPTH.m              00 000 000 000:  GT Depth
 GTPQH.psia             00 000 000 000:  GT HR Quartz Pressure
 GTTQ.degC              00 000 000 000:  GT Quartz Temperature
 GTTN.NONE              00 000 000 000:  GT Test Number
 GTET.sec               00 000 000 000:  GT Elapsed Test Time
 GTTVD.m                00 000 000 000:  GT True Vertical Depth
#Other Information
#
#WARRANTY: Halliburton will use its best efforts to furnish customers with 
#accurate information and interpretations that are part of, and incident to, the services 
#provided.  However, Halliburton cannot and does not warrant the accuracy 
#or correctness of such information and interpretations.  Under no circumstances should any 
#such information or interpretation be relied upon as the sole basis for any drilling, 
#completion, production, or financial decision or any procedure involving any risk to the 
#safety of any drilling venture, drilling rig or its crew or any other third party.  The 
#Customer has full responsibility for all drilling, completion and production operation.  
#Halliburton makes no representations or warranties, either expressed or 
#implied, including, but not limited to, the implied warranties of merchantability or fitness 
#for a particular purpose, with respect to the services rendered.  In no event will 
#Halliburton be liable for failure to obtain any particular results or for 
#any damages, including, but not limited to, indirect, special or consequential damages, 
#resulting from the use of any information or interpretation provided by Halliburton.
#
~A           TIME           GTDEPTH  GTPQH  GTTQ  GTTN  GTET   GTTVD  
# ...
   02:59:58.830.29-Jan-2021 4635.01 5615.63 76.99 7.00 368.05 2559.44
   02:59:59.030.29-Jan-2021 4635.01 5615.63 76.99 7.00 368.25 2559.44
   02:59:59.230.29-Jan-2021 4635.01 5615.63 76.99 7.00 368.45 2559.44
   02:59:59.430.29-Jan-2021 4635.01 5615.89 76.99 7.00 368.65 2559.44
   02:59:59.630.29-Jan-2021 4635.01 5619.49 76.99 7.00 368.85 2559.44
   02:59:59.830.29-Jan-2021 4635.01 5619.22 76.99 7.00 369.05 2559.44
   03:00:00.030.29-Jan-2021 4635.01 5619.22 76.99 7.00 369.25 2559.44
   03:00:00.230.29-Jan-2021 4635.01 5619.34 76.99 7.00 369.45 2559.44
   03:00:00.430.29-Jan-2021 4635.01 5620.31 76.99 7.00 369.65 2559.44
   03:00:00.630.29-Jan-2021 4635.01 5619.81 76.99 7.00 369.85 2559.44
   03:00:00.830.29-Jan-2021 4635.01 5619.32 76.99 7.00 370.05 2559.44
   03:00:01.030.29-Jan-2021 4635.01 5619.32 76.99 7.00 370.25 2559.44
   03:00:01.230.29-Jan-2021 4635.01 5618.38 76.99 7.00 370.45 2559.44
   03:00:01.430.29-Jan-2021 4635.01 5619.75 76.99 7.00 370.65 2559.44
   03:00:01.630.29-Jan-2021 4635.01 5618.57 76.99 7.00 370.85 2559.44
   03:00:01.830.29-Jan-2021 4635.01 5619.25 76.99 7.00 371.05 2559.44
   03:00:02.030.29-Jan-2021 4635.01 5619.25 76.99 7.00 371.25 2559.44
   03:00:02.230.29-Jan-2021 4635.01 5619.05 76.99 7.00 371.45 2559.44
   03:00:02.430.29-Jan-2021 4635.01 5613.56 76.99 7.00 371.65 2559.44
   03:00:02.630.29-Jan-2021 4635.01 5619.48 76.99 7.00 371.85 2559.44
   03:00:02.830.29-Jan-2021 4635.01 5615.16 76.99 7.00 372.05 2559.44
   03:00:03.030.29-Jan-2021 4635.01 5615.16 76.99 7.00 372.25 2559.44
   03:00:03.230.29-Jan-2021 4635.01 5612.03 76.99 7.00 372.45 2559.44
   03:00:03.430.29-Jan-2021 4635.01 5621.24 76.99 7.00 372.65 2559.44
   03:00:03.630.29-Jan-2021 4635.01 5616.44 76.99 7.00 372.85 2559.44
   03:00:03.830.29-Jan-2021 4635.01 5618.61 76.99 7.00 373.05 2559.44
   03:00:04.030.29-Jan-2021 4635.01 5618.61 76.99 7.00 373.25 2559.44
   03:00:04.230.29-Jan-2021 4635.01 5620.13 76.99 7.00 373.45 2559.44
   03:00:04.430.29-Jan-2021 4635.01 5616.36 76.99 7.00 373.65 2559.44
   03:00:04.630.29-Jan-2021 4635.01 5617.62 76.99 7.00 373.85 2559.44
   03:00:04.830.29-Jan-2021 4635.01 5621.36 76.99 7.00 374.05 2559.44
   03:00:05.031.29-Jan-2021 4635.01 5621.36 76.99 7.00 374.25 2559.44
   03:00:05.231.29-Jan-2021 4635.01 5619.79 76.99 7.00 374.45 2559.44
   03:00:05.431.29-Jan-2021 4635.01 5618.87 76.99 7.00 374.65 2559.44
   03:00:05.631.29-Jan-2021 4635.01 5620.57 76.99 7.00 374.85 2559.44
   03:00:05.831.29-Jan-2021 4635.01 5614.81 76.99 7.00 375.05 2559.44
   03:00:06.031.29-Jan-2021 4635.01 5614.81 76.99 7.00 375.25 2559.44
   03:00:06.231.29-Jan-2021 4635.01 5618.87 76.98 7.00 375.45 2559.44
   03:00:06.431.29-Jan-2021 4635.01 5615.66 76.98 7.00 375.65 2559.44
   03:00:06.631.29-Jan-2021 4635.01 5613.95 76.98 7.00 375.85 2559.44
   03:00:06.831.29-Jan-2021 4635.01 5616.98 76.98 7.00 376.05 2559.44
   03:00:07.031.29-Jan-2021 4635.01 5616.98 76.98 7.00 376.25 2559.44
   03:00:07.231.29-Jan-2021 4635.01 5614.71 76.98 7.00 376.45 2559.44
   03:00:07.431.29-Jan-2021 4635.01 5618.96 76.98 7.00 376.65 2559.44
   03:00:07.631.29-Jan-2021 4635.01 5618.91 76.98 7.00 376.85 2559.44
   03:00:07.831.29-Jan-2021 4635.01 5620.06 76.98 7.00 377.05 2559.44
   03:00:08.031.29-Jan-2021 4635.01 5620.06 76.98 7.00 377.25 2559.44
   03:00:08.231.29-Jan-2021 4635.01 5619.88 76.98 7.00 377.45 2559.44
   03:00:08.431.29-Jan-2021 4635.01 5619.04 76.98 7.00 377.65 2559.44
   03:00:08.631.29-Jan-2021 4635.01 5619.36 76.98 7.00 377.85 2559.44
   03:00:08.831.29-Jan-2021 4635.01 5618.49 76.98 7.00 378.05 2559.44
   03:00:09.031.29-Jan-2021 4635.01 5618.49 76.98 7.00 378.25 2559.44
   03:00:09.231.29-Jan-2021 4635.01 5618.39 76.98 7.00 378.45 2559.44
   03:00:09.431.29-Jan-2021 4635.01 5618.52 76.98 7.00 378.65 2559.44
   03:00:09.631.29-Jan-2021 4635.01 5617.57 76.98 7.00 378.85 2559.44
   03:00:09.831.29-Jan-2021 4635.01 5618.19 76.98 7.00 379.05 2559.44
   03:00:10.031.29-Jan-2021 4635.01 5618.19 76.98 7.00 379.25 2559.44
   03:00:10.231.29-Jan-2021 4635.01 5611.74 76.98 7.00 379.45 2559.44
   03:00:10.431.29-Jan-2021 4635.01 5618.90 76.98 7.00 379.65 2559.44
   03:00:10.631.29-Jan-2021 4635.01 5615.48 76.98 7.00 379.85 2559.44
   03:00:10.831.29-Jan-2021 4635.01 5617.22 76.98 7.00 380.05 2559.44
   03:00:11.031.29-Jan-2021 4635.01 5617.22 76.98 7.00 380.25 2559.44
   03:00:11.231.29-Jan-2021 4635.01 5619.42 76.98 7.00 380.45 2559.44
   03:00:11.431.29-Jan-2021 4635.01 5618.01 76.98 7.00 380.65 2559.44
   03:00:11.631.29-Jan-2021 4635.01 5618.98 76.98 7.00 380.85 2559.44
   03:00:11.831.29-Jan-2021 4635.01 5619.00 76.98 7.00 381.05 2559.44
   03:00:12.031.29-Jan-2021 4635.01 5619.00 76.98 7.00 381.25 2559.44
   03:00:12.232.29-Jan-2021 4635.01 5618.06 76.98 7.00 381.45 2559.44
   03:00:12.432.29-Jan-2021 4635.01 5618.78 76.98 7.00 381.65 2559.44
   03:00:12.632.29-Jan-2021 4635.01 5618.31 76.98 7.00 381.85 2559.44
   03:00:12.832.29-Jan-2021 4635.01 5619.01 76.98 7.00 382.05 2559.44
   03:00:13.032.29-Jan-2021 4635.01 5619.01 76.98 7.00 382.25 2559.44
   03:00:13.232.29-Jan-2021 4635.01 5618.73 76.98 7.00 382.45 2559.44
   03:00:13.432.29-Jan-2021 4635.01 5617.98 76.98 7.00 382.65 2559.44
   03:00:13.632.29-Jan-2021 4635.01 5611.63 76.98 7.00 382.85 2559.44
   03:00:13.832.29-Jan-2021 4635.01 5619.48 76.98 7.00 383.05 2559.44
   03:00:14.032.29-Jan-2021 4635.01 5619.48 76.98 7.00 383.25 2559.44
   03:00:14.232.29-Jan-2021 4635.01 5616.69 76.97 7.00 383.45 2559.44
   03:00:14.432.29-Jan-2021 4635.01 5613.65 76.97 7.00 383.65 2559.44
   03:00:14.632.29-Jan-2021 4635.01 5617.98 76.97 7.00 383.85 2559.44
   03:00:14.832.29-Jan-2021 4635.01 5618.84 76.97 7.00 384.05 2559.44
   03:00:15.032.29-Jan-2021 4635.01 5618.84 76.97 7.00 384.25 2559.44
   03:00:15.232.29-Jan-2021 4635.01 5618.69 76.97 7.00 384.45 2559.44
   03:00:15.432.29-Jan-2021 4635.01 5619.54 76.97 7.00 384.65 2559.44
   03:00:15.632.29-Jan-2021 4635.01 5619.38 76.97 7.00 384.85 2559.44
   03:00:15.832.29-Jan-2021 4635.01 5612.74 76.97 7.00 385.05 2559.44
   03:00:16.032.29-Jan-2021 4635.01 5612.74 76.97 7.00 385.25 2559.44
   03:00:16.232.29-Jan-2021 4635.01 5619.20 76.97 7.00 385.45 2559.44
   03:00:16.432.29-Jan-2021 4635.01 5616.85 76.97 7.00 385.65 2559.44
   03:00:16.632.29-Jan-2021 4635.01 5619.19 76.97 7.00 385.85 2559.44
   03:00:16.832.29-Jan-2021 4635.01 5619.24 76.97 7.00 386.05 2559.44
   03:00:17.032.29-Jan-2021 4635.01 5619.24 76.97 7.00 386.25 2559.44
   03:00:17.232.29-Jan-2021 4635.01 5612.65 76.97 7.00 386.45 2559.44
   03:00:17.432.29-Jan-2021 4635.01 5620.23 76.97 7.00 386.65 2559.44
   03:00:17.632.29-Jan-2021 4635.01 5616.69 76.97 7.00 386.85 2559.44
   03:00:17.832.29-Jan-2021 4635.01 5613.14 76.97 7.00 387.05 2559.44
   03:00:18.032.29-Jan-2021 4635.01 5613.14 76.97 7.00 387.25 2559.44
   03:00:18.232.29-Jan-2021 4635.01 5618.58 76.97 7.00 387.45 2559.44
   03:00:18.432.29-Jan-2021 4635.01 5615.78 76.97 7.00 387.65 2559.44
   03:00:18.632.29-Jan-2021 4635.01 5617.25 76.97 7.00 387.85 2559.44
   03:00:18.832.29-Jan-2021 4635.01 5619.83 76.97 7.00 388.05 2559.44
   03:00:19.032.29-Jan-2021 4635.01 5619.83 76.97 7.00 388.25 2559.44
   03:00:19.232.29-Jan-2021 4635.01 5619.83 76.97 7.00 388.45 2559.44
   03:00:19.433.29-Jan-2021 4635.01 5618.69 76.97 7.00 388.65 2559.44
   03:00:19.633.29-Jan-2021 4635.01 5619.19 76.97 7.00 388.85 2559.44
   03:00:19.833.29-Jan-2021 4635.01 5618.60 76.97 7.00 389.05 2559.44
   03:00:20.033.29-Jan-2021 4635.01 5618.60 76.97 7.00 389.25 2559.44
   03:00:20.233.29-Jan-2021 4635.01 5618.57 76.97 7.00 389.45 2559.44
   03:00:20.433.29-Jan-2021 4635.01 5618.79 76.97 7.00 389.65 2559.44
   03:00:20.633.29-Jan-2021 4635.01 5618.39 76.97 7.00 389.85 2559.44
