~Version Information
 VERS.                  2.0:   CWLS log ASCII Standard -VERSION 2.0
 WRAP.                   NO:   One line per depth step
~Well Information Block
#MNEM.UNIT     VALUE/NAME     DESCRIPTION
#---------     -----------    ---------------------------
 STRT.S             08:50:58 29-Jan-21: START TIME 08:50:58 29-Jan-21
 STOP.S             08:57:28 29-Jan-21: STOP TIME  08:57:28 29-Jan-21
 STEP.S                   0.00: STEP TIME
 NULL.                 -999.25: NULL VALUE
 DFWT.                        :  DIST FWL TEXT
 DFST.                        :  DIST FSL TEXT
 DMF .             Drill Floor:  DRILL MEAS FROM
 STIM.      00.00.00 25-Sep-20:  START TIME
 DATE.      16.12.48 31-Jan-21:  END TIME
 SPUD.               20-Sep-20:  SPUD DATE
 NREF.                    Grid:  NORTH REFERENCE
 HPTY.       Minimum Curvature:  HOLE POS TYPE
 DMOD.             Drill Model:  DRILL MOD DESC
 SVYD.                  Survey:  SURVEY DESC
 ILTD.               Lithology:  INTERP LTH DESC
 FTOP.          Formation Tops:  FORM TOPS DESC
 RIG .              East Azeri:  RIG NAME
 PDAT.          Mean Sea Level:  PERMANENT DATUM
 FLD .                     ACG:  FIELD NAME
 SON .        AZ-XX-0906591820:  JOB NUMBER
 CTRY.              Azerbaijan:  COUNTRY NAME
 WELL.                     D37:  WELL NAME
 SRVC.     Turan Drilling & Engineering:  CONTRACTOR
 COMP.     BP Exploration (Caspian Sea) ltd.:  COMPANY
 WTYP.                Deviated:  WELL TYPE
 MDS .        Operator Entered:  MAG DATA SOURCE
 UWI .                     N/A:  UNIQUE WELL IDENTIFIER
 API .                     N/A:  API NUMBER
 BASE.              Azerbaijan:  LOGGING EQUIPMENT BASE LOCATION
 REGN.                   EESSA:  REGION
 PROV.                    Baku:  PROVINCE
 STAT.                    Baku:  STATE NAME
 MWDS.                    Baku:  MWD SHOP
 JOBN.        AZ-XX-0906591820:  JOB TICKET NUMB
 DOE .                     N/A:  DOE NUMBER
 DCON.         Sperry Drilling:  DIRECTNL CONTR
 UNIT.                     N/A:  LOGGING EQUIPMENT ID
 CNTY.                        :  COUNTY
 LOC .                        :  LOCATION
 LMF .             Drill Floor:  LOG MEASURED FROM
 TVDS.m                  43.60:  TVDSS CORRECTN
 LATI.deg                40.02:  LATITUDE
 LONG.deg                51.45:  LONGITUDE
 WHNS.m                  11.04:  WELL HEAD N/S
 WHEW.m                 -12.38:  WELL HEAD E/W
 UTMX.m              538763.98:  UTM X
 UTMY.m             4431880.20:  UTM Y
 DFWL.m                   0.00:  DISTANCE FWL
 DFSL.m                   0.00:  DISTANCE FSL
 SDEP.m                 300.00:  START DEPTH
 TDD .m                4900.01:  TOTAL DEPTH (DRILLER)
 VSDR.deg               185.64:  VERT SEC DIRECT
 GVFD.g                   1.00:  GRAVITY FIELD
 MFLD.nT              50301.00:  MAGNETIC FIELD
 MDIP.deg                59.46:  MAGNETIC DIP
 MDEC.deg                 6.43:  MAGNETIC DECL
 GRDC.deg                 0.29:  GRID CORRECTION
 AZTC.deg                 6.14:  AZM TOTAL CORR
 EPD .m                   0.00:  ELEVATION
 EGL .m                   0.00:  GROUND ELEVATION
 WDMS.m                 151.80:  WD ELEV
 APD .m                  43.60:  DEPTH ABOVE PD
 DEP .m                 571.69:  DEPTH
 AGAP.m                  43.60:  AIR GAP
 VSEW.m                 -12.38:  VERT SEC E/W
 VSNS.m                  11.04:  VERT SEC N/S
 EKB .m                  43.60:  KB ELEVATION
 EDF .m                  43.60:  DF ELEVATION
 TDL .m                 412.00:  TOTAL DEPTH (LOGGER)
 VSC .                       0:  VS TO CLOSURE
 MAGU.                 1849300:  MAGUTM CHECKSUM
~Parameter Information Block
#MNEM.UNIT       Value        Description
#---------     -----------    ---------------------------
 AV  .mps                 2.21:  Ann Velocity 
 AVMX.mps                 2.53:  Max Ann Veloc 
 AZIF.deg               144.83:  Azm, Final 
 BHAT.        Rotary Steerable:  BHA Type 
 BROT.°/30m              -0.52:  Build Rotating 
 BS  .in                  6.50:  Bit Size 
 BTPL.psig              209.00:  Bit Press Loss 
 CABU.                      No:  Customer Abuse 
 CGEO.        Ali Isfandiyarov:  Customer Geo 
 COMM.                     Ä	‡:  Run Comments 1 
 TCS .hr                 61.31:  Time Ciculation Ended 
 CV  .mps                 4.66:  Crit Velocity 
 CVMX.mps                 5.02:  Max Crit Veloc 
 DD1 .          Fariz Nahmatov:  Direct Drillr 1 
 DD2 .            Musa Ahmadov:  Direct Drillr 2 
 DDSV.               Geo-Pilot:  DD Service 
 DEFF.%                 100.00:  % Det Eff 
 DLRX.°/30m               1.44:  Dogleg Rot Max 
 DLSO.°/30m               0.83:  Dogleg Oriented 
 DLSX.°/30m               1.44:  Dogleg Str Max 
 DRET.      08.30.00 30-Jan-21:  Drill End Time 
 DRST.      21.15.00 27-Jan-21:  Drill Start Tim 
 DTIM.hr                 37.28:  Time Drilling 
 EDEP.m                4867.01:  End Depth 
 ENG1.          Rasim Hashimov:  Engineer 1 
 ENG2.         Almaz Almadatov:  Engineer 2 
 ENG3.        Tamerlan Ahmadov:  Engineer 3 
 ETIM.      22.41.04 31-Jan-21:  End Time 
 FLOI.gpm               400.00:  Flow In 
 FLON.gpm               300.00:  Flow In Min 
 FLOS.cptm                0.00:  Fluid Loss 
 FLOX.gpm               400.00:  Flow In Max 
 HFLO.                      No:  High Flow 
 HPRE.                      No:  High Pressure 
 HTEM.                      No:  High Temp 
 HYDO.m                   1.80:  Hydro Offset 
 IFIN.deg                65.63:  Inc, Final 
 IMAX.deg                66.77:  Inc Max 
 IMIN.deg                65.61:  Inc Min 
 IMND.m                4612.67:  Inc Min Depth 
 IMXD.m                4811.63:  Inc Max Depth 
 JARR.                      No:  Jarring 
 LETM.      08.30.00 30-Jan-21:  Log End Time 
 LOST.hr                     0:  Lost Rig Time 
 LSTM.      21.15.00 27-Jan-21:  Log Start Time 
 MDCL.ppm             41000.00:  Mud Chlorides 
 MDES.     Inversion Oil/Synthetic:  Mud Desc 
 DFD .sg                  1.40:  Mud Density 
 MDMN.sg                  1.40:  Dens Mud Min 
 MDMX.sg                  1.40:  Dens Mud Max 
 MOIL.                      53:  Run Mud Oil % 
 MOWR.                   66:34:  Run Mud OWR 
 MSND.                     0.2:  Run Mud Sand % 
 MSOL.                    17.9:  Run Mud Solids% 
 DFV .spqt               77.00:  Mud Viscosity 
 MWOD.in                  4.75:  MWD Tool OD 
 MWSI.                      No:  Serv Intrp, MWD 
 OTIM.hr                110.38:  Time Operating 
 PCON.           Look Like New:  Pad Condition 
 PMAX.psia             5300.00:  Press Op, Max 
 PV  .cP                 57.00:  Mud PV 
 RUN .                    1200:  Run Number 
 ROPA.m/hr               13.00:  ROP Avg 
 ROPN.m/hr                9.00:  ROP Min 
 ROPX.m/hr               15.00:  ROP Max 
 RPMA.rpm               120.00:  RPM Surface Avg 
 RPMN.rpm               100.00:  RPM Surface Min 
 RPMX.rpm               135.00:  RPM Surface Max 
 RRUN.                    1200:  Rig Run Number 
 RTIM.hr                  2.65:  Time Reaming 
 SAZI.deg               145.04:  Azm, Start 
 SDEP.m                4455.01:  Start Depth 
 SIDD.                      No:  Serv Intrp, DD 
 SINC.deg                65.83:  Inc, Start 
 SPPA.psig             5037.00:  SPP Avg 
 SPPN.psig             4430.00:  SPP Min 
 SPPX.psig             5300.00:  SPP Max 
 STIM.      22.41.04 26-Jan-21:  Start Time 
 SVCS.                 DD, MWD:  Services 
 SVER.                    9.20:  Sperry Version 
 TDAT.m                 412.00:  Tot Depth Attmp 
 TDDF.                      No:  Trip for DD 
 TDLG.m                 412.00:  Tot Depth Loggd 
 TFF .                      No:  Trip for Fail 
 TQAA.f-kp               15.00:  Torque Abs Avg 
 TQAN.f-kp               12.00:  Torque Abs Min 
 TQAX.f-kp               17.00:  Torque Abs Max 
 TRRT.°/30m               1.18:  Turn Rotating 
 MRT .                     ADR:  Maximum Recorded Temperature 
 TTMX.degC               88.24:  Max Tool Temp 
 VS01.                90619458:  Virtual Str1 SN 
 VS02.                90519326:  Virtual Str2 SN 
 VS03.                90522176:  Virtual Str3 SN 
 VS04.                90512683:  Virtual Str4 SN 
 WBMN.klb                 1.00:  WOB Min 
 WITN.           Murad Giluyev:  Customer Rep 
 WITN.     Kamran Kemberlinski:  Customer Rep 2 
 WOBA.klb                 5.00:  WOB Avg 
 WOBX.klb                 9.00:  WOB Max 
 YP  .lhf2               41.00:  Yield Point 
~Curve Information Block
#MNEM.UNIT                 API CODE     Curve Description
#---------               -----------    ---------------------------
 TIME.HHMMSS            00 000 000 000:  GT Time & Date
 GTDEPTH.m              00 000 000 000:  GT Depth
 GTPQH.psia             00 000 000 000:  GT HR Quartz Pressure
 GTTQ.degC              00 000 000 000:  GT Quartz Temperature
 GTTN.NONE              00 000 000 000:  GT Test Number
 GTET.sec               00 000 000 000:  GT Elapsed Test Time
 GTTVD.m                00 000 000 000:  GT True Vertical Depth
#Other Information
#
#WARRANTY: Halliburton will use its best efforts to furnish customers with 
#accurate information and interpretations that are part of, and incident to, the services 
#provided.  However, Halliburton cannot and does not warrant the accuracy 
#or correctness of such information and interpretations.  Under no circumstances should any 
#such information or interpretation be relied upon as the sole basis for any drilling, 
#completion, production, or financial decision or any procedure involving any risk to the 
#safety of any drilling venture, drilling rig or its crew or any other third party.  The 
#Customer has full responsibility for all drilling, completion and production operation.  
#Halliburton makes no representations or warranties, either expressed or 
#implied, including, but not limited to, the implied warranties of merchantability or fitness 
#for a particular purpose, with respect to the services rendered.  In no event will 
#Halliburton be liable for failure to obtain any particular results or for 
#any damages, including, but not limited to, indirect, special or consequential damages, 
#resulting from the use of any information or interpretation provided by Halliburton.
#
~A           TIME           GTDEPTH  GTPQH  GTTQ  GTTN  GTET   GTTVD  
# ...
   08:56:43.748.29-Jan-2021 4683.51 3064.97 80.35 9.00 345.07 2579.09
   08:56:43.948.29-Jan-2021 4683.51 3064.97 80.35 9.00 345.27 2579.09
   08:56:44.148.29-Jan-2021 4683.51 3064.90 80.35 9.00 345.47 2579.09
   08:56:44.348.29-Jan-2021 4683.51 3064.94 80.35 9.00 345.67 2579.09
   08:56:44.548.29-Jan-2021 4683.51 3064.92 80.35 9.00 345.87 2579.09
   08:56:44.748.29-Jan-2021 4683.51 3064.93 80.35 9.00 346.07 2579.09
   08:56:44.948.29-Jan-2021 4683.51 3064.93 80.35 9.00 346.27 2579.09
   08:56:45.148.29-Jan-2021 4683.51 3064.92 80.35 9.00 346.47 2579.09
   08:56:45.348.29-Jan-2021 4683.51 3064.92 80.35 9.00 346.67 2579.09
   08:56:45.548.29-Jan-2021 4683.51 3064.91 80.35 9.00 346.87 2579.09
   08:56:45.748.29-Jan-2021 4683.51 3065.41 80.34 9.00 347.07 2579.09
   08:56:45.948.29-Jan-2021 4683.51 3065.41 80.34 9.00 347.27 2579.09
   08:56:46.148.29-Jan-2021 4683.51 3075.47 80.34 9.00 347.47 2579.09
   08:56:46.348.29-Jan-2021 4683.51 5227.55 80.34 9.00 347.67 2579.09
   08:56:46.548.29-Jan-2021 4683.51 5656.64 80.34 9.00 347.87 2579.09
   08:56:46.748.29-Jan-2021 4683.51 5647.84 80.34 9.00 348.07 2579.09
   08:56:46.948.29-Jan-2021 4683.51 5647.84 80.34 9.00 348.27 2579.09
   08:56:47.148.29-Jan-2021 4683.51 5656.29 80.34 9.00 348.47 2579.09
   08:56:47.348.29-Jan-2021 4683.51 5652.50 80.34 9.00 348.67 2579.09
   08:56:47.549.29-Jan-2021 4683.51 5650.61 80.34 9.00 348.87 2579.09
   08:56:47.749.29-Jan-2021 4683.51 3065.41 80.34 9.00 349.07 2579.09
   08:56:47.949.29-Jan-2021 4683.51 5659.14 80.34 9.00 349.27 2579.09
   08:56:48.149.29-Jan-2021 4683.51 5659.14 80.34 9.00 349.47 2579.09
   08:56:48.349.29-Jan-2021 4683.51 5659.14 80.34 9.00 349.67 2579.09
   08:56:48.549.29-Jan-2021 4683.51 5660.59 80.34 9.00 349.87 2579.09
   08:56:48.749.29-Jan-2021 4683.51 5662.05 80.34 9.00 350.07 2579.09
   08:56:48.949.29-Jan-2021 4683.51 5662.05 80.34 9.00 350.27 2579.09
   08:56:49.149.29-Jan-2021 4683.51 5663.20 80.34 9.00 350.47 2579.09
   08:56:49.349.29-Jan-2021 4683.51 5663.06 80.34 9.00 350.67 2579.09
   08:56:49.549.29-Jan-2021 4683.51 5660.41 80.34 9.00 350.87 2579.09
   08:56:49.749.29-Jan-2021 4683.51 5662.06 80.34 9.00 351.07 2579.09
   08:56:49.949.29-Jan-2021 4683.51 5662.06 80.34 9.00 351.27 2579.09
   08:56:50.149.29-Jan-2021 4683.51 5664.44 80.34 9.00 351.47 2579.09
   08:56:50.349.29-Jan-2021 4683.51 5658.25 80.34 9.00 351.67 2579.09
   08:56:50.549.29-Jan-2021 4683.51 5663.26 80.33 9.00 351.87 2579.09
   08:56:50.749.29-Jan-2021 4683.51 5665.63 80.33 9.00 352.07 2579.09
   08:56:50.949.29-Jan-2021 4683.51 5665.63 80.33 9.00 352.27 2579.09
   08:56:51.149.29-Jan-2021 4683.51 5663.05 80.33 9.00 352.47 2579.09
   08:56:51.349.29-Jan-2021 4683.51 5664.40 80.33 9.00 352.67 2579.09
   08:56:51.549.29-Jan-2021 4683.51 5663.45 80.33 9.00 352.87 2579.09
   08:56:51.749.29-Jan-2021 4683.51 5657.61 80.33 9.00 353.07 2579.09
   08:56:51.949.29-Jan-2021 4683.51 5657.61 80.33 9.00 353.27 2579.09
   08:56:52.149.29-Jan-2021 4683.51 5665.18 80.33 9.00 353.47 2579.09
   08:56:52.350.29-Jan-2021 4683.51 5659.60 80.33 9.00 353.67 2579.09
   08:56:52.550.29-Jan-2021 4683.51 5663.47 80.33 9.00 353.87 2579.09
   08:56:52.750.29-Jan-2021 4683.51 5664.21 80.33 9.00 354.07 2579.09
   08:56:52.950.29-Jan-2021 4683.51 5664.21 80.33 9.00 354.27 2579.09
   08:56:53.150.29-Jan-2021 4683.51 5662.85 80.33 9.00 354.47 2579.09
   08:56:53.350.29-Jan-2021 4683.51 5664.58 80.33 9.00 354.67 2579.09
   08:56:53.550.29-Jan-2021 4683.51 5664.31 80.33 9.00 354.87 2579.09
   08:56:53.750.29-Jan-2021 4683.51 5663.98 80.33 9.00 355.07 2579.09
   08:56:53.950.29-Jan-2021 4683.51 5663.98 80.33 9.00 355.27 2579.09
   08:56:54.150.29-Jan-2021 4683.51 5663.80 80.33 9.00 355.47 2579.09
   08:56:54.350.29-Jan-2021 4683.51 5663.66 80.33 9.00 355.67 2579.09
   08:56:54.550.29-Jan-2021 4683.51 5662.71 80.33 9.00 355.88 2579.09
   08:56:54.750.29-Jan-2021 4683.51 5663.00 80.33 9.00 356.08 2579.09
   08:56:54.950.29-Jan-2021 4683.51 5663.00 80.33 9.00 356.28 2579.09
   08:56:55.150.29-Jan-2021 4683.51 5661.61 80.33 9.00 356.48 2579.09
   08:56:55.350.29-Jan-2021 4683.51 5659.45 80.33 9.00 356.68 2579.09
   08:56:55.550.29-Jan-2021 4683.51 5662.59 80.33 9.00 356.88 2579.09
   08:56:55.750.29-Jan-2021 4683.51 5661.69 80.33 9.00 357.08 2579.09
   08:56:55.950.29-Jan-2021 4683.51 5661.69 80.33 9.00 357.28 2579.09
   08:56:56.150.29-Jan-2021 4683.51 5662.54 80.33 9.00 357.48 2579.09
   08:56:56.350.29-Jan-2021 4683.51 5664.91 80.33 9.00 357.68 2579.09
   08:56:56.550.29-Jan-2021 4683.51 5663.46 80.33 9.00 357.88 2579.09
   08:56:56.750.29-Jan-2021 4683.51 5663.79 80.33 9.00 358.08 2579.09
   08:56:56.951.29-Jan-2021 4683.51 5663.79 80.33 9.00 358.28 2579.09
   08:56:57.151.29-Jan-2021 4683.51 5664.41 80.33 9.00 358.48 2579.09
   08:56:57.351.29-Jan-2021 4683.51 5663.95 80.33 9.00 358.68 2579.09
   08:56:57.551.29-Jan-2021 4683.51 5663.86 80.33 9.00 358.88 2579.09
   08:56:57.751.29-Jan-2021 4683.51 5664.45 80.33 9.00 359.08 2579.09
   08:56:57.951.29-Jan-2021 4683.51 5664.45 80.33 9.00 359.28 2579.09
   08:56:58.151.29-Jan-2021 4683.51 5663.37 80.33 9.00 359.48 2579.09
   08:56:58.351.29-Jan-2021 4683.51 5663.27 80.33 9.00 359.68 2579.09
   08:56:58.551.29-Jan-2021 4683.51 5662.53 80.33 9.00 359.88 2579.09
   08:56:58.751.29-Jan-2021 4683.51 5660.11 80.33 9.00 360.08 2579.09
   08:56:58.951.29-Jan-2021 4683.51 5660.11 80.33 9.00 360.28 2579.09
   08:56:59.151.29-Jan-2021 4683.51 5662.34 80.33 9.00 360.48 2579.09
   08:56:59.351.29-Jan-2021 4683.51 5662.32 80.33 9.00 360.68 2579.09
   08:56:59.551.29-Jan-2021 4683.51 5656.88 80.33 9.00 360.88 2579.09
   08:56:59.751.29-Jan-2021 4683.51 5664.91 80.33 9.00 361.08 2579.09
   08:56:59.951.29-Jan-2021 4683.51 5664.91 80.33 9.00 361.28 2579.09
   08:57:00.151.29-Jan-2021 4683.51 5660.88 80.32 9.00 361.48 2579.09
   08:57:00.351.29-Jan-2021 4683.51 5658.87 80.32 9.00 361.68 2579.09
   08:57:00.551.29-Jan-2021 4683.51 5665.99 80.32 9.00 361.88 2579.09
   08:57:00.751.29-Jan-2021 4683.51 5665.36 80.32 9.00 362.08 2579.09
   08:57:00.951.29-Jan-2021 4683.51 5665.36 80.32 9.00 362.28 2579.09
   08:57:01.151.29-Jan-2021 4683.51 5659.08 80.32 9.00 362.48 2579.09
   08:57:01.351.29-Jan-2021 4683.51 5666.85 80.32 9.00 362.68 2579.09
   08:57:01.551.29-Jan-2021 4683.51 5664.62 80.32 9.00 362.88 2579.09
   08:57:01.752.29-Jan-2021 4683.51 5660.58 80.32 9.00 363.08 2579.09
   08:57:01.952.29-Jan-2021 4683.51 5660.58 80.32 9.00 363.28 2579.09
   08:57:02.152.29-Jan-2021 4683.51 5663.94 80.32 9.00 363.48 2579.09
   08:57:02.352.29-Jan-2021 4683.51 5664.66 80.32 9.00 363.68 2579.09
   08:57:02.552.29-Jan-2021 4683.51 5661.71 80.32 9.00 363.88 2579.09
   08:57:02.752.29-Jan-2021 4683.51 5661.71 80.32 9.00 364.08 2579.09
   08:57:02.952.29-Jan-2021 4683.51 5661.71 80.32 9.00 364.28 2579.09
   08:57:03.152.29-Jan-2021 4683.51 5662.40 80.32 9.00 364.48 2579.09
   08:57:03.352.29-Jan-2021 4683.51 5661.70 80.32 9.00 364.68 2579.09
   08:57:03.552.29-Jan-2021 4683.51 5663.59 80.32 9.00 364.88 2579.09
   08:57:03.752.29-Jan-2021 4683.51 5664.46 80.32 9.00 365.08 2579.09
   08:57:03.952.29-Jan-2021 4683.51 5664.46 80.32 9.00 365.28 2579.09
   08:57:04.152.29-Jan-2021 4683.51 5663.38 80.32 9.00 365.48 2579.09
   08:57:04.352.29-Jan-2021 4683.51 5664.28 80.32 9.00 365.68 2579.09
   08:57:04.552.29-Jan-2021 4683.51 5664.03 80.32 9.00 365.88 2579.09
   08:57:04.752.29-Jan-2021 4683.51 5663.42 80.32 9.00 366.08 2579.09
   08:57:04.952.29-Jan-2021 4683.51 5663.42 80.32 9.00 366.28 2579.09
   08:57:05.152.29-Jan-2021 4683.51 5663.93 80.32 9.00 366.48 2579.09
   08:57:05.352.29-Jan-2021 4683.51 5664.46 80.32 9.00 366.68 2579.09
   08:57:05.552.29-Jan-2021 4683.51 5663.11 80.32 9.00 366.88 2579.09
   08:57:05.752.29-Jan-2021 4683.51 5664.27 80.31 9.00 367.08 2579.09
   08:57:05.952.29-Jan-2021 4683.51 5664.27 80.31 9.00 367.28 2579.09
   08:57:06.152.29-Jan-2021 4683.51 5657.26 80.31 9.00 367.48 2579.09
   08:57:06.352.29-Jan-2021 4683.51 5663.85 80.31 9.00 367.68 2579.09
   08:57:06.553.29-Jan-2021 4683.51 5663.53 80.31 9.00 367.88 2579.09
