~Version Information
 VERS.                  2.0:   CWLS log ASCII Standard -VERSION 2.0
 WRAP.                   NO:   One line per depth step
~Well Information Block
#MNEM.UNIT     VALUE/NAME     DESCRIPTION
#---------     -----------    ---------------------------
 STRT.S             05:51:52 30-Jan-21: START TIME 05:51:52 30-Jan-21
 STOP.S             05:58:20 30-Jan-21: STOP TIME  05:58:20 30-Jan-21
 STEP.S                   0.00: STEP TIME
 NULL.                 -999.25: NULL VALUE
 DFWT.                        :  DIST FWL TEXT
 DFST.                        :  DIST FSL TEXT
 DMF .             Drill Floor:  DRILL MEAS FROM
 STIM.      00.00.00 25-Sep-20:  START TIME
 DATE.      16.12.48 31-Jan-21:  END TIME
 SPUD.               20-Sep-20:  SPUD DATE
 NREF.                    Grid:  NORTH REFERENCE
 HPTY.       Minimum Curvature:  HOLE POS TYPE
 DMOD.             Drill Model:  DRILL MOD DESC
 SVYD.                  Survey:  SURVEY DESC
 ILTD.               Lithology:  INTERP LTH DESC
 FTOP.          Formation Tops:  FORM TOPS DESC
 RIG .              East Azeri:  RIG NAME
 PDAT.          Mean Sea Level:  PERMANENT DATUM
 FLD .                     ACG:  FIELD NAME
 SON .        AZ-XX-0906591820:  JOB NUMBER
 CTRY.              Azerbaijan:  COUNTRY NAME
 WELL.                     D37:  WELL NAME
 SRVC.     Turan Drilling & Engineering:  CONTRACTOR
 COMP.     BP Exploration (Caspian Sea) ltd.:  COMPANY
 WTYP.                Deviated:  WELL TYPE
 MDS .        Operator Entered:  MAG DATA SOURCE
 UWI .                     N/A:  UNIQUE WELL IDENTIFIER
 API .                     N/A:  API NUMBER
 BASE.              Azerbaijan:  LOGGING EQUIPMENT BASE LOCATION
 REGN.                   EESSA:  REGION
 PROV.                    Baku:  PROVINCE
 STAT.                    Baku:  STATE NAME
 MWDS.                    Baku:  MWD SHOP
 JOBN.        AZ-XX-0906591820:  JOB TICKET NUMB
 DOE .                     N/A:  DOE NUMBER
 DCON.         Sperry Drilling:  DIRECTNL CONTR
 UNIT.                     N/A:  LOGGING EQUIPMENT ID
 CNTY.                        :  COUNTY
 LOC .                        :  LOCATION
 LMF .             Drill Floor:  LOG MEASURED FROM
 TVDS.m                  43.60:  TVDSS CORRECTN
 LATI.deg                40.02:  LATITUDE
 LONG.deg                51.45:  LONGITUDE
 WHNS.m                  11.04:  WELL HEAD N/S
 WHEW.m                 -12.38:  WELL HEAD E/W
 UTMX.m              538763.98:  UTM X
 UTMY.m             4431880.20:  UTM Y
 DFWL.m                   0.00:  DISTANCE FWL
 DFSL.m                   0.00:  DISTANCE FSL
 SDEP.m                 300.00:  START DEPTH
 TDD .m                4900.01:  TOTAL DEPTH (DRILLER)
 VSDR.deg               185.64:  VERT SEC DIRECT
 GVFD.g                   1.00:  GRAVITY FIELD
 MFLD.nT              50301.00:  MAGNETIC FIELD
 MDIP.deg                59.46:  MAGNETIC DIP
 MDEC.deg                 6.43:  MAGNETIC DECL
 GRDC.deg                 0.29:  GRID CORRECTION
 AZTC.deg                 6.14:  AZM TOTAL CORR
 EPD .m                   0.00:  ELEVATION
 EGL .m                   0.00:  GROUND ELEVATION
 WDMS.m                 151.80:  WD ELEV
 APD .m                  43.60:  DEPTH ABOVE PD
 DEP .m                 571.69:  DEPTH
 AGAP.m                  43.60:  AIR GAP
 VSEW.m                 -12.38:  VERT SEC E/W
 VSNS.m                  11.04:  VERT SEC N/S
 EKB .m                  43.60:  KB ELEVATION
 EDF .m                  43.60:  DF ELEVATION
 TDL .m                 412.00:  TOTAL DEPTH (LOGGER)
 VSC .                       0:  VS TO CLOSURE
 MAGU.                 1849300:  MAGUTM CHECKSUM
~Parameter Information Block
#MNEM.UNIT       Value        Description
#---------     -----------    ---------------------------
 AV  .mps                 2.21:  Ann Velocity 
 AVMX.mps                 2.53:  Max Ann Veloc 
 AZIF.deg               144.83:  Azm, Final 
 BHAT.        Rotary Steerable:  BHA Type 
 BROT.°/30m              -0.52:  Build Rotating 
 BS  .in                  6.50:  Bit Size 
 BTPL.psig              209.00:  Bit Press Loss 
 CABU.                      No:  Customer Abuse 
 CGEO.        Ali Isfandiyarov:  Customer Geo 
 COMM.                     ü:x:  Run Comments 1 
 TCS .hr                 61.31:  Time Ciculation Ended 
 CV  .mps                 4.66:  Crit Velocity 
 CVMX.mps                 5.02:  Max Crit Veloc 
 DD1 .          Fariz Nahmatov:  Direct Drillr 1 
 DD2 .            Musa Ahmadov:  Direct Drillr 2 
 DDSV.               Geo-Pilot:  DD Service 
 DEFF.%                 100.00:  % Det Eff 
 DLRX.°/30m               1.44:  Dogleg Rot Max 
 DLSO.°/30m               0.83:  Dogleg Oriented 
 DLSX.°/30m               1.44:  Dogleg Str Max 
 DRET.      08.30.00 30-Jan-21:  Drill End Time 
 DRST.      21.15.00 27-Jan-21:  Drill Start Tim 
 DTIM.hr                 37.28:  Time Drilling 
 EDEP.m                4867.01:  End Depth 
 ENG1.          Rasim Hashimov:  Engineer 1 
 ENG2.         Almaz Almadatov:  Engineer 2 
 ENG3.        Tamerlan Ahmadov:  Engineer 3 
 ETIM.      22.41.04 31-Jan-21:  End Time 
 FLOI.gpm               400.00:  Flow In 
 FLON.gpm               300.00:  Flow In Min 
 FLOS.cptm                0.00:  Fluid Loss 
 FLOX.gpm               400.00:  Flow In Max 
 HFLO.                      No:  High Flow 
 HPRE.                      No:  High Pressure 
 HTEM.                      No:  High Temp 
 HYDO.m                   1.80:  Hydro Offset 
 IFIN.deg                65.63:  Inc, Final 
 IMAX.deg                66.77:  Inc Max 
 IMIN.deg                65.61:  Inc Min 
 IMND.m                4612.67:  Inc Min Depth 
 IMXD.m                4811.63:  Inc Max Depth 
 JARR.                      No:  Jarring 
 LETM.      08.30.00 30-Jan-21:  Log End Time 
 LOST.hr                     0:  Lost Rig Time 
 LSTM.      21.15.00 27-Jan-21:  Log Start Time 
 MDCL.ppm             41000.00:  Mud Chlorides 
 MDES.     Inversion Oil/Synthetic:  Mud Desc 
 DFD .sg                  1.40:  Mud Density 
 MDMN.sg                  1.40:  Dens Mud Min 
 MDMX.sg                  1.40:  Dens Mud Max 
 MOIL.                      53:  Run Mud Oil % 
 MOWR.                   66:34:  Run Mud OWR 
 MSND.                     0.2:  Run Mud Sand % 
 MSOL.                    17.9:  Run Mud Solids% 
 DFV .spqt               77.00:  Mud Viscosity 
 MWOD.in                  4.75:  MWD Tool OD 
 MWSI.                      No:  Serv Intrp, MWD 
 OTIM.hr                110.38:  Time Operating 
 PCON.           Look Like New:  Pad Condition 
 PMAX.psia             5300.00:  Press Op, Max 
 PV  .cP                 57.00:  Mud PV 
 RUN .                    1200:  Run Number 
 ROPA.m/hr               13.00:  ROP Avg 
 ROPN.m/hr                9.00:  ROP Min 
 ROPX.m/hr               15.00:  ROP Max 
 RPMA.rpm               120.00:  RPM Surface Avg 
 RPMN.rpm               100.00:  RPM Surface Min 
 RPMX.rpm               135.00:  RPM Surface Max 
 RRUN.                    1200:  Rig Run Number 
 RTIM.hr                  2.65:  Time Reaming 
 SAZI.deg               145.04:  Azm, Start 
 SDEP.m                4455.01:  Start Depth 
 SIDD.                      No:  Serv Intrp, DD 
 SINC.deg                65.83:  Inc, Start 
 SPPA.psig             5037.00:  SPP Avg 
 SPPN.psig             4430.00:  SPP Min 
 SPPX.psig             5300.00:  SPP Max 
 STIM.      22.41.04 26-Jan-21:  Start Time 
 SVCS.                 DD, MWD:  Services 
 SVER.                    9.20:  Sperry Version 
 TDAT.m                 412.00:  Tot Depth Attmp 
 TDDF.                      No:  Trip for DD 
 TDLG.m                 412.00:  Tot Depth Loggd 
 TFF .                      No:  Trip for Fail 
 TQAA.f-kp               15.00:  Torque Abs Avg 
 TQAN.f-kp               12.00:  Torque Abs Min 
 TQAX.f-kp               17.00:  Torque Abs Max 
 TRRT.°/30m               1.18:  Turn Rotating 
 MRT .                     ADR:  Maximum Recorded Temperature 
 TTMX.degC               88.24:  Max Tool Temp 
 VS01.                90619458:  Virtual Str1 SN 
 VS02.                90519326:  Virtual Str2 SN 
 VS03.                90522176:  Virtual Str3 SN 
 VS04.                90512683:  Virtual Str4 SN 
 WBMN.klb                 1.00:  WOB Min 
 WITN.           Murad Giluyev:  Customer Rep 
 WITN.     Kamran Kemberlinski:  Customer Rep 2 
 WOBA.klb                 5.00:  WOB Avg 
 WOBX.klb                 9.00:  WOB Max 
 YP  .lhf2               41.00:  Yield Point 
~Curve Information Block
#MNEM.UNIT                 API CODE     Curve Description
#---------               -----------    ---------------------------
 TIME.HHMMSS            00 000 000 000:  GT Time & Date
 GTDEPTH.m              00 000 000 000:  GT Depth
 GTPQH.psia             00 000 000 000:  GT HR Quartz Pressure
 GTTQ.degC              00 000 000 000:  GT Quartz Temperature
 GTTN.NONE              00 000 000 000:  GT Test Number
 GTET.sec               00 000 000 000:  GT Elapsed Test Time
 GTTVD.m                00 000 000 000:  GT True Vertical Depth
#Other Information
#
#WARRANTY: Halliburton will use its best efforts to furnish customers with 
#accurate information and interpretations that are part of, and incident to, the services 
#provided.  However, Halliburton cannot and does not warrant the accuracy 
#or correctness of such information and interpretations.  Under no circumstances should any 
#such information or interpretation be relied upon as the sole basis for any drilling, 
#completion, production, or financial decision or any procedure involving any risk to the 
#safety of any drilling venture, drilling rig or its crew or any other third party.  The 
#Customer has full responsibility for all drilling, completion and production operation.  
#Halliburton makes no representations or warranties, either expressed or 
#implied, including, but not limited to, the implied warranties of merchantability or fitness 
#for a particular purpose, with respect to the services rendered.  In no event will 
#Halliburton be liable for failure to obtain any particular results or for 
#any damages, including, but not limited to, indirect, special or consequential damages, 
#resulting from the use of any information or interpretation provided by Halliburton.
#
~A           TIME           GTDEPTH  GTPQH  GTTQ  GTTN   GTET   GTTVD  
# ...
   05:52:59.948.30-Jan-2021 4813.01 3149.49 84.38 17.00  67.81 2630.70
   05:53:00.148.30-Jan-2021 4813.01 3149.56 84.38 17.00  68.01 2630.70
   05:53:00.348.30-Jan-2021 4813.01 3149.56 84.38 17.00  68.21 2630.70
   05:53:00.548.30-Jan-2021 4813.01 3149.53 84.38 17.00  68.41 2630.70
   05:53:00.748.30-Jan-2021 4813.01 3149.55 84.38 17.00  68.61 2630.70
   05:53:00.948.30-Jan-2021 4813.01 3149.52 84.38 17.00  68.81 2630.70
   05:53:01.149.30-Jan-2021 4813.01 3149.51 84.37 17.00  69.01 2630.70
   05:53:01.349.30-Jan-2021 4813.01 3149.51 84.37 17.00  69.21 2630.70
   05:53:01.549.30-Jan-2021 4813.01 3149.54 84.37 17.00  69.41 2630.70
   05:53:01.749.30-Jan-2021 4813.01 3149.52 84.37 17.00  69.61 2630.70
   05:53:01.949.30-Jan-2021 4813.01 3149.50 84.37 17.00  69.81 2630.70
   05:53:02.149.30-Jan-2021 4813.01 3149.55 84.37 17.00  70.01 2630.70
   05:53:02.349.30-Jan-2021 4813.01 3149.55 84.37 17.00  70.21 2630.70
   05:53:02.549.30-Jan-2021 4813.01 3149.54 84.37 17.00  70.41 2630.70
   05:53:02.749.30-Jan-2021 4813.01 3149.54 84.37 17.00  70.61 2630.70
   05:53:02.949.30-Jan-2021 4813.01 3149.52 84.37 17.00  70.81 2630.70
   05:53:03.149.30-Jan-2021 4813.01 3149.54 84.37 17.00  71.01 2630.70
   05:53:03.349.30-Jan-2021 4813.01 3149.54 84.37 17.00  71.21 2630.70
   05:53:03.549.30-Jan-2021 4813.01 3149.54 84.37 17.00  71.41 2630.70
   05:53:03.749.30-Jan-2021 4813.01 3149.54 84.37 17.00  71.61 2630.70
   05:53:03.949.30-Jan-2021 4813.01 3149.53 84.37 17.00  71.81 2630.70
   05:53:04.149.30-Jan-2021 4813.01 3149.54 84.36 17.00  72.01 2630.70
   05:53:04.349.30-Jan-2021 4813.01 3149.54 84.36 17.00  72.21 2630.70
   05:53:04.549.30-Jan-2021 4813.01 3149.54 84.36 17.00  72.41 2630.70
   05:53:04.749.30-Jan-2021 4813.01 3149.53 84.36 17.00  72.61 2630.70
   05:53:04.949.30-Jan-2021 4813.01 3149.54 84.36 17.00  72.81 2630.70
   05:53:05.149.30-Jan-2021 4813.01 3149.54 84.36 17.00  73.01 2630.70
   05:53:05.349.30-Jan-2021 4813.01 3149.54 84.36 17.00  73.21 2630.70
   05:53:05.549.30-Jan-2021 4813.01 3149.49 84.36 17.00  73.41 2630.70
   05:53:05.749.30-Jan-2021 4813.01 3149.56 84.36 17.00  73.61 2630.70
   05:53:05.949.30-Jan-2021 4813.01 3149.52 84.36 17.00  73.81 2630.70
   05:53:06.149.30-Jan-2021 4813.01 3149.52 84.36 17.00  74.01 2630.70
   05:53:06.349.30-Jan-2021 4813.01 3149.52 84.36 17.00  74.21 2630.70
   05:53:06.549.30-Jan-2021 4813.01 3149.51 84.36 17.00  74.41 2630.70
   05:53:06.749.30-Jan-2021 4813.01 3149.54 84.36 17.00  74.61 2630.70
   05:53:06.949.30-Jan-2021 4813.01 3149.53 84.35 17.00  74.81 2630.70
   05:53:07.149.30-Jan-2021 4813.01 3149.54 84.35 17.00  75.01 2630.70
   05:53:07.349.30-Jan-2021 4813.01 3149.54 84.35 17.00  75.21 2630.70
   05:53:07.549.30-Jan-2021 4813.01 3149.53 84.35 17.00  75.41 2630.70
   05:53:07.749.30-Jan-2021 4813.01 3149.52 84.35 17.00  75.61 2630.70
   05:53:07.949.30-Jan-2021 4813.01 3149.54 84.35 17.00  75.81 2630.70
   05:53:08.149.30-Jan-2021 4813.01 3149.52 84.35 17.00  76.01 2630.70
   05:53:08.349.30-Jan-2021 4813.01 3149.52 84.35 17.00  76.21 2630.70
   05:53:08.549.30-Jan-2021 4813.01 3149.53 84.35 17.00  76.41 2630.70
   05:53:08.750.30-Jan-2021 4813.01 3149.47 84.35 17.00  76.61 2630.70
   05:53:08.950.30-Jan-2021 4813.01 3149.57 84.35 17.00  76.81 2630.70
   05:53:09.150.30-Jan-2021 4813.01 3149.51 84.35 17.00  77.01 2630.70
   05:53:09.350.30-Jan-2021 4813.01 3149.51 84.35 17.00  77.21 2630.70
   05:53:09.550.30-Jan-2021 4813.01 3149.51 84.35 17.00  77.41 2630.70
   05:53:09.750.30-Jan-2021 4813.01 3149.51 84.35 17.00  77.61 2630.70
   05:53:09.950.30-Jan-2021 4813.01 3149.51 84.34 17.00  77.81 2630.70
   05:53:10.150.30-Jan-2021 4813.01 3149.54 84.34 17.00  78.01 2630.70
   05:53:10.350.30-Jan-2021 4813.01 3149.54 84.34 17.00  78.21 2630.70
   05:53:10.550.30-Jan-2021 4813.01 3149.49 84.34 17.00  78.41 2630.70
   05:53:10.750.30-Jan-2021 4813.01 3149.50 84.34 17.00  78.61 2630.70
   05:53:10.950.30-Jan-2021 4813.01 3149.52 84.34 17.00  78.81 2630.70
   05:53:11.150.30-Jan-2021 4813.01 3149.51 84.34 17.00  79.01 2630.70
   05:53:11.350.30-Jan-2021 4813.01 3149.51 84.34 17.00  79.21 2630.70
   05:53:11.550.30-Jan-2021 4813.01 3149.51 84.34 17.00  79.41 2630.70
   05:53:11.750.30-Jan-2021 4813.01 3149.48 84.34 17.00  79.61 2630.70
   05:53:11.950.30-Jan-2021 4813.01 3149.52 84.34 17.00  79.81 2630.70
   05:53:12.150.30-Jan-2021 4813.01 3149.52 84.34 17.00  80.01 2630.70
   05:53:12.350.30-Jan-2021 4813.01 3149.52 84.34 17.00  80.21 2630.70
   05:53:12.550.30-Jan-2021 4813.01 3149.46 84.34 17.00  80.41 2630.70
   05:53:12.750.30-Jan-2021 4813.01 3149.53 84.34 17.00  80.61 2630.70
   05:53:12.950.30-Jan-2021 4813.01 3149.50 84.33 17.00  80.81 2630.70
   05:53:13.150.30-Jan-2021 4813.01 3149.51 84.33 17.00  81.01 2630.70
   05:53:13.350.30-Jan-2021 4813.01 3149.51 84.33 17.00  81.21 2630.70
   05:53:13.550.30-Jan-2021 4813.01 3149.51 84.33 17.00  81.41 2630.70
   05:53:13.750.30-Jan-2021 4813.01 3149.50 84.33 17.00  81.61 2630.70
   05:53:13.950.30-Jan-2021 4813.01 3149.52 84.33 17.00  81.81 2630.70
   05:53:14.150.30-Jan-2021 4813.01 3149.50 84.33 17.00  82.01 2630.70
   05:53:14.350.30-Jan-2021 4813.01 3149.50 84.33 17.00  82.21 2630.70
   05:53:14.550.30-Jan-2021 4813.01 3149.51 84.33 17.00  82.41 2630.70
   05:53:14.750.30-Jan-2021 4813.01 3149.51 84.33 17.00  82.61 2630.70
   05:53:14.950.30-Jan-2021 4813.01 3149.50 84.33 17.00  82.81 2630.70
   05:53:15.150.30-Jan-2021 4813.01 3149.50 84.33 17.00  83.01 2630.70
   05:53:15.350.30-Jan-2021 4813.01 3149.50 84.33 17.00  83.21 2630.70
   05:53:15.550.30-Jan-2021 4813.01 3149.49 84.33 17.00  83.41 2630.70
   05:53:15.750.30-Jan-2021 4813.01 3149.51 84.33 17.00  83.61 2630.70
   05:53:15.950.30-Jan-2021 4813.01 3149.49 84.33 17.00  83.81 2630.70
   05:53:16.150.30-Jan-2021 4813.01 3149.48 84.32 17.00  84.01 2630.70
   05:53:16.351.30-Jan-2021 4813.01 3149.48 84.32 17.00  84.21 2630.70
   05:53:16.551.30-Jan-2021 4813.01 3149.51 84.32 17.00  84.41 2630.70
   05:53:16.751.30-Jan-2021 4813.01 3149.48 84.32 17.00  84.61 2630.70
   05:53:16.951.30-Jan-2021 4813.01 3149.48 84.32 17.00  84.81 2630.70
   05:53:17.151.30-Jan-2021 4813.01 3149.49 84.32 17.00  85.01 2630.70
   05:53:17.351.30-Jan-2021 4813.01 3149.49 84.32 17.00  85.21 2630.70
   05:53:17.551.30-Jan-2021 4813.01 3149.50 84.32 17.00  85.41 2630.70
   05:53:17.751.30-Jan-2021 4813.01 3149.49 84.32 17.00  85.61 2630.70
   05:53:17.951.30-Jan-2021 4813.01 3149.48 84.32 17.00  85.81 2630.70
   05:53:18.151.30-Jan-2021 4813.01 3149.49 84.32 17.00  86.01 2630.70
   05:53:18.351.30-Jan-2021 4813.01 3149.49 84.32 17.00  86.21 2630.70
   05:53:18.551.30-Jan-2021 4813.01 3149.49 84.32 17.00  86.41 2630.70
   05:53:18.751.30-Jan-2021 4813.01 3149.49 84.32 17.00  86.61 2630.70
   05:53:18.951.30-Jan-2021 4813.01 3149.48 84.32 17.00  86.81 2630.70
   05:53:19.151.30-Jan-2021 4813.01 3149.49 84.32 17.00  87.01 2630.70
   05:53:19.351.30-Jan-2021 4813.01 3149.49 84.32 17.00  87.21 2630.70
   05:53:19.551.30-Jan-2021 4813.01 3149.49 84.31 17.00  87.41 2630.70
   05:53:19.751.30-Jan-2021 4813.01 3149.47 84.31 17.00  87.61 2630.70
   05:53:19.951.30-Jan-2021 4813.01 3149.47 84.31 17.00  87.81 2630.70
   05:53:20.151.30-Jan-2021 4813.01 3149.40 84.31 17.00  88.01 2630.70
   05:53:20.351.30-Jan-2021 4813.01 3149.40 84.31 17.00  88.21 2630.70
   05:53:20.551.30-Jan-2021 4813.01 3149.46 84.31 17.00  88.41 2630.70
   05:53:20.751.30-Jan-2021 4813.01 3149.47 84.31 17.00  88.61 2630.70
   05:53:20.951.30-Jan-2021 4813.01 3149.40 84.31 17.00  88.81 2630.70
   05:53:21.151.30-Jan-2021 4813.01 3149.49 84.31 17.00  89.01 2630.70
   05:53:21.351.30-Jan-2021 4813.01 3149.49 84.31 17.00  89.21 2630.70
   05:53:21.551.30-Jan-2021 4813.01 3149.47 84.31 17.00  89.41 2630.70
   05:53:21.751.30-Jan-2021 4813.01 3149.47 84.31 17.00  89.61 2630.70
   05:53:21.951.30-Jan-2021 4813.01 3149.45 84.31 17.00  89.81 2630.70
   05:53:22.151.30-Jan-2021 4813.01 3149.41 84.31 17.00  90.01 2630.70
   05:53:22.351.30-Jan-2021 4813.01 3149.41 84.31 17.00  90.21 2630.70
