~Version Information
 VERS.                  2.0:   CWLS log ASCII Standard -VERSION 2.0
 WRAP.                   NO:   One line per depth step
~Well Information Block
#MNEM.UNIT     VALUE/NAME     DESCRIPTION
#---------     -----------    ---------------------------
 STRT.S             01:29:12 30-Jan-21: START TIME 01:29:12 30-Jan-21
 STOP.S             01:35:33 30-Jan-21: STOP TIME  01:35:33 30-Jan-21
 STEP.S                   0.00: STEP TIME
 NULL.                 -999.25: NULL VALUE
 DFWT.                        :  DIST FWL TEXT
 DFST.                        :  DIST FSL TEXT
 DMF .             Drill Floor:  DRILL MEAS FROM
 STIM.      00.00.00 25-Sep-20:  START TIME
 DATE.      16.12.48 31-Jan-21:  END TIME
 SPUD.               20-Sep-20:  SPUD DATE
 NREF.                    Grid:  NORTH REFERENCE
 HPTY.       Minimum Curvature:  HOLE POS TYPE
 DMOD.             Drill Model:  DRILL MOD DESC
 SVYD.                  Survey:  SURVEY DESC
 ILTD.               Lithology:  INTERP LTH DESC
 FTOP.          Formation Tops:  FORM TOPS DESC
 RIG .              East Azeri:  RIG NAME
 PDAT.          Mean Sea Level:  PERMANENT DATUM
 FLD .                     ACG:  FIELD NAME
 SON .        AZ-XX-0906591820:  JOB NUMBER
 CTRY.              Azerbaijan:  COUNTRY NAME
 WELL.                     D37:  WELL NAME
 SRVC.     Turan Drilling & Engineering:  CONTRACTOR
 COMP.     BP Exploration (Caspian Sea) ltd.:  COMPANY
 WTYP.                Deviated:  WELL TYPE
 MDS .        Operator Entered:  MAG DATA SOURCE
 UWI .                     N/A:  UNIQUE WELL IDENTIFIER
 API .                     N/A:  API NUMBER
 BASE.              Azerbaijan:  LOGGING EQUIPMENT BASE LOCATION
 REGN.                   EESSA:  REGION
 PROV.                    Baku:  PROVINCE
 STAT.                    Baku:  STATE NAME
 MWDS.                    Baku:  MWD SHOP
 JOBN.        AZ-XX-0906591820:  JOB TICKET NUMB
 DOE .                     N/A:  DOE NUMBER
 DCON.         Sperry Drilling:  DIRECTNL CONTR
 UNIT.                     N/A:  LOGGING EQUIPMENT ID
 CNTY.                        :  COUNTY
 LOC .                        :  LOCATION
 LMF .             Drill Floor:  LOG MEASURED FROM
 TVDS.m                  43.60:  TVDSS CORRECTN
 LATI.deg                40.02:  LATITUDE
 LONG.deg                51.45:  LONGITUDE
 WHNS.m                  11.04:  WELL HEAD N/S
 WHEW.m                 -12.38:  WELL HEAD E/W
 UTMX.m              538763.98:  UTM X
 UTMY.m             4431880.20:  UTM Y
 DFWL.m                   0.00:  DISTANCE FWL
 DFSL.m                   0.00:  DISTANCE FSL
 SDEP.m                 300.00:  START DEPTH
 TDD .m                4900.01:  TOTAL DEPTH (DRILLER)
 VSDR.deg               185.64:  VERT SEC DIRECT
 GVFD.g                   1.00:  GRAVITY FIELD
 MFLD.nT              50301.00:  MAGNETIC FIELD
 MDIP.deg                59.46:  MAGNETIC DIP
 MDEC.deg                 6.43:  MAGNETIC DECL
 GRDC.deg                 0.29:  GRID CORRECTION
 AZTC.deg                 6.14:  AZM TOTAL CORR
 EPD .m                   0.00:  ELEVATION
 EGL .m                   0.00:  GROUND ELEVATION
 WDMS.m                 151.80:  WD ELEV
 APD .m                  43.60:  DEPTH ABOVE PD
 DEP .m                 571.69:  DEPTH
 AGAP.m                  43.60:  AIR GAP
 VSEW.m                 -12.38:  VERT SEC E/W
 VSNS.m                  11.04:  VERT SEC N/S
 EKB .m                  43.60:  KB ELEVATION
 EDF .m                  43.60:  DF ELEVATION
 TDL .m                 412.00:  TOTAL DEPTH (LOGGER)
 VSC .                       0:  VS TO CLOSURE
 MAGU.                 1849300:  MAGUTM CHECKSUM
~Parameter Information Block
#MNEM.UNIT       Value        Description
#---------     -----------    ---------------------------
 AV  .mps                 2.21:  Ann Velocity 
 AVMX.mps                 2.53:  Max Ann Veloc 
 AZIF.deg               144.83:  Azm, Final 
 BHAT.        Rotary Steerable:  BHA Type 
 BROT.°/30m              -0.52:  Build Rotating 
 BS  .in                  6.50:  Bit Size 
 BTPL.psig              209.00:  Bit Press Loss 
 CABU.                      No:  Customer Abuse 
 CGEO.        Ali Isfandiyarov:  Customer Geo 
 COMM.                     5j:  Run Comments 1 
 TCS .hr                 61.31:  Time Ciculation Ended 
 CV  .mps                 4.66:  Crit Velocity 
 CVMX.mps                 5.02:  Max Crit Veloc 
 DD1 .          Fariz Nahmatov:  Direct Drillr 1 
 DD2 .            Musa Ahmadov:  Direct Drillr 2 
 DDSV.               Geo-Pilot:  DD Service 
 DEFF.%                 100.00:  % Det Eff 
 DLRX.°/30m               1.44:  Dogleg Rot Max 
 DLSO.°/30m               0.83:  Dogleg Oriented 
 DLSX.°/30m               1.44:  Dogleg Str Max 
 DRET.      08.30.00 30-Jan-21:  Drill End Time 
 DRST.      21.15.00 27-Jan-21:  Drill Start Tim 
 DTIM.hr                 37.28:  Time Drilling 
 EDEP.m                4867.01:  End Depth 
 ENG1.          Rasim Hashimov:  Engineer 1 
 ENG2.         Almaz Almadatov:  Engineer 2 
 ENG3.        Tamerlan Ahmadov:  Engineer 3 
 ETIM.      22.41.04 31-Jan-21:  End Time 
 FLOI.gpm               400.00:  Flow In 
 FLON.gpm               300.00:  Flow In Min 
 FLOS.cptm                0.00:  Fluid Loss 
 FLOX.gpm               400.00:  Flow In Max 
 HFLO.                      No:  High Flow 
 HPRE.                      No:  High Pressure 
 HTEM.                      No:  High Temp 
 HYDO.m                   1.80:  Hydro Offset 
 IFIN.deg                65.63:  Inc, Final 
 IMAX.deg                66.77:  Inc Max 
 IMIN.deg                65.61:  Inc Min 
 IMND.m                4612.67:  Inc Min Depth 
 IMXD.m                4811.63:  Inc Max Depth 
 JARR.                      No:  Jarring 
 LETM.      08.30.00 30-Jan-21:  Log End Time 
 LOST.hr                     0:  Lost Rig Time 
 LSTM.      21.15.00 27-Jan-21:  Log Start Time 
 MDCL.ppm             41000.00:  Mud Chlorides 
 MDES.     Inversion Oil/Synthetic:  Mud Desc 
 DFD .sg                  1.40:  Mud Density 
 MDMN.sg                  1.40:  Dens Mud Min 
 MDMX.sg                  1.40:  Dens Mud Max 
 MOIL.                      53:  Run Mud Oil % 
 MOWR.                   66:34:  Run Mud OWR 
 MSND.                     0.2:  Run Mud Sand % 
 MSOL.                    17.9:  Run Mud Solids% 
 DFV .spqt               77.00:  Mud Viscosity 
 MWOD.in                  4.75:  MWD Tool OD 
 MWSI.                      No:  Serv Intrp, MWD 
 OTIM.hr                110.38:  Time Operating 
 PCON.           Look Like New:  Pad Condition 
 PMAX.psia             5300.00:  Press Op, Max 
 PV  .cP                 57.00:  Mud PV 
 RUN .                    1200:  Run Number 
 ROPA.m/hr               13.00:  ROP Avg 
 ROPN.m/hr                9.00:  ROP Min 
 ROPX.m/hr               15.00:  ROP Max 
 RPMA.rpm               120.00:  RPM Surface Avg 
 RPMN.rpm               100.00:  RPM Surface Min 
 RPMX.rpm               135.00:  RPM Surface Max 
 RRUN.                    1200:  Rig Run Number 
 RTIM.hr                  2.65:  Time Reaming 
 SAZI.deg               145.04:  Azm, Start 
 SDEP.m                4455.01:  Start Depth 
 SIDD.                      No:  Serv Intrp, DD 
 SINC.deg                65.83:  Inc, Start 
 SPPA.psig             5037.00:  SPP Avg 
 SPPN.psig             4430.00:  SPP Min 
 SPPX.psig             5300.00:  SPP Max 
 STIM.      22.41.04 26-Jan-21:  Start Time 
 SVCS.                 DD, MWD:  Services 
 SVER.                    9.20:  Sperry Version 
 TDAT.m                 412.00:  Tot Depth Attmp 
 TDDF.                      No:  Trip for DD 
 TDLG.m                 412.00:  Tot Depth Loggd 
 TFF .                      No:  Trip for Fail 
 TQAA.f-kp               15.00:  Torque Abs Avg 
 TQAN.f-kp               12.00:  Torque Abs Min 
 TQAX.f-kp               17.00:  Torque Abs Max 
 TRRT.°/30m               1.18:  Turn Rotating 
 MRT .                     ADR:  Maximum Recorded Temperature 
 TTMX.degC               88.24:  Max Tool Temp 
 VS01.                90619458:  Virtual Str1 SN 
 VS02.                90519326:  Virtual Str2 SN 
 VS03.                90522176:  Virtual Str3 SN 
 VS04.                90512683:  Virtual Str4 SN 
 WBMN.klb                 1.00:  WOB Min 
 WITN.           Murad Giluyev:  Customer Rep 
 WITN.     Kamran Kemberlinski:  Customer Rep 2 
 WOBA.klb                 5.00:  WOB Avg 
 WOBX.klb                 9.00:  WOB Max 
 YP  .lhf2               41.00:  Yield Point 
~Curve Information Block
#MNEM.UNIT                 API CODE     Curve Description
#---------               -----------    ---------------------------
 TIME.HHMMSS            00 000 000 000:  GT Time & Date
 GTDEPTH.m              00 000 000 000:  GT Depth
 GTPQH.psia             00 000 000 000:  GT HR Quartz Pressure
 GTTQ.degC              00 000 000 000:  GT Quartz Temperature
 GTTN.NONE              00 000 000 000:  GT Test Number
 GTET.sec               00 000 000 000:  GT Elapsed Test Time
 GTTVD.m                00 000 000 000:  GT True Vertical Depth
#Other Information
#
#WARRANTY: Halliburton will use its best efforts to furnish customers with 
#accurate information and interpretations that are part of, and incident to, the services 
#provided.  However, Halliburton cannot and does not warrant the accuracy 
#or correctness of such information and interpretations.  Under no circumstances should any 
#such information or interpretation be relied upon as the sole basis for any drilling, 
#completion, production, or financial decision or any procedure involving any risk to the 
#safety of any drilling venture, drilling rig or its crew or any other third party.  The 
#Customer has full responsibility for all drilling, completion and production operation.  
#Halliburton makes no representations or warranties, either expressed or 
#implied, including, but not limited to, the implied warranties of merchantability or fitness 
#for a particular purpose, with respect to the services rendered.  In no event will 
#Halliburton be liable for failure to obtain any particular results or for 
#any damages, including, but not limited to, indirect, special or consequential damages, 
#resulting from the use of any information or interpretation provided by Halliburton.
#
~A           TIME           GTDEPTH  GTPQH  GTTQ  GTTN   GTET   GTTVD  
# ...
   01:34:51.703.30-Jan-2021 4789.01   27.69 81.65 15.00 339.07 2621.19
   01:34:51.903.30-Jan-2021 4789.01   27.69 81.65 15.00 339.27 2621.19
   01:34:52.103.30-Jan-2021 4789.01   27.70 81.64 15.00 339.47 2621.19
   01:34:52.303.30-Jan-2021 4789.01   27.70 81.64 15.00 339.67 2621.19
   01:34:52.503.30-Jan-2021 4789.01   27.70 81.64 15.00 339.87 2621.19
   01:34:52.703.30-Jan-2021 4789.01   27.70 81.64 15.00 340.07 2621.19
   01:34:52.903.30-Jan-2021 4789.01   27.70 81.64 15.00 340.27 2621.19
   01:34:53.103.30-Jan-2021 4789.01   27.70 81.64 15.00 340.47 2621.19
   01:34:53.303.30-Jan-2021 4789.01   27.71 81.64 15.00 340.67 2621.19
   01:34:53.503.30-Jan-2021 4789.01   27.71 81.64 15.00 340.87 2621.19
   01:34:53.703.30-Jan-2021 4789.01   27.72 81.64 15.00 341.07 2621.19
   01:34:53.903.30-Jan-2021 4789.01   27.72 81.64 15.00 341.27 2621.19
   01:34:54.103.30-Jan-2021 4789.01   27.72 81.64 15.00 341.47 2621.19
   01:34:54.303.30-Jan-2021 4789.01   27.73 81.64 15.00 341.67 2621.19
   01:34:54.503.30-Jan-2021 4789.01   27.72 81.64 15.00 341.87 2621.19
   01:34:54.703.30-Jan-2021 4789.01   27.73 81.64 15.00 342.07 2621.19
   01:34:54.903.30-Jan-2021 4789.01   27.73 81.64 15.00 342.27 2621.19
   01:34:55.103.30-Jan-2021 4789.01   27.74 81.64 15.00 342.47 2621.19
   01:34:55.303.30-Jan-2021 4789.01   27.74 81.64 15.00 342.67 2621.19
   01:34:55.503.30-Jan-2021 4789.01   27.75 81.64 15.00 342.87 2621.19
   01:34:55.703.30-Jan-2021 4789.01   27.75 81.64 15.00 343.07 2621.19
   01:34:55.903.30-Jan-2021 4789.01   27.75 81.64 15.00 343.27 2621.19
   01:34:56.104.30-Jan-2021 4789.01   27.75 81.64 15.00 343.47 2621.19
   01:34:56.304.30-Jan-2021 4789.01   27.75 81.64 15.00 343.67 2621.19
   01:34:56.504.30-Jan-2021 4789.01   27.76 81.64 15.00 343.87 2621.19
   01:34:56.704.30-Jan-2021 4789.01   27.76 81.64 15.00 344.07 2621.19
   01:34:56.904.30-Jan-2021 4789.01   27.76 81.64 15.00 344.27 2621.19
   01:34:57.104.30-Jan-2021 4789.01   27.77 81.64 15.00 344.47 2621.19
   01:34:57.304.30-Jan-2021 4789.01   27.77 81.64 15.00 344.67 2621.19
   01:34:57.504.30-Jan-2021 4789.01   27.78 81.64 15.00 344.87 2621.19
   01:34:57.704.30-Jan-2021 4789.01   27.78 81.64 15.00 345.07 2621.19
   01:34:57.904.30-Jan-2021 4789.01   27.78 81.64 15.00 345.27 2621.19
   01:34:58.104.30-Jan-2021 4789.01   27.79 81.64 15.00 345.47 2621.19
   01:34:58.304.30-Jan-2021 4789.01   27.79 81.63 15.00 345.67 2621.19
   01:34:58.504.30-Jan-2021 4789.01   27.79 81.63 15.00 345.87 2621.19
   01:34:58.704.30-Jan-2021 4789.01   27.80 81.63 15.00 346.07 2621.19
   01:34:58.904.30-Jan-2021 4789.01   27.80 81.63 15.00 346.27 2621.19
   01:34:59.104.30-Jan-2021 4789.01   27.80 81.63 15.00 346.47 2621.19
   01:34:59.304.30-Jan-2021 4789.01   27.81 81.63 15.00 346.67 2621.19
   01:34:59.504.30-Jan-2021 4789.01   27.81 81.63 15.00 346.87 2621.19
   01:34:59.704.30-Jan-2021 4789.01   27.81 81.63 15.00 347.07 2621.19
   01:34:59.904.30-Jan-2021 4789.01   27.81 81.63 15.00 347.27 2621.19
   01:35:00.104.30-Jan-2021 4789.01   27.82 81.63 15.00 347.47 2621.19
   01:35:00.304.30-Jan-2021 4789.01   27.83 81.63 15.00 347.67 2621.19
   01:35:00.504.30-Jan-2021 4789.01 3291.29 81.63 15.00 347.87 2621.19
   01:35:00.704.30-Jan-2021 4789.01 5722.12 81.63 15.00 348.07 2621.19
   01:35:00.904.30-Jan-2021 4789.01 5722.12 81.63 15.00 348.27 2621.19
   01:35:01.104.30-Jan-2021 4789.01 5722.12 81.63 15.00 348.47 2621.19
   01:35:01.305.30-Jan-2021 4789.01 5722.31 81.63 15.00 348.67 2621.19
   01:35:01.505.30-Jan-2021 4789.01 5721.66 81.63 15.00 348.87 2621.19
   01:35:01.705.30-Jan-2021 4789.01 5724.59 81.63 15.00 349.07 2621.19
   01:35:01.905.30-Jan-2021 4789.01 5724.59 81.63 15.00 349.27 2621.19
   01:35:02.105.30-Jan-2021 4789.01 5729.63 81.63 15.00 349.47 2621.19
   01:35:02.305.30-Jan-2021 4789.01 5729.21 81.63 15.00 349.67 2621.19
   01:35:02.505.30-Jan-2021 4789.01 5730.33 81.63 15.00 349.87 2621.19
   01:35:02.705.30-Jan-2021 4789.01 5723.01 81.63 15.00 350.07 2621.19
   01:35:02.905.30-Jan-2021 4789.01 5723.01 81.63 15.00 350.27 2621.19
   01:35:03.105.30-Jan-2021 4789.01 5732.79 81.63 15.00 350.47 2621.19
   01:35:03.305.30-Jan-2021 4789.01 5733.23 81.63 15.00 350.67 2621.19
   01:35:03.505.30-Jan-2021 4789.01 5734.35 81.63 15.00 350.87 2621.19
   01:35:03.705.30-Jan-2021 4789.01 5722.76 81.63 15.00 351.07 2621.19
   01:35:03.905.30-Jan-2021 4789.01 5722.76 81.63 15.00 351.27 2621.19
   01:35:04.105.30-Jan-2021 4789.01 5735.82 81.63 15.00 351.47 2621.19
   01:35:04.305.30-Jan-2021 4789.01 5737.41 81.63 15.00 351.67 2621.19
   01:35:04.505.30-Jan-2021 4789.01 5731.67 81.63 15.00 351.87 2621.19
   01:35:04.705.30-Jan-2021 4789.01 5734.95 81.63 15.00 352.07 2621.19
   01:35:04.905.30-Jan-2021 4789.01 5734.95 81.63 15.00 352.27 2621.19
   01:35:05.105.30-Jan-2021 4789.01 5732.35 81.63 15.00 352.47 2621.19
   01:35:05.305.30-Jan-2021 4789.01 5736.69 81.63 15.00 352.67 2621.19
   01:35:05.505.30-Jan-2021 4789.01 5736.28 81.64 15.00 352.87 2621.19
   01:35:05.705.30-Jan-2021 4789.01 5735.86 81.64 15.00 353.07 2621.19
   01:35:05.905.30-Jan-2021 4789.01 5735.86 81.64 15.00 353.27 2621.19
   01:35:06.105.30-Jan-2021 4789.01 5736.84 81.64 15.00 353.47 2621.19
   01:35:06.305.30-Jan-2021 4789.01 5735.65 81.64 15.00 353.67 2621.19
   01:35:06.506.30-Jan-2021 4789.01 5737.94 81.64 15.00 353.87 2621.19
   01:35:06.706.30-Jan-2021 4789.01 5734.79 81.64 15.00 354.07 2621.19
   01:35:06.906.30-Jan-2021 4789.01 5734.79 81.64 15.00 354.27 2621.19
   01:35:07.106.30-Jan-2021 4789.01 5735.85 81.64 15.00 354.47 2621.19
   01:35:07.306.30-Jan-2021 4789.01 5737.89 81.64 15.00 354.67 2621.19
   01:35:07.506.30-Jan-2021 4789.01 5736.07 81.64 15.00 354.87 2621.19
   01:35:07.706.30-Jan-2021 4789.01 5737.89 81.64 15.00 355.07 2621.19
   01:35:07.906.30-Jan-2021 4789.01 5737.89 81.64 15.00 355.27 2621.19
   01:35:08.106.30-Jan-2021 4789.01 5737.75 81.64 15.00 355.47 2621.19
   01:35:08.306.30-Jan-2021 4789.01 5736.79 81.64 15.00 355.67 2621.19
   01:35:08.506.30-Jan-2021 4789.01 5732.79 81.64 15.00 355.87 2621.19
   01:35:08.706.30-Jan-2021 4789.01 5736.67 81.64 15.00 356.07 2621.19
   01:35:08.906.30-Jan-2021 4789.01 5736.67 81.64 15.00 356.27 2621.19
   01:35:09.106.30-Jan-2021 4789.01 5736.80 81.65 15.00 356.47 2621.19
   01:35:09.306.30-Jan-2021 4789.01 5735.74 81.65 15.00 356.67 2621.19
   01:35:09.506.30-Jan-2021 4789.01 5734.86 81.65 15.00 356.87 2621.19
   01:35:09.706.30-Jan-2021 4789.01 5735.66 81.65 15.00 357.07 2621.19
   01:35:09.906.30-Jan-2021 4789.01 5735.66 81.65 15.00 357.27 2621.19
   01:35:10.106.30-Jan-2021 4789.01 5736.29 81.65 15.00 357.47 2621.19
   01:35:10.306.30-Jan-2021 4789.01 5736.03 81.65 15.00 357.67 2621.19
   01:35:10.506.30-Jan-2021 4789.01 5735.28 81.65 15.00 357.87 2621.19
   01:35:10.706.30-Jan-2021 4789.01 5737.40 81.65 15.00 358.07 2621.19
   01:35:10.906.30-Jan-2021 4789.01 5737.40 81.65 15.00 358.27 2621.19
   01:35:11.106.30-Jan-2021 4789.01 5737.09 81.65 15.00 358.47 2621.19
   01:35:11.306.30-Jan-2021 4789.01 5735.85 81.65 15.00 358.67 2621.19
   01:35:11.506.30-Jan-2021 4789.01 5736.61 81.65 15.00 358.87 2621.19
   01:35:11.707.30-Jan-2021 4789.01 5730.49 81.65 15.00 359.07 2621.19
   01:35:11.907.30-Jan-2021 4789.01 5730.49 81.65 15.00 359.27 2621.19
   01:35:12.107.30-Jan-2021 4789.01 5737.94 81.65 15.00 359.47 2621.19
   01:35:12.307.30-Jan-2021 4789.01 5737.44 81.65 15.00 359.67 2621.19
   01:35:12.507.30-Jan-2021 4789.01 5726.17 81.65 15.00 359.87 2621.19
   01:35:12.707.30-Jan-2021 4789.01 5738.94 81.65 15.00 360.07 2621.19
   01:35:12.907.30-Jan-2021 4789.01 5738.94 81.65 15.00 360.27 2621.19
   01:35:13.107.30-Jan-2021 4789.01 5737.74 81.66 15.00 360.47 2621.19
   01:35:13.307.30-Jan-2021 4789.01 5730.10 81.66 15.00 360.67 2621.19
   01:35:13.507.30-Jan-2021 4789.01 5734.75 81.66 15.00 360.87 2621.19
   01:35:13.707.30-Jan-2021 4789.01 5738.07 81.66 15.00 361.07 2621.19
   01:35:13.907.30-Jan-2021 4789.01 5738.07 81.66 15.00 361.27 2621.19
   01:35:14.107.30-Jan-2021 4789.01 5737.67 81.66 15.00 361.47 2621.19
