~Version Information
 VERS.                  2.0:   CWLS log ASCII Standard -VERSION 2.0
 WRAP.                   NO:   One line per depth step
~Well Information Block
#MNEM.UNIT     VALUE/NAME     DESCRIPTION
#---------     -----------    ---------------------------
 STRT.S             13:18:38 29-Jan-21: START TIME 13:18:38 29-Jan-21
 STOP.S             13:25:08 29-Jan-21: STOP TIME  13:25:08 29-Jan-21
 STEP.S                   0.00: STEP TIME
 NULL.                 -999.25: NULL VALUE
 DFWT.                        :  DIST FWL TEXT
 DFST.                        :  DIST FSL TEXT
 DMF .             Drill Floor:  DRILL MEAS FROM
 STIM.      00.00.00 25-Sep-20:  START TIME
 DATE.      16.12.48 31-Jan-21:  END TIME
 SPUD.               20-Sep-20:  SPUD DATE
 NREF.                    Grid:  NORTH REFERENCE
 HPTY.       Minimum Curvature:  HOLE POS TYPE
 DMOD.             Drill Model:  DRILL MOD DESC
 SVYD.                  Survey:  SURVEY DESC
 ILTD.               Lithology:  INTERP LTH DESC
 FTOP.          Formation Tops:  FORM TOPS DESC
 RIG .              East Azeri:  RIG NAME
 PDAT.          Mean Sea Level:  PERMANENT DATUM
 FLD .                     ACG:  FIELD NAME
 SON .        AZ-XX-0906591820:  JOB NUMBER
 CTRY.              Azerbaijan:  COUNTRY NAME
 WELL.                     D37:  WELL NAME
 SRVC.     Turan Drilling & Engineering:  CONTRACTOR
 COMP.     BP Exploration (Caspian Sea) ltd.:  COMPANY
 WTYP.                Deviated:  WELL TYPE
 MDS .        Operator Entered:  MAG DATA SOURCE
 UWI .                     N/A:  UNIQUE WELL IDENTIFIER
 API .                     N/A:  API NUMBER
 BASE.              Azerbaijan:  LOGGING EQUIPMENT BASE LOCATION
 REGN.                   EESSA:  REGION
 PROV.                    Baku:  PROVINCE
 STAT.                    Baku:  STATE NAME
 MWDS.                    Baku:  MWD SHOP
 JOBN.        AZ-XX-0906591820:  JOB TICKET NUMB
 DOE .                     N/A:  DOE NUMBER
 DCON.         Sperry Drilling:  DIRECTNL CONTR
 UNIT.                     N/A:  LOGGING EQUIPMENT ID
 CNTY.                        :  COUNTY
 LOC .                        :  LOCATION
 LMF .             Drill Floor:  LOG MEASURED FROM
 TVDS.m                  43.60:  TVDSS CORRECTN
 LATI.deg                40.02:  LATITUDE
 LONG.deg                51.45:  LONGITUDE
 WHNS.m                  11.04:  WELL HEAD N/S
 WHEW.m                 -12.38:  WELL HEAD E/W
 UTMX.m              538763.98:  UTM X
 UTMY.m             4431880.20:  UTM Y
 DFWL.m                   0.00:  DISTANCE FWL
 DFSL.m                   0.00:  DISTANCE FSL
 SDEP.m                 300.00:  START DEPTH
 TDD .m                4900.01:  TOTAL DEPTH (DRILLER)
 VSDR.deg               185.64:  VERT SEC DIRECT
 GVFD.g                   1.00:  GRAVITY FIELD
 MFLD.nT              50301.00:  MAGNETIC FIELD
 MDIP.deg                59.46:  MAGNETIC DIP
 MDEC.deg                 6.43:  MAGNETIC DECL
 GRDC.deg                 0.29:  GRID CORRECTION
 AZTC.deg                 6.14:  AZM TOTAL CORR
 EPD .m                   0.00:  ELEVATION
 EGL .m                   0.00:  GROUND ELEVATION
 WDMS.m                 151.80:  WD ELEV
 APD .m                  43.60:  DEPTH ABOVE PD
 DEP .m                 571.69:  DEPTH
 AGAP.m                  43.60:  AIR GAP
 VSEW.m                 -12.38:  VERT SEC E/W
 VSNS.m                  11.04:  VERT SEC N/S
 EKB .m                  43.60:  KB ELEVATION
 EDF .m                  43.60:  DF ELEVATION
 TDL .m                 412.00:  TOTAL DEPTH (LOGGER)
 VSC .                       0:  VS TO CLOSURE
 MAGU.                 1849300:  MAGUTM CHECKSUM
~Parameter Information Block
#MNEM.UNIT       Value        Description
#---------     -----------    ---------------------------
 AV  .mps                 2.21:  Ann Velocity 
 AVMX.mps                 2.53:  Max Ann Veloc 
 AZIF.deg               144.83:  Azm, Final 
 BHAT.        Rotary Steerable:  BHA Type 
 BROT.°/30m              -0.52:  Build Rotating 
 BS  .in                  6.50:  Bit Size 
 BTPL.psig              209.00:  Bit Press Loss 
 CABU.                      No:  Customer Abuse 
 CGEO.        Ali Isfandiyarov:  Customer Geo 
 COMM.                     lÄt:  Run Comments 1 
 TCS .hr                 61.31:  Time Ciculation Ended 
 CV  .mps                 4.66:  Crit Velocity 
 CVMX.mps                 5.02:  Max Crit Veloc 
 DD1 .          Fariz Nahmatov:  Direct Drillr 1 
 DD2 .            Musa Ahmadov:  Direct Drillr 2 
 DDSV.               Geo-Pilot:  DD Service 
 DEFF.%                 100.00:  % Det Eff 
 DLRX.°/30m               1.44:  Dogleg Rot Max 
 DLSO.°/30m               0.83:  Dogleg Oriented 
 DLSX.°/30m               1.44:  Dogleg Str Max 
 DRET.      08.30.00 30-Jan-21:  Drill End Time 
 DRST.      21.15.00 27-Jan-21:  Drill Start Tim 
 DTIM.hr                 37.28:  Time Drilling 
 EDEP.m                4867.01:  End Depth 
 ENG1.          Rasim Hashimov:  Engineer 1 
 ENG2.         Almaz Almadatov:  Engineer 2 
 ENG3.        Tamerlan Ahmadov:  Engineer 3 
 ETIM.      22.41.04 31-Jan-21:  End Time 
 FLOI.gpm               400.00:  Flow In 
 FLON.gpm               300.00:  Flow In Min 
 FLOS.cptm                0.00:  Fluid Loss 
 FLOX.gpm               400.00:  Flow In Max 
 HFLO.                      No:  High Flow 
 HPRE.                      No:  High Pressure 
 HTEM.                      No:  High Temp 
 HYDO.m                   1.80:  Hydro Offset 
 IFIN.deg                65.63:  Inc, Final 
 IMAX.deg                66.77:  Inc Max 
 IMIN.deg                65.61:  Inc Min 
 IMND.m                4612.67:  Inc Min Depth 
 IMXD.m                4811.63:  Inc Max Depth 
 JARR.                      No:  Jarring 
 LETM.      08.30.00 30-Jan-21:  Log End Time 
 LOST.hr                     0:  Lost Rig Time 
 LSTM.      21.15.00 27-Jan-21:  Log Start Time 
 MDCL.ppm             41000.00:  Mud Chlorides 
 MDES.     Inversion Oil/Synthetic:  Mud Desc 
 DFD .sg                  1.40:  Mud Density 
 MDMN.sg                  1.40:  Dens Mud Min 
 MDMX.sg                  1.40:  Dens Mud Max 
 MOIL.                      53:  Run Mud Oil % 
 MOWR.                   66:34:  Run Mud OWR 
 MSND.                     0.2:  Run Mud Sand % 
 MSOL.                    17.9:  Run Mud Solids% 
 DFV .spqt               77.00:  Mud Viscosity 
 MWOD.in                  4.75:  MWD Tool OD 
 MWSI.                      No:  Serv Intrp, MWD 
 OTIM.hr                110.38:  Time Operating 
 PCON.           Look Like New:  Pad Condition 
 PMAX.psia             5300.00:  Press Op, Max 
 PV  .cP                 57.00:  Mud PV 
 RUN .                    1200:  Run Number 
 ROPA.m/hr               13.00:  ROP Avg 
 ROPN.m/hr                9.00:  ROP Min 
 ROPX.m/hr               15.00:  ROP Max 
 RPMA.rpm               120.00:  RPM Surface Avg 
 RPMN.rpm               100.00:  RPM Surface Min 
 RPMX.rpm               135.00:  RPM Surface Max 
 RRUN.                    1200:  Rig Run Number 
 RTIM.hr                  2.65:  Time Reaming 
 SAZI.deg               145.04:  Azm, Start 
 SDEP.m                4455.01:  Start Depth 
 SIDD.                      No:  Serv Intrp, DD 
 SINC.deg                65.83:  Inc, Start 
 SPPA.psig             5037.00:  SPP Avg 
 SPPN.psig             4430.00:  SPP Min 
 SPPX.psig             5300.00:  SPP Max 
 STIM.      22.41.04 26-Jan-21:  Start Time 
 SVCS.                 DD, MWD:  Services 
 SVER.                    9.20:  Sperry Version 
 TDAT.m                 412.00:  Tot Depth Attmp 
 TDDF.                      No:  Trip for DD 
 TDLG.m                 412.00:  Tot Depth Loggd 
 TFF .                      No:  Trip for Fail 
 TQAA.f-kp               15.00:  Torque Abs Avg 
 TQAN.f-kp               12.00:  Torque Abs Min 
 TQAX.f-kp               17.00:  Torque Abs Max 
 TRRT.°/30m               1.18:  Turn Rotating 
 MRT .                     ADR:  Maximum Recorded Temperature 
 TTMX.degC               88.24:  Max Tool Temp 
 VS01.                90619458:  Virtual Str1 SN 
 VS02.                90519326:  Virtual Str2 SN 
 VS03.                90522176:  Virtual Str3 SN 
 VS04.                90512683:  Virtual Str4 SN 
 WBMN.klb                 1.00:  WOB Min 
 WITN.           Murad Giluyev:  Customer Rep 
 WITN.     Kamran Kemberlinski:  Customer Rep 2 
 WOBA.klb                 5.00:  WOB Avg 
 WOBX.klb                 9.00:  WOB Max 
 YP  .lhf2               41.00:  Yield Point 
~Curve Information Block
#MNEM.UNIT                 API CODE     Curve Description
#---------               -----------    ---------------------------
 TIME.HHMMSS            00 000 000 000:  GT Time & Date
 GTDEPTH.m              00 000 000 000:  GT Depth
 GTPQH.psia             00 000 000 000:  GT HR Quartz Pressure
 GTTQ.degC              00 000 000 000:  GT Quartz Temperature
 GTTN.NONE              00 000 000 000:  GT Test Number
 GTET.sec               00 000 000 000:  GT Elapsed Test Time
 GTTVD.m                00 000 000 000:  GT True Vertical Depth
#Other Information
#
#WARRANTY: Halliburton will use its best efforts to furnish customers with 
#accurate information and interpretations that are part of, and incident to, the services 
#provided.  However, Halliburton cannot and does not warrant the accuracy 
#or correctness of such information and interpretations.  Under no circumstances should any 
#such information or interpretation be relied upon as the sole basis for any drilling, 
#completion, production, or financial decision or any procedure involving any risk to the 
#safety of any drilling venture, drilling rig or its crew or any other third party.  The 
#Customer has full responsibility for all drilling, completion and production operation.  
#Halliburton makes no representations or warranties, either expressed or 
#implied, including, but not limited to, the implied warranties of merchantability or fitness 
#for a particular purpose, with respect to the services rendered.  In no event will 
#Halliburton be liable for failure to obtain any particular results or for 
#any damages, including, but not limited to, indirect, special or consequential damages, 
#resulting from the use of any information or interpretation provided by Halliburton.
#
~A           TIME           GTDEPTH  GTPQH  GTTQ  GTTN   GTET   GTTVD  
# ...
   13:22:02.248.29-Jan-2021 4712.01 3106.77 81.71 11.00 203.41 2590.47
   13:22:02.448.29-Jan-2021 4712.01 3106.71 81.71 11.00 203.61 2590.47
   13:22:02.648.29-Jan-2021 4712.01 3106.67 81.71 11.00 203.81 2590.47
   13:22:02.848.29-Jan-2021 4712.01 3106.68 81.71 11.00 204.01 2590.47
   13:22:03.048.29-Jan-2021 4712.01 3106.68 81.71 11.00 204.21 2590.47
   13:22:03.248.29-Jan-2021 4712.01 3106.85 81.71 11.00 204.41 2590.47
   13:22:03.448.29-Jan-2021 4712.01 3106.68 81.71 11.00 204.61 2590.47
   13:22:03.648.29-Jan-2021 4712.01 3106.65 81.71 11.00 204.81 2590.47
   13:22:03.848.29-Jan-2021 4712.01 3106.71 81.71 11.00 205.01 2590.47
   13:22:04.048.29-Jan-2021 4712.01 3106.71 81.71 11.00 205.21 2590.47
   13:22:04.248.29-Jan-2021 4712.01 3106.71 81.71 11.00 205.41 2590.47
   13:22:04.448.29-Jan-2021 4712.01 3106.61 81.70 11.00 205.61 2590.47
   13:22:04.648.29-Jan-2021 4712.01 3106.73 81.70 11.00 205.81 2590.47
   13:22:04.848.29-Jan-2021 4712.01 3106.55 81.70 11.00 206.01 2590.47
   13:22:05.048.29-Jan-2021 4712.01 3106.55 81.70 11.00 206.21 2590.47
   13:22:05.249.29-Jan-2021 4712.01 3106.70 81.70 11.00 206.41 2590.47
   13:22:05.449.29-Jan-2021 4712.01 3106.64 81.70 11.00 206.61 2590.47
   13:22:05.649.29-Jan-2021 4712.01 3106.73 81.70 11.00 206.81 2590.47
   13:22:05.849.29-Jan-2021 4712.01 3106.67 81.70 11.00 207.01 2590.47
   13:22:06.049.29-Jan-2021 4712.01 3106.67 81.70 11.00 207.21 2590.47
   13:22:06.249.29-Jan-2021 4712.01 3106.67 81.70 11.00 207.41 2590.47
   13:22:06.449.29-Jan-2021 4712.01 3106.68 81.70 11.00 207.61 2590.47
   13:22:06.649.29-Jan-2021 4712.01 3106.67 81.70 11.00 207.81 2590.47
   13:22:06.849.29-Jan-2021 4712.01 3106.65 81.70 11.00 208.01 2590.47
   13:22:07.049.29-Jan-2021 4712.01 3106.65 81.70 11.00 208.21 2590.47
   13:22:07.249.29-Jan-2021 4712.01 3106.64 81.70 11.00 208.41 2590.47
   13:22:07.449.29-Jan-2021 4712.01 3106.68 81.70 11.00 208.61 2590.47
   13:22:07.649.29-Jan-2021 4712.01 3106.65 81.69 11.00 208.81 2590.47
   13:22:07.849.29-Jan-2021 4712.01 3106.67 81.69 11.00 209.01 2590.47
   13:22:08.049.29-Jan-2021 4712.01 3106.67 81.69 11.00 209.21 2590.47
   13:22:08.249.29-Jan-2021 4712.01 3106.67 81.69 11.00 209.41 2590.47
   13:22:08.449.29-Jan-2021 4712.01 3106.52 81.69 11.00 209.61 2590.47
   13:22:08.649.29-Jan-2021 4712.01 3106.81 81.69 11.00 209.81 2590.47
   13:22:08.849.29-Jan-2021 4712.01 3106.70 81.69 11.00 210.01 2590.47
   13:22:09.049.29-Jan-2021 4712.01 3106.70 81.69 11.00 210.21 2590.47
   13:22:09.249.29-Jan-2021 4712.01 3106.71 81.69 11.00 210.41 2590.47
   13:22:09.449.29-Jan-2021 4712.01 3106.68 81.69 11.00 210.61 2590.47
   13:22:09.649.29-Jan-2021 4712.01 3106.71 81.69 11.00 210.81 2590.47
   13:22:09.849.29-Jan-2021 4712.01 3106.64 81.69 11.00 211.01 2590.47
   13:22:10.049.29-Jan-2021 4712.01 3106.64 81.69 11.00 211.21 2590.47
   13:22:10.249.29-Jan-2021 4712.01 3106.67 81.69 11.00 211.41 2590.47
   13:22:10.449.29-Jan-2021 4712.01 3106.67 81.69 11.00 211.61 2590.47
   13:22:10.649.29-Jan-2021 4712.01 3106.66 81.68 11.00 211.81 2590.47
   13:22:10.849.29-Jan-2021 4712.01 3106.67 81.68 11.00 212.01 2590.47
   13:22:11.049.29-Jan-2021 4712.01 3106.67 81.68 11.00 212.21 2590.47
   13:22:11.249.29-Jan-2021 4712.01 3106.66 81.68 11.00 212.41 2590.47
   13:22:11.449.29-Jan-2021 4712.01 3106.65 81.68 11.00 212.61 2590.47
   13:22:11.649.29-Jan-2021 4712.01 3106.53 81.68 11.00 212.81 2590.47
   13:22:11.849.29-Jan-2021 4712.01 3106.80 81.68 11.00 213.01 2590.47
   13:22:12.049.29-Jan-2021 4712.01 3106.80 81.68 11.00 213.21 2590.47
   13:22:12.249.29-Jan-2021 4712.01 3106.69 81.68 11.00 213.41 2590.47
   13:22:12.449.29-Jan-2021 4712.01 3106.63 81.68 11.00 213.62 2590.47
   13:22:12.649.29-Jan-2021 4712.01 3106.76 81.68 11.00 213.82 2590.47
   13:22:12.849.29-Jan-2021 4712.01 3106.71 81.68 11.00 214.02 2590.47
   13:22:13.049.29-Jan-2021 4712.01 3106.71 81.68 11.00 214.22 2590.47
   13:22:13.249.29-Jan-2021 4712.01 3106.67 81.68 11.00 214.42 2590.47
   13:22:13.449.29-Jan-2021 4712.01 3106.56 81.68 11.00 214.62 2590.47
   13:22:13.649.29-Jan-2021 4712.01 3106.83 81.68 11.00 214.82 2590.47
   13:22:13.849.29-Jan-2021 4712.01 3106.68 81.67 11.00 215.02 2590.47
   13:22:14.049.29-Jan-2021 4712.01 3106.68 81.67 11.00 215.22 2590.47
   13:22:14.249.29-Jan-2021 4712.01 3106.72 81.67 11.00 215.42 2590.47
   13:22:14.449.29-Jan-2021 4712.01 3106.69 81.67 11.00 215.62 2590.47
   13:22:14.649.29-Jan-2021 4712.01 3106.74 81.67 11.00 215.82 2590.47
   13:22:14.849.29-Jan-2021 4712.01 3106.60 81.67 11.00 216.02 2590.47
   13:22:15.049.29-Jan-2021 4712.01 3106.60 81.67 11.00 216.22 2590.47
   13:22:15.249.29-Jan-2021 4712.01 3106.55 81.67 11.00 216.42 2590.47
   13:22:15.449.29-Jan-2021 4712.01 3106.81 81.67 11.00 216.62 2590.47
   13:22:15.649.29-Jan-2021 4712.01 3106.70 81.67 11.00 216.82 2590.47
   13:22:15.849.29-Jan-2021 4712.01 3106.63 81.67 11.00 217.02 2590.47
   13:22:16.049.29-Jan-2021 4712.01 3106.63 81.67 11.00 217.22 2590.47
   13:22:16.249.29-Jan-2021 4712.01 3106.73 81.67 11.00 217.42 2590.47
   13:22:16.449.29-Jan-2021 4712.01 3106.70 81.67 11.00 217.62 2590.47
   13:22:16.649.29-Jan-2021 4712.01 3106.65 81.67 11.00 217.82 2590.47
   13:22:16.849.29-Jan-2021 4712.01 3106.68 81.66 11.00 218.02 2590.47
   13:22:17.049.29-Jan-2021 4712.01 3106.68 81.66 11.00 218.22 2590.47
   13:22:17.249.29-Jan-2021 4712.01 3106.67 81.66 11.00 218.42 2590.47
   13:22:17.449.29-Jan-2021 4712.01 3106.66 81.66 11.00 218.62 2590.47
   13:22:17.649.29-Jan-2021 4712.01 3106.65 81.66 11.00 218.82 2590.47
   13:22:17.849.29-Jan-2021 4712.01 3106.66 81.66 11.00 219.02 2590.47
   13:22:18.049.29-Jan-2021 4712.01 3106.66 81.66 11.00 219.22 2590.47
   13:22:18.249.29-Jan-2021 4712.01 3106.66 81.66 11.00 219.42 2590.47
   13:22:18.449.29-Jan-2021 4712.01 3106.66 81.66 11.00 219.62 2590.47
   13:22:18.649.29-Jan-2021 4712.01 3106.66 81.66 11.00 219.82 2590.47
   13:22:18.849.29-Jan-2021 4712.01 3106.51 81.66 11.00 220.02 2590.47
   13:22:19.049.29-Jan-2021 4712.01 3106.51 81.66 11.00 220.22 2590.47
   13:22:19.249.29-Jan-2021 4712.01 3106.69 81.66 11.00 220.42 2590.47
   13:22:19.450.29-Jan-2021 4712.01 3106.63 81.66 11.00 220.62 2590.47
   13:22:19.650.29-Jan-2021 4712.01 3106.71 81.66 11.00 220.82 2590.47
   13:22:19.850.29-Jan-2021 4712.01 3106.68 81.66 11.00 221.02 2590.47
   13:22:20.050.29-Jan-2021 4712.01 3106.68 81.66 11.00 221.22 2590.47
   13:22:20.250.29-Jan-2021 4712.01 3106.68 81.65 11.00 221.42 2590.47
   13:22:20.450.29-Jan-2021 4712.01 3106.66 81.65 11.00 221.62 2590.47
   13:22:20.650.29-Jan-2021 4712.01 3106.67 81.65 11.00 221.82 2590.47
   13:22:20.850.29-Jan-2021 4712.01 3106.66 81.65 11.00 222.02 2590.47
   13:22:21.050.29-Jan-2021 4712.01 3106.66 81.65 11.00 222.22 2590.47
   13:22:21.250.29-Jan-2021 4712.01 3106.64 81.65 11.00 222.42 2590.47
   13:22:21.450.29-Jan-2021 4712.01 3106.66 81.65 11.00 222.62 2590.47
   13:22:21.650.29-Jan-2021 4712.01 3106.65 81.65 11.00 222.82 2590.47
   13:22:21.850.29-Jan-2021 4712.01 3106.66 81.65 11.00 223.02 2590.47
   13:22:22.050.29-Jan-2021 4712.01 3106.66 81.65 11.00 223.22 2590.47
   13:22:22.250.29-Jan-2021 4712.01 3106.81 81.65 11.00 223.42 2590.47
   13:22:22.450.29-Jan-2021 4712.01 3106.70 81.65 11.00 223.62 2590.47
   13:22:22.650.29-Jan-2021 4712.01 3106.64 81.65 11.00 223.82 2590.47
   13:22:22.850.29-Jan-2021 4712.01 3106.62 81.65 11.00 224.02 2590.47
   13:22:23.050.29-Jan-2021 4712.01 3106.62 81.65 11.00 224.22 2590.47
   13:22:23.250.29-Jan-2021 4712.01 3106.70 81.64 11.00 224.42 2590.47
   13:22:23.450.29-Jan-2021 4712.01 3106.65 81.64 11.00 224.62 2590.47
   13:22:23.650.29-Jan-2021 4712.01 3106.67 81.64 11.00 224.82 2590.47
   13:22:23.850.29-Jan-2021 4712.01 3106.55 81.64 11.00 225.02 2590.47
   13:22:24.050.29-Jan-2021 4712.01 3106.55 81.64 11.00 225.22 2590.47
   13:22:24.250.29-Jan-2021 4712.01 3106.83 81.64 11.00 225.42 2590.47
   13:22:24.450.29-Jan-2021 4712.01 3106.63 81.64 11.00 225.62 2590.47
   13:22:24.650.29-Jan-2021 4712.01 3106.71 81.64 11.00 225.82 2590.47
