~Version Information
 VERS.                  2.0:   CWLS log ASCII Standard -VERSION 2.0
 WRAP.                   NO:   One line per depth step
~Well Information Block
#MNEM.UNIT     VALUE/NAME     DESCRIPTION
#---------     -----------    ---------------------------
 STRT.S             01:54:12 30-Jan-21: START TIME 01:54:12 30-Jan-21
 STOP.S             02:00:42 30-Jan-21: STOP TIME  02:00:42 30-Jan-21
 STEP.S                   0.00: STEP TIME
 NULL.                 -999.25: NULL VALUE
 DFWT.                        :  DIST FWL TEXT
 DFST.                        :  DIST FSL TEXT
 DMF .             Drill Floor:  DRILL MEAS FROM
 STIM.      00.00.00 25-Sep-20:  START TIME
 DATE.      16.12.48 31-Jan-21:  END TIME
 SPUD.               20-Sep-20:  SPUD DATE
 NREF.                    Grid:  NORTH REFERENCE
 HPTY.       Minimum Curvature:  HOLE POS TYPE
 DMOD.             Drill Model:  DRILL MOD DESC
 SVYD.                  Survey:  SURVEY DESC
 ILTD.               Lithology:  INTERP LTH DESC
 FTOP.          Formation Tops:  FORM TOPS DESC
 RIG .              East Azeri:  RIG NAME
 PDAT.          Mean Sea Level:  PERMANENT DATUM
 FLD .                     ACG:  FIELD NAME
 SON .        AZ-XX-0906591820:  JOB NUMBER
 CTRY.              Azerbaijan:  COUNTRY NAME
 WELL.                     D37:  WELL NAME
 SRVC.     Turan Drilling & Engineering:  CONTRACTOR
 COMP.     BP Exploration (Caspian Sea) ltd.:  COMPANY
 WTYP.                Deviated:  WELL TYPE
 MDS .        Operator Entered:  MAG DATA SOURCE
 UWI .                     N/A:  UNIQUE WELL IDENTIFIER
 API .                     N/A:  API NUMBER
 BASE.              Azerbaijan:  LOGGING EQUIPMENT BASE LOCATION
 REGN.                   EESSA:  REGION
 PROV.                    Baku:  PROVINCE
 STAT.                    Baku:  STATE NAME
 MWDS.                    Baku:  MWD SHOP
 JOBN.        AZ-XX-0906591820:  JOB TICKET NUMB
 DOE .                     N/A:  DOE NUMBER
 DCON.         Sperry Drilling:  DIRECTNL CONTR
 UNIT.                     N/A:  LOGGING EQUIPMENT ID
 CNTY.                        :  COUNTY
 LOC .                        :  LOCATION
 LMF .             Drill Floor:  LOG MEASURED FROM
 TVDS.m                  43.60:  TVDSS CORRECTN
 LATI.deg                40.02:  LATITUDE
 LONG.deg                51.45:  LONGITUDE
 WHNS.m                  11.04:  WELL HEAD N/S
 WHEW.m                 -12.38:  WELL HEAD E/W
 UTMX.m              538763.98:  UTM X
 UTMY.m             4431880.20:  UTM Y
 DFWL.m                   0.00:  DISTANCE FWL
 DFSL.m                   0.00:  DISTANCE FSL
 SDEP.m                 300.00:  START DEPTH
 TDD .m                4900.01:  TOTAL DEPTH (DRILLER)
 VSDR.deg               185.64:  VERT SEC DIRECT
 GVFD.g                   1.00:  GRAVITY FIELD
 MFLD.nT              50301.00:  MAGNETIC FIELD
 MDIP.deg                59.46:  MAGNETIC DIP
 MDEC.deg                 6.43:  MAGNETIC DECL
 GRDC.deg                 0.29:  GRID CORRECTION
 AZTC.deg                 6.14:  AZM TOTAL CORR
 EPD .m                   0.00:  ELEVATION
 EGL .m                   0.00:  GROUND ELEVATION
 WDMS.m                 151.80:  WD ELEV
 APD .m                  43.60:  DEPTH ABOVE PD
 DEP .m                 571.69:  DEPTH
 AGAP.m                  43.60:  AIR GAP
 VSEW.m                 -12.38:  VERT SEC E/W
 VSNS.m                  11.04:  VERT SEC N/S
 EKB .m                  43.60:  KB ELEVATION
 EDF .m                  43.60:  DF ELEVATION
 TDL .m                 412.00:  TOTAL DEPTH (LOGGER)
 VSC .                       0:  VS TO CLOSURE
 MAGU.                 1849300:  MAGUTM CHECKSUM
~Parameter Information Block
#MNEM.UNIT       Value        Description
#---------     -----------    ---------------------------
 AV  .mps                 2.21:  Ann Velocity 
 AVMX.mps                 2.53:  Max Ann Veloc 
 AZIF.deg               144.83:  Azm, Final 
 BHAT.        Rotary Steerable:  BHA Type 
 BROT.°/30m              -0.52:  Build Rotating 
 BS  .in                  6.50:  Bit Size 
 BTPL.psig              209.00:  Bit Press Loss 
 CABU.                      No:  Customer Abuse 
 CGEO.        Ali Isfandiyarov:  Customer Geo 
 COMM.                     d!e:  Run Comments 1 
 TCS .hr                 61.31:  Time Ciculation Ended 
 CV  .mps                 4.66:  Crit Velocity 
 CVMX.mps                 5.02:  Max Crit Veloc 
 DD1 .          Fariz Nahmatov:  Direct Drillr 1 
 DD2 .            Musa Ahmadov:  Direct Drillr 2 
 DDSV.               Geo-Pilot:  DD Service 
 DEFF.%                 100.00:  % Det Eff 
 DLRX.°/30m               1.44:  Dogleg Rot Max 
 DLSO.°/30m               0.83:  Dogleg Oriented 
 DLSX.°/30m               1.44:  Dogleg Str Max 
 DRET.      08.30.00 30-Jan-21:  Drill End Time 
 DRST.      21.15.00 27-Jan-21:  Drill Start Tim 
 DTIM.hr                 37.28:  Time Drilling 
 EDEP.m                4867.01:  End Depth 
 ENG1.          Rasim Hashimov:  Engineer 1 
 ENG2.         Almaz Almadatov:  Engineer 2 
 ENG3.        Tamerlan Ahmadov:  Engineer 3 
 ETIM.      22.41.04 31-Jan-21:  End Time 
 FLOI.gpm               400.00:  Flow In 
 FLON.gpm               300.00:  Flow In Min 
 FLOS.cptm                0.00:  Fluid Loss 
 FLOX.gpm               400.00:  Flow In Max 
 HFLO.                      No:  High Flow 
 HPRE.                      No:  High Pressure 
 HTEM.                      No:  High Temp 
 HYDO.m                   1.80:  Hydro Offset 
 IFIN.deg                65.63:  Inc, Final 
 IMAX.deg                66.77:  Inc Max 
 IMIN.deg                65.61:  Inc Min 
 IMND.m                4612.67:  Inc Min Depth 
 IMXD.m                4811.63:  Inc Max Depth 
 JARR.                      No:  Jarring 
 LETM.      08.30.00 30-Jan-21:  Log End Time 
 LOST.hr                     0:  Lost Rig Time 
 LSTM.      21.15.00 27-Jan-21:  Log Start Time 
 MDCL.ppm             41000.00:  Mud Chlorides 
 MDES.     Inversion Oil/Synthetic:  Mud Desc 
 DFD .sg                  1.40:  Mud Density 
 MDMN.sg                  1.40:  Dens Mud Min 
 MDMX.sg                  1.40:  Dens Mud Max 
 MOIL.                      53:  Run Mud Oil % 
 MOWR.                   66:34:  Run Mud OWR 
 MSND.                     0.2:  Run Mud Sand % 
 MSOL.                    17.9:  Run Mud Solids% 
 DFV .spqt               77.00:  Mud Viscosity 
 MWOD.in                  4.75:  MWD Tool OD 
 MWSI.                      No:  Serv Intrp, MWD 
 OTIM.hr                110.38:  Time Operating 
 PCON.           Look Like New:  Pad Condition 
 PMAX.psia             5300.00:  Press Op, Max 
 PV  .cP                 57.00:  Mud PV 
 RUN .                    1200:  Run Number 
 ROPA.m/hr               13.00:  ROP Avg 
 ROPN.m/hr                9.00:  ROP Min 
 ROPX.m/hr               15.00:  ROP Max 
 RPMA.rpm               120.00:  RPM Surface Avg 
 RPMN.rpm               100.00:  RPM Surface Min 
 RPMX.rpm               135.00:  RPM Surface Max 
 RRUN.                    1200:  Rig Run Number 
 RTIM.hr                  2.65:  Time Reaming 
 SAZI.deg               145.04:  Azm, Start 
 SDEP.m                4455.01:  Start Depth 
 SIDD.                      No:  Serv Intrp, DD 
 SINC.deg                65.83:  Inc, Start 
 SPPA.psig             5037.00:  SPP Avg 
 SPPN.psig             4430.00:  SPP Min 
 SPPX.psig             5300.00:  SPP Max 
 STIM.      22.41.04 26-Jan-21:  Start Time 
 SVCS.                 DD, MWD:  Services 
 SVER.                    9.20:  Sperry Version 
 TDAT.m                 412.00:  Tot Depth Attmp 
 TDDF.                      No:  Trip for DD 
 TDLG.m                 412.00:  Tot Depth Loggd 
 TFF .                      No:  Trip for Fail 
 TQAA.f-kp               15.00:  Torque Abs Avg 
 TQAN.f-kp               12.00:  Torque Abs Min 
 TQAX.f-kp               17.00:  Torque Abs Max 
 TRRT.°/30m               1.18:  Turn Rotating 
 MRT .                     ADR:  Maximum Recorded Temperature 
 TTMX.degC               88.24:  Max Tool Temp 
 VS01.                90619458:  Virtual Str1 SN 
 VS02.                90519326:  Virtual Str2 SN 
 VS03.                90522176:  Virtual Str3 SN 
 VS04.                90512683:  Virtual Str4 SN 
 WBMN.klb                 1.00:  WOB Min 
 WITN.           Murad Giluyev:  Customer Rep 
 WITN.     Kamran Kemberlinski:  Customer Rep 2 
 WOBA.klb                 5.00:  WOB Avg 
 WOBX.klb                 9.00:  WOB Max 
 YP  .lhf2               41.00:  Yield Point 
~Curve Information Block
#MNEM.UNIT                 API CODE     Curve Description
#---------               -----------    ---------------------------
 TIME.HHMMSS            00 000 000 000:  GT Time & Date
 GTDEPTH.m              00 000 000 000:  GT Depth
 GTPQH.psia             00 000 000 000:  GT HR Quartz Pressure
 GTTQ.degC              00 000 000 000:  GT Quartz Temperature
 GTTN.NONE              00 000 000 000:  GT Test Number
 GTET.sec               00 000 000 000:  GT Elapsed Test Time
 GTTVD.m                00 000 000 000:  GT True Vertical Depth
#Other Information
#
#WARRANTY: Halliburton will use its best efforts to furnish customers with 
#accurate information and interpretations that are part of, and incident to, the services 
#provided.  However, Halliburton cannot and does not warrant the accuracy 
#or correctness of such information and interpretations.  Under no circumstances should any 
#such information or interpretation be relied upon as the sole basis for any drilling, 
#completion, production, or financial decision or any procedure involving any risk to the 
#safety of any drilling venture, drilling rig or its crew or any other third party.  The 
#Customer has full responsibility for all drilling, completion and production operation.  
#Halliburton makes no representations or warranties, either expressed or 
#implied, including, but not limited to, the implied warranties of merchantability or fitness 
#for a particular purpose, with respect to the services rendered.  In no event will 
#Halliburton be liable for failure to obtain any particular results or for 
#any damages, including, but not limited to, indirect, special or consequential damages, 
#resulting from the use of any information or interpretation provided by Halliburton.
#
~A           TIME           GTDEPTH  GTPQH  GTTQ  GTTN   GTET   GTTVD  
# ...
   01:54:35.531.30-Jan-2021 4790.01 6492.25 80.65 16.00  22.60 2621.59
   01:54:35.731.30-Jan-2021 4790.01 6496.70 80.65 16.00  22.80 2621.59
   01:54:35.931.30-Jan-2021 4790.01 6498.29 80.65 16.00  23.00 2621.59
   01:54:36.131.30-Jan-2021 4790.01 6498.29 80.65 16.00  23.20 2621.59
   01:54:36.331.30-Jan-2021 4790.01 6501.18 80.65 16.00  23.40 2621.59
   01:54:36.531.30-Jan-2021 4790.01 6504.60 80.65 16.00  23.60 2621.59
   01:54:36.731.30-Jan-2021 4790.01 6505.40 80.65 16.00  23.80 2621.59
   01:54:36.931.30-Jan-2021 4790.01 6506.78 80.65 16.00  24.00 2621.59
   01:54:37.131.30-Jan-2021 4790.01 6506.78 80.65 16.00  24.20 2621.59
   01:54:37.331.30-Jan-2021 4790.01 6508.20 80.65 16.00  24.40 2621.59
   01:54:37.531.30-Jan-2021 4790.01 6509.74 80.65 16.00  24.60 2621.59
   01:54:37.731.30-Jan-2021 4790.01 6509.65 80.65 16.00  24.80 2621.59
   01:54:37.931.30-Jan-2021 4790.01 6510.75 80.65 16.00  25.00 2621.59
   01:54:38.131.30-Jan-2021 4790.01 6510.75 80.65 16.00  25.20 2621.59
   01:54:38.331.30-Jan-2021 4790.01 6157.64 80.65 16.00  25.40 2621.59
   01:54:38.531.30-Jan-2021 4790.01 5718.19 80.65 16.00  25.60 2621.59
   01:54:38.731.30-Jan-2021 4790.01 5720.43 80.65 16.00  25.80 2621.59
   01:54:38.931.30-Jan-2021 4790.01 5718.68 80.65 16.00  26.01 2621.59
   01:54:39.131.30-Jan-2021 4790.01 5718.68 80.65 16.00  26.21 2621.59
   01:54:39.331.30-Jan-2021 4790.01 5715.25 80.65 16.00  26.41 2621.59
   01:54:39.531.30-Jan-2021 4790.01 5716.25 80.65 16.00  26.61 2621.59
   01:54:39.731.30-Jan-2021 4790.01 5716.09 80.65 16.00  26.81 2621.59
   01:54:39.931.30-Jan-2021 4790.01 5716.33 80.65 16.00  27.01 2621.59
   01:54:40.131.30-Jan-2021 4790.01 5716.33 80.65 16.00  27.21 2621.59
   01:54:40.332.30-Jan-2021 4790.01 5715.43 80.65 16.00  27.41 2621.59
   01:54:40.532.30-Jan-2021 4790.01 5714.42 80.65 16.00  27.61 2621.59
   01:54:40.732.30-Jan-2021 4790.01 5714.28 80.65 16.00  27.81 2621.59
   01:54:40.932.30-Jan-2021 4790.01 5712.31 80.65 16.00  28.01 2621.59
   01:54:41.132.30-Jan-2021 4790.01 5712.31 80.65 16.00  28.21 2621.59
   01:54:41.332.30-Jan-2021 4790.01 5706.59 80.65 16.00  28.41 2621.59
   01:54:41.532.30-Jan-2021 4790.01 5708.36 80.65 16.00  28.61 2621.59
   01:54:41.732.30-Jan-2021 4790.01 5708.94 80.65 16.00  28.81 2621.59
   01:54:41.932.30-Jan-2021 4790.01 5709.73 80.65 16.00  29.01 2621.59
   01:54:42.132.30-Jan-2021 4790.01 5709.73 80.65 16.00  29.21 2621.59
   01:54:42.332.30-Jan-2021 4790.01 5706.56 80.65 16.00  29.41 2621.59
   01:54:42.532.30-Jan-2021 4790.01 5707.58 80.65 16.00  29.61 2621.59
   01:54:42.732.30-Jan-2021 4790.01 5707.76 80.64 16.00  29.81 2621.59
   01:54:42.932.30-Jan-2021 4790.01 5705.58 80.64 16.00  30.01 2621.59
   01:54:43.132.30-Jan-2021 4790.01 5705.58 80.64 16.00  30.21 2621.59
   01:54:43.332.30-Jan-2021 4790.01 5706.23 80.64 16.00  30.41 2621.59
   01:54:43.532.30-Jan-2021 4790.01 5707.03 80.64 16.00  30.61 2621.59
   01:54:43.732.30-Jan-2021 4790.01 5706.75 80.64 16.00  30.81 2621.59
   01:54:43.932.30-Jan-2021 4790.01 5706.21 80.64 16.00  31.01 2621.59
   01:54:44.132.30-Jan-2021 4790.01 5706.21 80.64 16.00  31.21 2621.59
   01:54:44.332.30-Jan-2021 4790.01 5705.75 80.64 16.00  31.41 2621.59
   01:54:44.532.30-Jan-2021 4790.01 5699.39 80.64 16.00  31.61 2621.59
   01:54:44.732.30-Jan-2021 4790.01 5706.35 80.64 16.00  31.81 2621.59
   01:54:44.932.30-Jan-2021 4790.01 5705.66 80.64 16.00  32.01 2621.59
   01:54:45.132.30-Jan-2021 4790.01 5705.66 80.64 16.00  32.21 2621.59
   01:54:45.332.30-Jan-2021 4790.01 5698.99 80.64 16.00  32.41 2621.59
   01:54:45.533.30-Jan-2021 4790.01 5697.72 80.64 16.00  32.61 2621.59
   01:54:45.733.30-Jan-2021 4790.01 5700.68 80.64 16.00  32.81 2621.59
   01:54:45.933.30-Jan-2021 4790.01 5703.49 80.64 16.00  33.01 2621.59
   01:54:46.133.30-Jan-2021 4790.01 5703.49 80.64 16.00  33.21 2621.59
   01:54:46.333.30-Jan-2021 4790.01 5697.51 80.64 16.00  33.41 2621.59
   01:54:46.533.30-Jan-2021 4790.01 5690.28 80.64 16.00  33.61 2621.59
   01:54:46.733.30-Jan-2021 4790.01 5700.80 80.64 16.00  33.81 2621.59
   01:54:46.933.30-Jan-2021 4790.01 5699.71 80.64 16.00  34.01 2621.59
   01:54:47.133.30-Jan-2021 4790.01 5699.71 80.64 16.00  34.21 2621.59
   01:54:47.333.30-Jan-2021 4790.01 5693.12 80.64 16.00  34.41 2621.59
   01:54:47.533.30-Jan-2021 4790.01 5688.41 80.64 16.00  34.61 2621.59
   01:54:47.733.30-Jan-2021 4790.01 5698.91 80.64 16.00  34.81 2621.59
   01:54:47.933.30-Jan-2021 4790.01 5688.36 80.64 16.00  35.01 2621.59
   01:54:48.133.30-Jan-2021 4790.01 5688.36 80.64 16.00  35.21 2621.59
   01:54:48.333.30-Jan-2021 4790.01 5691.92 80.64 16.00  35.41 2621.59
   01:54:48.533.30-Jan-2021 4790.01 5721.38 80.64 16.00  35.61 2621.59
   01:54:48.733.30-Jan-2021 4790.01 5731.44 80.64 16.00  35.81 2621.59
   01:54:48.933.30-Jan-2021 4790.01 5732.91 80.64 16.00  36.01 2621.59
   01:54:49.133.30-Jan-2021 4790.01 5732.91 80.64 16.00  36.21 2621.59
   01:54:49.333.30-Jan-2021 4790.01 5727.48 80.64 16.00  36.41 2621.59
   01:54:49.533.30-Jan-2021 4790.01 5730.94 80.64 16.00  36.61 2621.59
   01:54:49.733.30-Jan-2021 4790.01 5733.15 80.64 16.00  36.81 2621.59
   01:54:49.933.30-Jan-2021 4790.01 5733.43 80.64 16.00  37.01 2621.59
   01:54:50.133.30-Jan-2021 4790.01 5733.43 80.64 16.00  37.21 2621.59
   01:54:50.333.30-Jan-2021 4790.01 5731.27 80.64 16.00  37.41 2621.59
   01:54:50.533.30-Jan-2021 4790.01 5731.90 80.64 16.00  37.61 2621.59
   01:54:50.734.30-Jan-2021 4790.01 5732.79 80.64 16.00  37.81 2621.59
   01:54:50.934.30-Jan-2021 4790.01 5732.22 80.64 16.00  38.01 2621.59
   01:54:51.134.30-Jan-2021 4790.01 5732.22 80.64 16.00  38.21 2621.59
   01:54:51.334.30-Jan-2021 4790.01 5731.63 80.63 16.00  38.41 2621.59
   01:54:51.534.30-Jan-2021 4790.01 5732.39 80.63 16.00  38.61 2621.59
   01:54:51.734.30-Jan-2021 4790.01 5732.56 80.63 16.00  38.81 2621.59
   01:54:51.934.30-Jan-2021 4790.01 5725.98 80.63 16.00  39.01 2621.59
   01:54:52.134.30-Jan-2021 4790.01 5725.98 80.63 16.00  39.21 2621.59
   01:54:52.334.30-Jan-2021 4790.01 5732.64 80.63 16.00  39.41 2621.59
   01:54:52.534.30-Jan-2021 4790.01 5732.01 80.63 16.00  39.61 2621.59
   01:54:52.734.30-Jan-2021 4790.01 5730.94 80.63 16.00  39.81 2621.59
   01:54:52.934.30-Jan-2021 4790.01 5730.16 80.63 16.00  40.01 2621.59
   01:54:53.134.30-Jan-2021 4790.01 5730.16 80.63 16.00  40.21 2621.59
   01:54:53.334.30-Jan-2021 4790.01 5732.92 80.63 16.00  40.41 2621.59
   01:54:53.534.30-Jan-2021 4790.01 5732.87 80.63 16.00  40.61 2621.59
   01:54:53.734.30-Jan-2021 4790.01 5730.91 80.63 16.00  40.81 2621.59
   01:54:53.934.30-Jan-2021 4790.01 5732.09 80.63 16.00  41.01 2621.59
   01:54:54.134.30-Jan-2021 4790.01 5732.09 80.63 16.00  41.21 2621.59
   01:54:54.334.30-Jan-2021 4790.01 5732.74 80.63 16.00  41.41 2621.59
   01:54:54.534.30-Jan-2021 4790.01 5732.45 80.63 16.00  41.61 2621.59
   01:54:54.734.30-Jan-2021 4790.01 5731.93 80.63 16.00  41.81 2621.59
   01:54:54.934.30-Jan-2021 4790.01 5731.91 80.63 16.00  42.01 2621.59
   01:54:55.134.30-Jan-2021 4790.01 5731.91 80.63 16.00  42.21 2621.59
   01:54:55.334.30-Jan-2021 4790.01 5732.55 80.63 16.00  42.41 2621.59
   01:54:55.534.30-Jan-2021 4790.01 5732.31 80.63 16.00  42.61 2621.59
   01:54:55.734.30-Jan-2021 4790.01 5725.56 80.63 16.00  42.81 2621.59
   01:54:55.935.30-Jan-2021 4790.01 5733.42 80.63 16.00  43.01 2621.59
   01:54:56.135.30-Jan-2021 4790.01 5733.42 80.63 16.00  43.21 2621.59
   01:54:56.335.30-Jan-2021 4790.01 5732.59 80.63 16.00  43.41 2621.59
   01:54:56.535.30-Jan-2021 4790.01 5729.76 80.63 16.00  43.61 2621.59
   01:54:56.735.30-Jan-2021 4790.01 5725.55 80.63 16.00  43.81 2621.59
   01:54:56.935.30-Jan-2021 4790.01 5734.25 80.63 16.00  44.01 2621.59
   01:54:57.135.30-Jan-2021 4790.01 5734.25 80.63 16.00  44.21 2621.59
   01:54:57.335.30-Jan-2021 4790.01 5733.14 80.63 16.00  44.41 2621.59
   01:54:57.535.30-Jan-2021 4790.01 5728.90 80.63 16.00  44.61 2621.59
   01:54:57.735.30-Jan-2021 4790.01 5729.70 80.63 16.00  44.81 2621.59
   01:54:57.935.30-Jan-2021 4790.01 5732.98 80.63 16.00  45.01 2621.59
