~Version Information
 VERS.                  2.0:   CWLS log ASCII Standard -VERSION 2.0
 WRAP.                   NO:   One line per depth step
~Well Information Block
#MNEM.UNIT     VALUE/NAME     DESCRIPTION
#---------     -----------    ---------------------------
 STRT.S             00:06:31 30-Jan-21: START TIME 00:06:31 30-Jan-21
 STOP.S             00:13:00 30-Jan-21: STOP TIME  00:13:00 30-Jan-21
 STEP.S                   0.00: STEP TIME
 NULL.                 -999.25: NULL VALUE
 DFWT.                        :  DIST FWL TEXT
 DFST.                        :  DIST FSL TEXT
 DMF .             Drill Floor:  DRILL MEAS FROM
 STIM.      00.00.00 25-Sep-20:  START TIME
 DATE.      16.12.48 31-Jan-21:  END TIME
 SPUD.               20-Sep-20:  SPUD DATE
 NREF.                    Grid:  NORTH REFERENCE
 HPTY.       Minimum Curvature:  HOLE POS TYPE
 DMOD.             Drill Model:  DRILL MOD DESC
 SVYD.                  Survey:  SURVEY DESC
 ILTD.               Lithology:  INTERP LTH DESC
 FTOP.          Formation Tops:  FORM TOPS DESC
 RIG .              East Azeri:  RIG NAME
 PDAT.          Mean Sea Level:  PERMANENT DATUM
 FLD .                     ACG:  FIELD NAME
 SON .        AZ-XX-0906591820:  JOB NUMBER
 CTRY.              Azerbaijan:  COUNTRY NAME
 WELL.                     D37:  WELL NAME
 SRVC.     Turan Drilling & Engineering:  CONTRACTOR
 COMP.     BP Exploration (Caspian Sea) ltd.:  COMPANY
 WTYP.                Deviated:  WELL TYPE
 MDS .        Operator Entered:  MAG DATA SOURCE
 UWI .                     N/A:  UNIQUE WELL IDENTIFIER
 API .                     N/A:  API NUMBER
 BASE.              Azerbaijan:  LOGGING EQUIPMENT BASE LOCATION
 REGN.                   EESSA:  REGION
 PROV.                    Baku:  PROVINCE
 STAT.                    Baku:  STATE NAME
 MWDS.                    Baku:  MWD SHOP
 JOBN.        AZ-XX-0906591820:  JOB TICKET NUMB
 DOE .                     N/A:  DOE NUMBER
 DCON.         Sperry Drilling:  DIRECTNL CONTR
 UNIT.                     N/A:  LOGGING EQUIPMENT ID
 CNTY.                        :  COUNTY
 LOC .                        :  LOCATION
 LMF .             Drill Floor:  LOG MEASURED FROM
 TVDS.m                  43.60:  TVDSS CORRECTN
 LATI.deg                40.02:  LATITUDE
 LONG.deg                51.45:  LONGITUDE
 WHNS.m                  11.04:  WELL HEAD N/S
 WHEW.m                 -12.38:  WELL HEAD E/W
 UTMX.m              538763.98:  UTM X
 UTMY.m             4431880.20:  UTM Y
 DFWL.m                   0.00:  DISTANCE FWL
 DFSL.m                   0.00:  DISTANCE FSL
 SDEP.m                 300.00:  START DEPTH
 TDD .m                4900.01:  TOTAL DEPTH (DRILLER)
 VSDR.deg               185.64:  VERT SEC DIRECT
 GVFD.g                   1.00:  GRAVITY FIELD
 MFLD.nT              50301.00:  MAGNETIC FIELD
 MDIP.deg                59.46:  MAGNETIC DIP
 MDEC.deg                 6.43:  MAGNETIC DECL
 GRDC.deg                 0.29:  GRID CORRECTION
 AZTC.deg                 6.14:  AZM TOTAL CORR
 EPD .m                   0.00:  ELEVATION
 EGL .m                   0.00:  GROUND ELEVATION
 WDMS.m                 151.80:  WD ELEV
 APD .m                  43.60:  DEPTH ABOVE PD
 DEP .m                 571.69:  DEPTH
 AGAP.m                  43.60:  AIR GAP
 VSEW.m                 -12.38:  VERT SEC E/W
 VSNS.m                  11.04:  VERT SEC N/S
 EKB .m                  43.60:  KB ELEVATION
 EDF .m                  43.60:  DF ELEVATION
 TDL .m                 412.00:  TOTAL DEPTH (LOGGER)
 VSC .                       0:  VS TO CLOSURE
 MAGU.                 1849300:  MAGUTM CHECKSUM
~Parameter Information Block
#MNEM.UNIT       Value        Description
#---------     -----------    ---------------------------
 AV  .mps                 2.21:  Ann Velocity 
 AVMX.mps                 2.53:  Max Ann Veloc 
 AZIF.deg               144.83:  Azm, Final 
 BHAT.        Rotary Steerable:  BHA Type 
 BROT.°/30m              -0.52:  Build Rotating 
 BS  .in                  6.50:  Bit Size 
 BTPL.psig              209.00:  Bit Press Loss 
 CABU.                      No:  Customer Abuse 
 CGEO.        Ali Isfandiyarov:  Customer Geo 
 COMM.                     Új:  Run Comments 1 
 TCS .hr                 61.31:  Time Ciculation Ended 
 CV  .mps                 4.66:  Crit Velocity 
 CVMX.mps                 5.02:  Max Crit Veloc 
 DD1 .          Fariz Nahmatov:  Direct Drillr 1 
 DD2 .            Musa Ahmadov:  Direct Drillr 2 
 DDSV.               Geo-Pilot:  DD Service 
 DEFF.%                 100.00:  % Det Eff 
 DLRX.°/30m               1.44:  Dogleg Rot Max 
 DLSO.°/30m               0.83:  Dogleg Oriented 
 DLSX.°/30m               1.44:  Dogleg Str Max 
 DRET.      08.30.00 30-Jan-21:  Drill End Time 
 DRST.      21.15.00 27-Jan-21:  Drill Start Tim 
 DTIM.hr                 37.28:  Time Drilling 
 EDEP.m                4867.01:  End Depth 
 ENG1.          Rasim Hashimov:  Engineer 1 
 ENG2.         Almaz Almadatov:  Engineer 2 
 ENG3.        Tamerlan Ahmadov:  Engineer 3 
 ETIM.      22.41.04 31-Jan-21:  End Time 
 FLOI.gpm               400.00:  Flow In 
 FLON.gpm               300.00:  Flow In Min 
 FLOS.cptm                0.00:  Fluid Loss 
 FLOX.gpm               400.00:  Flow In Max 
 HFLO.                      No:  High Flow 
 HPRE.                      No:  High Pressure 
 HTEM.                      No:  High Temp 
 HYDO.m                   1.80:  Hydro Offset 
 IFIN.deg                65.63:  Inc, Final 
 IMAX.deg                66.77:  Inc Max 
 IMIN.deg                65.61:  Inc Min 
 IMND.m                4612.67:  Inc Min Depth 
 IMXD.m                4811.63:  Inc Max Depth 
 JARR.                      No:  Jarring 
 LETM.      08.30.00 30-Jan-21:  Log End Time 
 LOST.hr                     0:  Lost Rig Time 
 LSTM.      21.15.00 27-Jan-21:  Log Start Time 
 MDCL.ppm             41000.00:  Mud Chlorides 
 MDES.     Inversion Oil/Synthetic:  Mud Desc 
 DFD .sg                  1.40:  Mud Density 
 MDMN.sg                  1.40:  Dens Mud Min 
 MDMX.sg                  1.40:  Dens Mud Max 
 MOIL.                      53:  Run Mud Oil % 
 MOWR.                   66:34:  Run Mud OWR 
 MSND.                     0.2:  Run Mud Sand % 
 MSOL.                    17.9:  Run Mud Solids% 
 DFV .spqt               77.00:  Mud Viscosity 
 MWOD.in                  4.75:  MWD Tool OD 
 MWSI.                      No:  Serv Intrp, MWD 
 OTIM.hr                110.38:  Time Operating 
 PCON.           Look Like New:  Pad Condition 
 PMAX.psia             5300.00:  Press Op, Max 
 PV  .cP                 57.00:  Mud PV 
 RUN .                    1200:  Run Number 
 ROPA.m/hr               13.00:  ROP Avg 
 ROPN.m/hr                9.00:  ROP Min 
 ROPX.m/hr               15.00:  ROP Max 
 RPMA.rpm               120.00:  RPM Surface Avg 
 RPMN.rpm               100.00:  RPM Surface Min 
 RPMX.rpm               135.00:  RPM Surface Max 
 RRUN.                    1200:  Rig Run Number 
 RTIM.hr                  2.65:  Time Reaming 
 SAZI.deg               145.04:  Azm, Start 
 SDEP.m                4455.01:  Start Depth 
 SIDD.                      No:  Serv Intrp, DD 
 SINC.deg                65.83:  Inc, Start 
 SPPA.psig             5037.00:  SPP Avg 
 SPPN.psig             4430.00:  SPP Min 
 SPPX.psig             5300.00:  SPP Max 
 STIM.      22.41.04 26-Jan-21:  Start Time 
 SVCS.                 DD, MWD:  Services 
 SVER.                    9.20:  Sperry Version 
 TDAT.m                 412.00:  Tot Depth Attmp 
 TDDF.                      No:  Trip for DD 
 TDLG.m                 412.00:  Tot Depth Loggd 
 TFF .                      No:  Trip for Fail 
 TQAA.f-kp               15.00:  Torque Abs Avg 
 TQAN.f-kp               12.00:  Torque Abs Min 
 TQAX.f-kp               17.00:  Torque Abs Max 
 TRRT.°/30m               1.18:  Turn Rotating 
 MRT .                     ADR:  Maximum Recorded Temperature 
 TTMX.degC               88.24:  Max Tool Temp 
 VS01.                90619458:  Virtual Str1 SN 
 VS02.                90519326:  Virtual Str2 SN 
 VS03.                90522176:  Virtual Str3 SN 
 VS04.                90512683:  Virtual Str4 SN 
 WBMN.klb                 1.00:  WOB Min 
 WITN.           Murad Giluyev:  Customer Rep 
 WITN.     Kamran Kemberlinski:  Customer Rep 2 
 WOBA.klb                 5.00:  WOB Avg 
 WOBX.klb                 9.00:  WOB Max 
 YP  .lhf2               41.00:  Yield Point 
~Curve Information Block
#MNEM.UNIT                 API CODE     Curve Description
#---------               -----------    ---------------------------
 TIME.HHMMSS            00 000 000 000:  GT Time & Date
 GTDEPTH.m              00 000 000 000:  GT Depth
 GTPQH.psia             00 000 000 000:  GT HR Quartz Pressure
 GTTQ.degC              00 000 000 000:  GT Quartz Temperature
 GTTN.NONE              00 000 000 000:  GT Test Number
 GTET.sec               00 000 000 000:  GT Elapsed Test Time
 GTTVD.m                00 000 000 000:  GT True Vertical Depth
#Other Information
#
#WARRANTY: Halliburton will use its best efforts to furnish customers with 
#accurate information and interpretations that are part of, and incident to, the services 
#provided.  However, Halliburton cannot and does not warrant the accuracy 
#or correctness of such information and interpretations.  Under no circumstances should any 
#such information or interpretation be relied upon as the sole basis for any drilling, 
#completion, production, or financial decision or any procedure involving any risk to the 
#safety of any drilling venture, drilling rig or its crew or any other third party.  The 
#Customer has full responsibility for all drilling, completion and production operation.  
#Halliburton makes no representations or warranties, either expressed or 
#implied, including, but not limited to, the implied warranties of merchantability or fitness 
#for a particular purpose, with respect to the services rendered.  In no event will 
#Halliburton be liable for failure to obtain any particular results or for 
#any damages, including, but not limited to, indirect, special or consequential damages, 
#resulting from the use of any information or interpretation provided by Halliburton.
#
~A           TIME           GTDEPTH  GTPQH  GTTQ  GTTN   GTET   GTTVD  
# ...
   00:06:54.287.30-Jan-2021 4782.01 5786.87 81.85 14.00  22.60 2618.40
   00:06:54.487.30-Jan-2021 4782.01 5787.72 81.85 14.00  22.80 2618.40
   00:06:54.687.30-Jan-2021 4782.01 5788.10 81.85 14.00  23.00 2618.40
   00:06:54.887.30-Jan-2021 4782.01 5788.10 81.85 14.00  23.20 2618.40
   00:06:55.087.30-Jan-2021 4782.01 5787.30 81.85 14.00  23.40 2618.40
   00:06:55.287.30-Jan-2021 4782.01 5787.69 81.85 14.00  23.60 2618.40
   00:06:55.487.30-Jan-2021 4782.01 5788.02 81.85 14.00  23.80 2618.40
   00:06:55.687.30-Jan-2021 4782.01 5785.61 81.85 14.00  24.00 2618.40
   00:06:55.887.30-Jan-2021 4782.01 5785.61 81.85 14.00  24.20 2618.40
   00:06:56.087.30-Jan-2021 4782.01 5787.35 81.85 14.00  24.40 2618.40
   00:06:56.287.30-Jan-2021 4782.01 5787.09 81.85 14.00  24.60 2618.40
   00:06:56.487.30-Jan-2021 4782.01 5754.14 81.85 14.00  24.80 2618.40
   00:06:56.687.30-Jan-2021 4782.01 5701.42 81.85 14.00  25.00 2618.40
   00:06:56.887.30-Jan-2021 4782.01 5701.42 81.85 14.00  25.20 2618.40
   00:06:57.087.30-Jan-2021 4782.01 5456.98 81.85 14.00  25.40 2618.40
   00:06:57.287.30-Jan-2021 4782.01 4958.65 81.85 14.00  25.60 2618.40
   00:06:57.487.30-Jan-2021 4782.01 4142.71 81.84 14.00  25.80 2618.40
   00:06:57.687.30-Jan-2021 4782.01 3358.78 81.84 14.00  26.01 2618.40
   00:06:57.887.30-Jan-2021 4782.01 3358.78 81.84 14.00  26.21 2618.40
   00:06:58.087.30-Jan-2021 4782.01 3135.56 81.84 14.00  26.41 2618.40
   00:06:58.287.30-Jan-2021 4782.01 3134.43 81.84 14.00  26.61 2618.40
   00:06:58.488.30-Jan-2021 4782.01 3136.53 81.84 14.00  26.81 2618.40
   00:06:58.688.30-Jan-2021 4782.01 3136.20 81.84 14.00  27.01 2618.40
   00:06:58.888.30-Jan-2021 4782.01 3136.20 81.84 14.00  27.21 2618.40
   00:06:59.088.30-Jan-2021 4782.01 3136.20 81.84 14.00  27.41 2618.40
   00:06:59.288.30-Jan-2021 4782.01 3126.75 81.84 14.00  27.61 2618.40
   00:06:59.488.30-Jan-2021 4782.01 3125.28 81.84 14.00  27.81 2618.40
   00:06:59.688.30-Jan-2021 4782.01 3124.77 81.84 14.00  28.01 2618.40
   00:06:59.888.30-Jan-2021 4782.01 3124.77 81.84 14.00  28.21 2618.40
   00:07:00.088.30-Jan-2021 4782.01 3123.99 81.84 14.00  28.41 2618.40
   00:07:00.288.30-Jan-2021 4782.01 3124.05 81.84 14.00  28.61 2618.40
   00:07:00.488.30-Jan-2021 4782.01 3123.54 81.83 14.00  28.81 2618.40
   00:07:00.688.30-Jan-2021 4782.01 3123.27 81.83 14.00  29.01 2618.40
   00:07:00.888.30-Jan-2021 4782.01 3123.27 81.83 14.00  29.21 2618.40
   00:07:01.088.30-Jan-2021 4782.01 3122.46 81.83 14.00  29.41 2618.40
   00:07:01.288.30-Jan-2021 4782.01 3122.24 81.83 14.00  29.61 2618.40
   00:07:01.488.30-Jan-2021 4782.01 3121.97 81.83 14.00  29.81 2618.40
   00:07:01.688.30-Jan-2021 4782.01 3121.92 81.83 14.00  30.01 2618.40
   00:07:01.888.30-Jan-2021 4782.01 3121.92 81.83 14.00  30.21 2618.40
   00:07:02.088.30-Jan-2021 4782.01 3121.70 81.83 14.00  30.41 2618.40
   00:07:02.288.30-Jan-2021 4782.01 3121.94 81.83 14.00  30.61 2618.40
   00:07:02.488.30-Jan-2021 4782.01 3121.78 81.83 14.00  30.81 2618.40
   00:07:02.688.30-Jan-2021 4782.01 3121.60 81.82 14.00  31.01 2618.40
   00:07:02.888.30-Jan-2021 4782.01 3121.60 81.82 14.00  31.21 2618.40
   00:07:03.088.30-Jan-2021 4782.01 3121.56 81.82 14.00  31.41 2618.40
   00:07:03.288.30-Jan-2021 4782.01 3121.32 81.82 14.00  31.61 2618.40
   00:07:03.488.30-Jan-2021 4782.01 3121.36 81.82 14.00  31.81 2618.40
   00:07:03.689.30-Jan-2021 4782.01 3121.19 81.82 14.00  32.01 2618.40
   00:07:03.889.30-Jan-2021 4782.01 3121.19 81.82 14.00  32.21 2618.40
   00:07:04.089.30-Jan-2021 4782.01 3121.14 81.82 14.00  32.41 2618.40
   00:07:04.289.30-Jan-2021 4782.01 3121.23 81.82 14.00  32.61 2618.40
   00:07:04.489.30-Jan-2021 4782.01 3121.37 81.82 14.00  32.81 2618.40
   00:07:04.689.30-Jan-2021 4782.01 3121.24 81.82 14.00  33.01 2618.40
   00:07:04.889.30-Jan-2021 4782.01 3121.24 81.82 14.00  33.21 2618.40
   00:07:05.089.30-Jan-2021 4782.01 3121.04 81.81 14.00  33.41 2618.40
   00:07:05.289.30-Jan-2021 4782.01 3121.22 81.81 14.00  33.61 2618.40
   00:07:05.489.30-Jan-2021 4782.01 3120.93 81.81 14.00  33.81 2618.40
   00:07:05.689.30-Jan-2021 4782.01 3121.40 81.81 14.00  34.01 2618.40
   00:07:05.889.30-Jan-2021 4782.01 3121.40 81.81 14.00  34.21 2618.40
   00:07:06.089.30-Jan-2021 4782.01 3121.15 81.81 14.00  34.41 2618.40
   00:07:06.289.30-Jan-2021 4782.01 3120.90 81.81 14.00  34.61 2618.40
   00:07:06.489.30-Jan-2021 4782.01 3125.22 81.81 14.00  34.81 2618.40
   00:07:06.689.30-Jan-2021 4782.01 3137.52 81.81 14.00  35.01 2618.40
   00:07:06.889.30-Jan-2021 4782.01 3137.52 81.81 14.00  35.21 2618.40
   00:07:07.089.30-Jan-2021 4782.01 3137.69 81.81 14.00  35.41 2618.40
   00:07:07.289.30-Jan-2021 4782.01 3137.75 81.80 14.00  35.61 2618.40
   00:07:07.489.30-Jan-2021 4782.01 3137.71 81.80 14.00  35.81 2618.40
   00:07:07.689.30-Jan-2021 4782.01 3137.87 81.80 14.00  36.01 2618.40
   00:07:07.889.30-Jan-2021 4782.01 3137.87 81.80 14.00  36.21 2618.40
   00:07:08.089.30-Jan-2021 4782.01 3137.84 81.80 14.00  36.41 2618.40
   00:07:08.289.30-Jan-2021 4782.01 3137.84 81.80 14.00  36.61 2618.40
   00:07:08.489.30-Jan-2021 4782.01 3137.83 81.80 14.00  36.81 2618.40
   00:07:08.689.30-Jan-2021 4782.01 3137.96 81.80 14.00  37.01 2618.40
   00:07:08.890.30-Jan-2021 4782.01 3137.96 81.80 14.00  37.21 2618.40
   00:07:09.090.30-Jan-2021 4782.01 3137.93 81.80 14.00  37.41 2618.40
   00:07:09.290.30-Jan-2021 4782.01 3137.93 81.79 14.00  37.61 2618.40
   00:07:09.490.30-Jan-2021 4782.01 3137.98 81.79 14.00  37.81 2618.40
   00:07:09.690.30-Jan-2021 4782.01 3137.96 81.79 14.00  38.01 2618.40
   00:07:09.890.30-Jan-2021 4782.01 3137.96 81.79 14.00  38.21 2618.40
   00:07:10.090.30-Jan-2021 4782.01 3138.00 81.79 14.00  38.41 2618.40
   00:07:10.290.30-Jan-2021 4782.01 3137.98 81.79 14.00  38.61 2618.40
   00:07:10.490.30-Jan-2021 4782.01 3138.04 81.79 14.00  38.81 2618.40
   00:07:10.690.30-Jan-2021 4782.01 3138.04 81.79 14.00  39.01 2618.40
   00:07:10.890.30-Jan-2021 4782.01 3138.04 81.79 14.00  39.21 2618.40
   00:07:11.090.30-Jan-2021 4782.01 3138.04 81.79 14.00  39.41 2618.40
   00:07:11.290.30-Jan-2021 4782.01 3138.09 81.79 14.00  39.61 2618.40
   00:07:11.490.30-Jan-2021 4782.01 3138.07 81.79 14.00  39.81 2618.40
   00:07:11.690.30-Jan-2021 4782.01 3138.10 81.78 14.00  40.01 2618.40
   00:07:11.890.30-Jan-2021 4782.01 3138.10 81.78 14.00  40.21 2618.40
   00:07:12.090.30-Jan-2021 4782.01 3138.11 81.78 14.00  40.41 2618.40
   00:07:12.290.30-Jan-2021 4782.01 3138.12 81.78 14.00  40.61 2618.40
   00:07:12.490.30-Jan-2021 4782.01 3138.13 81.78 14.00  40.81 2618.40
   00:07:12.690.30-Jan-2021 4782.01 3138.13 81.78 14.00  41.01 2618.40
   00:07:12.890.30-Jan-2021 4782.01 3138.13 81.78 14.00  41.21 2618.40
   00:07:13.090.30-Jan-2021 4782.01 3138.15 81.78 14.00  41.41 2618.40
   00:07:13.290.30-Jan-2021 4782.01 3138.14 81.78 14.00  41.61 2618.40
   00:07:13.490.30-Jan-2021 4782.01 3138.17 81.78 14.00  41.81 2618.40
   00:07:13.690.30-Jan-2021 4782.01 3138.16 81.78 14.00  42.01 2618.40
   00:07:13.890.30-Jan-2021 4782.01 3138.16 81.78 14.00  42.21 2618.40
   00:07:14.091.30-Jan-2021 4782.01 3138.20 81.78 14.00  42.41 2618.40
   00:07:14.291.30-Jan-2021 4782.01 3138.20 81.78 14.00  42.61 2618.40
   00:07:14.491.30-Jan-2021 4782.01 3138.21 81.77 14.00  42.81 2618.40
   00:07:14.691.30-Jan-2021 4782.01 3138.20 81.77 14.00  43.01 2618.40
   00:07:14.891.30-Jan-2021 4782.01 3138.20 81.77 14.00  43.21 2618.40
   00:07:15.091.30-Jan-2021 4782.01 3138.22 81.77 14.00  43.41 2618.40
   00:07:15.291.30-Jan-2021 4782.01 3138.23 81.77 14.00  43.61 2618.40
   00:07:15.491.30-Jan-2021 4782.01 3138.24 81.77 14.00  43.81 2618.40
   00:07:15.691.30-Jan-2021 4782.01 3138.25 81.77 14.00  44.01 2618.40
   00:07:15.891.30-Jan-2021 4782.01 3138.25 81.77 14.00  44.21 2618.40
   00:07:16.091.30-Jan-2021 4782.01 3138.26 81.77 14.00  44.41 2618.40
   00:07:16.291.30-Jan-2021 4782.01 3138.26 81.77 14.00  44.61 2618.40
   00:07:16.491.30-Jan-2021 4782.01 3138.28 81.77 14.00  44.81 2618.40
   00:07:16.691.30-Jan-2021 4782.01 3138.21 81.77 14.00  45.01 2618.40
