~Version Information
 VERS.                  2.0:   CWLS log ASCII Standard -VERSION 2.0
 WRAP.                   NO:   One line per depth step
~Well Information Block
#MNEM.UNIT     VALUE/NAME     DESCRIPTION
#---------     -----------    ---------------------------
 STRT.S             20:44:12 29-Jan-21: START TIME 20:44:12 29-Jan-21
 STOP.S             20:50:42 29-Jan-21: STOP TIME  20:50:42 29-Jan-21
 STEP.S                   0.00: STEP TIME
 NULL.                 -999.25: NULL VALUE
 DFWT.                        :  DIST FWL TEXT
 DFST.                        :  DIST FSL TEXT
 DMF .             Drill Floor:  DRILL MEAS FROM
 STIM.      00.00.00 25-Sep-20:  START TIME
 DATE.      16.12.48 31-Jan-21:  END TIME
 SPUD.               20-Sep-20:  SPUD DATE
 NREF.                    Grid:  NORTH REFERENCE
 HPTY.       Minimum Curvature:  HOLE POS TYPE
 DMOD.             Drill Model:  DRILL MOD DESC
 SVYD.                  Survey:  SURVEY DESC
 ILTD.               Lithology:  INTERP LTH DESC
 FTOP.          Formation Tops:  FORM TOPS DESC
 RIG .              East Azeri:  RIG NAME
 PDAT.          Mean Sea Level:  PERMANENT DATUM
 FLD .                     ACG:  FIELD NAME
 SON .        AZ-XX-0906591820:  JOB NUMBER
 CTRY.              Azerbaijan:  COUNTRY NAME
 WELL.                     D37:  WELL NAME
 SRVC.     Turan Drilling & Engineering:  CONTRACTOR
 COMP.     BP Exploration (Caspian Sea) ltd.:  COMPANY
 WTYP.                Deviated:  WELL TYPE
 MDS .        Operator Entered:  MAG DATA SOURCE
 UWI .                     N/A:  UNIQUE WELL IDENTIFIER
 API .                     N/A:  API NUMBER
 BASE.              Azerbaijan:  LOGGING EQUIPMENT BASE LOCATION
 REGN.                   EESSA:  REGION
 PROV.                    Baku:  PROVINCE
 STAT.                    Baku:  STATE NAME
 MWDS.                    Baku:  MWD SHOP
 JOBN.        AZ-XX-0906591820:  JOB TICKET NUMB
 DOE .                     N/A:  DOE NUMBER
 DCON.         Sperry Drilling:  DIRECTNL CONTR
 UNIT.                     N/A:  LOGGING EQUIPMENT ID
 CNTY.                        :  COUNTY
 LOC .                        :  LOCATION
 LMF .             Drill Floor:  LOG MEASURED FROM
 TVDS.m                  43.60:  TVDSS CORRECTN
 LATI.deg                40.02:  LATITUDE
 LONG.deg                51.45:  LONGITUDE
 WHNS.m                  11.04:  WELL HEAD N/S
 WHEW.m                 -12.38:  WELL HEAD E/W
 UTMX.m              538763.98:  UTM X
 UTMY.m             4431880.20:  UTM Y
 DFWL.m                   0.00:  DISTANCE FWL
 DFSL.m                   0.00:  DISTANCE FSL
 SDEP.m                 300.00:  START DEPTH
 TDD .m                4900.01:  TOTAL DEPTH (DRILLER)
 VSDR.deg               185.64:  VERT SEC DIRECT
 GVFD.g                   1.00:  GRAVITY FIELD
 MFLD.nT              50301.00:  MAGNETIC FIELD
 MDIP.deg                59.46:  MAGNETIC DIP
 MDEC.deg                 6.43:  MAGNETIC DECL
 GRDC.deg                 0.29:  GRID CORRECTION
 AZTC.deg                 6.14:  AZM TOTAL CORR
 EPD .m                   0.00:  ELEVATION
 EGL .m                   0.00:  GROUND ELEVATION
 WDMS.m                 151.80:  WD ELEV
 APD .m                  43.60:  DEPTH ABOVE PD
 DEP .m                 571.69:  DEPTH
 AGAP.m                  43.60:  AIR GAP
 VSEW.m                 -12.38:  VERT SEC E/W
 VSNS.m                  11.04:  VERT SEC N/S
 EKB .m                  43.60:  KB ELEVATION
 EDF .m                  43.60:  DF ELEVATION
 TDL .m                 412.00:  TOTAL DEPTH (LOGGER)
 VSC .                       0:  VS TO CLOSURE
 MAGU.                 1849300:  MAGUTM CHECKSUM
~Parameter Information Block
#MNEM.UNIT       Value        Description
#---------     -----------    ---------------------------
 AV  .mps                 2.21:  Ann Velocity 
 AVMX.mps                 2.53:  Max Ann Veloc 
 AZIF.deg               144.83:  Azm, Final 
 BHAT.        Rotary Steerable:  BHA Type 
 BROT.°/30m              -0.52:  Build Rotating 
 BS  .in                  6.50:  Bit Size 
 BTPL.psig              209.00:  Bit Press Loss 
 CABU.                      No:  Customer Abuse 
 CGEO.        Ali Isfandiyarov:  Customer Geo 
 TCS .hr                 61.31:  Time Ciculation Ended 
 CV  .mps                 4.66:  Crit Velocity 
 CVMX.mps                 5.02:  Max Crit Veloc 
 DD1 .          Fariz Nahmatov:  Direct Drillr 1 
 DD2 .            Musa Ahmadov:  Direct Drillr 2 
 DDSV.               Geo-Pilot:  DD Service 
 DEFF.%                 100.00:  % Det Eff 
 DLRX.°/30m               1.44:  Dogleg Rot Max 
 DLSO.°/30m               0.83:  Dogleg Oriented 
 DLSX.°/30m               1.44:  Dogleg Str Max 
 DRET.      08.30.00 30-Jan-21:  Drill End Time 
 DRST.      21.15.00 27-Jan-21:  Drill Start Tim 
 DTIM.hr                 37.28:  Time Drilling 
 EDEP.m                4867.01:  End Depth 
 ENG1.          Rasim Hashimov:  Engineer 1 
 ENG2.         Almaz Almadatov:  Engineer 2 
 ENG3.        Tamerlan Ahmadov:  Engineer 3 
 ETIM.      22.41.04 31-Jan-21:  End Time 
 FLOI.gpm               400.00:  Flow In 
 FLON.gpm               300.00:  Flow In Min 
 FLOS.cptm                0.00:  Fluid Loss 
 FLOX.gpm               400.00:  Flow In Max 
 HFLO.                      No:  High Flow 
 HPRE.                      No:  High Pressure 
 HTEM.                      No:  High Temp 
 HYDO.m                   1.80:  Hydro Offset 
 IFIN.deg                65.63:  Inc, Final 
 IMAX.deg                66.77:  Inc Max 
 IMIN.deg                65.61:  Inc Min 
 IMND.m                4612.67:  Inc Min Depth 
 IMXD.m                4811.63:  Inc Max Depth 
 JARR.                      No:  Jarring 
 LETM.      08.30.00 30-Jan-21:  Log End Time 
 LOST.hr                     0:  Lost Rig Time 
 LSTM.      21.15.00 27-Jan-21:  Log Start Time 
 MDCL.ppm             41000.00:  Mud Chlorides 
 MDES.     Inversion Oil/Synthetic:  Mud Desc 
 DFD .sg                  1.40:  Mud Density 
 MDMN.sg                  1.40:  Dens Mud Min 
 MDMX.sg                  1.40:  Dens Mud Max 
 MOIL.                      53:  Run Mud Oil % 
 MOWR.                   66:34:  Run Mud OWR 
 MSND.                     0.2:  Run Mud Sand % 
 MSOL.                    17.9:  Run Mud Solids% 
 DFV .spqt               77.00:  Mud Viscosity 
 MWOD.in                  4.75:  MWD Tool OD 
 MWSI.                      No:  Serv Intrp, MWD 
 OTIM.hr                110.38:  Time Operating 
 PCON.           Look Like New:  Pad Condition 
 PMAX.psia             5300.00:  Press Op, Max 
 PV  .cP                 57.00:  Mud PV 
 RUN .                    1200:  Run Number 
 ROPA.m/hr               13.00:  ROP Avg 
 ROPN.m/hr                9.00:  ROP Min 
 ROPX.m/hr               15.00:  ROP Max 
 RPMA.rpm               120.00:  RPM Surface Avg 
 RPMN.rpm               100.00:  RPM Surface Min 
 RPMX.rpm               135.00:  RPM Surface Max 
 RRUN.                    1200:  Rig Run Number 
 RTIM.hr                  2.65:  Time Reaming 
 SAZI.deg               145.04:  Azm, Start 
 SDEP.m                4455.01:  Start Depth 
 SIDD.                      No:  Serv Intrp, DD 
 SINC.deg                65.83:  Inc, Start 
 SPPA.psig             5037.00:  SPP Avg 
 SPPN.psig             4430.00:  SPP Min 
 SPPX.psig             5300.00:  SPP Max 
 STIM.      22.41.04 26-Jan-21:  Start Time 
 SVCS.                 DD, MWD:  Services 
 SVER.                    9.20:  Sperry Version 
 TDAT.m                 412.00:  Tot Depth Attmp 
 TDDF.                      No:  Trip for DD 
 TDLG.m                 412.00:  Tot Depth Loggd 
 TFF .                      No:  Trip for Fail 
 TQAA.f-kp               15.00:  Torque Abs Avg 
 TQAN.f-kp               12.00:  Torque Abs Min 
 TQAX.f-kp               17.00:  Torque Abs Max 
 TRRT.°/30m               1.18:  Turn Rotating 
 MRT .                     ADR:  Maximum Recorded Temperature 
 TTMX.degC               88.24:  Max Tool Temp 
 VS01.                90619458:  Virtual Str1 SN 
 VS02.                90519326:  Virtual Str2 SN 
 VS03.                90522176:  Virtual Str3 SN 
 VS04.                90512683:  Virtual Str4 SN 
 WBMN.klb                 1.00:  WOB Min 
 WITN.           Murad Giluyev:  Customer Rep 
 WITN.     Kamran Kemberlinski:  Customer Rep 2 
 WOBA.klb                 5.00:  WOB Avg 
 WOBX.klb                 9.00:  WOB Max 
 YP  .lhf2               41.00:  Yield Point 
~Curve Information Block
#MNEM.UNIT                 API CODE     Curve Description
#---------               -----------    ---------------------------
 TIME.HHMMSS            00 000 000 000:  GT Time & Date
 GTDEPTH.m              00 000 000 000:  GT Depth
 GTPQH.psia             00 000 000 000:  GT HR Quartz Pressure
 GTTQ.degC              00 000 000 000:  GT Quartz Temperature
 GTTN.NONE              00 000 000 000:  GT Test Number
 GTET.sec               00 000 000 000:  GT Elapsed Test Time
 GTTVD.m                00 000 000 000:  GT True Vertical Depth
#Other Information
#
#WARRANTY: Halliburton will use its best efforts to furnish customers with 
#accurate information and interpretations that are part of, and incident to, the services 
#provided.  However, Halliburton cannot and does not warrant the accuracy 
#or correctness of such information and interpretations.  Under no circumstances should any 
#such information or interpretation be relied upon as the sole basis for any drilling, 
#completion, production, or financial decision or any procedure involving any risk to the 
#safety of any drilling venture, drilling rig or its crew or any other third party.  The 
#Customer has full responsibility for all drilling, completion and production operation.  
#Halliburton makes no representations or warranties, either expressed or 
#implied, including, but not limited to, the implied warranties of merchantability or fitness 
#for a particular purpose, with respect to the services rendered.  In no event will 
#Halliburton be liable for failure to obtain any particular results or for 
#any damages, including, but not limited to, indirect, special or consequential damages, 
#resulting from the use of any information or interpretation provided by Halliburton.
#
~A           TIME           GTDEPTH  GTPQH  GTTQ  GTTN   GTET   GTTVD  
# ...
   20:49:51.638.29-Jan-2021 4766.51 3131.20 82.82 13.00 339.04 2612.24
   20:49:51.838.29-Jan-2021 4766.51 3131.20 82.82 13.00 339.24 2612.24
   20:49:52.038.29-Jan-2021 4766.51 3131.23 82.82 13.00 339.44 2612.24
   20:49:52.238.29-Jan-2021 4766.51 3131.24 82.82 13.00 339.64 2612.24
   20:49:52.438.29-Jan-2021 4766.51 3131.20 82.82 13.00 339.84 2612.24
   20:49:52.638.29-Jan-2021 4766.51 3131.25 82.82 13.00 340.04 2612.24
   20:49:52.838.29-Jan-2021 4766.51 3131.25 82.82 13.00 340.24 2612.24
   20:49:53.038.29-Jan-2021 4766.51 3131.25 82.82 13.00 340.44 2612.24
   20:49:53.238.29-Jan-2021 4766.51 3131.22 82.82 13.00 340.64 2612.24
   20:49:53.438.29-Jan-2021 4766.51 3131.24 82.81 13.00 340.84 2612.24
   20:49:53.639.29-Jan-2021 4766.51 3131.20 82.81 13.00 341.04 2612.24
   20:49:53.839.29-Jan-2021 4766.51 3131.20 82.81 13.00 341.24 2612.24
   20:49:54.039.29-Jan-2021 4766.51 3131.23 82.81 13.00 341.44 2612.24
   20:49:54.239.29-Jan-2021 4766.51 3131.24 82.81 13.00 341.64 2612.24
   20:49:54.439.29-Jan-2021 4766.51 3131.21 82.81 13.00 341.84 2612.24
   20:49:54.639.29-Jan-2021 4766.51 3131.23 82.81 13.00 342.04 2612.24
   20:49:54.839.29-Jan-2021 4766.51 3131.23 82.81 13.00 342.24 2612.24
   20:49:55.039.29-Jan-2021 4766.51 3131.23 82.81 13.00 342.44 2612.24
   20:49:55.239.29-Jan-2021 4766.51 3131.23 82.81 13.00 342.64 2612.24
   20:49:55.439.29-Jan-2021 4766.51 3131.22 82.81 13.00 342.84 2612.24
   20:49:55.639.29-Jan-2021 4766.51 3131.22 82.81 13.00 343.04 2612.24
   20:49:55.839.29-Jan-2021 4766.51 3131.22 82.81 13.00 343.24 2612.24
   20:49:56.039.29-Jan-2021 4766.51 3131.22 82.81 13.00 343.44 2612.24
   20:49:56.239.29-Jan-2021 4766.51 3131.22 82.81 13.00 343.64 2612.24
   20:49:56.439.29-Jan-2021 4766.51 3131.22 82.81 13.00 343.84 2612.24
   20:49:56.639.29-Jan-2021 4766.51 3131.20 82.81 13.00 344.04 2612.24
   20:49:56.839.29-Jan-2021 4766.51 3131.20 82.81 13.00 344.24 2612.24
   20:49:57.039.29-Jan-2021 4766.51 3131.21 82.81 13.00 344.44 2612.24
   20:49:57.239.29-Jan-2021 4766.51 3131.21 82.80 13.00 344.64 2612.24
   20:49:57.439.29-Jan-2021 4766.51 3131.22 82.80 13.00 344.84 2612.24
   20:49:57.639.29-Jan-2021 4766.51 3131.21 82.80 13.00 345.04 2612.24
   20:49:57.839.29-Jan-2021 4766.51 3131.21 82.80 13.00 345.24 2612.24
   20:49:58.039.29-Jan-2021 4766.51 3131.21 82.80 13.00 345.44 2612.24
   20:49:58.239.29-Jan-2021 4766.51 3131.21 82.80 13.00 345.64 2612.24
   20:49:58.439.29-Jan-2021 4766.51 3131.20 82.80 13.00 345.84 2612.24
   20:49:58.639.29-Jan-2021 4766.51 3131.23 82.80 13.00 346.04 2612.24
   20:49:58.839.29-Jan-2021 4766.51 3131.23 82.80 13.00 346.24 2612.24
   20:49:59.039.29-Jan-2021 4766.51 3131.23 82.80 13.00 346.44 2612.24
   20:49:59.239.29-Jan-2021 4766.51 3131.21 82.80 13.00 346.64 2612.24
   20:49:59.439.29-Jan-2021 4766.51 3132.45 82.80 13.00 346.84 2612.24
   20:49:59.639.29-Jan-2021 4766.51 3137.47 82.80 13.00 347.04 2612.24
   20:49:59.839.29-Jan-2021 4766.51 3137.47 82.80 13.00 347.24 2612.24
   20:50:00.039.29-Jan-2021 4766.51 5515.69 82.80 13.00 347.44 2612.24
   20:50:00.239.29-Jan-2021 4766.51 5715.44 82.80 13.00 347.64 2612.24
   20:50:00.439.29-Jan-2021 4766.51 5716.89 82.80 13.00 347.84 2612.24
   20:50:00.639.29-Jan-2021 4766.51 5716.61 82.80 13.00 348.04 2612.24
   20:50:00.839.29-Jan-2021 4766.51 5716.61 82.80 13.00 348.24 2612.24
   20:50:01.039.29-Jan-2021 4766.51 5717.19 82.79 13.00 348.44 2612.24
   20:50:01.239.29-Jan-2021 4766.51 5718.87 82.79 13.00 348.64 2612.24
   20:50:01.439.29-Jan-2021 4766.51 5718.66 82.79 13.00 348.84 2612.24
   20:50:01.639.29-Jan-2021 4766.51 5720.16 82.79 13.00 349.04 2612.24
   20:50:01.839.29-Jan-2021 4766.51 5720.16 82.79 13.00 349.24 2612.24
   20:50:02.039.29-Jan-2021 4766.51 5721.32 82.79 13.00 349.44 2612.24
   20:50:02.240.29-Jan-2021 4766.51 5720.46 82.79 13.00 349.64 2612.24
   20:50:02.440.29-Jan-2021 4766.51 5721.35 82.79 13.00 349.84 2612.24
   20:50:02.640.29-Jan-2021 4766.51 5711.43 82.79 13.00 350.04 2612.24
   20:50:02.840.29-Jan-2021 4766.51 5711.43 82.79 13.00 350.24 2612.24
   20:50:03.040.29-Jan-2021 4766.51 5723.06 82.79 13.00 350.44 2612.24
   20:50:03.240.29-Jan-2021 4766.51 5724.32 82.79 13.00 350.64 2612.24
   20:50:03.440.29-Jan-2021 4766.51 5718.15 82.79 13.00 350.84 2612.24
   20:50:03.640.29-Jan-2021 4766.51 5716.42 82.79 13.00 351.04 2612.24
   20:50:03.840.29-Jan-2021 4766.51 5716.42 82.79 13.00 351.24 2612.24
   20:50:04.040.29-Jan-2021 4766.51 5726.02 82.79 13.00 351.44 2612.24
   20:50:04.240.29-Jan-2021 4766.51 5723.09 82.79 13.00 351.64 2612.24
   20:50:04.440.29-Jan-2021 4766.51 5720.16 82.79 13.00 351.84 2612.24
   20:50:04.640.29-Jan-2021 4766.51 5717.12 82.79 13.00 352.04 2612.24
   20:50:04.840.29-Jan-2021 4766.51 5717.12 82.79 13.00 352.24 2612.24
   20:50:05.040.29-Jan-2021 4766.51 5726.19 82.79 13.00 352.44 2612.24
   20:50:05.240.29-Jan-2021 4766.51 5724.47 82.79 13.00 352.64 2612.24
   20:50:05.440.29-Jan-2021 4766.51 5720.14 82.79 13.00 352.84 2612.24
   20:50:05.640.29-Jan-2021 4766.51 5724.62 82.79 13.00 353.04 2612.24
   20:50:05.840.29-Jan-2021 4766.51 5724.62 82.79 13.00 353.24 2612.24
   20:50:06.040.29-Jan-2021 4766.51 5727.13 82.79 13.00 353.44 2612.24
   20:50:06.240.29-Jan-2021 4766.51 5724.20 82.79 13.00 353.64 2612.24
   20:50:06.440.29-Jan-2021 4766.51 5725.59 82.79 13.00 353.84 2612.24
   20:50:06.640.29-Jan-2021 4766.51 5720.92 82.79 13.00 354.04 2612.24
   20:50:06.840.29-Jan-2021 4766.51 5720.92 82.79 13.00 354.24 2612.24
   20:50:07.040.29-Jan-2021 4766.51 5724.37 82.79 13.00 354.44 2612.24
   20:50:07.240.29-Jan-2021 4766.51 5726.47 82.79 13.00 354.64 2612.24
   20:50:07.440.29-Jan-2021 4766.51 5723.00 82.79 13.00 354.84 2612.24
   20:50:07.640.29-Jan-2021 4766.51 5724.72 82.79 13.00 355.04 2612.24
   20:50:07.840.29-Jan-2021 4766.51 5724.72 82.79 13.00 355.24 2612.24
   20:50:08.040.29-Jan-2021 4766.51 5725.32 82.79 13.00 355.44 2612.24
   20:50:08.240.29-Jan-2021 4766.51 5723.26 82.79 13.00 355.64 2612.24
   20:50:08.440.29-Jan-2021 4766.51 5724.82 82.79 13.00 355.84 2612.24
   20:50:08.640.29-Jan-2021 4766.51 5723.90 82.79 13.00 356.04 2612.24
   20:50:08.840.29-Jan-2021 4766.51 5723.90 82.79 13.00 356.24 2612.24
   20:50:09.040.29-Jan-2021 4766.51 5724.10 82.79 13.00 356.44 2612.24
   20:50:09.240.29-Jan-2021 4766.51 5724.36 82.79 13.00 356.64 2612.24
   20:50:09.440.29-Jan-2021 4766.51 5719.07 82.79 13.00 356.84 2612.24
   20:50:09.640.29-Jan-2021 4766.51 5725.14 82.79 13.00 357.04 2612.24
   20:50:09.840.29-Jan-2021 4766.51 5725.14 82.79 13.00 357.24 2612.24
   20:50:10.040.29-Jan-2021 4766.51 5724.49 82.79 13.00 357.44 2612.24
   20:50:10.240.29-Jan-2021 4766.51 5721.92 82.79 13.00 357.64 2612.24
   20:50:10.440.29-Jan-2021 4766.51 5724.42 82.79 13.00 357.84 2612.24
   20:50:10.641.29-Jan-2021 4766.51 5725.06 82.79 13.00 358.04 2612.24
   20:50:10.841.29-Jan-2021 4766.51 5725.06 82.79 13.00 358.24 2612.24
   20:50:11.041.29-Jan-2021 4766.51 5723.72 82.78 13.00 358.44 2612.24
   20:50:11.241.29-Jan-2021 4766.51 5723.95 82.78 13.00 358.64 2612.24
   20:50:11.441.29-Jan-2021 4766.51 5724.64 82.78 13.00 358.84 2612.24
   20:50:11.641.29-Jan-2021 4766.51 5724.32 82.78 13.00 359.04 2612.24
   20:50:11.841.29-Jan-2021 4766.51 5724.32 82.78 13.00 359.24 2612.24
   20:50:12.041.29-Jan-2021 4766.51 5723.89 82.78 13.00 359.44 2612.24
   20:50:12.241.29-Jan-2021 4766.51 5724.20 82.78 13.00 359.64 2612.24
   20:50:12.441.29-Jan-2021 4766.51 5724.27 82.78 13.00 359.84 2612.24
   20:50:12.641.29-Jan-2021 4766.51 5724.13 82.78 13.00 360.04 2612.24
   20:50:12.841.29-Jan-2021 4766.51 5724.13 82.78 13.00 360.24 2612.24
   20:50:13.041.29-Jan-2021 4766.51 5724.94 82.78 13.00 360.44 2612.24
   20:50:13.241.29-Jan-2021 4766.51 5724.97 82.78 13.00 360.64 2612.24
   20:50:13.441.29-Jan-2021 4766.51 5724.87 82.78 13.00 360.84 2612.24
   20:50:13.641.29-Jan-2021 4766.51 5715.65 82.78 13.00 361.04 2612.24
   20:50:13.841.29-Jan-2021 4766.51 5715.65 82.78 13.00 361.24 2612.24
   20:50:14.041.29-Jan-2021 4766.51 5726.13 82.78 13.00 361.44 2612.24
