~Version Information
 VERS.                  2.0:   CWLS log ASCII Standard -VERSION 2.0
 WRAP.                   NO:   One line per depth step
~Well Information Block
#MNEM.UNIT     VALUE/NAME     DESCRIPTION
#---------     -----------    ---------------------------
 STRT.S             07:03:45 29-Jan-21: START TIME 07:03:45 29-Jan-21
 STOP.S             07:10:14 29-Jan-21: STOP TIME  07:10:14 29-Jan-21
 STEP.S                   0.00: STEP TIME
 NULL.                 -999.25: NULL VALUE
 DFWT.                        :  DIST FWL TEXT
 DFST.                        :  DIST FSL TEXT
 DMF .             Drill Floor:  DRILL MEAS FROM
 STIM.      00.00.00 25-Sep-20:  START TIME
 DATE.      16.12.48 31-Jan-21:  END TIME
 SPUD.               20-Sep-20:  SPUD DATE
 NREF.                    Grid:  NORTH REFERENCE
 HPTY.       Minimum Curvature:  HOLE POS TYPE
 DMOD.             Drill Model:  DRILL MOD DESC
 SVYD.                  Survey:  SURVEY DESC
 ILTD.               Lithology:  INTERP LTH DESC
 FTOP.          Formation Tops:  FORM TOPS DESC
 RIG .              East Azeri:  RIG NAME
 PDAT.          Mean Sea Level:  PERMANENT DATUM
 FLD .                     ACG:  FIELD NAME
 SON .        AZ-XX-0906591820:  JOB NUMBER
 CTRY.              Azerbaijan:  COUNTRY NAME
 WELL.                     D37:  WELL NAME
 SRVC.     Turan Drilling & Engineering:  CONTRACTOR
 COMP.     BP Exploration (Caspian Sea) ltd.:  COMPANY
 WTYP.                Deviated:  WELL TYPE
 MDS .        Operator Entered:  MAG DATA SOURCE
 UWI .                     N/A:  UNIQUE WELL IDENTIFIER
 API .                     N/A:  API NUMBER
 BASE.              Azerbaijan:  LOGGING EQUIPMENT BASE LOCATION
 REGN.                   EESSA:  REGION
 PROV.                    Baku:  PROVINCE
 STAT.                    Baku:  STATE NAME
 MWDS.                    Baku:  MWD SHOP
 JOBN.        AZ-XX-0906591820:  JOB TICKET NUMB
 DOE .                     N/A:  DOE NUMBER
 DCON.         Sperry Drilling:  DIRECTNL CONTR
 UNIT.                     N/A:  LOGGING EQUIPMENT ID
 CNTY.                        :  COUNTY
 LOC .                        :  LOCATION
 LMF .             Drill Floor:  LOG MEASURED FROM
 TVDS.m                  43.60:  TVDSS CORRECTN
 LATI.deg                40.02:  LATITUDE
 LONG.deg                51.45:  LONGITUDE
 WHNS.m                  11.04:  WELL HEAD N/S
 WHEW.m                 -12.38:  WELL HEAD E/W
 UTMX.m              538763.98:  UTM X
 UTMY.m             4431880.20:  UTM Y
 DFWL.m                   0.00:  DISTANCE FWL
 DFSL.m                   0.00:  DISTANCE FSL
 SDEP.m                 300.00:  START DEPTH
 TDD .m                4900.01:  TOTAL DEPTH (DRILLER)
 VSDR.deg               185.64:  VERT SEC DIRECT
 GVFD.g                   1.00:  GRAVITY FIELD
 MFLD.nT              50301.00:  MAGNETIC FIELD
 MDIP.deg                59.46:  MAGNETIC DIP
 MDEC.deg                 6.43:  MAGNETIC DECL
 GRDC.deg                 0.29:  GRID CORRECTION
 AZTC.deg                 6.14:  AZM TOTAL CORR
 EPD .m                   0.00:  ELEVATION
 EGL .m                   0.00:  GROUND ELEVATION
 WDMS.m                 151.80:  WD ELEV
 APD .m                  43.60:  DEPTH ABOVE PD
 DEP .m                 571.69:  DEPTH
 AGAP.m                  43.60:  AIR GAP
 VSEW.m                 -12.38:  VERT SEC E/W
 VSNS.m                  11.04:  VERT SEC N/S
 EKB .m                  43.60:  KB ELEVATION
 EDF .m                  43.60:  DF ELEVATION
 TDL .m                 412.00:  TOTAL DEPTH (LOGGER)
 VSC .                       0:  VS TO CLOSURE
 MAGU.                 1849300:  MAGUTM CHECKSUM
~Parameter Information Block
#MNEM.UNIT       Value        Description
#---------     -----------    ---------------------------
 AV  .mps                 2.21:  Ann Velocity 
 AVMX.mps                 2.53:  Max Ann Veloc 
 AZIF.deg               144.83:  Azm, Final 
 BHAT.        Rotary Steerable:  BHA Type 
 BROT.°/30m              -0.52:  Build Rotating 
 BS  .in                  6.50:  Bit Size 
 BTPL.psig              209.00:  Bit Press Loss 
 CABU.                      No:  Customer Abuse 
 CGEO.        Ali Isfandiyarov:  Customer Geo 
 COMM.                     ü®q:  Run Comments 1 
 TCS .hr                 61.31:  Time Ciculation Ended 
 CV  .mps                 4.66:  Crit Velocity 
 CVMX.mps                 5.02:  Max Crit Veloc 
 DD1 .          Fariz Nahmatov:  Direct Drillr 1 
 DD2 .            Musa Ahmadov:  Direct Drillr 2 
 DDSV.               Geo-Pilot:  DD Service 
 DEFF.%                 100.00:  % Det Eff 
 DLRX.°/30m               1.44:  Dogleg Rot Max 
 DLSO.°/30m               0.83:  Dogleg Oriented 
 DLSX.°/30m               1.44:  Dogleg Str Max 
 DRET.      08.30.00 30-Jan-21:  Drill End Time 
 DRST.      21.15.00 27-Jan-21:  Drill Start Tim 
 DTIM.hr                 37.28:  Time Drilling 
 EDEP.m                4867.01:  End Depth 
 ENG1.          Rasim Hashimov:  Engineer 1 
 ENG2.         Almaz Almadatov:  Engineer 2 
 ENG3.        Tamerlan Ahmadov:  Engineer 3 
 ETIM.      22.41.04 31-Jan-21:  End Time 
 FLOI.gpm               400.00:  Flow In 
 FLON.gpm               300.00:  Flow In Min 
 FLOS.cptm                0.00:  Fluid Loss 
 FLOX.gpm               400.00:  Flow In Max 
 HFLO.                      No:  High Flow 
 HPRE.                      No:  High Pressure 
 HTEM.                      No:  High Temp 
 HYDO.m                   1.80:  Hydro Offset 
 IFIN.deg                65.63:  Inc, Final 
 IMAX.deg                66.77:  Inc Max 
 IMIN.deg                65.61:  Inc Min 
 IMND.m                4612.67:  Inc Min Depth 
 IMXD.m                4811.63:  Inc Max Depth 
 JARR.                      No:  Jarring 
 LETM.      08.30.00 30-Jan-21:  Log End Time 
 LOST.hr                     0:  Lost Rig Time 
 LSTM.      21.15.00 27-Jan-21:  Log Start Time 
 MDCL.ppm             41000.00:  Mud Chlorides 
 MDES.     Inversion Oil/Synthetic:  Mud Desc 
 DFD .sg                  1.40:  Mud Density 
 MDMN.sg                  1.40:  Dens Mud Min 
 MDMX.sg                  1.40:  Dens Mud Max 
 MOIL.                      53:  Run Mud Oil % 
 MOWR.                   66:34:  Run Mud OWR 
 MSND.                     0.2:  Run Mud Sand % 
 MSOL.                    17.9:  Run Mud Solids% 
 DFV .spqt               77.00:  Mud Viscosity 
 MWOD.in                  4.75:  MWD Tool OD 
 MWSI.                      No:  Serv Intrp, MWD 
 OTIM.hr                110.38:  Time Operating 
 PCON.           Look Like New:  Pad Condition 
 PMAX.psia             5300.00:  Press Op, Max 
 PV  .cP                 57.00:  Mud PV 
 RUN .                    1200:  Run Number 
 ROPA.m/hr               13.00:  ROP Avg 
 ROPN.m/hr                9.00:  ROP Min 
 ROPX.m/hr               15.00:  ROP Max 
 RPMA.rpm               120.00:  RPM Surface Avg 
 RPMN.rpm               100.00:  RPM Surface Min 
 RPMX.rpm               135.00:  RPM Surface Max 
 RRUN.                    1200:  Rig Run Number 
 RTIM.hr                  2.65:  Time Reaming 
 SAZI.deg               145.04:  Azm, Start 
 SDEP.m                4455.01:  Start Depth 
 SIDD.                      No:  Serv Intrp, DD 
 SINC.deg                65.83:  Inc, Start 
 SPPA.psig             5037.00:  SPP Avg 
 SPPN.psig             4430.00:  SPP Min 
 SPPX.psig             5300.00:  SPP Max 
 STIM.      22.41.04 26-Jan-21:  Start Time 
 SVCS.                 DD, MWD:  Services 
 SVER.                    9.20:  Sperry Version 
 TDAT.m                 412.00:  Tot Depth Attmp 
 TDDF.                      No:  Trip for DD 
 TDLG.m                 412.00:  Tot Depth Loggd 
 TFF .                      No:  Trip for Fail 
 TQAA.f-kp               15.00:  Torque Abs Avg 
 TQAN.f-kp               12.00:  Torque Abs Min 
 TQAX.f-kp               17.00:  Torque Abs Max 
 TRRT.°/30m               1.18:  Turn Rotating 
 MRT .                     ADR:  Maximum Recorded Temperature 
 TTMX.degC               88.24:  Max Tool Temp 
 VS01.                90619458:  Virtual Str1 SN 
 VS02.                90519326:  Virtual Str2 SN 
 VS03.                90522176:  Virtual Str3 SN 
 VS04.                90512683:  Virtual Str4 SN 
 WBMN.klb                 1.00:  WOB Min 
 WITN.           Murad Giluyev:  Customer Rep 
 WITN.     Kamran Kemberlinski:  Customer Rep 2 
 WOBA.klb                 5.00:  WOB Avg 
 WOBX.klb                 9.00:  WOB Max 
 YP  .lhf2               41.00:  Yield Point 
~Curve Information Block
#MNEM.UNIT                 API CODE     Curve Description
#---------               -----------    ---------------------------
 TIME.HHMMSS            00 000 000 000:  GT Time & Date
 GTDEPTH.m              00 000 000 000:  GT Depth
 GTPQH.psia             00 000 000 000:  GT HR Quartz Pressure
 GTTQ.degC              00 000 000 000:  GT Quartz Temperature
 GTTN.NONE              00 000 000 000:  GT Test Number
 GTET.sec               00 000 000 000:  GT Elapsed Test Time
 GTTVD.m                00 000 000 000:  GT True Vertical Depth
#Other Information
#
#WARRANTY: Halliburton will use its best efforts to furnish customers with 
#accurate information and interpretations that are part of, and incident to, the services 
#provided.  However, Halliburton cannot and does not warrant the accuracy 
#or correctness of such information and interpretations.  Under no circumstances should any 
#such information or interpretation be relied upon as the sole basis for any drilling, 
#completion, production, or financial decision or any procedure involving any risk to the 
#safety of any drilling venture, drilling rig or its crew or any other third party.  The 
#Customer has full responsibility for all drilling, completion and production operation.  
#Halliburton makes no representations or warranties, either expressed or 
#implied, including, but not limited to, the implied warranties of merchantability or fitness 
#for a particular purpose, with respect to the services rendered.  In no event will 
#Halliburton be liable for failure to obtain any particular results or for 
#any damages, including, but not limited to, indirect, special or consequential damages, 
#resulting from the use of any information or interpretation provided by Halliburton.
#
~A           TIME           GTDEPTH  GTPQH  GTTQ  GTTN  GTET   GTTVD  
# ...
   07:09:30.391.29-Jan-2021 4666.01 3051.56 79.17 8.00 345.07 2572.07
   07:09:30.591.29-Jan-2021 4666.01 3051.56 79.17 8.00 345.27 2572.07
   07:09:30.792.29-Jan-2021 4666.01 3051.55 79.17 8.00 345.47 2572.07
   07:09:30.992.29-Jan-2021 4666.01 3051.55 79.17 8.00 345.67 2572.07
   07:09:31.192.29-Jan-2021 4666.01 3051.53 79.17 8.00 345.87 2572.07
   07:09:31.392.29-Jan-2021 4666.01 3051.46 79.17 8.00 346.07 2572.07
   07:09:31.592.29-Jan-2021 4666.01 3051.46 79.17 8.00 346.27 2572.07
   07:09:31.792.29-Jan-2021 4666.01 3056.71 79.16 8.00 346.47 2572.07
   07:09:31.992.29-Jan-2021 4666.01 3088.30 79.16 8.00 346.67 2572.07
   07:09:32.192.29-Jan-2021 4666.01 3789.36 79.16 8.00 346.87 2572.07
   07:09:32.392.29-Jan-2021 4666.01 5631.34 79.16 8.00 347.07 2572.07
   07:09:32.592.29-Jan-2021 4666.01 5631.34 79.16 8.00 347.27 2572.07
   07:09:32.792.29-Jan-2021 4666.01 5632.18 79.16 8.00 347.47 2572.07
   07:09:32.992.29-Jan-2021 4666.01 5632.08 79.16 8.00 347.67 2572.07
   07:09:33.192.29-Jan-2021 4666.01 5633.46 79.16 8.00 347.87 2572.07
   07:09:33.392.29-Jan-2021 4666.01 5632.99 79.16 8.00 348.07 2572.07
   07:09:33.592.29-Jan-2021 4666.01 5632.99 79.16 8.00 348.27 2572.07
   07:09:33.792.29-Jan-2021 4666.01 5633.68 79.16 8.00 348.47 2572.07
   07:09:33.992.29-Jan-2021 4666.01 5635.25 79.16 8.00 348.67 2572.07
   07:09:34.192.29-Jan-2021 4666.01 5634.59 79.16 8.00 348.87 2572.07
   07:09:34.392.29-Jan-2021 4666.01 5635.13 79.16 8.00 349.07 2572.07
   07:09:34.592.29-Jan-2021 4666.01 5635.13 79.16 8.00 349.27 2572.07
   07:09:34.792.29-Jan-2021 4666.01 5636.23 79.16 8.00 349.47 2572.07
   07:09:34.992.29-Jan-2021 4666.01 5633.98 79.16 8.00 349.67 2572.07
   07:09:35.192.29-Jan-2021 4666.01 5633.47 79.16 8.00 349.87 2572.07
   07:09:35.392.29-Jan-2021 4666.01 5636.20 79.16 8.00 350.07 2572.07
   07:09:35.593.29-Jan-2021 4666.01 5636.20 79.16 8.00 350.27 2572.07
   07:09:35.793.29-Jan-2021 4666.01 5635.92 79.16 8.00 350.47 2572.07
   07:09:35.993.29-Jan-2021 4666.01 5637.21 79.16 8.00 350.67 2572.07
   07:09:36.193.29-Jan-2021 4666.01 5638.09 79.16 8.00 350.87 2572.07
   07:09:36.393.29-Jan-2021 4666.01 5637.85 79.16 8.00 351.07 2572.07
   07:09:36.593.29-Jan-2021 4666.01 5637.85 79.16 8.00 351.27 2572.07
   07:09:36.793.29-Jan-2021 4666.01 5637.87 79.16 8.00 351.47 2572.07
   07:09:36.993.29-Jan-2021 4666.01 5638.95 79.16 8.00 351.67 2572.07
   07:09:37.193.29-Jan-2021 4666.01 5638.20 79.16 8.00 351.87 2572.07
   07:09:37.393.29-Jan-2021 4666.01 5638.76 79.16 8.00 352.07 2572.07
   07:09:37.593.29-Jan-2021 4666.01 5638.76 79.16 8.00 352.27 2572.07
   07:09:37.793.29-Jan-2021 4666.01 5638.94 79.16 8.00 352.47 2572.07
   07:09:37.993.29-Jan-2021 4666.01 5637.64 79.16 8.00 352.67 2572.07
   07:09:38.193.29-Jan-2021 4666.01 5632.88 79.16 8.00 352.87 2572.07
   07:09:38.393.29-Jan-2021 4666.01 5638.81 79.16 8.00 353.07 2572.07
   07:09:38.593.29-Jan-2021 4666.01 5638.81 79.16 8.00 353.27 2572.07
   07:09:38.793.29-Jan-2021 4666.01 5633.99 79.16 8.00 353.47 2572.07
   07:09:38.993.29-Jan-2021 4666.01 5636.57 79.16 8.00 353.67 2572.07
   07:09:39.193.29-Jan-2021 4666.01 5635.38 79.16 8.00 353.87 2572.07
   07:09:39.393.29-Jan-2021 4666.01 5638.87 79.16 8.00 354.07 2572.07
   07:09:39.593.29-Jan-2021 4666.01 5638.87 79.16 8.00 354.27 2572.07
   07:09:39.793.29-Jan-2021 4666.01 5638.06 79.16 8.00 354.47 2572.07
   07:09:39.993.29-Jan-2021 4666.01 5639.23 79.16 8.00 354.67 2572.07
   07:09:40.193.29-Jan-2021 4666.01 5639.25 79.16 8.00 354.87 2572.07
   07:09:40.394.29-Jan-2021 4666.01 5639.21 79.16 8.00 355.07 2572.07
   07:09:40.594.29-Jan-2021 4666.01 5639.21 79.16 8.00 355.27 2572.07
   07:09:40.794.29-Jan-2021 4666.01 5632.89 79.16 8.00 355.47 2572.07
   07:09:40.994.29-Jan-2021 4666.01 5638.18 79.15 8.00 355.67 2572.07
   07:09:41.194.29-Jan-2021 4666.01 5636.99 79.15 8.00 355.88 2572.07
   07:09:41.394.29-Jan-2021 4666.01 5638.54 79.15 8.00 356.08 2572.07
   07:09:41.594.29-Jan-2021 4666.01 5638.54 79.15 8.00 356.28 2572.07
   07:09:41.794.29-Jan-2021 4666.01 5635.63 79.15 8.00 356.48 2572.07
   07:09:41.994.29-Jan-2021 4666.01 5638.41 79.15 8.00 356.68 2572.07
   07:09:42.194.29-Jan-2021 4666.01 5636.73 79.15 8.00 356.88 2572.07
   07:09:42.394.29-Jan-2021 4666.01 5631.40 79.15 8.00 357.08 2572.07
   07:09:42.594.29-Jan-2021 4666.01 5631.40 79.15 8.00 357.28 2572.07
   07:09:42.794.29-Jan-2021 4666.01 5640.35 79.15 8.00 357.48 2572.07
   07:09:42.994.29-Jan-2021 4666.01 5635.12 79.15 8.00 357.68 2572.07
   07:09:43.194.29-Jan-2021 4666.01 5638.71 79.15 8.00 357.88 2572.07
   07:09:43.394.29-Jan-2021 4666.01 5640.32 79.15 8.00 358.08 2572.07
   07:09:43.594.29-Jan-2021 4666.01 5640.32 79.15 8.00 358.28 2572.07
   07:09:43.794.29-Jan-2021 4666.01 5639.15 79.15 8.00 358.48 2572.07
   07:09:43.994.29-Jan-2021 4666.01 5639.09 79.15 8.00 358.68 2572.07
   07:09:44.194.29-Jan-2021 4666.01 5640.09 79.15 8.00 358.88 2572.07
   07:09:44.394.29-Jan-2021 4666.01 5638.64 79.15 8.00 359.08 2572.07
   07:09:44.594.29-Jan-2021 4666.01 5638.64 79.15 8.00 359.28 2572.07
   07:09:44.794.29-Jan-2021 4666.01 5639.07 79.15 8.00 359.48 2572.07
   07:09:44.995.29-Jan-2021 4666.01 5639.48 79.15 8.00 359.68 2572.07
   07:09:45.195.29-Jan-2021 4666.01 5638.35 79.15 8.00 359.88 2572.07
   07:09:45.395.29-Jan-2021 4666.01 5638.89 79.15 8.00 360.08 2572.07
   07:09:45.595.29-Jan-2021 4666.01 5638.89 79.15 8.00 360.28 2572.07
   07:09:45.795.29-Jan-2021 4666.01 5638.53 79.15 8.00 360.48 2572.07
   07:09:45.995.29-Jan-2021 4666.01 5633.16 79.15 8.00 360.68 2572.07
   07:09:46.195.29-Jan-2021 4666.01 5638.71 79.15 8.00 360.88 2572.07
   07:09:46.395.29-Jan-2021 4666.01 5638.17 79.15 8.00 361.08 2572.07
   07:09:46.595.29-Jan-2021 4666.01 5638.17 79.15 8.00 361.28 2572.07
   07:09:46.795.29-Jan-2021 4666.01 5638.33 79.15 8.00 361.48 2572.07
   07:09:46.995.29-Jan-2021 4666.01 5638.94 79.15 8.00 361.68 2572.07
   07:09:47.195.29-Jan-2021 4666.01 5638.99 79.15 8.00 361.88 2572.07
   07:09:47.395.29-Jan-2021 4666.01 5638.12 79.15 8.00 362.08 2572.07
   07:09:47.595.29-Jan-2021 4666.01 5638.12 79.15 8.00 362.28 2572.07
   07:09:47.795.29-Jan-2021 4666.01 5639.18 79.15 8.00 362.48 2572.07
   07:09:47.995.29-Jan-2021 4666.01 5639.60 79.15 8.00 362.68 2572.07
   07:09:48.195.29-Jan-2021 4666.01 5638.82 79.15 8.00 362.88 2572.07
   07:09:48.395.29-Jan-2021 4666.01 5639.55 79.15 8.00 363.08 2572.07
   07:09:48.595.29-Jan-2021 4666.01 5639.55 79.15 8.00 363.28 2572.07
   07:09:48.795.29-Jan-2021 4666.01 5639.13 79.15 8.00 363.48 2572.07
   07:09:48.995.29-Jan-2021 4666.01 5638.91 79.15 8.00 363.68 2572.07
   07:09:49.195.29-Jan-2021 4666.01 5639.06 79.15 8.00 363.88 2572.07
   07:09:49.395.29-Jan-2021 4666.01 5633.56 79.15 8.00 364.08 2572.07
   07:09:49.595.29-Jan-2021 4666.01 5633.56 79.15 8.00 364.28 2572.07
   07:09:49.796.29-Jan-2021 4666.01 5638.49 79.15 8.00 364.48 2572.07
   07:09:49.996.29-Jan-2021 4666.01 5636.68 79.15 8.00 364.68 2572.07
   07:09:50.196.29-Jan-2021 4666.01 5631.93 79.15 8.00 364.88 2572.07
   07:09:50.396.29-Jan-2021 4666.01 5640.51 79.15 8.00 365.08 2572.07
   07:09:50.596.29-Jan-2021 4666.01 5640.51 79.15 8.00 365.28 2572.07
   07:09:50.796.29-Jan-2021 4666.01 5634.69 79.14 8.00 365.48 2572.07
   07:09:50.996.29-Jan-2021 4666.01 5634.40 79.14 8.00 365.68 2572.07
   07:09:51.196.29-Jan-2021 4666.01 5640.42 79.14 8.00 365.88 2572.07
   07:09:51.396.29-Jan-2021 4666.01 5639.72 79.14 8.00 366.08 2572.07
   07:09:51.596.29-Jan-2021 4666.01 5639.72 79.14 8.00 366.28 2572.07
   07:09:51.796.29-Jan-2021 4666.01 5635.21 79.14 8.00 366.48 2572.07
   07:09:51.996.29-Jan-2021 4666.01 5641.50 79.14 8.00 366.68 2572.07
   07:09:52.196.29-Jan-2021 4666.01 5639.21 79.14 8.00 366.88 2572.07
   07:09:52.396.29-Jan-2021 4666.01 5637.45 79.14 8.00 367.08 2572.07
   07:09:52.596.29-Jan-2021 4666.01 5637.45 79.14 8.00 367.28 2572.07
   07:09:52.796.29-Jan-2021 4666.01 5640.62 79.14 8.00 367.48 2572.07
   07:09:52.996.29-Jan-2021 4666.01 5638.63 79.14 8.00 367.68 2572.07
   07:09:53.196.29-Jan-2021 4666.01 5632.64 79.14 8.00 367.88 2572.07
