~Version Information
 VERS.                  2.0:   CWLS log ASCII Standard -VERSION 2.0
 WRAP.                   NO:   One line per depth step
~Well Information Block
#MNEM.UNIT     VALUE/NAME     DESCRIPTION
#---------     -----------    ---------------------------
 STRT.S             17:31:15 28-Jan-21: START TIME 17:31:15 28-Jan-21
 STOP.S             17:37:46 28-Jan-21: STOP TIME  17:37:46 28-Jan-21
 STEP.S                   0.00: STEP TIME
 NULL.                 -999.25: NULL VALUE
 DFWT.                        :  DIST FWL TEXT
 DFST.                        :  DIST FSL TEXT
 DMF .             Drill Floor:  DRILL MEAS FROM
 STIM.      00.00.00 25-Sep-20:  START TIME
 DATE.      16.12.48 31-Jan-21:  END TIME
 SPUD.               20-Sep-20:  SPUD DATE
 NREF.                    Grid:  NORTH REFERENCE
 HPTY.       Minimum Curvature:  HOLE POS TYPE
 DMOD.             Drill Model:  DRILL MOD DESC
 SVYD.                  Survey:  SURVEY DESC
 ILTD.               Lithology:  INTERP LTH DESC
 FTOP.          Formation Tops:  FORM TOPS DESC
 RIG .              East Azeri:  RIG NAME
 PDAT.          Mean Sea Level:  PERMANENT DATUM
 FLD .                     ACG:  FIELD NAME
 SON .        AZ-XX-0906591820:  JOB NUMBER
 CTRY.              Azerbaijan:  COUNTRY NAME
 WELL.                     D37:  WELL NAME
 SRVC.     Turan Drilling & Engineering:  CONTRACTOR
 COMP.     BP Exploration (Caspian Sea) ltd.:  COMPANY
 WTYP.                Deviated:  WELL TYPE
 MDS .        Operator Entered:  MAG DATA SOURCE
 UWI .                     N/A:  UNIQUE WELL IDENTIFIER
 API .                     N/A:  API NUMBER
 BASE.              Azerbaijan:  LOGGING EQUIPMENT BASE LOCATION
 REGN.                   EESSA:  REGION
 PROV.                    Baku:  PROVINCE
 STAT.                    Baku:  STATE NAME
 MWDS.                    Baku:  MWD SHOP
 JOBN.        AZ-XX-0906591820:  JOB TICKET NUMB
 DOE .                     N/A:  DOE NUMBER
 DCON.         Sperry Drilling:  DIRECTNL CONTR
 UNIT.                     N/A:  LOGGING EQUIPMENT ID
 CNTY.                        :  COUNTY
 LOC .                        :  LOCATION
 LMF .             Drill Floor:  LOG MEASURED FROM
 TVDS.m                  43.60:  TVDSS CORRECTN
 LATI.deg                40.02:  LATITUDE
 LONG.deg                51.45:  LONGITUDE
 WHNS.m                  11.04:  WELL HEAD N/S
 WHEW.m                 -12.38:  WELL HEAD E/W
 UTMX.m              538763.98:  UTM X
 UTMY.m             4431880.20:  UTM Y
 DFWL.m                   0.00:  DISTANCE FWL
 DFSL.m                   0.00:  DISTANCE FSL
 SDEP.m                 300.00:  START DEPTH
 TDD .m                4900.01:  TOTAL DEPTH (DRILLER)
 VSDR.deg               185.64:  VERT SEC DIRECT
 GVFD.g                   1.00:  GRAVITY FIELD
 MFLD.nT              50301.00:  MAGNETIC FIELD
 MDIP.deg                59.46:  MAGNETIC DIP
 MDEC.deg                 6.43:  MAGNETIC DECL
 GRDC.deg                 0.29:  GRID CORRECTION
 AZTC.deg                 6.14:  AZM TOTAL CORR
 EPD .m                   0.00:  ELEVATION
 EGL .m                   0.00:  GROUND ELEVATION
 WDMS.m                 151.80:  WD ELEV
 APD .m                  43.60:  DEPTH ABOVE PD
 DEP .m                 571.69:  DEPTH
 AGAP.m                  43.60:  AIR GAP
 VSEW.m                 -12.38:  VERT SEC E/W
 VSNS.m                  11.04:  VERT SEC N/S
 EKB .m                  43.60:  KB ELEVATION
 EDF .m                  43.60:  DF ELEVATION
 TDL .m                 412.00:  TOTAL DEPTH (LOGGER)
 VSC .                       0:  VS TO CLOSURE
 MAGU.                 1849300:  MAGUTM CHECKSUM
~Parameter Information Block
#MNEM.UNIT       Value        Description
#---------     -----------    ---------------------------
 AV  .mps                 2.21:  Ann Velocity 
 AVMX.mps                 2.53:  Max Ann Veloc 
 AZIF.deg               144.83:  Azm, Final 
 BHAT.        Rotary Steerable:  BHA Type 
 BROT.°/30m              -0.52:  Build Rotating 
 BS  .in                  6.50:  Bit Size 
 BTPL.psig              209.00:  Bit Press Loss 
 CABU.                      No:  Customer Abuse 
 CGEO.        Ali Isfandiyarov:  Customer Geo 
 COMM.                     ¼¨M:  Run Comments 1 
 TCS .hr                 61.31:  Time Ciculation Ended 
 CV  .mps                 4.66:  Crit Velocity 
 CVMX.mps                 5.02:  Max Crit Veloc 
 DD1 .          Fariz Nahmatov:  Direct Drillr 1 
 DD2 .            Musa Ahmadov:  Direct Drillr 2 
 DDSV.               Geo-Pilot:  DD Service 
 DEFF.%                 100.00:  % Det Eff 
 DLRX.°/30m               1.44:  Dogleg Rot Max 
 DLSO.°/30m               0.83:  Dogleg Oriented 
 DLSX.°/30m               1.44:  Dogleg Str Max 
 DRET.      08.30.00 30-Jan-21:  Drill End Time 
 DRST.      21.15.00 27-Jan-21:  Drill Start Tim 
 DTIM.hr                 37.28:  Time Drilling 
 EDEP.m                4867.01:  End Depth 
 ENG1.          Rasim Hashimov:  Engineer 1 
 ENG2.         Almaz Almadatov:  Engineer 2 
 ENG3.        Tamerlan Ahmadov:  Engineer 3 
 ETIM.      22.41.04 31-Jan-21:  End Time 
 FLOI.gpm               400.00:  Flow In 
 FLON.gpm               300.00:  Flow In Min 
 FLOS.cptm                0.00:  Fluid Loss 
 FLOX.gpm               400.00:  Flow In Max 
 HFLO.                      No:  High Flow 
 HPRE.                      No:  High Pressure 
 HTEM.                      No:  High Temp 
 HYDO.m                   1.80:  Hydro Offset 
 IFIN.deg                65.63:  Inc, Final 
 IMAX.deg                66.77:  Inc Max 
 IMIN.deg                65.61:  Inc Min 
 IMND.m                4612.67:  Inc Min Depth 
 IMXD.m                4811.63:  Inc Max Depth 
 JARR.                      No:  Jarring 
 LETM.      08.30.00 30-Jan-21:  Log End Time 
 LOST.hr                     0:  Lost Rig Time 
 LSTM.      21.15.00 27-Jan-21:  Log Start Time 
 MDCL.ppm             41000.00:  Mud Chlorides 
 MDES.     Inversion Oil/Synthetic:  Mud Desc 
 DFD .sg                  1.40:  Mud Density 
 MDMN.sg                  1.40:  Dens Mud Min 
 MDMX.sg                  1.40:  Dens Mud Max 
 MOIL.                      53:  Run Mud Oil % 
 MOWR.                   66:34:  Run Mud OWR 
 MSND.                     0.2:  Run Mud Sand % 
 MSOL.                    17.9:  Run Mud Solids% 
 DFV .spqt               77.00:  Mud Viscosity 
 MWOD.in                  4.75:  MWD Tool OD 
 MWSI.                      No:  Serv Intrp, MWD 
 OTIM.hr                110.38:  Time Operating 
 PCON.           Look Like New:  Pad Condition 
 PMAX.psia             5300.00:  Press Op, Max 
 PV  .cP                 57.00:  Mud PV 
 RUN .                    1200:  Run Number 
 ROPA.m/hr               13.00:  ROP Avg 
 ROPN.m/hr                9.00:  ROP Min 
 ROPX.m/hr               15.00:  ROP Max 
 RPMA.rpm               120.00:  RPM Surface Avg 
 RPMN.rpm               100.00:  RPM Surface Min 
 RPMX.rpm               135.00:  RPM Surface Max 
 RRUN.                    1200:  Rig Run Number 
 RTIM.hr                  2.65:  Time Reaming 
 SAZI.deg               145.04:  Azm, Start 
 SDEP.m                4455.01:  Start Depth 
 SIDD.                      No:  Serv Intrp, DD 
 SINC.deg                65.83:  Inc, Start 
 SPPA.psig             5037.00:  SPP Avg 
 SPPN.psig             4430.00:  SPP Min 
 SPPX.psig             5300.00:  SPP Max 
 STIM.      22.41.04 26-Jan-21:  Start Time 
 SVCS.                 DD, MWD:  Services 
 SVER.                    9.20:  Sperry Version 
 TDAT.m                 412.00:  Tot Depth Attmp 
 TDDF.                      No:  Trip for DD 
 TDLG.m                 412.00:  Tot Depth Loggd 
 TFF .                      No:  Trip for Fail 
 TQAA.f-kp               15.00:  Torque Abs Avg 
 TQAN.f-kp               12.00:  Torque Abs Min 
 TQAX.f-kp               17.00:  Torque Abs Max 
 TRRT.°/30m               1.18:  Turn Rotating 
 MRT .                     ADR:  Maximum Recorded Temperature 
 TTMX.degC               88.24:  Max Tool Temp 
 VS01.                90619458:  Virtual Str1 SN 
 VS02.                90519326:  Virtual Str2 SN 
 VS03.                90522176:  Virtual Str3 SN 
 VS04.                90512683:  Virtual Str4 SN 
 WBMN.klb                 1.00:  WOB Min 
 WITN.           Murad Giluyev:  Customer Rep 
 WITN.     Kamran Kemberlinski:  Customer Rep 2 
 WOBA.klb                 5.00:  WOB Avg 
 WOBX.klb                 9.00:  WOB Max 
 YP  .lhf2               41.00:  Yield Point 
~Curve Information Block
#MNEM.UNIT                 API CODE     Curve Description
#---------               -----------    ---------------------------
 TIME.HHMMSS            00 000 000 000:  GT Time & Date
 GTDEPTH.m              00 000 000 000:  GT Depth
 GTPQH.psia             00 000 000 000:  GT HR Quartz Pressure
 GTTQ.degC              00 000 000 000:  GT Quartz Temperature
 GTTN.NONE              00 000 000 000:  GT Test Number
 GTET.sec               00 000 000 000:  GT Elapsed Test Time
 GTTVD.m                00 000 000 000:  GT True Vertical Depth
#Other Information
#
#WARRANTY: Halliburton will use its best efforts to furnish customers with 
#accurate information and interpretations that are part of, and incident to, the services 
#provided.  However, Halliburton cannot and does not warrant the accuracy 
#or correctness of such information and interpretations.  Under no circumstances should any 
#such information or interpretation be relied upon as the sole basis for any drilling, 
#completion, production, or financial decision or any procedure involving any risk to the 
#safety of any drilling venture, drilling rig or its crew or any other third party.  The 
#Customer has full responsibility for all drilling, completion and production operation.  
#Halliburton makes no representations or warranties, either expressed or 
#implied, including, but not limited to, the implied warranties of merchantability or fitness 
#for a particular purpose, with respect to the services rendered.  In no event will 
#Halliburton be liable for failure to obtain any particular results or for 
#any damages, including, but not limited to, indirect, special or consequential damages, 
#resulting from the use of any information or interpretation provided by Halliburton.
#
~A           TIME           GTDEPTH  GTPQH  GTTQ  GTTN  GTET   GTTVD  
# ...
   17:32:24.302.28-Jan-2021 4557.01 3087.48 74.85 5.00  69.01 2527.68
   17:32:24.502.28-Jan-2021 4557.01 3087.48 74.85 5.00  69.21 2527.68
   17:32:24.702.28-Jan-2021 4557.01 3087.48 74.85 5.00  69.41 2527.68
   17:32:24.902.28-Jan-2021 4557.01 3087.47 74.84 5.00  69.61 2527.68
   17:32:25.102.28-Jan-2021 4557.01 3087.49 74.84 5.00  69.81 2527.68
   17:32:25.302.28-Jan-2021 4557.01 3087.49 74.84 5.00  70.01 2527.68
   17:32:25.503.28-Jan-2021 4557.01 3087.49 74.84 5.00  70.21 2527.68
   17:32:25.703.28-Jan-2021 4557.01 3087.51 74.84 5.00  70.41 2527.68
   17:32:25.903.28-Jan-2021 4557.01 3087.51 74.84 5.00  70.61 2527.68
   17:32:26.103.28-Jan-2021 4557.01 3087.50 74.84 5.00  70.81 2527.68
   17:32:26.303.28-Jan-2021 4557.01 3087.51 74.84 5.00  71.01 2527.68
   17:32:26.503.28-Jan-2021 4557.01 3087.51 74.84 5.00  71.21 2527.68
   17:32:26.703.28-Jan-2021 4557.01 3087.58 74.84 5.00  71.41 2527.68
   17:32:26.903.28-Jan-2021 4557.01 3087.52 74.84 5.00  71.61 2527.68
   17:32:27.103.28-Jan-2021 4557.01 3087.50 74.84 5.00  71.81 2527.68
   17:32:27.303.28-Jan-2021 4557.01 3087.49 74.84 5.00  72.01 2527.68
   17:32:27.503.28-Jan-2021 4557.01 3087.49 74.84 5.00  72.21 2527.68
   17:32:27.703.28-Jan-2021 4557.01 3087.49 74.84 5.00  72.41 2527.68
   17:32:27.903.28-Jan-2021 4557.01 3087.54 74.84 5.00  72.61 2527.68
   17:32:28.103.28-Jan-2021 4557.01 3087.55 74.83 5.00  72.81 2527.68
   17:32:28.303.28-Jan-2021 4557.01 3087.51 74.83 5.00  73.01 2527.68
   17:32:28.503.28-Jan-2021 4557.01 3087.51 74.83 5.00  73.21 2527.68
   17:32:28.703.28-Jan-2021 4557.01 3087.57 74.83 5.00  73.41 2527.68
   17:32:28.903.28-Jan-2021 4557.01 3087.53 74.83 5.00  73.61 2527.68
   17:32:29.103.28-Jan-2021 4557.01 3087.50 74.83 5.00  73.81 2527.68
   17:32:29.303.28-Jan-2021 4557.01 3087.52 74.83 5.00  74.01 2527.68
   17:32:29.503.28-Jan-2021 4557.01 3087.52 74.83 5.00  74.21 2527.68
   17:32:29.703.28-Jan-2021 4557.01 3087.51 74.83 5.00  74.41 2527.68
   17:32:29.903.28-Jan-2021 4557.01 3087.61 74.83 5.00  74.61 2527.68
   17:32:30.103.28-Jan-2021 4557.01 3087.36 74.83 5.00  74.81 2527.68
   17:32:30.303.28-Jan-2021 4557.01 3087.65 74.83 5.00  75.01 2527.68
   17:32:30.503.28-Jan-2021 4557.01 3087.65 74.83 5.00  75.21 2527.68
   17:32:30.704.28-Jan-2021 4557.01 3087.54 74.83 5.00  75.41 2527.68
   17:32:30.904.28-Jan-2021 4557.01 3087.60 74.83 5.00  75.61 2527.68
   17:32:31.104.28-Jan-2021 4557.01 3087.55 74.83 5.00  75.81 2527.68
   17:32:31.304.28-Jan-2021 4557.01 3087.58 74.83 5.00  76.01 2527.68
   17:32:31.504.28-Jan-2021 4557.01 3087.58 74.83 5.00  76.21 2527.68
   17:32:31.704.28-Jan-2021 4557.01 3087.57 74.82 5.00  76.41 2527.68
   17:32:31.904.28-Jan-2021 4557.01 3087.57 74.82 5.00  76.62 2527.68
   17:32:32.104.28-Jan-2021 4557.01 3087.56 74.82 5.00  76.82 2527.68
   17:32:32.304.28-Jan-2021 4557.01 3087.59 74.82 5.00  77.02 2527.68
   17:32:32.504.28-Jan-2021 4557.01 3087.59 74.82 5.00  77.22 2527.68
   17:32:32.704.28-Jan-2021 4557.01 3087.60 74.82 5.00  77.42 2527.68
   17:32:32.904.28-Jan-2021 4557.01 3087.59 74.82 5.00  77.62 2527.68
   17:32:33.104.28-Jan-2021 4557.01 3087.58 74.82 5.00  77.82 2527.68
   17:32:33.304.28-Jan-2021 4557.01 3087.61 74.82 5.00  78.02 2527.68
   17:32:33.504.28-Jan-2021 4557.01 3087.61 74.82 5.00  78.22 2527.68
   17:32:33.704.28-Jan-2021 4557.01 3087.44 74.82 5.00  78.42 2527.68
   17:32:33.904.28-Jan-2021 4557.01 3087.68 74.82 5.00  78.62 2527.68
   17:32:34.104.28-Jan-2021 4557.01 3087.60 74.82 5.00  78.82 2527.68
   17:32:34.304.28-Jan-2021 4557.01 3087.57 74.82 5.00  79.02 2527.68
   17:32:34.504.28-Jan-2021 4557.01 3087.57 74.82 5.00  79.22 2527.68
   17:32:34.704.28-Jan-2021 4557.01 3087.60 74.82 5.00  79.42 2527.68
   17:32:34.904.28-Jan-2021 4557.01 3087.60 74.81 5.00  79.62 2527.68
   17:32:35.104.28-Jan-2021 4557.01 3087.62 74.81 5.00  79.82 2527.68
   17:32:35.304.28-Jan-2021 4557.01 3087.60 74.81 5.00  80.02 2527.68
   17:32:35.504.28-Jan-2021 4557.01 3087.60 74.81 5.00  80.22 2527.68
   17:32:35.705.28-Jan-2021 4557.01 3087.61 74.81 5.00  80.42 2527.68
   17:32:35.905.28-Jan-2021 4557.01 3087.61 74.81 5.00  80.62 2527.68
   17:32:36.105.28-Jan-2021 4557.01 3087.62 74.81 5.00  80.82 2527.68
   17:32:36.305.28-Jan-2021 4557.01 3087.63 74.81 5.00  81.02 2527.68
   17:32:36.505.28-Jan-2021 4557.01 3087.63 74.81 5.00  81.22 2527.68
   17:32:36.705.28-Jan-2021 4557.01 3087.61 74.81 5.00  81.42 2527.68
   17:32:36.905.28-Jan-2021 4557.01 3087.48 74.81 5.00  81.62 2527.68
   17:32:37.105.28-Jan-2021 4557.01 3087.70 74.81 5.00  81.82 2527.68
   17:32:37.305.28-Jan-2021 4557.01 3087.64 74.81 5.00  82.02 2527.68
   17:32:37.505.28-Jan-2021 4557.01 3087.64 74.81 5.00  82.22 2527.68
   17:32:37.705.28-Jan-2021 4557.01 3087.57 74.81 5.00  82.42 2527.68
   17:32:37.905.28-Jan-2021 4557.01 3087.68 74.81 5.00  82.62 2527.68
   17:32:38.105.28-Jan-2021 4557.01 3087.59 74.81 5.00  82.82 2527.68
   17:32:38.305.28-Jan-2021 4557.01 3087.63 74.80 5.00  83.02 2527.68
   17:32:38.505.28-Jan-2021 4557.01 3087.63 74.80 5.00  83.22 2527.68
   17:32:38.705.28-Jan-2021 4557.01 3087.60 74.80 5.00  83.42 2527.68
   17:32:38.905.28-Jan-2021 4557.01 3087.58 74.80 5.00  83.62 2527.68
   17:32:39.105.28-Jan-2021 4557.01 3087.66 74.80 5.00  83.82 2527.68
   17:32:39.305.28-Jan-2021 4557.01 3087.64 74.80 5.00  84.02 2527.68
   17:32:39.505.28-Jan-2021 4557.01 3087.64 74.80 5.00  84.22 2527.68
   17:32:39.705.28-Jan-2021 4557.01 3087.61 74.80 5.00  84.42 2527.68
   17:32:39.905.28-Jan-2021 4557.01 3087.69 74.80 5.00  84.62 2527.68
   17:32:40.105.28-Jan-2021 4557.01 3087.60 74.80 5.00  84.82 2527.68
   17:32:40.305.28-Jan-2021 4557.01 3087.69 74.80 5.00  85.02 2527.68
   17:32:40.505.28-Jan-2021 4557.01 3087.69 74.80 5.00  85.22 2527.68
   17:32:40.705.28-Jan-2021 4557.01 3087.73 74.80 5.00  85.42 2527.68
   17:32:40.906.28-Jan-2021 4557.01 3087.65 74.80 5.00  85.62 2527.68
   17:32:41.106.28-Jan-2021 4557.01 3087.61 74.80 5.00  85.82 2527.68
   17:32:41.306.28-Jan-2021 4557.01 3087.69 74.80 5.00  86.02 2527.68
   17:32:41.506.28-Jan-2021 4557.01 3087.69 74.80 5.00  86.22 2527.68
   17:32:41.706.28-Jan-2021 4557.01 3087.62 74.80 5.00  86.42 2527.68
   17:32:41.906.28-Jan-2021 4557.01 3087.64 74.79 5.00  86.62 2527.68
   17:32:42.106.28-Jan-2021 4557.01 3087.63 74.79 5.00  86.82 2527.68
   17:32:42.306.28-Jan-2021 4557.01 3087.65 74.79 5.00  87.02 2527.68
   17:32:42.506.28-Jan-2021 4557.01 3087.65 74.79 5.00  87.22 2527.68
   17:32:42.706.28-Jan-2021 4557.01 3087.65 74.79 5.00  87.42 2527.68
   17:32:42.906.28-Jan-2021 4557.01 3087.63 74.79 5.00  87.62 2527.68
   17:32:43.106.28-Jan-2021 4557.01 3087.66 74.79 5.00  87.82 2527.68
   17:32:43.306.28-Jan-2021 4557.01 3087.64 74.79 5.00  88.02 2527.68
   17:32:43.506.28-Jan-2021 4557.01 3087.64 74.79 5.00  88.22 2527.68
   17:32:43.706.28-Jan-2021 4557.01 3087.65 74.79 5.00  88.42 2527.68
   17:32:43.906.28-Jan-2021 4557.01 3087.65 74.79 5.00  88.62 2527.68
   17:32:44.106.28-Jan-2021 4557.01 3087.48 74.79 5.00  88.82 2527.68
   17:32:44.306.28-Jan-2021 4557.01 3087.73 74.79 5.00  89.02 2527.68
   17:32:44.506.28-Jan-2021 4557.01 3087.73 74.79 5.00  89.22 2527.68
   17:32:44.706.28-Jan-2021 4557.01 3087.61 74.79 5.00  89.42 2527.68
   17:32:44.906.28-Jan-2021 4557.01 3087.72 74.79 5.00  89.62 2527.68
   17:32:45.106.28-Jan-2021 4557.01 3087.63 74.79 5.00  89.82 2527.68
   17:32:45.306.28-Jan-2021 4557.01 3087.66 74.78 5.00  90.02 2527.68
   17:32:45.506.28-Jan-2021 4557.01 3087.66 74.78 5.00  90.22 2527.68
   17:32:45.706.28-Jan-2021 4557.01 3087.66 74.78 5.00  90.42 2527.68
   17:32:45.907.28-Jan-2021 4557.01 3087.65 74.78 5.00  90.62 2527.68
   17:32:46.107.28-Jan-2021 4557.01 3087.65 74.78 5.00  90.82 2527.68
   17:32:46.307.28-Jan-2021 4557.01 3087.67 74.78 5.00  91.02 2527.68
   17:32:46.507.28-Jan-2021 4557.01 3087.67 74.78 5.00  91.22 2527.68
   17:32:46.707.28-Jan-2021 4557.01 3087.66 74.78 5.00  91.42 2527.68
   17:32:46.907.28-Jan-2021 4557.01 3087.67 74.78 5.00  91.62 2527.68
   17:32:47.107.28-Jan-2021 4557.01 3087.66 74.78 5.00  91.82 2527.68
