~Version Information
 VERS.                  2.0:   CWLS log ASCII Standard -VERSION 2.0
 WRAP.                   NO:   One line per depth step
~Well Information Block
#MNEM.UNIT     VALUE/NAME     DESCRIPTION
#---------     -----------    ---------------------------
 STRT.S             02:53:50 29-Jan-21: START TIME 02:53:50 29-Jan-21
 STOP.S             03:00:20 29-Jan-21: STOP TIME  03:00:20 29-Jan-21
 STEP.S                   0.00: STEP TIME
 NULL.                 -999.25: NULL VALUE
 DFWT.                        :  DIST FWL TEXT
 DFST.                        :  DIST FSL TEXT
 DMF .             Drill Floor:  DRILL MEAS FROM
 STIM.      00.00.00 25-Sep-20:  START TIME
 DATE.      16.12.48 31-Jan-21:  END TIME
 SPUD.               20-Sep-20:  SPUD DATE
 NREF.                    Grid:  NORTH REFERENCE
 HPTY.       Minimum Curvature:  HOLE POS TYPE
 DMOD.             Drill Model:  DRILL MOD DESC
 SVYD.                  Survey:  SURVEY DESC
 ILTD.               Lithology:  INTERP LTH DESC
 FTOP.          Formation Tops:  FORM TOPS DESC
 RIG .              East Azeri:  RIG NAME
 PDAT.          Mean Sea Level:  PERMANENT DATUM
 FLD .                     ACG:  FIELD NAME
 SON .        AZ-XX-0906591820:  JOB NUMBER
 CTRY.              Azerbaijan:  COUNTRY NAME
 WELL.                     D37:  WELL NAME
 SRVC.     Turan Drilling & Engineering:  CONTRACTOR
 COMP.     BP Exploration (Caspian Sea) ltd.:  COMPANY
 WTYP.                Deviated:  WELL TYPE
 MDS .        Operator Entered:  MAG DATA SOURCE
 UWI .                     N/A:  UNIQUE WELL IDENTIFIER
 API .                     N/A:  API NUMBER
 BASE.              Azerbaijan:  LOGGING EQUIPMENT BASE LOCATION
 REGN.                   EESSA:  REGION
 PROV.                    Baku:  PROVINCE
 STAT.                    Baku:  STATE NAME
 MWDS.                    Baku:  MWD SHOP
 JOBN.        AZ-XX-0906591820:  JOB TICKET NUMB
 DOE .                     N/A:  DOE NUMBER
 DCON.         Sperry Drilling:  DIRECTNL CONTR
 UNIT.                     N/A:  LOGGING EQUIPMENT ID
 CNTY.                        :  COUNTY
 LOC .                        :  LOCATION
 LMF .             Drill Floor:  LOG MEASURED FROM
 TVDS.m                  43.60:  TVDSS CORRECTN
 LATI.deg                40.02:  LATITUDE
 LONG.deg                51.45:  LONGITUDE
 WHNS.m                  11.04:  WELL HEAD N/S
 WHEW.m                 -12.38:  WELL HEAD E/W
 UTMX.m              538763.98:  UTM X
 UTMY.m             4431880.20:  UTM Y
 DFWL.m                   0.00:  DISTANCE FWL
 DFSL.m                   0.00:  DISTANCE FSL
 SDEP.m                 300.00:  START DEPTH
 TDD .m                4900.01:  TOTAL DEPTH (DRILLER)
 VSDR.deg               185.64:  VERT SEC DIRECT
 GVFD.g                   1.00:  GRAVITY FIELD
 MFLD.nT              50301.00:  MAGNETIC FIELD
 MDIP.deg                59.46:  MAGNETIC DIP
 MDEC.deg                 6.43:  MAGNETIC DECL
 GRDC.deg                 0.29:  GRID CORRECTION
 AZTC.deg                 6.14:  AZM TOTAL CORR
 EPD .m                   0.00:  ELEVATION
 EGL .m                   0.00:  GROUND ELEVATION
 WDMS.m                 151.80:  WD ELEV
 APD .m                  43.60:  DEPTH ABOVE PD
 DEP .m                 571.69:  DEPTH
 AGAP.m                  43.60:  AIR GAP
 VSEW.m                 -12.38:  VERT SEC E/W
 VSNS.m                  11.04:  VERT SEC N/S
 EKB .m                  43.60:  KB ELEVATION
 EDF .m                  43.60:  DF ELEVATION
 TDL .m                 412.00:  TOTAL DEPTH (LOGGER)
 VSC .                       0:  VS TO CLOSURE
 MAGU.                 1849300:  MAGUTM CHECKSUM
~Parameter Information Block
#MNEM.UNIT       Value        Description
#---------     -----------    ---------------------------
 AV  .mps                 2.21:  Ann Velocity 
 AVMX.mps                 2.53:  Max Ann Veloc 
 AZIF.deg               144.83:  Azm, Final 
 BHAT.        Rotary Steerable:  BHA Type 
 BROT.°/30m              -0.52:  Build Rotating 
 BS  .in                  6.50:  Bit Size 
 BTPL.psig              209.00:  Bit Press Loss 
 CABU.                      No:  Customer Abuse 
 CGEO.        Ali Isfandiyarov:  Customer Geo 
 COMM.                     tÿr:  Run Comments 1 
 TCS .hr                 61.31:  Time Ciculation Ended 
 CV  .mps                 4.66:  Crit Velocity 
 CVMX.mps                 5.02:  Max Crit Veloc 
 DD1 .          Fariz Nahmatov:  Direct Drillr 1 
 DD2 .            Musa Ahmadov:  Direct Drillr 2 
 DDSV.               Geo-Pilot:  DD Service 
 DEFF.%                 100.00:  % Det Eff 
 DLRX.°/30m               1.44:  Dogleg Rot Max 
 DLSO.°/30m               0.83:  Dogleg Oriented 
 DLSX.°/30m               1.44:  Dogleg Str Max 
 DRET.      08.30.00 30-Jan-21:  Drill End Time 
 DRST.      21.15.00 27-Jan-21:  Drill Start Tim 
 DTIM.hr                 37.28:  Time Drilling 
 EDEP.m                4867.01:  End Depth 
 ENG1.          Rasim Hashimov:  Engineer 1 
 ENG2.         Almaz Almadatov:  Engineer 2 
 ENG3.        Tamerlan Ahmadov:  Engineer 3 
 ETIM.      22.41.04 31-Jan-21:  End Time 
 FLOI.gpm               400.00:  Flow In 
 FLON.gpm               300.00:  Flow In Min 
 FLOS.cptm                0.00:  Fluid Loss 
 FLOX.gpm               400.00:  Flow In Max 
 HFLO.                      No:  High Flow 
 HPRE.                      No:  High Pressure 
 HTEM.                      No:  High Temp 
 HYDO.m                   1.80:  Hydro Offset 
 IFIN.deg                65.63:  Inc, Final 
 IMAX.deg                66.77:  Inc Max 
 IMIN.deg                65.61:  Inc Min 
 IMND.m                4612.67:  Inc Min Depth 
 IMXD.m                4811.63:  Inc Max Depth 
 JARR.                      No:  Jarring 
 LETM.      08.30.00 30-Jan-21:  Log End Time 
 LOST.hr                     0:  Lost Rig Time 
 LSTM.      21.15.00 27-Jan-21:  Log Start Time 
 MDCL.ppm             41000.00:  Mud Chlorides 
 MDES.     Inversion Oil/Synthetic:  Mud Desc 
 DFD .sg                  1.40:  Mud Density 
 MDMN.sg                  1.40:  Dens Mud Min 
 MDMX.sg                  1.40:  Dens Mud Max 
 MOIL.                      53:  Run Mud Oil % 
 MOWR.                   66:34:  Run Mud OWR 
 MSND.                     0.2:  Run Mud Sand % 
 MSOL.                    17.9:  Run Mud Solids% 
 DFV .spqt               77.00:  Mud Viscosity 
 MWOD.in                  4.75:  MWD Tool OD 
 MWSI.                      No:  Serv Intrp, MWD 
 OTIM.hr                110.38:  Time Operating 
 PCON.           Look Like New:  Pad Condition 
 PMAX.psia             5300.00:  Press Op, Max 
 PV  .cP                 57.00:  Mud PV 
 RUN .                    1200:  Run Number 
 ROPA.m/hr               13.00:  ROP Avg 
 ROPN.m/hr                9.00:  ROP Min 
 ROPX.m/hr               15.00:  ROP Max 
 RPMA.rpm               120.00:  RPM Surface Avg 
 RPMN.rpm               100.00:  RPM Surface Min 
 RPMX.rpm               135.00:  RPM Surface Max 
 RRUN.                    1200:  Rig Run Number 
 RTIM.hr                  2.65:  Time Reaming 
 SAZI.deg               145.04:  Azm, Start 
 SDEP.m                4455.01:  Start Depth 
 SIDD.                      No:  Serv Intrp, DD 
 SINC.deg                65.83:  Inc, Start 
 SPPA.psig             5037.00:  SPP Avg 
 SPPN.psig             4430.00:  SPP Min 
 SPPX.psig             5300.00:  SPP Max 
 STIM.      22.41.04 26-Jan-21:  Start Time 
 SVCS.                 DD, MWD:  Services 
 SVER.                    9.20:  Sperry Version 
 TDAT.m                 412.00:  Tot Depth Attmp 
 TDDF.                      No:  Trip for DD 
 TDLG.m                 412.00:  Tot Depth Loggd 
 TFF .                      No:  Trip for Fail 
 TQAA.f-kp               15.00:  Torque Abs Avg 
 TQAN.f-kp               12.00:  Torque Abs Min 
 TQAX.f-kp               17.00:  Torque Abs Max 
 TRRT.°/30m               1.18:  Turn Rotating 
 MRT .                     ADR:  Maximum Recorded Temperature 
 TTMX.degC               88.24:  Max Tool Temp 
 VS01.                90619458:  Virtual Str1 SN 
 VS02.                90519326:  Virtual Str2 SN 
 VS03.                90522176:  Virtual Str3 SN 
 VS04.                90512683:  Virtual Str4 SN 
 WBMN.klb                 1.00:  WOB Min 
 WITN.           Murad Giluyev:  Customer Rep 
 WITN.     Kamran Kemberlinski:  Customer Rep 2 
 WOBA.klb                 5.00:  WOB Avg 
 WOBX.klb                 9.00:  WOB Max 
 YP  .lhf2               41.00:  Yield Point 
~Curve Information Block
#MNEM.UNIT                 API CODE     Curve Description
#---------               -----------    ---------------------------
 TIME.HHMMSS            00 000 000 000:  GT Time & Date
 GTDEPTH.m              00 000 000 000:  GT Depth
 GTPQH.psia             00 000 000 000:  GT HR Quartz Pressure
 GTTQ.degC              00 000 000 000:  GT Quartz Temperature
 GTTN.NONE              00 000 000 000:  GT Test Number
 GTET.sec               00 000 000 000:  GT Elapsed Test Time
 GTTVD.m                00 000 000 000:  GT True Vertical Depth
#Other Information
#
#WARRANTY: Halliburton will use its best efforts to furnish customers with 
#accurate information and interpretations that are part of, and incident to, the services 
#provided.  However, Halliburton cannot and does not warrant the accuracy 
#or correctness of such information and interpretations.  Under no circumstances should any 
#such information or interpretation be relied upon as the sole basis for any drilling, 
#completion, production, or financial decision or any procedure involving any risk to the 
#safety of any drilling venture, drilling rig or its crew or any other third party.  The 
#Customer has full responsibility for all drilling, completion and production operation.  
#Halliburton makes no representations or warranties, either expressed or 
#implied, including, but not limited to, the implied warranties of merchantability or fitness 
#for a particular purpose, with respect to the services rendered.  In no event will 
#Halliburton be liable for failure to obtain any particular results or for 
#any damages, including, but not limited to, indirect, special or consequential damages, 
#resulting from the use of any information or interpretation provided by Halliburton.
#
~A           TIME           GTDEPTH  GTPQH  GTTQ  GTTN  GTET   GTTVD  
# ...
   02:58:49.820.29-Jan-2021 4635.01 3260.45 77.07 7.00 299.04 2559.44
   02:58:50.020.29-Jan-2021 4635.01 3260.45 77.07 7.00 299.24 2559.44
   02:58:50.220.29-Jan-2021 4635.01 3260.44 77.07 7.00 299.44 2559.44
   02:58:50.420.29-Jan-2021 4635.01 3260.43 77.07 7.00 299.64 2559.44
   02:58:50.620.29-Jan-2021 4635.01 3260.47 77.07 7.00 299.84 2559.44
   02:58:50.820.29-Jan-2021 4635.01 3260.41 77.07 7.00 300.04 2559.44
   02:58:51.020.29-Jan-2021 4635.01 3260.41 77.07 7.00 300.24 2559.44
   02:58:51.220.29-Jan-2021 4635.01 3260.42 77.07 7.00 300.44 2559.44
   02:58:51.420.29-Jan-2021 4635.01 3260.44 77.07 7.00 300.64 2559.44
   02:58:51.620.29-Jan-2021 4635.01 3260.32 77.07 7.00 300.84 2559.44
   02:58:51.820.29-Jan-2021 4635.01 3260.59 77.07 7.00 301.04 2559.44
   02:58:52.020.29-Jan-2021 4635.01 3260.59 77.07 7.00 301.24 2559.44
   02:58:52.220.29-Jan-2021 4635.01 3260.48 77.07 7.00 301.44 2559.44
   02:58:52.420.29-Jan-2021 4635.01 3260.48 77.07 7.00 301.64 2559.44
   02:58:52.620.29-Jan-2021 4635.01 3260.49 77.07 7.00 301.84 2559.44
   02:58:52.820.29-Jan-2021 4635.01 3260.44 77.07 7.00 302.04 2559.44
   02:58:53.020.29-Jan-2021 4635.01 3260.44 77.07 7.00 302.24 2559.44
   02:58:53.220.29-Jan-2021 4635.01 3260.47 77.07 7.00 302.44 2559.44
   02:58:53.420.29-Jan-2021 4635.01 3260.43 77.07 7.00 302.64 2559.44
   02:58:53.621.29-Jan-2021 4635.01 3260.47 77.07 7.00 302.84 2559.44
   02:58:53.821.29-Jan-2021 4635.01 3260.42 77.07 7.00 303.04 2559.44
   02:58:54.021.29-Jan-2021 4635.01 3260.42 77.07 7.00 303.24 2559.44
   02:58:54.221.29-Jan-2021 4635.01 3260.42 77.07 7.00 303.44 2559.44
   02:58:54.421.29-Jan-2021 4635.01 3260.45 77.06 7.00 303.64 2559.44
   02:58:54.621.29-Jan-2021 4635.01 3260.42 77.06 7.00 303.84 2559.44
   02:58:54.821.29-Jan-2021 4635.01 3260.33 77.06 7.00 304.04 2559.44
   02:58:55.021.29-Jan-2021 4635.01 3260.33 77.06 7.00 304.24 2559.44
   02:58:55.221.29-Jan-2021 4635.01 3260.39 77.06 7.00 304.44 2559.44
   02:58:55.421.29-Jan-2021 4635.01 3260.50 77.06 7.00 304.64 2559.44
   02:58:55.621.29-Jan-2021 4635.01 3260.26 77.06 7.00 304.84 2559.44
   02:58:55.821.29-Jan-2021 4635.01 3260.69 77.06 7.00 305.04 2559.44
   02:58:56.021.29-Jan-2021 4635.01 3260.69 77.06 7.00 305.24 2559.44
   02:58:56.221.29-Jan-2021 4635.01 3260.50 77.06 7.00 305.44 2559.44
   02:58:56.421.29-Jan-2021 4635.01 3260.50 77.06 7.00 305.64 2559.44
   02:58:56.621.29-Jan-2021 4635.01 3260.53 77.06 7.00 305.84 2559.44
   02:58:56.821.29-Jan-2021 4635.01 3260.46 77.06 7.00 306.04 2559.44
   02:58:57.021.29-Jan-2021 4635.01 3260.46 77.06 7.00 306.24 2559.44
   02:58:57.221.29-Jan-2021 4635.01 3260.66 77.06 7.00 306.44 2559.44
   02:58:57.421.29-Jan-2021 4635.01 3260.47 77.06 7.00 306.64 2559.44
   02:58:57.621.29-Jan-2021 4635.01 3260.44 77.06 7.00 306.84 2559.44
   02:58:57.821.29-Jan-2021 4635.01 3260.51 77.06 7.00 307.04 2559.44
   02:58:58.021.29-Jan-2021 4635.01 3260.51 77.06 7.00 307.24 2559.44
   02:58:58.221.29-Jan-2021 4635.01 3260.66 77.06 7.00 307.44 2559.44
   02:58:58.421.29-Jan-2021 4635.01 3260.43 77.06 7.00 307.64 2559.44
   02:58:58.621.29-Jan-2021 4635.01 3260.51 77.06 7.00 307.84 2559.44
   02:58:58.821.29-Jan-2021 4635.01 3260.48 77.06 7.00 308.04 2559.44
   02:58:59.021.29-Jan-2021 4635.01 3260.48 77.06 7.00 308.24 2559.44
   02:58:59.221.29-Jan-2021 4635.01 3260.24 77.06 7.00 308.44 2559.44
   02:58:59.421.29-Jan-2021 4635.01 3260.64 77.06 7.00 308.64 2559.44
   02:58:59.621.29-Jan-2021 4635.01 3260.50 77.06 7.00 308.84 2559.44
   02:58:59.821.29-Jan-2021 4635.01 3260.43 77.06 7.00 309.04 2559.44
   02:59:00.021.29-Jan-2021 4635.01 3260.43 77.06 7.00 309.24 2559.44
   02:59:00.221.29-Jan-2021 4635.01 3260.48 77.06 7.00 309.44 2559.44
   02:59:00.421.29-Jan-2021 4635.01 3260.49 77.06 7.00 309.64 2559.44
   02:59:00.622.29-Jan-2021 4635.01 3260.46 77.06 7.00 309.84 2559.44
   02:59:00.822.29-Jan-2021 4635.01 3260.49 77.06 7.00 310.04 2559.44
   02:59:01.022.29-Jan-2021 4635.01 3260.49 77.06 7.00 310.24 2559.44
   02:59:01.222.29-Jan-2021 4635.01 3260.47 77.05 7.00 310.44 2559.44
   02:59:01.422.29-Jan-2021 4635.01 3260.45 77.05 7.00 310.64 2559.44
   02:59:01.622.29-Jan-2021 4635.01 3260.46 77.05 7.00 310.84 2559.44
   02:59:01.822.29-Jan-2021 4635.01 3260.46 77.05 7.00 311.04 2559.44
   02:59:02.022.29-Jan-2021 4635.01 3260.46 77.05 7.00 311.24 2559.44
   02:59:02.222.29-Jan-2021 4635.01 3260.46 77.05 7.00 311.44 2559.44
   02:59:02.422.29-Jan-2021 4635.01 3260.43 77.05 7.00 311.64 2559.44
   02:59:02.622.29-Jan-2021 4635.01 3260.46 77.05 7.00 311.84 2559.44
   02:59:02.822.29-Jan-2021 4635.01 3260.22 77.05 7.00 312.04 2559.44
   02:59:03.022.29-Jan-2021 4635.01 3260.22 77.05 7.00 312.24 2559.44
   02:59:03.222.29-Jan-2021 4635.01 3260.43 77.05 7.00 312.44 2559.44
   02:59:03.422.29-Jan-2021 4635.01 3260.49 77.05 7.00 312.64 2559.44
   02:59:03.622.29-Jan-2021 4635.01 3260.47 77.05 7.00 312.84 2559.44
   02:59:03.822.29-Jan-2021 4635.01 3260.53 77.05 7.00 313.04 2559.44
   02:59:04.022.29-Jan-2021 4635.01 3260.53 77.05 7.00 313.24 2559.44
   02:59:04.222.29-Jan-2021 4635.01 3260.50 77.05 7.00 313.44 2559.44
   02:59:04.422.29-Jan-2021 4635.01 3260.47 77.05 7.00 313.64 2559.44
   02:59:04.622.29-Jan-2021 4635.01 3260.46 77.05 7.00 313.84 2559.44
   02:59:04.822.29-Jan-2021 4635.01 3260.46 77.05 7.00 314.04 2559.44
   02:59:05.022.29-Jan-2021 4635.01 3260.46 77.05 7.00 314.24 2559.44
   02:59:05.222.29-Jan-2021 4635.01 3260.46 77.05 7.00 314.44 2559.44
   02:59:05.422.29-Jan-2021 4635.01 3260.45 77.05 7.00 314.64 2559.44
   02:59:05.622.29-Jan-2021 4635.01 3260.44 77.05 7.00 314.84 2559.44
   02:59:05.822.29-Jan-2021 4635.01 3260.45 77.05 7.00 315.04 2559.44
   02:59:06.022.29-Jan-2021 4635.01 3260.45 77.05 7.00 315.24 2559.44
   02:59:06.222.29-Jan-2021 4635.01 3260.63 77.05 7.00 315.44 2559.44
   02:59:06.422.29-Jan-2021 4635.01 3260.47 77.05 7.00 315.64 2559.44
   02:59:06.622.29-Jan-2021 4635.01 3260.46 77.05 7.00 315.84 2559.44
   02:59:06.822.29-Jan-2021 4635.01 3260.40 77.05 7.00 316.04 2559.44
   02:59:07.022.29-Jan-2021 4635.01 3260.40 77.05 7.00 316.24 2559.44
   02:59:07.222.29-Jan-2021 4635.01 3260.56 77.05 7.00 316.44 2559.44
   02:59:07.422.29-Jan-2021 4635.01 3260.41 77.04 7.00 316.64 2559.44
   02:59:07.622.29-Jan-2021 4635.01 3260.57 77.04 7.00 316.84 2559.44
   02:59:07.823.29-Jan-2021 4635.01 3260.48 77.04 7.00 317.04 2559.44
   02:59:08.023.29-Jan-2021 4635.01 3260.48 77.04 7.00 317.24 2559.44
   02:59:08.223.29-Jan-2021 4635.01 3260.35 77.04 7.00 317.44 2559.44
   02:59:08.423.29-Jan-2021 4635.01 3260.57 77.04 7.00 317.64 2559.44
   02:59:08.623.29-Jan-2021 4635.01 3260.53 77.04 7.00 317.84 2559.44
   02:59:08.823.29-Jan-2021 4635.01 3260.40 77.04 7.00 318.04 2559.44
   02:59:09.023.29-Jan-2021 4635.01 3260.40 77.04 7.00 318.24 2559.44
   02:59:09.223.29-Jan-2021 4635.01 3260.37 77.04 7.00 318.44 2559.44
   02:59:09.423.29-Jan-2021 4635.01 3260.59 77.04 7.00 318.64 2559.44
   02:59:09.623.29-Jan-2021 4635.01 3260.50 77.04 7.00 318.84 2559.44
   02:59:09.823.29-Jan-2021 4635.01 3260.47 77.04 7.00 319.04 2559.44
   02:59:10.023.29-Jan-2021 4635.01 3260.47 77.04 7.00 319.24 2559.44
   02:59:10.223.29-Jan-2021 4635.01 3260.51 77.04 7.00 319.44 2559.44
   02:59:10.423.29-Jan-2021 4635.01 3260.37 77.04 7.00 319.64 2559.44
   02:59:10.623.29-Jan-2021 4635.01 3260.54 77.04 7.00 319.84 2559.44
   02:59:10.823.29-Jan-2021 4635.01 3260.54 77.04 7.00 320.04 2559.44
   02:59:11.023.29-Jan-2021 4635.01 3260.54 77.04 7.00 320.24 2559.44
   02:59:11.223.29-Jan-2021 4635.01 3260.51 77.04 7.00 320.44 2559.44
   02:59:11.423.29-Jan-2021 4635.01 3260.52 77.04 7.00 320.64 2559.44
   02:59:11.623.29-Jan-2021 4635.01 3260.49 77.04 7.00 320.84 2559.44
   02:59:11.823.29-Jan-2021 4635.01 3260.48 77.04 7.00 321.04 2559.44
   02:59:12.023.29-Jan-2021 4635.01 3260.48 77.04 7.00 321.24 2559.44
   02:59:12.223.29-Jan-2021 4635.01 3260.46 77.04 7.00 321.44 2559.44
   02:59:12.423.29-Jan-2021 4635.01 3260.49 77.04 7.00 321.64 2559.44
   02:59:12.623.29-Jan-2021 4635.01 3260.47 77.04 7.00 321.84 2559.44
