~Version Information
 VERS.                  2.0:   CWLS log ASCII Standard -VERSION 2.0
 WRAP.                   NO:   One line per depth step
~Well Information Block
#MNEM.UNIT     VALUE/NAME     DESCRIPTION
#---------     -----------    ---------------------------
 STRT.S             01:54:12 30-Jan-21: START TIME 01:54:12 30-Jan-21
 STOP.S             02:00:42 30-Jan-21: STOP TIME  02:00:42 30-Jan-21
 STEP.S                   0.00: STEP TIME
 NULL.                 -999.25: NULL VALUE
 DFWT.                        :  DIST FWL TEXT
 DFST.                        :  DIST FSL TEXT
 DMF .             Drill Floor:  DRILL MEAS FROM
 STIM.      00.00.00 25-Sep-20:  START TIME
 DATE.      16.12.48 31-Jan-21:  END TIME
 SPUD.               20-Sep-20:  SPUD DATE
 NREF.                    Grid:  NORTH REFERENCE
 HPTY.       Minimum Curvature:  HOLE POS TYPE
 DMOD.             Drill Model:  DRILL MOD DESC
 SVYD.                  Survey:  SURVEY DESC
 ILTD.               Lithology:  INTERP LTH DESC
 FTOP.          Formation Tops:  FORM TOPS DESC
 RIG .              East Azeri:  RIG NAME
 PDAT.          Mean Sea Level:  PERMANENT DATUM
 FLD .                     ACG:  FIELD NAME
 SON .        AZ-XX-0906591820:  JOB NUMBER
 CTRY.              Azerbaijan:  COUNTRY NAME
 WELL.                     D37:  WELL NAME
 SRVC.     Turan Drilling & Engineering:  CONTRACTOR
 COMP.     BP Exploration (Caspian Sea) ltd.:  COMPANY
 WTYP.                Deviated:  WELL TYPE
 MDS .        Operator Entered:  MAG DATA SOURCE
 UWI .                     N/A:  UNIQUE WELL IDENTIFIER
 API .                     N/A:  API NUMBER
 BASE.              Azerbaijan:  LOGGING EQUIPMENT BASE LOCATION
 REGN.                   EESSA:  REGION
 PROV.                    Baku:  PROVINCE
 STAT.                    Baku:  STATE NAME
 MWDS.                    Baku:  MWD SHOP
 JOBN.        AZ-XX-0906591820:  JOB TICKET NUMB
 DOE .                     N/A:  DOE NUMBER
 DCON.         Sperry Drilling:  DIRECTNL CONTR
 UNIT.                     N/A:  LOGGING EQUIPMENT ID
 CNTY.                        :  COUNTY
 LOC .                        :  LOCATION
 LMF .             Drill Floor:  LOG MEASURED FROM
 TVDS.m                  43.60:  TVDSS CORRECTN
 LATI.deg                40.02:  LATITUDE
 LONG.deg                51.45:  LONGITUDE
 WHNS.m                  11.04:  WELL HEAD N/S
 WHEW.m                 -12.38:  WELL HEAD E/W
 UTMX.m              538763.98:  UTM X
 UTMY.m             4431880.20:  UTM Y
 DFWL.m                   0.00:  DISTANCE FWL
 DFSL.m                   0.00:  DISTANCE FSL
 SDEP.m                 300.00:  START DEPTH
 TDD .m                4900.01:  TOTAL DEPTH (DRILLER)
 VSDR.deg               185.64:  VERT SEC DIRECT
 GVFD.g                   1.00:  GRAVITY FIELD
 MFLD.nT              50301.00:  MAGNETIC FIELD
 MDIP.deg                59.46:  MAGNETIC DIP
 MDEC.deg                 6.43:  MAGNETIC DECL
 GRDC.deg                 0.29:  GRID CORRECTION
 AZTC.deg                 6.14:  AZM TOTAL CORR
 EPD .m                   0.00:  ELEVATION
 EGL .m                   0.00:  GROUND ELEVATION
 WDMS.m                 151.80:  WD ELEV
 APD .m                  43.60:  DEPTH ABOVE PD
 DEP .m                 571.69:  DEPTH
 AGAP.m                  43.60:  AIR GAP
 VSEW.m                 -12.38:  VERT SEC E/W
 VSNS.m                  11.04:  VERT SEC N/S
 EKB .m                  43.60:  KB ELEVATION
 EDF .m                  43.60:  DF ELEVATION
 TDL .m                 412.00:  TOTAL DEPTH (LOGGER)
 VSC .                       0:  VS TO CLOSURE
 MAGU.                 1849300:  MAGUTM CHECKSUM
~Parameter Information Block
#MNEM.UNIT       Value        Description
#---------     -----------    ---------------------------
 AV  .mps                 2.21:  Ann Velocity 
 AVMX.mps                 2.53:  Max Ann Veloc 
 AZIF.deg               144.83:  Azm, Final 
 BHAT.        Rotary Steerable:  BHA Type 
 BROT.°/30m              -0.52:  Build Rotating 
 BS  .in                  6.50:  Bit Size 
 BTPL.psig              209.00:  Bit Press Loss 
 CABU.                      No:  Customer Abuse 
 CGEO.        Ali Isfandiyarov:  Customer Geo 
 COMM.                     d!e:  Run Comments 1 
 TCS .hr                 61.31:  Time Ciculation Ended 
 CV  .mps                 4.66:  Crit Velocity 
 CVMX.mps                 5.02:  Max Crit Veloc 
 DD1 .          Fariz Nahmatov:  Direct Drillr 1 
 DD2 .            Musa Ahmadov:  Direct Drillr 2 
 DDSV.               Geo-Pilot:  DD Service 
 DEFF.%                 100.00:  % Det Eff 
 DLRX.°/30m               1.44:  Dogleg Rot Max 
 DLSO.°/30m               0.83:  Dogleg Oriented 
 DLSX.°/30m               1.44:  Dogleg Str Max 
 DRET.      08.30.00 30-Jan-21:  Drill End Time 
 DRST.      21.15.00 27-Jan-21:  Drill Start Tim 
 DTIM.hr                 37.28:  Time Drilling 
 EDEP.m                4867.01:  End Depth 
 ENG1.          Rasim Hashimov:  Engineer 1 
 ENG2.         Almaz Almadatov:  Engineer 2 
 ENG3.        Tamerlan Ahmadov:  Engineer 3 
 ETIM.      22.41.04 31-Jan-21:  End Time 
 FLOI.gpm               400.00:  Flow In 
 FLON.gpm               300.00:  Flow In Min 
 FLOS.cptm                0.00:  Fluid Loss 
 FLOX.gpm               400.00:  Flow In Max 
 HFLO.                      No:  High Flow 
 HPRE.                      No:  High Pressure 
 HTEM.                      No:  High Temp 
 HYDO.m                   1.80:  Hydro Offset 
 IFIN.deg                65.63:  Inc, Final 
 IMAX.deg                66.77:  Inc Max 
 IMIN.deg                65.61:  Inc Min 
 IMND.m                4612.67:  Inc Min Depth 
 IMXD.m                4811.63:  Inc Max Depth 
 JARR.                      No:  Jarring 
 LETM.      08.30.00 30-Jan-21:  Log End Time 
 LOST.hr                     0:  Lost Rig Time 
 LSTM.      21.15.00 27-Jan-21:  Log Start Time 
 MDCL.ppm             41000.00:  Mud Chlorides 
 MDES.     Inversion Oil/Synthetic:  Mud Desc 
 DFD .sg                  1.40:  Mud Density 
 MDMN.sg                  1.40:  Dens Mud Min 
 MDMX.sg                  1.40:  Dens Mud Max 
 MOIL.                      53:  Run Mud Oil % 
 MOWR.                   66:34:  Run Mud OWR 
 MSND.                     0.2:  Run Mud Sand % 
 MSOL.                    17.9:  Run Mud Solids% 
 DFV .spqt               77.00:  Mud Viscosity 
 MWOD.in                  4.75:  MWD Tool OD 
 MWSI.                      No:  Serv Intrp, MWD 
 OTIM.hr                110.38:  Time Operating 
 PCON.           Look Like New:  Pad Condition 
 PMAX.psia             5300.00:  Press Op, Max 
 PV  .cP                 57.00:  Mud PV 
 RUN .                    1200:  Run Number 
 ROPA.m/hr               13.00:  ROP Avg 
 ROPN.m/hr                9.00:  ROP Min 
 ROPX.m/hr               15.00:  ROP Max 
 RPMA.rpm               120.00:  RPM Surface Avg 
 RPMN.rpm               100.00:  RPM Surface Min 
 RPMX.rpm               135.00:  RPM Surface Max 
 RRUN.                    1200:  Rig Run Number 
 RTIM.hr                  2.65:  Time Reaming 
 SAZI.deg               145.04:  Azm, Start 
 SDEP.m                4455.01:  Start Depth 
 SIDD.                      No:  Serv Intrp, DD 
 SINC.deg                65.83:  Inc, Start 
 SPPA.psig             5037.00:  SPP Avg 
 SPPN.psig             4430.00:  SPP Min 
 SPPX.psig             5300.00:  SPP Max 
 STIM.      22.41.04 26-Jan-21:  Start Time 
 SVCS.                 DD, MWD:  Services 
 SVER.                    9.20:  Sperry Version 
 TDAT.m                 412.00:  Tot Depth Attmp 
 TDDF.                      No:  Trip for DD 
 TDLG.m                 412.00:  Tot Depth Loggd 
 TFF .                      No:  Trip for Fail 
 TQAA.f-kp               15.00:  Torque Abs Avg 
 TQAN.f-kp               12.00:  Torque Abs Min 
 TQAX.f-kp               17.00:  Torque Abs Max 
 TRRT.°/30m               1.18:  Turn Rotating 
 MRT .                     ADR:  Maximum Recorded Temperature 
 TTMX.degC               88.24:  Max Tool Temp 
 VS01.                90619458:  Virtual Str1 SN 
 VS02.                90519326:  Virtual Str2 SN 
 VS03.                90522176:  Virtual Str3 SN 
 VS04.                90512683:  Virtual Str4 SN 
 WBMN.klb                 1.00:  WOB Min 
 WITN.           Murad Giluyev:  Customer Rep 
 WITN.     Kamran Kemberlinski:  Customer Rep 2 
 WOBA.klb                 5.00:  WOB Avg 
 WOBX.klb                 9.00:  WOB Max 
 YP  .lhf2               41.00:  Yield Point 
~Curve Information Block
#MNEM.UNIT                 API CODE     Curve Description
#---------               -----------    ---------------------------
 TIME.HHMMSS            00 000 000 000:  GT Time & Date
 GTDEPTH.m              00 000 000 000:  GT Depth
 GTPQH.psia             00 000 000 000:  GT HR Quartz Pressure
 GTTQ.degC              00 000 000 000:  GT Quartz Temperature
 GTTN.NONE              00 000 000 000:  GT Test Number
 GTET.sec               00 000 000 000:  GT Elapsed Test Time
 GTTVD.m                00 000 000 000:  GT True Vertical Depth
#Other Information
#
#WARRANTY: Halliburton will use its best efforts to furnish customers with 
#accurate information and interpretations that are part of, and incident to, the services 
#provided.  However, Halliburton cannot and does not warrant the accuracy 
#or correctness of such information and interpretations.  Under no circumstances should any 
#such information or interpretation be relied upon as the sole basis for any drilling, 
#completion, production, or financial decision or any procedure involving any risk to the 
#safety of any drilling venture, drilling rig or its crew or any other third party.  The 
#Customer has full responsibility for all drilling, completion and production operation.  
#Halliburton makes no representations or warranties, either expressed or 
#implied, including, but not limited to, the implied warranties of merchantability or fitness 
#for a particular purpose, with respect to the services rendered.  In no event will 
#Halliburton be liable for failure to obtain any particular results or for 
#any damages, including, but not limited to, indirect, special or consequential damages, 
#resulting from the use of any information or interpretation provided by Halliburton.
#
~A           TIME           GTDEPTH  GTPQH  GTTQ  GTTN   GTET   GTTVD  
# ...
   01:55:43.344.30-Jan-2021 4790.01 5738.93 80.59 16.00  90.42 2621.59
   01:55:43.544.30-Jan-2021 4790.01 5734.54 80.59 16.00  90.62 2621.59
   01:55:43.744.30-Jan-2021 4790.01 5735.30 80.59 16.00  90.82 2621.59
   01:55:43.944.30-Jan-2021 4790.01 5736.36 80.59 16.00  91.02 2621.59
   01:55:44.144.30-Jan-2021 4790.01 5736.36 80.59 16.00  91.22 2621.59
   01:55:44.344.30-Jan-2021 4790.01 5737.81 80.59 16.00  91.42 2621.59
   01:55:44.544.30-Jan-2021 4790.01 5737.18 80.59 16.00  91.62 2621.59
   01:55:44.744.30-Jan-2021 4790.01 5734.77 80.59 16.00  91.82 2621.59
   01:55:44.944.30-Jan-2021 4790.01 5733.45 80.59 16.00  92.02 2621.59
   01:55:45.144.30-Jan-2021 4790.01 5733.45 80.59 16.00  92.22 2621.59
   01:55:45.344.30-Jan-2021 4790.01 5739.31 80.59 16.00  92.42 2621.59
   01:55:45.544.30-Jan-2021 4790.01 5736.80 80.59 16.00  92.62 2621.59
   01:55:45.744.30-Jan-2021 4790.01 5733.36 80.59 16.00  92.82 2621.59
   01:55:45.944.30-Jan-2021 4790.01 5737.99 80.59 16.00  93.02 2621.59
   01:55:46.144.30-Jan-2021 4790.01 5737.99 80.59 16.00  93.22 2621.59
   01:55:46.344.30-Jan-2021 4790.01 5738.53 80.59 16.00  93.42 2621.59
   01:55:46.544.30-Jan-2021 4790.01 5736.64 80.59 16.00  93.62 2621.59
   01:55:46.744.30-Jan-2021 4790.01 5736.94 80.59 16.00  93.82 2621.59
   01:55:46.944.30-Jan-2021 4790.01 5737.83 80.59 16.00  94.02 2621.59
   01:55:47.144.30-Jan-2021 4790.01 5737.83 80.59 16.00  94.22 2621.59
   01:55:47.344.30-Jan-2021 4790.01 5737.60 80.59 16.00  94.42 2621.59
   01:55:47.544.30-Jan-2021 4790.01 5737.64 80.59 16.00  94.62 2621.59
   01:55:47.744.30-Jan-2021 4790.01 5737.47 80.59 16.00  94.82 2621.59
   01:55:47.945.30-Jan-2021 4790.01 5738.08 80.59 16.00  95.02 2621.59
   01:55:48.145.30-Jan-2021 4790.01 5738.08 80.59 16.00  95.22 2621.59
   01:55:48.345.30-Jan-2021 4790.01 5735.20 80.59 16.00  95.42 2621.59
   01:55:48.545.30-Jan-2021 4790.01 5735.33 80.58 16.00  95.62 2621.59
   01:55:48.745.30-Jan-2021 4790.01 5737.24 80.58 16.00  95.82 2621.59
   01:55:48.945.30-Jan-2021 4790.01 5737.42 80.58 16.00  96.02 2621.59
   01:55:49.145.30-Jan-2021 4790.01 5737.42 80.58 16.00  96.22 2621.59
   01:55:49.345.30-Jan-2021 4790.01 5738.00 80.58 16.00  96.42 2621.59
   01:55:49.545.30-Jan-2021 4790.01 5737.28 80.58 16.00  96.62 2621.59
   01:55:49.745.30-Jan-2021 4790.01 5738.46 80.58 16.00  96.82 2621.59
   01:55:49.945.30-Jan-2021 4790.01 5738.83 80.58 16.00  97.02 2621.59
   01:55:50.145.30-Jan-2021 4790.01 5738.83 80.58 16.00  97.22 2621.59
   01:55:50.345.30-Jan-2021 4790.01 5738.09 80.58 16.00  97.42 2621.59
   01:55:50.545.30-Jan-2021 4790.01 5737.95 80.58 16.00  97.62 2621.59
   01:55:50.745.30-Jan-2021 4790.01 5738.59 80.58 16.00  97.82 2621.59
   01:55:50.945.30-Jan-2021 4790.01 5738.27 80.58 16.00  98.02 2621.59
   01:55:51.145.30-Jan-2021 4790.01 5738.27 80.58 16.00  98.22 2621.59
   01:55:51.345.30-Jan-2021 4790.01 5737.82 80.58 16.00  98.42 2621.59
   01:55:51.545.30-Jan-2021 4790.01 5738.19 80.58 16.00  98.62 2621.59
   01:55:51.745.30-Jan-2021 4790.01 5736.01 80.58 16.00  98.82 2621.59
   01:55:51.945.30-Jan-2021 4790.01 5735.97 80.58 16.00  99.02 2621.59
   01:55:52.145.30-Jan-2021 4790.01 5735.97 80.58 16.00  99.22 2621.59
   01:55:52.345.30-Jan-2021 4790.01 5737.89 80.58 16.00  99.42 2621.59
   01:55:52.545.30-Jan-2021 4790.01 5738.69 80.58 16.00  99.62 2621.59
   01:55:52.745.30-Jan-2021 4790.01 5730.39 80.58 16.00  99.82 2621.59
   01:55:52.945.30-Jan-2021 4790.01 5737.35 80.58 16.00 100.02 2621.59
   01:55:53.146.30-Jan-2021 4790.01 5737.35 80.58 16.00 100.22 2621.59
   01:55:53.346.30-Jan-2021 4790.01 5740.03 80.58 16.00 100.42 2621.59
   01:55:53.546.30-Jan-2021 4790.01 5733.77 80.58 16.00 100.62 2621.59
   01:55:53.746.30-Jan-2021 4790.01 5731.74 80.58 16.00 100.82 2621.59
   01:55:53.946.30-Jan-2021 4790.01 5740.18 80.58 16.00 101.02 2621.59
   01:55:54.146.30-Jan-2021 4790.01 5740.18 80.58 16.00 101.22 2621.59
   01:55:54.346.30-Jan-2021 4790.01 5738.44 80.58 16.00 101.42 2621.59
   01:55:54.546.30-Jan-2021 4790.01 5735.45 80.58 16.00 101.62 2621.59
   01:55:54.746.30-Jan-2021 4790.01 5735.81 80.58 16.00 101.82 2621.59
   01:55:54.946.30-Jan-2021 4790.01 5737.57 80.58 16.00 102.02 2621.59
   01:55:55.146.30-Jan-2021 4790.01 5737.57 80.58 16.00 102.22 2621.59
   01:55:55.346.30-Jan-2021 4790.01 5738.51 80.58 16.00 102.42 2621.59
   01:55:55.546.30-Jan-2021 4790.01 5738.14 80.58 16.00 102.62 2621.59
   01:55:55.746.30-Jan-2021 4790.01 5731.24 80.58 16.00 102.82 2621.59
   01:55:55.946.30-Jan-2021 4790.01 5739.27 80.58 16.00 103.02 2621.59
   01:55:56.146.30-Jan-2021 4790.01 5739.27 80.58 16.00 103.22 2621.59
   01:55:56.346.30-Jan-2021 4790.01 5741.23 80.58 16.00 103.42 2621.59
   01:55:56.546.30-Jan-2021 4790.01 5733.99 80.58 16.00 103.62 2621.59
   01:55:56.746.30-Jan-2021 4790.01 5739.18 80.58 16.00 103.82 2621.59
   01:55:56.946.30-Jan-2021 4790.01 5740.17 80.58 16.00 104.02 2621.59
   01:55:57.146.30-Jan-2021 4790.01 5740.17 80.58 16.00 104.22 2621.59
   01:55:57.346.30-Jan-2021 4790.01 5738.53 80.58 16.00 104.42 2621.59
   01:55:57.546.30-Jan-2021 4790.01 5738.91 80.58 16.00 104.62 2621.59
   01:55:57.746.30-Jan-2021 4790.01 5739.45 80.58 16.00 104.82 2621.59
   01:55:57.946.30-Jan-2021 4790.01 5740.01 80.58 16.00 105.02 2621.59
   01:55:58.146.30-Jan-2021 4790.01 5740.01 80.58 16.00 105.22 2621.59
   01:55:58.347.30-Jan-2021 4790.01 5739.11 80.58 16.00 105.42 2621.59
   01:55:58.547.30-Jan-2021 4790.01 5738.83 80.58 16.00 105.62 2621.59
   01:55:58.747.30-Jan-2021 4790.01 5739.37 80.58 16.00 105.82 2621.59
   01:55:58.947.30-Jan-2021 4790.01 5739.42 80.58 16.00 106.02 2621.59
   01:55:59.147.30-Jan-2021 4790.01 5739.42 80.58 16.00 106.22 2621.59
   01:55:59.347.30-Jan-2021 4790.01 5736.64 80.58 16.00 106.42 2621.59
   01:55:59.547.30-Jan-2021 4790.01 5738.43 80.58 16.00 106.62 2621.59
   01:55:59.747.30-Jan-2021 4790.01 5738.57 80.58 16.00 106.82 2621.59
   01:55:59.947.30-Jan-2021 4790.01 5739.12 80.58 16.00 107.02 2621.59
   01:56:00.147.30-Jan-2021 4790.01 5739.12 80.58 16.00 107.22 2621.59
   01:56:00.347.30-Jan-2021 4790.01 5738.48 80.58 16.00 107.42 2621.59
   01:56:00.547.30-Jan-2021 4790.01 5739.27 80.58 16.00 107.62 2621.59
   01:56:00.747.30-Jan-2021 4790.01 5739.82 80.58 16.00 107.82 2621.59
   01:56:00.947.30-Jan-2021 4790.01 5737.77 80.58 16.00 108.02 2621.59
   01:56:01.147.30-Jan-2021 4790.01 5737.77 80.58 16.00 108.22 2621.59
   01:56:01.347.30-Jan-2021 4790.01 5738.89 80.58 16.00 108.42 2621.59
   01:56:01.547.30-Jan-2021 4790.01 5739.37 80.58 16.00 108.62 2621.59
   01:56:01.747.30-Jan-2021 4790.01 5738.86 80.57 16.00 108.82 2621.59
   01:56:01.947.30-Jan-2021 4790.01 5738.64 80.57 16.00 109.02 2621.59
   01:56:02.147.30-Jan-2021 4790.01 5738.64 80.57 16.00 109.22 2621.59
   01:56:02.347.30-Jan-2021 4790.01 5738.75 80.57 16.00 109.42 2621.59
   01:56:02.547.30-Jan-2021 4790.01 5736.50 80.57 16.00 109.62 2621.59
   01:56:02.747.30-Jan-2021 4790.01 5736.75 80.57 16.00 109.82 2621.59
   01:56:02.947.30-Jan-2021 4790.01 5738.28 80.57 16.00 110.02 2621.59
   01:56:03.147.30-Jan-2021 4790.01 5738.28 80.57 16.00 110.22 2621.59
   01:56:03.347.30-Jan-2021 4790.01 5739.10 80.57 16.00 110.42 2621.59
   01:56:03.548.30-Jan-2021 4790.01 5730.95 80.57 16.00 110.62 2621.59
   01:56:03.748.30-Jan-2021 4790.01 5737.88 80.57 16.00 110.82 2621.59
   01:56:03.948.30-Jan-2021 4790.01 5739.96 80.57 16.00 111.02 2621.59
   01:56:04.148.30-Jan-2021 4790.01 5739.96 80.57 16.00 111.22 2621.59
   01:56:04.348.30-Jan-2021 4790.01 5734.33 80.57 16.00 111.42 2621.59
   01:56:04.548.30-Jan-2021 4790.01 5732.00 80.57 16.00 111.62 2621.59
   01:56:04.748.30-Jan-2021 4790.01 5740.60 80.57 16.00 111.82 2621.59
   01:56:04.948.30-Jan-2021 4790.01 5742.30 80.57 16.00 112.02 2621.59
   01:56:05.148.30-Jan-2021 4790.01 5742.30 80.57 16.00 112.22 2621.59
   01:56:05.348.30-Jan-2021 4790.01 5735.74 80.57 16.00 112.42 2621.59
   01:56:05.548.30-Jan-2021 4790.01 5736.32 80.57 16.00 112.62 2621.59
   01:56:05.748.30-Jan-2021 4790.01 5738.18 80.57 16.00 112.82 2621.59
