~Version Information
 VERS.                  2.0:   CWLS log ASCII Standard -VERSION 2.0
 WRAP.                   NO:   One line per depth step
~Well Information Block
#MNEM.UNIT     VALUE/NAME     DESCRIPTION
#---------     -----------    ---------------------------
 STRT.S             18:28:03 29-Jan-21: START TIME 18:28:03 29-Jan-21
 STOP.S             18:34:33 29-Jan-21: STOP TIME  18:34:33 29-Jan-21
 STEP.S                   0.00: STEP TIME
 NULL.                 -999.25: NULL VALUE
 DFWT.                        :  DIST FWL TEXT
 DFST.                        :  DIST FSL TEXT
 DMF .             Drill Floor:  DRILL MEAS FROM
 STIM.      00.00.00 25-Sep-20:  START TIME
 DATE.      16.12.48 31-Jan-21:  END TIME
 SPUD.               20-Sep-20:  SPUD DATE
 NREF.                    Grid:  NORTH REFERENCE
 HPTY.       Minimum Curvature:  HOLE POS TYPE
 DMOD.             Drill Model:  DRILL MOD DESC
 SVYD.                  Survey:  SURVEY DESC
 ILTD.               Lithology:  INTERP LTH DESC
 FTOP.          Formation Tops:  FORM TOPS DESC
 RIG .              East Azeri:  RIG NAME
 PDAT.          Mean Sea Level:  PERMANENT DATUM
 FLD .                     ACG:  FIELD NAME
 SON .        AZ-XX-0906591820:  JOB NUMBER
 CTRY.              Azerbaijan:  COUNTRY NAME
 WELL.                     D37:  WELL NAME
 SRVC.     Turan Drilling & Engineering:  CONTRACTOR
 COMP.     BP Exploration (Caspian Sea) ltd.:  COMPANY
 WTYP.                Deviated:  WELL TYPE
 MDS .        Operator Entered:  MAG DATA SOURCE
 UWI .                     N/A:  UNIQUE WELL IDENTIFIER
 API .                     N/A:  API NUMBER
 BASE.              Azerbaijan:  LOGGING EQUIPMENT BASE LOCATION
 REGN.                   EESSA:  REGION
 PROV.                    Baku:  PROVINCE
 STAT.                    Baku:  STATE NAME
 MWDS.                    Baku:  MWD SHOP
 JOBN.        AZ-XX-0906591820:  JOB TICKET NUMB
 DOE .                     N/A:  DOE NUMBER
 DCON.         Sperry Drilling:  DIRECTNL CONTR
 UNIT.                     N/A:  LOGGING EQUIPMENT ID
 CNTY.                        :  COUNTY
 LOC .                        :  LOCATION
 LMF .             Drill Floor:  LOG MEASURED FROM
 TVDS.m                  43.60:  TVDSS CORRECTN
 LATI.deg                40.02:  LATITUDE
 LONG.deg                51.45:  LONGITUDE
 WHNS.m                  11.04:  WELL HEAD N/S
 WHEW.m                 -12.38:  WELL HEAD E/W
 UTMX.m              538763.98:  UTM X
 UTMY.m             4431880.20:  UTM Y
 DFWL.m                   0.00:  DISTANCE FWL
 DFSL.m                   0.00:  DISTANCE FSL
 SDEP.m                 300.00:  START DEPTH
 TDD .m                4900.01:  TOTAL DEPTH (DRILLER)
 VSDR.deg               185.64:  VERT SEC DIRECT
 GVFD.g                   1.00:  GRAVITY FIELD
 MFLD.nT              50301.00:  MAGNETIC FIELD
 MDIP.deg                59.46:  MAGNETIC DIP
 MDEC.deg                 6.43:  MAGNETIC DECL
 GRDC.deg                 0.29:  GRID CORRECTION
 AZTC.deg                 6.14:  AZM TOTAL CORR
 EPD .m                   0.00:  ELEVATION
 EGL .m                   0.00:  GROUND ELEVATION
 WDMS.m                 151.80:  WD ELEV
 APD .m                  43.60:  DEPTH ABOVE PD
 DEP .m                 571.69:  DEPTH
 AGAP.m                  43.60:  AIR GAP
 VSEW.m                 -12.38:  VERT SEC E/W
 VSNS.m                  11.04:  VERT SEC N/S
 EKB .m                  43.60:  KB ELEVATION
 EDF .m                  43.60:  DF ELEVATION
 TDL .m                 412.00:  TOTAL DEPTH (LOGGER)
 VSC .                       0:  VS TO CLOSURE
 MAGU.                 1849300:  MAGUTM CHECKSUM
~Parameter Information Block
#MNEM.UNIT       Value        Description
#---------     -----------    ---------------------------
 AV  .mps                 2.21:  Ann Velocity 
 AVMX.mps                 2.53:  Max Ann Veloc 
 AZIF.deg               144.83:  Azm, Final 
 BHAT.        Rotary Steerable:  BHA Type 
 BROT.°/30m              -0.52:  Build Rotating 
 BS  .in                  6.50:  Bit Size 
 BTPL.psig              209.00:  Bit Press Loss 
 CABU.                      No:  Customer Abuse 
 CGEO.        Ali Isfandiyarov:  Customer Geo 
 COMM.                     tðz:  Run Comments 1 
 TCS .hr                 61.31:  Time Ciculation Ended 
 CV  .mps                 4.66:  Crit Velocity 
 CVMX.mps                 5.02:  Max Crit Veloc 
 DD1 .          Fariz Nahmatov:  Direct Drillr 1 
 DD2 .            Musa Ahmadov:  Direct Drillr 2 
 DDSV.               Geo-Pilot:  DD Service 
 DEFF.%                 100.00:  % Det Eff 
 DLRX.°/30m               1.44:  Dogleg Rot Max 
 DLSO.°/30m               0.83:  Dogleg Oriented 
 DLSX.°/30m               1.44:  Dogleg Str Max 
 DRET.      08.30.00 30-Jan-21:  Drill End Time 
 DRST.      21.15.00 27-Jan-21:  Drill Start Tim 
 DTIM.hr                 37.28:  Time Drilling 
 EDEP.m                4867.01:  End Depth 
 ENG1.          Rasim Hashimov:  Engineer 1 
 ENG2.         Almaz Almadatov:  Engineer 2 
 ENG3.        Tamerlan Ahmadov:  Engineer 3 
 ETIM.      22.41.04 31-Jan-21:  End Time 
 FLOI.gpm               400.00:  Flow In 
 FLON.gpm               300.00:  Flow In Min 
 FLOS.cptm                0.00:  Fluid Loss 
 FLOX.gpm               400.00:  Flow In Max 
 HFLO.                      No:  High Flow 
 HPRE.                      No:  High Pressure 
 HTEM.                      No:  High Temp 
 HYDO.m                   1.80:  Hydro Offset 
 IFIN.deg                65.63:  Inc, Final 
 IMAX.deg                66.77:  Inc Max 
 IMIN.deg                65.61:  Inc Min 
 IMND.m                4612.67:  Inc Min Depth 
 IMXD.m                4811.63:  Inc Max Depth 
 JARR.                      No:  Jarring 
 LETM.      08.30.00 30-Jan-21:  Log End Time 
 LOST.hr                     0:  Lost Rig Time 
 LSTM.      21.15.00 27-Jan-21:  Log Start Time 
 MDCL.ppm             41000.00:  Mud Chlorides 
 MDES.     Inversion Oil/Synthetic:  Mud Desc 
 DFD .sg                  1.40:  Mud Density 
 MDMN.sg                  1.40:  Dens Mud Min 
 MDMX.sg                  1.40:  Dens Mud Max 
 MOIL.                      53:  Run Mud Oil % 
 MOWR.                   66:34:  Run Mud OWR 
 MSND.                     0.2:  Run Mud Sand % 
 MSOL.                    17.9:  Run Mud Solids% 
 DFV .spqt               77.00:  Mud Viscosity 
 MWOD.in                  4.75:  MWD Tool OD 
 MWSI.                      No:  Serv Intrp, MWD 
 OTIM.hr                110.38:  Time Operating 
 PCON.           Look Like New:  Pad Condition 
 PMAX.psia             5300.00:  Press Op, Max 
 PV  .cP                 57.00:  Mud PV 
 RUN .                    1200:  Run Number 
 ROPA.m/hr               13.00:  ROP Avg 
 ROPN.m/hr                9.00:  ROP Min 
 ROPX.m/hr               15.00:  ROP Max 
 RPMA.rpm               120.00:  RPM Surface Avg 
 RPMN.rpm               100.00:  RPM Surface Min 
 RPMX.rpm               135.00:  RPM Surface Max 
 RRUN.                    1200:  Rig Run Number 
 RTIM.hr                  2.65:  Time Reaming 
 SAZI.deg               145.04:  Azm, Start 
 SDEP.m                4455.01:  Start Depth 
 SIDD.                      No:  Serv Intrp, DD 
 SINC.deg                65.83:  Inc, Start 
 SPPA.psig             5037.00:  SPP Avg 
 SPPN.psig             4430.00:  SPP Min 
 SPPX.psig             5300.00:  SPP Max 
 STIM.      22.41.04 26-Jan-21:  Start Time 
 SVCS.                 DD, MWD:  Services 
 SVER.                    9.20:  Sperry Version 
 TDAT.m                 412.00:  Tot Depth Attmp 
 TDDF.                      No:  Trip for DD 
 TDLG.m                 412.00:  Tot Depth Loggd 
 TFF .                      No:  Trip for Fail 
 TQAA.f-kp               15.00:  Torque Abs Avg 
 TQAN.f-kp               12.00:  Torque Abs Min 
 TQAX.f-kp               17.00:  Torque Abs Max 
 TRRT.°/30m               1.18:  Turn Rotating 
 MRT .                     ADR:  Maximum Recorded Temperature 
 TTMX.degC               88.24:  Max Tool Temp 
 VS01.                90619458:  Virtual Str1 SN 
 VS02.                90519326:  Virtual Str2 SN 
 VS03.                90522176:  Virtual Str3 SN 
 VS04.                90512683:  Virtual Str4 SN 
 WBMN.klb                 1.00:  WOB Min 
 WITN.           Murad Giluyev:  Customer Rep 
 WITN.     Kamran Kemberlinski:  Customer Rep 2 
 WOBA.klb                 5.00:  WOB Avg 
 WOBX.klb                 9.00:  WOB Max 
 YP  .lhf2               41.00:  Yield Point 
~Curve Information Block
#MNEM.UNIT                 API CODE     Curve Description
#---------               -----------    ---------------------------
 TIME.HHMMSS            00 000 000 000:  GT Time & Date
 GTDEPTH.m              00 000 000 000:  GT Depth
 GTPQH.psia             00 000 000 000:  GT HR Quartz Pressure
 GTTQ.degC              00 000 000 000:  GT Quartz Temperature
 GTTN.NONE              00 000 000 000:  GT Test Number
 GTET.sec               00 000 000 000:  GT Elapsed Test Time
 GTTVD.m                00 000 000 000:  GT True Vertical Depth
#Other Information
#
#WARRANTY: Halliburton will use its best efforts to furnish customers with 
#accurate information and interpretations that are part of, and incident to, the services 
#provided.  However, Halliburton cannot and does not warrant the accuracy 
#or correctness of such information and interpretations.  Under no circumstances should any 
#such information or interpretation be relied upon as the sole basis for any drilling, 
#completion, production, or financial decision or any procedure involving any risk to the 
#safety of any drilling venture, drilling rig or its crew or any other third party.  The 
#Customer has full responsibility for all drilling, completion and production operation.  
#Halliburton makes no representations or warranties, either expressed or 
#implied, including, but not limited to, the implied warranties of merchantability or fitness 
#for a particular purpose, with respect to the services rendered.  In no event will 
#Halliburton be liable for failure to obtain any particular results or for 
#any damages, including, but not limited to, indirect, special or consequential damages, 
#resulting from the use of any information or interpretation provided by Halliburton.
#
~A           TIME           GTDEPTH  GTPQH  GTTQ  GTTN   GTET   GTTVD  
# ...
   18:30:41.852.29-Jan-2021 4752.01 3125.41 82.82 12.00 158.22 2606.49
   18:30:42.052.29-Jan-2021 4752.01 3125.41 82.82 12.00 158.42 2606.49
   18:30:42.252.29-Jan-2021 4752.01 3125.41 82.82 12.00 158.62 2606.49
   18:30:42.452.29-Jan-2021 4752.01 3125.41 82.82 12.00 158.82 2606.49
   18:30:42.652.29-Jan-2021 4752.01 3125.41 82.82 12.00 159.02 2606.49
   18:30:42.852.29-Jan-2021 4752.01 3125.41 82.82 12.00 159.22 2606.49
   18:30:43.052.29-Jan-2021 4752.01 3125.41 82.81 12.00 159.42 2606.49
   18:30:43.252.29-Jan-2021 4752.01 3125.40 82.81 12.00 159.62 2606.49
   18:30:43.452.29-Jan-2021 4752.01 3125.42 82.81 12.00 159.82 2606.49
   18:30:43.652.29-Jan-2021 4752.01 3125.42 82.81 12.00 160.02 2606.49
   18:30:43.852.29-Jan-2021 4752.01 3125.42 82.81 12.00 160.22 2606.49
   18:30:44.052.29-Jan-2021 4752.01 3125.40 82.81 12.00 160.42 2606.49
   18:30:44.252.29-Jan-2021 4752.01 3125.41 82.81 12.00 160.62 2606.49
   18:30:44.452.29-Jan-2021 4752.01 3125.44 82.81 12.00 160.82 2606.49
   18:30:44.652.29-Jan-2021 4752.01 3125.42 82.81 12.00 161.02 2606.49
   18:30:44.852.29-Jan-2021 4752.01 3125.42 82.81 12.00 161.22 2606.49
   18:30:45.052.29-Jan-2021 4752.01 3125.39 82.81 12.00 161.42 2606.49
   18:30:45.252.29-Jan-2021 4752.01 3125.45 82.81 12.00 161.62 2606.49
   18:30:45.452.29-Jan-2021 4752.01 3125.43 82.81 12.00 161.82 2606.49
   18:30:45.653.29-Jan-2021 4752.01 3125.42 82.81 12.00 162.02 2606.49
   18:30:45.853.29-Jan-2021 4752.01 3125.42 82.81 12.00 162.22 2606.49
   18:30:46.053.29-Jan-2021 4752.01 3125.41 82.80 12.00 162.42 2606.49
   18:30:46.253.29-Jan-2021 4752.01 3125.42 82.80 12.00 162.62 2606.49
   18:30:46.453.29-Jan-2021 4752.01 3125.43 82.80 12.00 162.82 2606.49
   18:30:46.653.29-Jan-2021 4752.01 3125.41 82.80 12.00 163.02 2606.49
   18:30:46.853.29-Jan-2021 4752.01 3125.41 82.80 12.00 163.22 2606.49
   18:30:47.053.29-Jan-2021 4752.01 3125.43 82.80 12.00 163.42 2606.49
   18:30:47.253.29-Jan-2021 4752.01 3125.42 82.80 12.00 163.62 2606.49
   18:30:47.453.29-Jan-2021 4752.01 3125.42 82.80 12.00 163.82 2606.49
   18:30:47.653.29-Jan-2021 4752.01 3125.39 82.80 12.00 164.02 2606.49
   18:30:47.853.29-Jan-2021 4752.01 3125.39 82.80 12.00 164.22 2606.49
   18:30:48.053.29-Jan-2021 4752.01 3125.40 82.80 12.00 164.42 2606.49
   18:30:48.253.29-Jan-2021 4752.01 3125.42 82.80 12.00 164.62 2606.49
   18:30:48.453.29-Jan-2021 4752.01 3125.39 82.80 12.00 164.82 2606.49
   18:30:48.653.29-Jan-2021 4752.01 3125.40 82.79 12.00 165.02 2606.49
   18:30:48.853.29-Jan-2021 4752.01 3125.40 82.79 12.00 165.22 2606.49
   18:30:49.053.29-Jan-2021 4752.01 3125.40 82.79 12.00 165.42 2606.49
   18:30:49.253.29-Jan-2021 4752.01 3125.39 82.79 12.00 165.62 2606.49
   18:30:49.453.29-Jan-2021 4752.01 3125.39 82.79 12.00 165.82 2606.49
   18:30:49.653.29-Jan-2021 4752.01 3125.39 82.79 12.00 166.02 2606.49
   18:30:49.853.29-Jan-2021 4752.01 3125.39 82.79 12.00 166.22 2606.49
   18:30:50.053.29-Jan-2021 4752.01 3125.39 82.79 12.00 166.42 2606.49
   18:30:50.253.29-Jan-2021 4752.01 3125.39 82.79 12.00 166.62 2606.49
   18:30:50.453.29-Jan-2021 4752.01 3125.39 82.79 12.00 166.82 2606.49
   18:30:50.653.29-Jan-2021 4752.01 3125.40 82.79 12.00 167.02 2606.49
   18:30:50.853.29-Jan-2021 4752.01 3125.40 82.79 12.00 167.22 2606.49
   18:30:51.053.29-Jan-2021 4752.01 3125.40 82.79 12.00 167.42 2606.49
   18:30:51.253.29-Jan-2021 4752.01 3125.39 82.79 12.00 167.62 2606.49
   18:30:51.453.29-Jan-2021 4752.01 3125.41 82.78 12.00 167.82 2606.49
   18:30:51.653.29-Jan-2021 4752.01 3125.40 82.78 12.00 168.02 2606.49
   18:30:51.853.29-Jan-2021 4752.01 3125.40 82.78 12.00 168.22 2606.49
   18:30:52.053.29-Jan-2021 4752.01 3125.39 82.78 12.00 168.42 2606.49
   18:30:52.253.29-Jan-2021 4752.01 3125.39 82.78 12.00 168.62 2606.49
   18:30:52.453.29-Jan-2021 4752.01 3125.38 82.78 12.00 168.82 2606.49
   18:30:52.653.29-Jan-2021 4752.01 3125.39 82.78 12.00 169.02 2606.49
   18:30:52.853.29-Jan-2021 4752.01 3125.39 82.78 12.00 169.22 2606.49
   18:30:53.053.29-Jan-2021 4752.01 3125.38 82.78 12.00 169.42 2606.49
   18:30:53.253.29-Jan-2021 4752.01 3125.38 82.78 12.00 169.62 2606.49
   18:30:53.453.29-Jan-2021 4752.01 3125.39 82.78 12.00 169.82 2606.49
   18:30:53.653.29-Jan-2021 4752.01 3125.37 82.78 12.00 170.02 2606.49
   18:30:53.853.29-Jan-2021 4752.01 3125.37 82.78 12.00 170.22 2606.49
   18:30:54.053.29-Jan-2021 4752.01 3125.39 82.77 12.00 170.42 2606.49
   18:30:54.254.29-Jan-2021 4752.01 3125.40 82.77 12.00 170.62 2606.49
   18:30:54.454.29-Jan-2021 4752.01 3125.36 82.77 12.00 170.82 2606.49
   18:30:54.654.29-Jan-2021 4752.01 3125.39 82.77 12.00 171.02 2606.49
   18:30:54.854.29-Jan-2021 4752.01 3125.39 82.77 12.00 171.22 2606.49
   18:30:55.054.29-Jan-2021 4752.01 3125.40 82.77 12.00 171.42 2606.49
   18:30:55.254.29-Jan-2021 4752.01 3125.37 82.77 12.00 171.62 2606.49
   18:30:55.454.29-Jan-2021 4752.01 3125.36 82.77 12.00 171.82 2606.49
   18:30:55.654.29-Jan-2021 4752.01 3125.43 82.77 12.00 172.02 2606.49
   18:30:55.854.29-Jan-2021 4752.01 3125.43 82.77 12.00 172.22 2606.49
   18:30:56.054.29-Jan-2021 4752.01 3125.39 82.77 12.00 172.42 2606.49
   18:30:56.254.29-Jan-2021 4752.01 3125.36 82.77 12.00 172.62 2606.49
   18:30:56.454.29-Jan-2021 4752.01 3125.39 82.77 12.00 172.82 2606.49
   18:30:56.654.29-Jan-2021 4752.01 3125.39 82.77 12.00 173.02 2606.49
   18:30:56.854.29-Jan-2021 4752.01 3125.39 82.77 12.00 173.22 2606.49
   18:30:57.054.29-Jan-2021 4752.01 3125.38 82.76 12.00 173.42 2606.49
   18:30:57.254.29-Jan-2021 4752.01 3125.37 82.76 12.00 173.62 2606.49
   18:30:57.454.29-Jan-2021 4752.01 3125.40 82.76 12.00 173.82 2606.49
   18:30:57.654.29-Jan-2021 4752.01 3125.40 82.76 12.00 174.02 2606.49
   18:30:57.854.29-Jan-2021 4752.01 3125.40 82.76 12.00 174.22 2606.49
   18:30:58.054.29-Jan-2021 4752.01 3125.37 82.76 12.00 174.42 2606.49
   18:30:58.254.29-Jan-2021 4752.01 3125.39 82.76 12.00 174.62 2606.49
   18:30:58.454.29-Jan-2021 4752.01 3125.38 82.76 12.00 174.82 2606.49
   18:30:58.654.29-Jan-2021 4752.01 3125.39 82.76 12.00 175.02 2606.49
   18:30:58.854.29-Jan-2021 4752.01 3125.39 82.76 12.00 175.22 2606.49
   18:30:59.054.29-Jan-2021 4752.01 3125.38 82.76 12.00 175.42 2606.49
   18:30:59.254.29-Jan-2021 4752.01 3125.37 82.76 12.00 175.62 2606.49
   18:30:59.454.29-Jan-2021 4752.01 3125.38 82.76 12.00 175.82 2606.49
   18:30:59.654.29-Jan-2021 4752.01 3125.36 82.75 12.00 176.02 2606.49
   18:30:59.854.29-Jan-2021 4752.01 3125.36 82.75 12.00 176.22 2606.49
   18:31:00.054.29-Jan-2021 4752.01 3125.36 82.75 12.00 176.42 2606.49
   18:31:00.254.29-Jan-2021 4752.01 3125.37 82.75 12.00 176.62 2606.49
   18:31:00.454.29-Jan-2021 4752.01 3125.36 82.75 12.00 176.82 2606.49
   18:31:00.654.29-Jan-2021 4752.01 3125.36 82.75 12.00 177.02 2606.49
   18:31:00.854.29-Jan-2021 4752.01 3125.36 82.75 12.00 177.22 2606.49
   18:31:01.054.29-Jan-2021 4752.01 3125.39 82.75 12.00 177.42 2606.49
   18:31:01.254.29-Jan-2021 4752.01 3125.38 82.75 12.00 177.62 2606.49
   18:31:01.454.29-Jan-2021 4752.01 3125.38 82.75 12.00 177.82 2606.49
   18:31:01.654.29-Jan-2021 4752.01 3125.36 82.75 12.00 178.02 2606.49
   18:31:01.854.29-Jan-2021 4752.01 3125.36 82.75 12.00 178.22 2606.49
   18:31:02.054.29-Jan-2021 4752.01 3125.37 82.75 12.00 178.42 2606.49
   18:31:02.254.29-Jan-2021 4752.01 3125.37 82.75 12.00 178.62 2606.49
   18:31:02.454.29-Jan-2021 4752.01 3125.36 82.74 12.00 178.82 2606.49
   18:31:02.655.29-Jan-2021 4752.01 3125.37 82.74 12.00 179.02 2606.49
   18:31:02.855.29-Jan-2021 4752.01 3125.37 82.74 12.00 179.22 2606.49
   18:31:03.055.29-Jan-2021 4752.01 3125.37 82.74 12.00 179.42 2606.49
   18:31:03.255.29-Jan-2021 4752.01 3125.36 82.74 12.00 179.62 2606.49
   18:31:03.455.29-Jan-2021 4752.01 3125.36 82.74 12.00 179.82 2606.49
   18:31:03.655.29-Jan-2021 4752.01 3125.36 82.74 12.00 180.02 2606.49
   18:31:03.855.29-Jan-2021 4752.01 3125.36 82.74 12.00 180.22 2606.49
   18:31:04.055.29-Jan-2021 4752.01 3125.36 82.74 12.00 180.42 2606.49
   18:31:04.255.29-Jan-2021 4752.01 3125.37 82.74 12.00 180.62 2606.49
