~Version Information
 VERS.                  2.0:   CWLS log ASCII Standard -VERSION 2.0
 WRAP.                   NO:   One line per depth step
~Well Information Block
#MNEM.UNIT     VALUE/NAME     DESCRIPTION
#---------     -----------    ---------------------------
 STRT.S             14:01:04 28-Jan-21: START TIME 14:01:04 28-Jan-21
 STOP.S             14:07:34 28-Jan-21: STOP TIME  14:07:34 28-Jan-21
 STEP.S                   0.00: STEP TIME
 NULL.                 -999.25: NULL VALUE
 DFWT.                        :  DIST FWL TEXT
 DFST.                        :  DIST FSL TEXT
 DMF .             Drill Floor:  DRILL MEAS FROM
 STIM.      00.00.00 25-Sep-20:  START TIME
 DATE.      16.12.48 31-Jan-21:  END TIME
 SPUD.               20-Sep-20:  SPUD DATE
 NREF.                    Grid:  NORTH REFERENCE
 HPTY.       Minimum Curvature:  HOLE POS TYPE
 DMOD.             Drill Model:  DRILL MOD DESC
 SVYD.                  Survey:  SURVEY DESC
 ILTD.               Lithology:  INTERP LTH DESC
 FTOP.          Formation Tops:  FORM TOPS DESC
 RIG .              East Azeri:  RIG NAME
 PDAT.          Mean Sea Level:  PERMANENT DATUM
 FLD .                     ACG:  FIELD NAME
 SON .        AZ-XX-0906591820:  JOB NUMBER
 CTRY.              Azerbaijan:  COUNTRY NAME
 WELL.                     D37:  WELL NAME
 SRVC.     Turan Drilling & Engineering:  CONTRACTOR
 COMP.     BP Exploration (Caspian Sea) ltd.:  COMPANY
 WTYP.                Deviated:  WELL TYPE
 MDS .        Operator Entered:  MAG DATA SOURCE
 UWI .                     N/A:  UNIQUE WELL IDENTIFIER
 API .                     N/A:  API NUMBER
 BASE.              Azerbaijan:  LOGGING EQUIPMENT BASE LOCATION
 REGN.                   EESSA:  REGION
 PROV.                    Baku:  PROVINCE
 STAT.                    Baku:  STATE NAME
 MWDS.                    Baku:  MWD SHOP
 JOBN.        AZ-XX-0906591820:  JOB TICKET NUMB
 DOE .                     N/A:  DOE NUMBER
 DCON.         Sperry Drilling:  DIRECTNL CONTR
 UNIT.                     N/A:  LOGGING EQUIPMENT ID
 CNTY.                        :  COUNTY
 LOC .                        :  LOCATION
 LMF .             Drill Floor:  LOG MEASURED FROM
 TVDS.m                  43.60:  TVDSS CORRECTN
 LATI.deg                40.02:  LATITUDE
 LONG.deg                51.45:  LONGITUDE
 WHNS.m                  11.04:  WELL HEAD N/S
 WHEW.m                 -12.38:  WELL HEAD E/W
 UTMX.m              538763.98:  UTM X
 UTMY.m             4431880.20:  UTM Y
 DFWL.m                   0.00:  DISTANCE FWL
 DFSL.m                   0.00:  DISTANCE FSL
 SDEP.m                 300.00:  START DEPTH
 TDD .m                4900.01:  TOTAL DEPTH (DRILLER)
 VSDR.deg               185.64:  VERT SEC DIRECT
 GVFD.g                   1.00:  GRAVITY FIELD
 MFLD.nT              50301.00:  MAGNETIC FIELD
 MDIP.deg                59.46:  MAGNETIC DIP
 MDEC.deg                 6.43:  MAGNETIC DECL
 GRDC.deg                 0.29:  GRID CORRECTION
 AZTC.deg                 6.14:  AZM TOTAL CORR
 EPD .m                   0.00:  ELEVATION
 EGL .m                   0.00:  GROUND ELEVATION
 WDMS.m                 151.80:  WD ELEV
 APD .m                  43.60:  DEPTH ABOVE PD
 DEP .m                 571.69:  DEPTH
 AGAP.m                  43.60:  AIR GAP
 VSEW.m                 -12.38:  VERT SEC E/W
 VSNS.m                  11.04:  VERT SEC N/S
 EKB .m                  43.60:  KB ELEVATION
 EDF .m                  43.60:  DF ELEVATION
 TDL .m                 412.00:  TOTAL DEPTH (LOGGER)
 VSC .                       0:  VS TO CLOSURE
 MAGU.                 1849300:  MAGUTM CHECKSUM
~Parameter Information Block
#MNEM.UNIT       Value        Description
#---------     -----------    ---------------------------
 AV  .mps                 2.21:  Ann Velocity 
 AVMX.mps                 2.53:  Max Ann Veloc 
 AZIF.deg               144.83:  Azm, Final 
 BHAT.        Rotary Steerable:  BHA Type 
 BROT.°/30m              -0.52:  Build Rotating 
 BS  .in                  6.50:  Bit Size 
 BTPL.psig              209.00:  Bit Press Loss 
 CABU.                      No:  Customer Abuse 
 CGEO.        Ali Isfandiyarov:  Customer Geo 
 COMM.                     T´U:  Run Comments 1 
 TCS .hr                 61.31:  Time Ciculation Ended 
 CV  .mps                 4.66:  Crit Velocity 
 CVMX.mps                 5.02:  Max Crit Veloc 
 DD1 .          Fariz Nahmatov:  Direct Drillr 1 
 DD2 .            Musa Ahmadov:  Direct Drillr 2 
 DDSV.               Geo-Pilot:  DD Service 
 DEFF.%                 100.00:  % Det Eff 
 DLRX.°/30m               1.44:  Dogleg Rot Max 
 DLSO.°/30m               0.83:  Dogleg Oriented 
 DLSX.°/30m               1.44:  Dogleg Str Max 
 DRET.      08.30.00 30-Jan-21:  Drill End Time 
 DRST.      21.15.00 27-Jan-21:  Drill Start Tim 
 DTIM.hr                 37.28:  Time Drilling 
 EDEP.m                4867.01:  End Depth 
 ENG1.          Rasim Hashimov:  Engineer 1 
 ENG2.         Almaz Almadatov:  Engineer 2 
 ENG3.        Tamerlan Ahmadov:  Engineer 3 
 ETIM.      22.41.04 31-Jan-21:  End Time 
 FLOI.gpm               400.00:  Flow In 
 FLON.gpm               300.00:  Flow In Min 
 FLOS.cptm                0.00:  Fluid Loss 
 FLOX.gpm               400.00:  Flow In Max 
 HFLO.                      No:  High Flow 
 HPRE.                      No:  High Pressure 
 HTEM.                      No:  High Temp 
 HYDO.m                   1.80:  Hydro Offset 
 IFIN.deg                65.63:  Inc, Final 
 IMAX.deg                66.77:  Inc Max 
 IMIN.deg                65.61:  Inc Min 
 IMND.m                4612.67:  Inc Min Depth 
 IMXD.m                4811.63:  Inc Max Depth 
 JARR.                      No:  Jarring 
 LETM.      08.30.00 30-Jan-21:  Log End Time 
 LOST.hr                     0:  Lost Rig Time 
 LSTM.      21.15.00 27-Jan-21:  Log Start Time 
 MDCL.ppm             41000.00:  Mud Chlorides 
 MDES.     Inversion Oil/Synthetic:  Mud Desc 
 DFD .sg                  1.40:  Mud Density 
 MDMN.sg                  1.40:  Dens Mud Min 
 MDMX.sg                  1.40:  Dens Mud Max 
 MOIL.                      53:  Run Mud Oil % 
 MOWR.                   66:34:  Run Mud OWR 
 MSND.                     0.2:  Run Mud Sand % 
 MSOL.                    17.9:  Run Mud Solids% 
 DFV .spqt               77.00:  Mud Viscosity 
 MWOD.in                  4.75:  MWD Tool OD 
 MWSI.                      No:  Serv Intrp, MWD 
 OTIM.hr                110.38:  Time Operating 
 PCON.           Look Like New:  Pad Condition 
 PMAX.psia             5300.00:  Press Op, Max 
 PV  .cP                 57.00:  Mud PV 
 RUN .                    1200:  Run Number 
 ROPA.m/hr               13.00:  ROP Avg 
 ROPN.m/hr                9.00:  ROP Min 
 ROPX.m/hr               15.00:  ROP Max 
 RPMA.rpm               120.00:  RPM Surface Avg 
 RPMN.rpm               100.00:  RPM Surface Min 
 RPMX.rpm               135.00:  RPM Surface Max 
 RRUN.                    1200:  Rig Run Number 
 RTIM.hr                  2.65:  Time Reaming 
 SAZI.deg               145.04:  Azm, Start 
 SDEP.m                4455.01:  Start Depth 
 SIDD.                      No:  Serv Intrp, DD 
 SINC.deg                65.83:  Inc, Start 
 SPPA.psig             5037.00:  SPP Avg 
 SPPN.psig             4430.00:  SPP Min 
 SPPX.psig             5300.00:  SPP Max 
 STIM.      22.41.04 26-Jan-21:  Start Time 
 SVCS.                 DD, MWD:  Services 
 SVER.                    9.20:  Sperry Version 
 TDAT.m                 412.00:  Tot Depth Attmp 
 TDDF.                      No:  Trip for DD 
 TDLG.m                 412.00:  Tot Depth Loggd 
 TFF .                      No:  Trip for Fail 
 TQAA.f-kp               15.00:  Torque Abs Avg 
 TQAN.f-kp               12.00:  Torque Abs Min 
 TQAX.f-kp               17.00:  Torque Abs Max 
 TRRT.°/30m               1.18:  Turn Rotating 
 MRT .                     ADR:  Maximum Recorded Temperature 
 TTMX.degC               88.24:  Max Tool Temp 
 VS01.                90619458:  Virtual Str1 SN 
 VS02.                90519326:  Virtual Str2 SN 
 VS03.                90522176:  Virtual Str3 SN 
 VS04.                90512683:  Virtual Str4 SN 
 WBMN.klb                 1.00:  WOB Min 
 WITN.           Murad Giluyev:  Customer Rep 
 WITN.     Kamran Kemberlinski:  Customer Rep 2 
 WOBA.klb                 5.00:  WOB Avg 
 WOBX.klb                 9.00:  WOB Max 
 YP  .lhf2               41.00:  Yield Point 
~Curve Information Block
#MNEM.UNIT                 API CODE     Curve Description
#---------               -----------    ---------------------------
 TIME.HHMMSS            00 000 000 000:  GT Time & Date
 GTDEPTH.m              00 000 000 000:  GT Depth
 GTPQH.psia             00 000 000 000:  GT HR Quartz Pressure
 GTTQ.degC              00 000 000 000:  GT Quartz Temperature
 GTTN.NONE              00 000 000 000:  GT Test Number
 GTET.sec               00 000 000 000:  GT Elapsed Test Time
 GTTVD.m                00 000 000 000:  GT True Vertical Depth
#Other Information
#
#WARRANTY: Halliburton will use its best efforts to furnish customers with 
#accurate information and interpretations that are part of, and incident to, the services 
#provided.  However, Halliburton cannot and does not warrant the accuracy 
#or correctness of such information and interpretations.  Under no circumstances should any 
#such information or interpretation be relied upon as the sole basis for any drilling, 
#completion, production, or financial decision or any procedure involving any risk to the 
#safety of any drilling venture, drilling rig or its crew or any other third party.  The 
#Customer has full responsibility for all drilling, completion and production operation.  
#Halliburton makes no representations or warranties, either expressed or 
#implied, including, but not limited to, the implied warranties of merchantability or fitness 
#for a particular purpose, with respect to the services rendered.  In no event will 
#Halliburton be liable for failure to obtain any particular results or for 
#any damages, including, but not limited to, indirect, special or consequential damages, 
#resulting from the use of any information or interpretation provided by Halliburton.
#
~A           TIME           GTDEPTH  GTPQH  GTTQ  GTTN  GTET   GTTVD  
# ...
   14:03:22.777.28-Jan-2021 4535.01 3107.26 72.14 3.00 138.03 2518.76
   14:03:22.977.28-Jan-2021 4535.01 3107.26 72.14 3.00 138.23 2518.76
   14:03:23.177.28-Jan-2021 4535.01 3107.27 72.14 3.00 138.43 2518.76
   14:03:23.377.28-Jan-2021 4535.01 3107.28 72.14 3.00 138.63 2518.76
   14:03:23.577.28-Jan-2021 4535.01 3107.72 72.14 3.00 138.83 2518.76
   14:03:23.778.28-Jan-2021 4535.01 3107.60 72.14 3.00 139.03 2518.76
   14:03:23.978.28-Jan-2021 4535.01 3107.60 72.14 3.00 139.23 2518.76
   14:03:24.178.28-Jan-2021 4535.01 3107.70 72.13 3.00 139.43 2518.76
   14:03:24.378.28-Jan-2021 4535.01 3107.66 72.13 3.00 139.63 2518.76
   14:03:24.578.28-Jan-2021 4535.01 3107.55 72.13 3.00 139.83 2518.76
   14:03:24.778.28-Jan-2021 4535.01 3107.36 72.13 3.00 140.03 2518.76
   14:03:24.978.28-Jan-2021 4535.01 3107.36 72.13 3.00 140.23 2518.76
   14:03:25.178.28-Jan-2021 4535.01 3107.77 72.13 3.00 140.43 2518.76
   14:03:25.378.28-Jan-2021 4535.01 3107.92 72.13 3.00 140.63 2518.76
   14:03:25.578.28-Jan-2021 4535.01 3107.69 72.13 3.00 140.83 2518.76
   14:03:25.778.28-Jan-2021 4535.01 3107.77 72.13 3.00 141.03 2518.76
   14:03:25.978.28-Jan-2021 4535.01 3107.77 72.13 3.00 141.23 2518.76
   14:03:26.178.28-Jan-2021 4535.01 3108.10 72.13 3.00 141.43 2518.76
   14:03:26.378.28-Jan-2021 4535.01 3107.90 72.13 3.00 141.63 2518.76
   14:03:26.578.28-Jan-2021 4535.01 3107.91 72.13 3.00 141.83 2518.76
   14:03:26.778.28-Jan-2021 4535.01 3107.84 72.13 3.00 142.03 2518.76
   14:03:26.978.28-Jan-2021 4535.01 3107.84 72.13 3.00 142.23 2518.76
   14:03:27.178.28-Jan-2021 4535.01 3107.99 72.13 3.00 142.43 2518.76
   14:03:27.378.28-Jan-2021 4535.01 3107.98 72.13 3.00 142.63 2518.76
   14:03:27.578.28-Jan-2021 4535.01 3107.90 72.13 3.00 142.83 2518.76
   14:03:27.778.28-Jan-2021 4535.01 3132.52 72.13 3.00 143.03 2518.76
   14:03:27.978.28-Jan-2021 4535.01 3132.52 72.13 3.00 143.23 2518.76
   14:03:28.178.28-Jan-2021 4535.01 3138.76 72.13 3.00 143.43 2518.76
   14:03:28.378.28-Jan-2021 4535.01 3138.82 72.13 3.00 143.63 2518.76
   14:03:28.579.28-Jan-2021 4535.01 3138.83 72.13 3.00 143.83 2518.76
   14:03:28.779.28-Jan-2021 4535.01 3138.78 72.13 3.00 144.03 2518.76
   14:03:28.979.28-Jan-2021 4535.01 3138.78 72.13 3.00 144.23 2518.76
   14:03:29.179.28-Jan-2021 4535.01 3138.98 72.13 3.00 144.43 2518.76
   14:03:29.379.28-Jan-2021 4535.01 3138.95 72.12 3.00 144.63 2518.76
   14:03:29.579.28-Jan-2021 4535.01 3138.99 72.12 3.00 144.83 2518.76
   14:03:29.779.28-Jan-2021 4535.01 3138.97 72.12 3.00 145.03 2518.76
   14:03:29.979.28-Jan-2021 4535.01 3138.97 72.12 3.00 145.23 2518.76
   14:03:30.179.28-Jan-2021 4535.01 3139.05 72.12 3.00 145.43 2518.76
   14:03:30.379.28-Jan-2021 4535.01 3139.06 72.12 3.00 145.63 2518.76
   14:03:30.579.28-Jan-2021 4535.01 3139.02 72.12 3.00 145.83 2518.76
   14:03:30.779.28-Jan-2021 4535.01 3139.06 72.12 3.00 146.03 2518.76
   14:03:30.979.28-Jan-2021 4535.01 3139.06 72.12 3.00 146.23 2518.76
   14:03:31.179.28-Jan-2021 4535.01 3139.03 72.12 3.00 146.43 2518.76
   14:03:31.379.28-Jan-2021 4535.01 3139.07 72.12 3.00 146.63 2518.76
   14:03:31.579.28-Jan-2021 4535.01 3139.03 72.12 3.00 146.83 2518.76
   14:03:31.779.28-Jan-2021 4535.01 3139.06 72.12 3.00 147.03 2518.76
   14:03:31.979.28-Jan-2021 4535.01 3139.06 72.12 3.00 147.23 2518.76
   14:03:32.179.28-Jan-2021 4535.01 3139.06 72.12 3.00 147.43 2518.76
   14:03:32.379.28-Jan-2021 4535.01 3139.06 72.12 3.00 147.63 2518.76
   14:03:32.579.28-Jan-2021 4535.01 3139.07 72.12 3.00 147.83 2518.76
   14:03:32.779.28-Jan-2021 4535.01 3139.06 72.12 3.00 148.03 2518.76
   14:03:32.979.28-Jan-2021 4535.01 3139.06 72.12 3.00 148.23 2518.76
   14:03:33.179.28-Jan-2021 4535.01 3139.06 72.12 3.00 148.43 2518.76
   14:03:33.380.28-Jan-2021 4535.01 3139.06 72.12 3.00 148.63 2518.76
   14:03:33.580.28-Jan-2021 4535.01 3138.99 72.12 3.00 148.83 2518.76
   14:03:33.780.28-Jan-2021 4535.01 3139.13 72.12 3.00 149.03 2518.76
   14:03:33.980.28-Jan-2021 4535.01 3139.13 72.12 3.00 149.23 2518.76
   14:03:34.180.28-Jan-2021 4535.01 3139.07 72.12 3.00 149.43 2518.76
   14:03:34.380.28-Jan-2021 4535.01 3139.12 72.12 3.00 149.63 2518.76
   14:03:34.580.28-Jan-2021 4535.01 3139.09 72.12 3.00 149.83 2518.76
   14:03:34.780.28-Jan-2021 4535.01 3139.11 72.12 3.00 150.03 2518.76
   14:03:34.980.28-Jan-2021 4535.01 3139.11 72.12 3.00 150.23 2518.76
   14:03:35.180.28-Jan-2021 4535.01 3139.10 72.11 3.00 150.43 2518.76
   14:03:35.380.28-Jan-2021 4535.01 3139.09 72.11 3.00 150.63 2518.76
   14:03:35.580.28-Jan-2021 4535.01 3139.10 72.11 3.00 150.83 2518.76
   14:03:35.780.28-Jan-2021 4535.01 3139.09 72.11 3.00 151.03 2518.76
   14:03:35.980.28-Jan-2021 4535.01 3139.09 72.11 3.00 151.23 2518.76
   14:03:36.180.28-Jan-2021 4535.01 3139.10 72.11 3.00 151.43 2518.76
   14:03:36.380.28-Jan-2021 4535.01 3139.09 72.11 3.00 151.63 2518.76
   14:03:36.580.28-Jan-2021 4535.01 3139.10 72.11 3.00 151.83 2518.76
   14:03:36.780.28-Jan-2021 4535.01 3139.02 72.11 3.00 152.03 2518.76
   14:03:36.980.28-Jan-2021 4535.01 3139.02 72.11 3.00 152.23 2518.76
   14:03:37.180.28-Jan-2021 4535.01 3139.15 72.11 3.00 152.43 2518.76
   14:03:37.380.28-Jan-2021 4535.01 3139.11 72.11 3.00 152.63 2518.76
   14:03:37.580.28-Jan-2021 4535.01 3139.07 72.11 3.00 152.83 2518.76
   14:03:37.780.28-Jan-2021 4535.01 3139.17 72.11 3.00 153.03 2518.76
   14:03:37.980.28-Jan-2021 4535.01 3139.17 72.11 3.00 153.23 2518.76
   14:03:38.181.28-Jan-2021 4535.01 3139.13 72.11 3.00 153.43 2518.76
   14:03:38.381.28-Jan-2021 4535.01 3139.12 72.11 3.00 153.63 2518.76
   14:03:38.581.28-Jan-2021 4535.01 3139.04 72.11 3.00 153.83 2518.76
   14:03:38.781.28-Jan-2021 4535.01 3139.16 72.11 3.00 154.03 2518.76
   14:03:38.981.28-Jan-2021 4535.01 3139.16 72.11 3.00 154.23 2518.76
   14:03:39.181.28-Jan-2021 4535.01 3139.11 72.11 3.00 154.43 2518.76
   14:03:39.381.28-Jan-2021 4535.01 3139.05 72.11 3.00 154.63 2518.76
   14:03:39.581.28-Jan-2021 4535.01 3139.18 72.11 3.00 154.83 2518.76
   14:03:39.781.28-Jan-2021 4535.01 3139.15 72.11 3.00 155.03 2518.76
   14:03:39.981.28-Jan-2021 4535.01 3139.15 72.11 3.00 155.23 2518.76
   14:03:40.181.28-Jan-2021 4535.01 3139.14 72.11 3.00 155.43 2518.76
   14:03:40.381.28-Jan-2021 4535.01 3139.13 72.11 3.00 155.63 2518.76
   14:03:40.581.28-Jan-2021 4535.01 3139.02 72.10 3.00 155.83 2518.76
   14:03:40.781.28-Jan-2021 4535.01 3139.19 72.10 3.00 156.03 2518.76
   14:03:40.981.28-Jan-2021 4535.01 3139.19 72.10 3.00 156.23 2518.76
   14:03:41.181.28-Jan-2021 4535.01 3139.12 72.10 3.00 156.43 2518.76
   14:03:41.381.28-Jan-2021 4535.01 3139.14 72.10 3.00 156.63 2518.76
   14:03:41.581.28-Jan-2021 4535.01 3139.13 72.10 3.00 156.83 2518.76
   14:03:41.781.28-Jan-2021 4535.01 3139.13 72.10 3.00 157.03 2518.76
   14:03:41.981.28-Jan-2021 4535.01 3139.13 72.10 3.00 157.23 2518.76
   14:03:42.181.28-Jan-2021 4535.01 3139.12 72.10 3.00 157.43 2518.76
   14:03:42.381.28-Jan-2021 4535.01 3139.12 72.10 3.00 157.63 2518.76
   14:03:42.581.28-Jan-2021 4535.01 3139.12 72.10 3.00 157.83 2518.76
   14:03:42.781.28-Jan-2021 4535.01 3139.12 72.10 3.00 158.03 2518.76
   14:03:42.982.28-Jan-2021 4535.01 3139.12 72.10 3.00 158.23 2518.76
   14:03:43.182.28-Jan-2021 4535.01 3139.13 72.10 3.00 158.43 2518.76
   14:03:43.382.28-Jan-2021 4535.01 3139.13 72.10 3.00 158.63 2518.76
   14:03:43.582.28-Jan-2021 4535.01 3139.11 72.10 3.00 158.83 2518.76
   14:03:43.782.28-Jan-2021 4535.01 3139.13 72.10 3.00 159.03 2518.76
   14:03:43.982.28-Jan-2021 4535.01 3139.13 72.10 3.00 159.23 2518.76
   14:03:44.182.28-Jan-2021 4535.01 3139.02 72.10 3.00 159.43 2518.76
   14:03:44.382.28-Jan-2021 4535.01 3139.18 72.10 3.00 159.63 2518.76
   14:03:44.582.28-Jan-2021 4535.01 3139.15 72.10 3.00 159.83 2518.76
   14:03:44.782.28-Jan-2021 4535.01 3139.12 72.10 3.00 160.03 2518.76
   14:03:44.982.28-Jan-2021 4535.01 3139.12 72.10 3.00 160.23 2518.76
   14:03:45.182.28-Jan-2021 4535.01 3139.12 72.10 3.00 160.43 2518.76
   14:03:45.382.28-Jan-2021 4535.01 3139.12 72.10 3.00 160.63 2518.76
   14:03:45.582.28-Jan-2021 4535.01 3139.12 72.10 3.00 160.83 2518.76
