~Version Information
 VERS.                  2.0:   CWLS log ASCII Standard -VERSION 2.0
 WRAP.                   NO:   One line per depth step
~Well Information Block
#MNEM.UNIT     VALUE/NAME     DESCRIPTION
#---------     -----------    ---------------------------
 STRT.S             08:50:58 29-Jan-21: START TIME 08:50:58 29-Jan-21
 STOP.S             08:57:28 29-Jan-21: STOP TIME  08:57:28 29-Jan-21
 STEP.S                   0.00: STEP TIME
 NULL.                 -999.25: NULL VALUE
 DFWT.                        :  DIST FWL TEXT
 DFST.                        :  DIST FSL TEXT
 DMF .             Drill Floor:  DRILL MEAS FROM
 STIM.      00.00.00 25-Sep-20:  START TIME
 DATE.      16.12.48 31-Jan-21:  END TIME
 SPUD.               20-Sep-20:  SPUD DATE
 NREF.                    Grid:  NORTH REFERENCE
 HPTY.       Minimum Curvature:  HOLE POS TYPE
 DMOD.             Drill Model:  DRILL MOD DESC
 SVYD.                  Survey:  SURVEY DESC
 ILTD.               Lithology:  INTERP LTH DESC
 FTOP.          Formation Tops:  FORM TOPS DESC
 RIG .              East Azeri:  RIG NAME
 PDAT.          Mean Sea Level:  PERMANENT DATUM
 FLD .                     ACG:  FIELD NAME
 SON .        AZ-XX-0906591820:  JOB NUMBER
 CTRY.              Azerbaijan:  COUNTRY NAME
 WELL.                     D37:  WELL NAME
 SRVC.     Turan Drilling & Engineering:  CONTRACTOR
 COMP.     BP Exploration (Caspian Sea) ltd.:  COMPANY
 WTYP.                Deviated:  WELL TYPE
 MDS .        Operator Entered:  MAG DATA SOURCE
 UWI .                     N/A:  UNIQUE WELL IDENTIFIER
 API .                     N/A:  API NUMBER
 BASE.              Azerbaijan:  LOGGING EQUIPMENT BASE LOCATION
 REGN.                   EESSA:  REGION
 PROV.                    Baku:  PROVINCE
 STAT.                    Baku:  STATE NAME
 MWDS.                    Baku:  MWD SHOP
 JOBN.        AZ-XX-0906591820:  JOB TICKET NUMB
 DOE .                     N/A:  DOE NUMBER
 DCON.         Sperry Drilling:  DIRECTNL CONTR
 UNIT.                     N/A:  LOGGING EQUIPMENT ID
 CNTY.                        :  COUNTY
 LOC .                        :  LOCATION
 LMF .             Drill Floor:  LOG MEASURED FROM
 TVDS.m                  43.60:  TVDSS CORRECTN
 LATI.deg                40.02:  LATITUDE
 LONG.deg                51.45:  LONGITUDE
 WHNS.m                  11.04:  WELL HEAD N/S
 WHEW.m                 -12.38:  WELL HEAD E/W
 UTMX.m              538763.98:  UTM X
 UTMY.m             4431880.20:  UTM Y
 DFWL.m                   0.00:  DISTANCE FWL
 DFSL.m                   0.00:  DISTANCE FSL
 SDEP.m                 300.00:  START DEPTH
 TDD .m                4900.01:  TOTAL DEPTH (DRILLER)
 VSDR.deg               185.64:  VERT SEC DIRECT
 GVFD.g                   1.00:  GRAVITY FIELD
 MFLD.nT              50301.00:  MAGNETIC FIELD
 MDIP.deg                59.46:  MAGNETIC DIP
 MDEC.deg                 6.43:  MAGNETIC DECL
 GRDC.deg                 0.29:  GRID CORRECTION
 AZTC.deg                 6.14:  AZM TOTAL CORR
 EPD .m                   0.00:  ELEVATION
 EGL .m                   0.00:  GROUND ELEVATION
 WDMS.m                 151.80:  WD ELEV
 APD .m                  43.60:  DEPTH ABOVE PD
 DEP .m                 571.69:  DEPTH
 AGAP.m                  43.60:  AIR GAP
 VSEW.m                 -12.38:  VERT SEC E/W
 VSNS.m                  11.04:  VERT SEC N/S
 EKB .m                  43.60:  KB ELEVATION
 EDF .m                  43.60:  DF ELEVATION
 TDL .m                 412.00:  TOTAL DEPTH (LOGGER)
 VSC .                       0:  VS TO CLOSURE
 MAGU.                 1849300:  MAGUTM CHECKSUM
~Parameter Information Block
#MNEM.UNIT       Value        Description
#---------     -----------    ---------------------------
 AV  .mps                 2.21:  Ann Velocity 
 AVMX.mps                 2.53:  Max Ann Veloc 
 AZIF.deg               144.83:  Azm, Final 
 BHAT.        Rotary Steerable:  BHA Type 
 BROT.°/30m              -0.52:  Build Rotating 
 BS  .in                  6.50:  Bit Size 
 BTPL.psig              209.00:  Bit Press Loss 
 CABU.                      No:  Customer Abuse 
 CGEO.        Ali Isfandiyarov:  Customer Geo 
 COMM.                     Ä	‡:  Run Comments 1 
 TCS .hr                 61.31:  Time Ciculation Ended 
 CV  .mps                 4.66:  Crit Velocity 
 CVMX.mps                 5.02:  Max Crit Veloc 
 DD1 .          Fariz Nahmatov:  Direct Drillr 1 
 DD2 .            Musa Ahmadov:  Direct Drillr 2 
 DDSV.               Geo-Pilot:  DD Service 
 DEFF.%                 100.00:  % Det Eff 
 DLRX.°/30m               1.44:  Dogleg Rot Max 
 DLSO.°/30m               0.83:  Dogleg Oriented 
 DLSX.°/30m               1.44:  Dogleg Str Max 
 DRET.      08.30.00 30-Jan-21:  Drill End Time 
 DRST.      21.15.00 27-Jan-21:  Drill Start Tim 
 DTIM.hr                 37.28:  Time Drilling 
 EDEP.m                4867.01:  End Depth 
 ENG1.          Rasim Hashimov:  Engineer 1 
 ENG2.         Almaz Almadatov:  Engineer 2 
 ENG3.        Tamerlan Ahmadov:  Engineer 3 
 ETIM.      22.41.04 31-Jan-21:  End Time 
 FLOI.gpm               400.00:  Flow In 
 FLON.gpm               300.00:  Flow In Min 
 FLOS.cptm                0.00:  Fluid Loss 
 FLOX.gpm               400.00:  Flow In Max 
 HFLO.                      No:  High Flow 
 HPRE.                      No:  High Pressure 
 HTEM.                      No:  High Temp 
 HYDO.m                   1.80:  Hydro Offset 
 IFIN.deg                65.63:  Inc, Final 
 IMAX.deg                66.77:  Inc Max 
 IMIN.deg                65.61:  Inc Min 
 IMND.m                4612.67:  Inc Min Depth 
 IMXD.m                4811.63:  Inc Max Depth 
 JARR.                      No:  Jarring 
 LETM.      08.30.00 30-Jan-21:  Log End Time 
 LOST.hr                     0:  Lost Rig Time 
 LSTM.      21.15.00 27-Jan-21:  Log Start Time 
 MDCL.ppm             41000.00:  Mud Chlorides 
 MDES.     Inversion Oil/Synthetic:  Mud Desc 
 DFD .sg                  1.40:  Mud Density 
 MDMN.sg                  1.40:  Dens Mud Min 
 MDMX.sg                  1.40:  Dens Mud Max 
 MOIL.                      53:  Run Mud Oil % 
 MOWR.                   66:34:  Run Mud OWR 
 MSND.                     0.2:  Run Mud Sand % 
 MSOL.                    17.9:  Run Mud Solids% 
 DFV .spqt               77.00:  Mud Viscosity 
 MWOD.in                  4.75:  MWD Tool OD 
 MWSI.                      No:  Serv Intrp, MWD 
 OTIM.hr                110.38:  Time Operating 
 PCON.           Look Like New:  Pad Condition 
 PMAX.psia             5300.00:  Press Op, Max 
 PV  .cP                 57.00:  Mud PV 
 RUN .                    1200:  Run Number 
 ROPA.m/hr               13.00:  ROP Avg 
 ROPN.m/hr                9.00:  ROP Min 
 ROPX.m/hr               15.00:  ROP Max 
 RPMA.rpm               120.00:  RPM Surface Avg 
 RPMN.rpm               100.00:  RPM Surface Min 
 RPMX.rpm               135.00:  RPM Surface Max 
 RRUN.                    1200:  Rig Run Number 
 RTIM.hr                  2.65:  Time Reaming 
 SAZI.deg               145.04:  Azm, Start 
 SDEP.m                4455.01:  Start Depth 
 SIDD.                      No:  Serv Intrp, DD 
 SINC.deg                65.83:  Inc, Start 
 SPPA.psig             5037.00:  SPP Avg 
 SPPN.psig             4430.00:  SPP Min 
 SPPX.psig             5300.00:  SPP Max 
 STIM.      22.41.04 26-Jan-21:  Start Time 
 SVCS.                 DD, MWD:  Services 
 SVER.                    9.20:  Sperry Version 
 TDAT.m                 412.00:  Tot Depth Attmp 
 TDDF.                      No:  Trip for DD 
 TDLG.m                 412.00:  Tot Depth Loggd 
 TFF .                      No:  Trip for Fail 
 TQAA.f-kp               15.00:  Torque Abs Avg 
 TQAN.f-kp               12.00:  Torque Abs Min 
 TQAX.f-kp               17.00:  Torque Abs Max 
 TRRT.°/30m               1.18:  Turn Rotating 
 MRT .                     ADR:  Maximum Recorded Temperature 
 TTMX.degC               88.24:  Max Tool Temp 
 VS01.                90619458:  Virtual Str1 SN 
 VS02.                90519326:  Virtual Str2 SN 
 VS03.                90522176:  Virtual Str3 SN 
 VS04.                90512683:  Virtual Str4 SN 
 WBMN.klb                 1.00:  WOB Min 
 WITN.           Murad Giluyev:  Customer Rep 
 WITN.     Kamran Kemberlinski:  Customer Rep 2 
 WOBA.klb                 5.00:  WOB Avg 
 WOBX.klb                 9.00:  WOB Max 
 YP  .lhf2               41.00:  Yield Point 
~Curve Information Block
#MNEM.UNIT                 API CODE     Curve Description
#---------               -----------    ---------------------------
 TIME.HHMMSS            00 000 000 000:  GT Time & Date
 GTDEPTH.m              00 000 000 000:  GT Depth
 GTPQH.psia             00 000 000 000:  GT HR Quartz Pressure
 GTTQ.degC              00 000 000 000:  GT Quartz Temperature
 GTTN.NONE              00 000 000 000:  GT Test Number
 GTET.sec               00 000 000 000:  GT Elapsed Test Time
 GTTVD.m                00 000 000 000:  GT True Vertical Depth
#Other Information
#
#WARRANTY: Halliburton will use its best efforts to furnish customers with 
#accurate information and interpretations that are part of, and incident to, the services 
#provided.  However, Halliburton cannot and does not warrant the accuracy 
#or correctness of such information and interpretations.  Under no circumstances should any 
#such information or interpretation be relied upon as the sole basis for any drilling, 
#completion, production, or financial decision or any procedure involving any risk to the 
#safety of any drilling venture, drilling rig or its crew or any other third party.  The 
#Customer has full responsibility for all drilling, completion and production operation.  
#Halliburton makes no representations or warranties, either expressed or 
#implied, including, but not limited to, the implied warranties of merchantability or fitness 
#for a particular purpose, with respect to the services rendered.  In no event will 
#Halliburton be liable for failure to obtain any particular results or for 
#any damages, including, but not limited to, indirect, special or consequential damages, 
#resulting from the use of any information or interpretation provided by Halliburton.
#
~A           TIME           GTDEPTH  GTPQH  GTTQ  GTTN  GTET   GTTVD  
# ...
   08:57:06.753.29-Jan-2021 4683.51 5659.55 80.31 9.00 368.08 2579.09
   08:57:06.953.29-Jan-2021 4683.51 5659.55 80.31 9.00 368.28 2579.09
   08:57:07.153.29-Jan-2021 4683.51 5662.67 80.31 9.00 368.48 2579.09
   08:57:07.353.29-Jan-2021 4683.51 5664.30 80.31 9.00 368.68 2579.09
   08:57:07.553.29-Jan-2021 4683.51 5663.61 80.31 9.00 368.88 2579.09
   08:57:07.753.29-Jan-2021 4683.51 5663.51 80.31 9.00 369.08 2579.09
   08:57:07.953.29-Jan-2021 4683.51 5663.51 80.31 9.00 369.28 2579.09
   08:57:08.153.29-Jan-2021 4683.51 5663.45 80.31 9.00 369.48 2579.09
   08:57:08.353.29-Jan-2021 4683.51 5664.12 80.31 9.00 369.68 2579.09
   08:57:08.553.29-Jan-2021 4683.51 5663.56 80.31 9.00 369.88 2579.09
   08:57:08.753.29-Jan-2021 4683.51 5664.55 80.31 9.00 370.08 2579.09
   08:57:08.953.29-Jan-2021 4683.51 5664.55 80.31 9.00 370.28 2579.09
   08:57:09.153.29-Jan-2021 4683.51 5663.85 80.31 9.00 370.48 2579.09
   08:57:09.353.29-Jan-2021 4683.51 5663.33 80.31 9.00 370.68 2579.09
   08:57:09.553.29-Jan-2021 4683.51 5657.62 80.31 9.00 370.88 2579.09
   08:57:09.753.29-Jan-2021 4683.51 5664.31 80.31 9.00 371.08 2579.09
   08:57:09.953.29-Jan-2021 4683.51 5664.31 80.31 9.00 371.28 2579.09
   08:57:10.153.29-Jan-2021 4683.51 5660.20 80.31 9.00 371.48 2579.09
   08:57:10.353.29-Jan-2021 4683.51 5661.38 80.30 9.00 371.68 2579.09
   08:57:10.553.29-Jan-2021 4683.51 5660.27 80.30 9.00 371.88 2579.09
   08:57:10.753.29-Jan-2021 4683.51 5663.41 80.30 9.00 372.08 2579.09
   08:57:10.953.29-Jan-2021 4683.51 5663.41 80.30 9.00 372.28 2579.09
   08:57:11.154.29-Jan-2021 4683.51 5661.90 80.30 9.00 372.48 2579.09
   08:57:11.354.29-Jan-2021 4683.51 5657.42 80.30 9.00 372.68 2579.09
   08:57:11.554.29-Jan-2021 4683.51 5666.11 80.30 9.00 372.88 2579.09
   08:57:11.754.29-Jan-2021 4683.51 5665.35 80.30 9.00 373.08 2579.09
   08:57:11.954.29-Jan-2021 4683.51 5665.35 80.30 9.00 373.28 2579.09
   08:57:12.154.29-Jan-2021 4683.51 5662.75 80.30 9.00 373.48 2579.09
   08:57:12.354.29-Jan-2021 4683.51 5663.50 80.30 9.00 373.68 2579.09
   08:57:12.554.29-Jan-2021 4683.51 5663.00 80.30 9.00 373.88 2579.09
   08:57:12.754.29-Jan-2021 4683.51 5661.68 80.30 9.00 374.08 2579.09
   08:57:12.954.29-Jan-2021 4683.51 5661.68 80.30 9.00 374.28 2579.09
   08:57:13.154.29-Jan-2021 4683.51 5665.02 80.30 9.00 374.48 2579.09
   08:57:13.354.29-Jan-2021 4683.51 5661.75 80.30 9.00 374.68 2579.09
   08:57:13.554.29-Jan-2021 4683.51 5660.58 80.30 9.00 374.88 2579.09
   08:57:13.754.29-Jan-2021 4683.51 5663.84 80.30 9.00 375.08 2579.09
   08:57:13.954.29-Jan-2021 4683.51 5663.84 80.30 9.00 375.28 2579.09
   08:57:14.154.29-Jan-2021 4683.51 5661.20 80.30 9.00 375.48 2579.09
   08:57:14.354.29-Jan-2021 4683.51 5662.74 80.30 9.00 375.68 2579.09
   08:57:14.554.29-Jan-2021 4683.51 5664.34 80.29 9.00 375.88 2579.09
   08:57:14.754.29-Jan-2021 4683.51 5663.16 80.29 9.00 376.08 2579.09
   08:57:14.954.29-Jan-2021 4683.51 5663.16 80.29 9.00 376.28 2579.09
   08:57:15.154.29-Jan-2021 4683.51 5664.58 80.29 9.00 376.48 2579.09
   08:57:15.354.29-Jan-2021 4683.51 5663.11 80.29 9.00 376.68 2579.09
   08:57:15.554.29-Jan-2021 4683.51 5663.64 80.29 9.00 376.88 2579.09
   08:57:15.754.29-Jan-2021 4683.51 5663.08 80.29 9.00 377.08 2579.09
   08:57:15.955.29-Jan-2021 4683.51 5663.08 80.29 9.00 377.28 2579.09
   08:57:16.155.29-Jan-2021 4683.51 5663.37 80.29 9.00 377.48 2579.09
   08:57:16.355.29-Jan-2021 4683.51 5663.55 80.29 9.00 377.68 2579.09
   08:57:16.555.29-Jan-2021 4683.51 5663.44 80.29 9.00 377.88 2579.09
   08:57:16.755.29-Jan-2021 4683.51 5663.69 80.29 9.00 378.08 2579.09
   08:57:16.955.29-Jan-2021 4683.51 5663.69 80.29 9.00 378.28 2579.09
   08:57:17.155.29-Jan-2021 4683.51 5664.42 80.29 9.00 378.48 2579.09
   08:57:17.355.29-Jan-2021 4683.51 5663.50 80.29 9.00 378.68 2579.09
   08:57:17.555.29-Jan-2021 4683.51 5659.68 80.29 9.00 378.88 2579.09
   08:57:17.755.29-Jan-2021 4683.51 5662.81 80.29 9.00 379.08 2579.09
   08:57:17.955.29-Jan-2021 4683.51 5662.81 80.29 9.00 379.28 2579.09
   08:57:18.155.29-Jan-2021 4683.51 5663.78 80.29 9.00 379.48 2579.09
   08:57:18.355.29-Jan-2021 4683.51 5662.40 80.28 9.00 379.68 2579.09
   08:57:18.555.29-Jan-2021 4683.51 5663.41 80.28 9.00 379.88 2579.09
   08:57:18.755.29-Jan-2021 4683.51 5663.46 80.28 9.00 380.08 2579.09
   08:57:18.955.29-Jan-2021 4683.51 5663.46 80.28 9.00 380.28 2579.09
   08:57:19.155.29-Jan-2021 4683.51 5662.51 80.28 9.00 380.48 2579.09
   08:57:19.355.29-Jan-2021 4683.51 5663.30 80.28 9.00 380.68 2579.09
   08:57:19.555.29-Jan-2021 4683.51 5663.04 80.28 9.00 380.88 2579.09
   08:57:19.755.29-Jan-2021 4683.51 5663.11 80.28 9.00 381.08 2579.09
   08:57:19.955.29-Jan-2021 4683.51 5663.11 80.28 9.00 381.28 2579.09
   08:57:20.155.29-Jan-2021 4683.51 5663.18 80.28 9.00 381.48 2579.09
   08:57:20.355.29-Jan-2021 4683.51 5656.67 80.28 9.00 381.68 2579.09
   08:57:20.555.29-Jan-2021 4683.51 5664.02 80.28 9.00 381.88 2579.09
   08:57:20.756.29-Jan-2021 4683.51 5663.49 80.28 9.00 382.08 2579.09
   08:57:20.956.29-Jan-2021 4683.51 5663.49 80.28 9.00 382.28 2579.09
   08:57:21.156.29-Jan-2021 4683.51 5660.88 80.28 9.00 382.48 2579.09
   08:57:21.356.29-Jan-2021 4683.51 5659.47 80.28 9.00 382.68 2579.09
   08:57:21.556.29-Jan-2021 4683.51 5663.19 80.28 9.00 382.88 2579.09
   08:57:21.756.29-Jan-2021 4683.51 5661.13 80.28 9.00 383.08 2579.09
   08:57:21.956.29-Jan-2021 4683.51 5661.13 80.28 9.00 383.28 2579.09
   08:57:22.156.29-Jan-2021 4683.51 5656.13 80.28 9.00 383.48 2579.09
   08:57:22.356.29-Jan-2021 4683.51 5666.08 80.27 9.00 383.68 2579.09
   08:57:22.556.29-Jan-2021 4683.51 5663.61 80.27 9.00 383.88 2579.09
   08:57:22.756.29-Jan-2021 4683.51 5657.27 80.27 9.00 384.08 2579.09
   08:57:22.956.29-Jan-2021 4683.51 5657.27 80.27 9.00 384.28 2579.09
   08:57:23.156.29-Jan-2021 4683.51 5663.49 80.27 9.00 384.48 2579.09
   08:57:23.356.29-Jan-2021 4683.51 5661.51 80.27 9.00 384.68 2579.09
   08:57:23.556.29-Jan-2021 4683.51 5661.85 80.27 9.00 384.88 2579.09
   08:57:23.756.29-Jan-2021 4683.51 5663.32 80.27 9.00 385.08 2579.09
   08:57:23.956.29-Jan-2021 4683.51 5663.32 80.27 9.00 385.28 2579.09
   08:57:24.156.29-Jan-2021 4683.51 5661.21 80.27 9.00 385.48 2579.09
   08:57:24.356.29-Jan-2021 4683.51 5660.08 80.27 9.00 385.68 2579.09
   08:57:24.556.29-Jan-2021 4683.51 5663.63 80.27 9.00 385.88 2579.09
   08:57:24.756.29-Jan-2021 4683.51 5661.76 80.27 9.00 386.08 2579.09
   08:57:24.956.29-Jan-2021 4683.51 5661.76 80.27 9.00 386.28 2579.09
   08:57:25.156.29-Jan-2021 4683.51 5662.10 80.27 9.00 386.48 2579.09
   08:57:25.356.29-Jan-2021 4683.51 5664.99 80.27 9.00 386.68 2579.09
   08:57:25.557.29-Jan-2021 4683.51 5662.41 80.27 9.00 386.88 2579.09
   08:57:25.757.29-Jan-2021 4683.51 5662.95 80.27 9.00 387.08 2579.09
   08:57:25.957.29-Jan-2021 4683.51 5662.95 80.27 9.00 387.28 2579.09
   08:57:26.157.29-Jan-2021 4683.51 5663.43 80.26 9.00 387.48 2579.09
   08:57:26.357.29-Jan-2021 4683.51 5662.24 80.26 9.00 387.68 2579.09
   08:57:26.557.29-Jan-2021 4683.51 5662.75 80.26 9.00 387.88 2579.09
   08:57:26.757.29-Jan-2021 4683.51 5662.82 80.26 9.00 388.08 2579.09
   08:57:26.957.29-Jan-2021 4683.51 5662.82 80.26 9.00 388.28 2579.09
   08:57:27.157.29-Jan-2021 4683.51 5662.26 80.26 9.00 388.48 2579.09
   08:57:27.357.29-Jan-2021 4683.51 5662.59 80.26 9.00 388.68 2579.09
   08:57:27.557.29-Jan-2021 4683.51 5662.65 80.26 9.00 388.88 2579.09
   08:57:27.757.29-Jan-2021 4683.51 5655.90 80.26 9.00 389.08 2579.09
   08:57:27.957.29-Jan-2021 4683.51 5655.90 80.26 9.00 389.28 2579.09
   08:57:28.157.29-Jan-2021 4683.51 5661.96 80.26 9.00 389.48 2579.09
   08:57:28.357.29-Jan-2021 4683.51 5659.26 80.26 9.00 389.68 2579.09
   08:57:28.557.29-Jan-2021 4683.51 5661.29 80.26 9.00 389.88 2579.09
