~Version Information
 VERS.                  2.0:   CWLS log ASCII Standard -VERSION 2.0
 WRAP.                   NO:   One line per depth step
~Well Information Block
#MNEM.UNIT     VALUE/NAME     DESCRIPTION
#---------     -----------    ---------------------------
 STRT.S             02:23:02 28-Jan-21: START TIME 02:23:02 28-Jan-21
 STOP.S             02:29:37 28-Jan-21: STOP TIME  02:29:37 28-Jan-21
 STEP.S                   0.00: STEP TIME
 NULL.                 -999.25: NULL VALUE
 DFWT.                        :  DIST FWL TEXT
 DFST.                        :  DIST FSL TEXT
 DMF .             Drill Floor:  DRILL MEAS FROM
 STIM.      00.00.00 25-Sep-20:  START TIME
 DATE.      16.12.48 31-Jan-21:  END TIME
 SPUD.               20-Sep-20:  SPUD DATE
 NREF.                    Grid:  NORTH REFERENCE
 HPTY.       Minimum Curvature:  HOLE POS TYPE
 DMOD.             Drill Model:  DRILL MOD DESC
 SVYD.                  Survey:  SURVEY DESC
 ILTD.               Lithology:  INTERP LTH DESC
 FTOP.          Formation Tops:  FORM TOPS DESC
 RIG .              East Azeri:  RIG NAME
 PDAT.          Mean Sea Level:  PERMANENT DATUM
 FLD .                     ACG:  FIELD NAME
 SON .        AZ-XX-0906591820:  JOB NUMBER
 CTRY.              Azerbaijan:  COUNTRY NAME
 WELL.                     D37:  WELL NAME
 SRVC.     Turan Drilling & Engineering:  CONTRACTOR
 COMP.     BP Exploration (Caspian Sea) ltd.:  COMPANY
 WTYP.                Deviated:  WELL TYPE
 MDS .        Operator Entered:  MAG DATA SOURCE
 UWI .                     N/A:  UNIQUE WELL IDENTIFIER
 API .                     N/A:  API NUMBER
 BASE.              Azerbaijan:  LOGGING EQUIPMENT BASE LOCATION
 REGN.                   EESSA:  REGION
 PROV.                    Baku:  PROVINCE
 STAT.                    Baku:  STATE NAME
 MWDS.                    Baku:  MWD SHOP
 JOBN.        AZ-XX-0906591820:  JOB TICKET NUMB
 DOE .                     N/A:  DOE NUMBER
 DCON.         Sperry Drilling:  DIRECTNL CONTR
 UNIT.                     N/A:  LOGGING EQUIPMENT ID
 CNTY.                        :  COUNTY
 LOC .                        :  LOCATION
 LMF .             Drill Floor:  LOG MEASURED FROM
 TVDS.m                  43.60:  TVDSS CORRECTN
 LATI.deg                40.02:  LATITUDE
 LONG.deg                51.45:  LONGITUDE
 WHNS.m                  11.04:  WELL HEAD N/S
 WHEW.m                 -12.38:  WELL HEAD E/W
 UTMX.m              538763.98:  UTM X
 UTMY.m             4431880.20:  UTM Y
 DFWL.m                   0.00:  DISTANCE FWL
 DFSL.m                   0.00:  DISTANCE FSL
 SDEP.m                 300.00:  START DEPTH
 TDD .m                4900.01:  TOTAL DEPTH (DRILLER)
 VSDR.deg               185.64:  VERT SEC DIRECT
 GVFD.g                   1.00:  GRAVITY FIELD
 MFLD.nT              50301.00:  MAGNETIC FIELD
 MDIP.deg                59.46:  MAGNETIC DIP
 MDEC.deg                 6.43:  MAGNETIC DECL
 GRDC.deg                 0.29:  GRID CORRECTION
 AZTC.deg                 6.14:  AZM TOTAL CORR
 EPD .m                   0.00:  ELEVATION
 EGL .m                   0.00:  GROUND ELEVATION
 WDMS.m                 151.80:  WD ELEV
 APD .m                  43.60:  DEPTH ABOVE PD
 DEP .m                 571.69:  DEPTH
 AGAP.m                  43.60:  AIR GAP
 VSEW.m                 -12.38:  VERT SEC E/W
 VSNS.m                  11.04:  VERT SEC N/S
 EKB .m                  43.60:  KB ELEVATION
 EDF .m                  43.60:  DF ELEVATION
 TDL .m                 412.00:  TOTAL DEPTH (LOGGER)
 VSC .                       0:  VS TO CLOSURE
 MAGU.                 1849300:  MAGUTM CHECKSUM
~Parameter Information Block
#MNEM.UNIT       Value        Description
#---------     -----------    ---------------------------
 AV  .mps                 2.21:  Ann Velocity 
 AVMX.mps                 2.53:  Max Ann Veloc 
 AZIF.deg               144.83:  Azm, Final 
 BHAT.        Rotary Steerable:  BHA Type 
 BROT.°/30m              -0.52:  Build Rotating 
 BS  .in                  6.50:  Bit Size 
 BTPL.psig              209.00:  Bit Press Loss 
 CABU.                      No:  Customer Abuse 
 CGEO.        Ali Isfandiyarov:  Customer Geo 
 TCS .hr                 61.31:  Time Ciculation Ended 
 CV  .mps                 4.66:  Crit Velocity 
 CVMX.mps                 5.02:  Max Crit Veloc 
 DD1 .          Fariz Nahmatov:  Direct Drillr 1 
 DD2 .            Musa Ahmadov:  Direct Drillr 2 
 DDSV.               Geo-Pilot:  DD Service 
 DEFF.%                 100.00:  % Det Eff 
 DLRX.°/30m               1.44:  Dogleg Rot Max 
 DLSO.°/30m               0.83:  Dogleg Oriented 
 DLSX.°/30m               1.44:  Dogleg Str Max 
 DRET.      08.30.00 30-Jan-21:  Drill End Time 
 DRST.      21.15.00 27-Jan-21:  Drill Start Tim 
 DTIM.hr                 37.28:  Time Drilling 
 EDEP.m                4867.01:  End Depth 
 ENG1.          Rasim Hashimov:  Engineer 1 
 ENG2.         Almaz Almadatov:  Engineer 2 
 ENG3.        Tamerlan Ahmadov:  Engineer 3 
 ETIM.      22.41.04 31-Jan-21:  End Time 
 FLOI.gpm               400.00:  Flow In 
 FLON.gpm               300.00:  Flow In Min 
 FLOS.cptm                0.00:  Fluid Loss 
 FLOX.gpm               400.00:  Flow In Max 
 HFLO.                      No:  High Flow 
 HPRE.                      No:  High Pressure 
 HTEM.                      No:  High Temp 
 HYDO.m                   1.80:  Hydro Offset 
 IFIN.deg                65.63:  Inc, Final 
 IMAX.deg                66.77:  Inc Max 
 IMIN.deg                65.61:  Inc Min 
 IMND.m                4612.67:  Inc Min Depth 
 IMXD.m                4811.63:  Inc Max Depth 
 JARR.                      No:  Jarring 
 LETM.      08.30.00 30-Jan-21:  Log End Time 
 LOST.hr                     0:  Lost Rig Time 
 LSTM.      21.15.00 27-Jan-21:  Log Start Time 
 MDCL.ppm             41000.00:  Mud Chlorides 
 MDES.     Inversion Oil/Synthetic:  Mud Desc 
 DFD .sg                  1.40:  Mud Density 
 MDMN.sg                  1.40:  Dens Mud Min 
 MDMX.sg                  1.40:  Dens Mud Max 
 MOIL.                      53:  Run Mud Oil % 
 MOWR.                   66:34:  Run Mud OWR 
 MSND.                     0.2:  Run Mud Sand % 
 MSOL.                    17.9:  Run Mud Solids% 
 DFV .spqt               77.00:  Mud Viscosity 
 MWOD.in                  4.75:  MWD Tool OD 
 MWSI.                      No:  Serv Intrp, MWD 
 OTIM.hr                110.38:  Time Operating 
 PCON.           Look Like New:  Pad Condition 
 PMAX.psia             5300.00:  Press Op, Max 
 PV  .cP                 57.00:  Mud PV 
 RUN .                    1200:  Run Number 
 ROPA.m/hr               13.00:  ROP Avg 
 ROPN.m/hr                9.00:  ROP Min 
 ROPX.m/hr               15.00:  ROP Max 
 RPMA.rpm               120.00:  RPM Surface Avg 
 RPMN.rpm               100.00:  RPM Surface Min 
 RPMX.rpm               135.00:  RPM Surface Max 
 RRUN.                    1200:  Rig Run Number 
 RTIM.hr                  2.65:  Time Reaming 
 SAZI.deg               145.04:  Azm, Start 
 SDEP.m                4455.01:  Start Depth 
 SIDD.                      No:  Serv Intrp, DD 
 SINC.deg                65.83:  Inc, Start 
 SPPA.psig             5037.00:  SPP Avg 
 SPPN.psig             4430.00:  SPP Min 
 SPPX.psig             5300.00:  SPP Max 
 STIM.      22.41.04 26-Jan-21:  Start Time 
 SVCS.                 DD, MWD:  Services 
 SVER.                    9.20:  Sperry Version 
 TDAT.m                 412.00:  Tot Depth Attmp 
 TDDF.                      No:  Trip for DD 
 TDLG.m                 412.00:  Tot Depth Loggd 
 TFF .                      No:  Trip for Fail 
 TQAA.f-kp               15.00:  Torque Abs Avg 
 TQAN.f-kp               12.00:  Torque Abs Min 
 TQAX.f-kp               17.00:  Torque Abs Max 
 TRRT.°/30m               1.18:  Turn Rotating 
 MRT .                     ADR:  Maximum Recorded Temperature 
 TTMX.degC               88.24:  Max Tool Temp 
 VS01.                90619458:  Virtual Str1 SN 
 VS02.                90519326:  Virtual Str2 SN 
 VS03.                90522176:  Virtual Str3 SN 
 VS04.                90512683:  Virtual Str4 SN 
 WBMN.klb                 1.00:  WOB Min 
 WITN.           Murad Giluyev:  Customer Rep 
 WITN.     Kamran Kemberlinski:  Customer Rep 2 
 WOBA.klb                 5.00:  WOB Avg 
 WOBX.klb                 9.00:  WOB Max 
 YP  .lhf2               41.00:  Yield Point 
~Curve Information Block
#MNEM.UNIT                 API CODE     Curve Description
#---------               -----------    ---------------------------
 TIME.HHMMSS            00 000 000 000:  GT Time & Date
 GTDEPTH.m              00 000 000 000:  GT Depth
 GTPQH.psia             00 000 000 000:  GT HR Quartz Pressure
 GTTQ.degC              00 000 000 000:  GT Quartz Temperature
 GTTN.NONE              00 000 000 000:  GT Test Number
 GTET.sec               00 000 000 000:  GT Elapsed Test Time
 GTTVD.m                00 000 000 000:  GT True Vertical Depth
#Other Information
#
#WARRANTY: Halliburton will use its best efforts to furnish customers with 
#accurate information and interpretations that are part of, and incident to, the services 
#provided.  However, Halliburton cannot and does not warrant the accuracy 
#or correctness of such information and interpretations.  Under no circumstances should any 
#such information or interpretation be relied upon as the sole basis for any drilling, 
#completion, production, or financial decision or any procedure involving any risk to the 
#safety of any drilling venture, drilling rig or its crew or any other third party.  The 
#Customer has full responsibility for all drilling, completion and production operation.  
#Halliburton makes no representations or warranties, either expressed or 
#implied, including, but not limited to, the implied warranties of merchantability or fitness 
#for a particular purpose, with respect to the services rendered.  In no event will 
#Halliburton be liable for failure to obtain any particular results or for 
#any damages, including, but not limited to, indirect, special or consequential damages, 
#resulting from the use of any information or interpretation provided by Halliburton.
#
~A           TIME           GTDEPTH  GTPQH  GTTQ  GTTN  GTET   GTTVD  
# ...
   02:24:57.000.28-Jan-2021 4453.81 5414.60 60.91 1.00 115.00 2485.38
   02:24:57.200.28-Jan-2021 4453.81 5414.60 60.91 1.00 115.20 2485.38
   02:24:57.400.28-Jan-2021 4453.81 5412.08 60.91 1.00 115.40 2485.38
   02:24:57.600.28-Jan-2021 4453.81 5412.00 60.91 1.00 115.60 2485.38
   02:24:57.800.28-Jan-2021 4453.81 5414.15 60.91 1.00 115.80 2485.38
   02:24:58.000.28-Jan-2021 4453.81 5405.64 60.90 1.00 116.00 2485.38
   02:24:58.200.28-Jan-2021 4453.81 5405.64 60.90 1.00 116.20 2485.38
   02:24:58.400.28-Jan-2021 4453.81 5411.75 60.90 1.00 116.40 2485.38
   02:24:58.600.28-Jan-2021 4453.81 5415.01 60.90 1.00 116.60 2485.38
   02:24:58.800.28-Jan-2021 4453.81 5411.77 60.90 1.00 116.80 2485.38
   02:24:59.000.28-Jan-2021 4453.81 5412.63 60.90 1.00 117.00 2485.38
   02:24:59.200.28-Jan-2021 4453.81 5412.63 60.90 1.00 117.20 2485.38
   02:24:59.400.28-Jan-2021 4453.81 5409.58 60.90 1.00 117.40 2485.38
   02:24:59.600.28-Jan-2021 4453.81 5412.37 60.90 1.00 117.60 2485.38
   02:24:59.800.28-Jan-2021 4453.81 5413.62 60.90 1.00 117.80 2485.38
   02:25:00.000.28-Jan-2021 4453.81 5413.41 60.90 1.00 118.00 2485.38
   02:25:00.200.28-Jan-2021 4453.81 5413.41 60.90 1.00 118.20 2485.38
   02:25:00.400.28-Jan-2021 4453.81 5411.25 60.90 1.00 118.40 2485.38
   02:25:00.600.28-Jan-2021 4453.81 5412.07 60.90 1.00 118.60 2485.38
   02:25:00.800.28-Jan-2021 4453.81 5411.08 60.90 1.00 118.80 2485.38
   02:25:01.000.28-Jan-2021 4453.81 5412.51 60.90 1.00 119.00 2485.38
   02:25:01.200.28-Jan-2021 4453.81 5412.51 60.90 1.00 119.20 2485.38
   02:25:01.400.28-Jan-2021 4453.81 5411.56 60.90 1.00 119.40 2485.38
   02:25:01.600.28-Jan-2021 4453.81 5413.40 60.90 1.00 119.60 2485.38
   02:25:01.800.28-Jan-2021 4453.81 5411.26 60.90 1.00 119.80 2485.38
   02:25:02.000.28-Jan-2021 4453.81 5411.79 60.90 1.00 120.00 2485.38
   02:25:02.200.28-Jan-2021 4453.81 5411.79 60.90 1.00 120.20 2485.38
   02:25:02.400.28-Jan-2021 4453.81 5410.89 60.90 1.00 120.40 2485.38
   02:25:02.600.28-Jan-2021 4453.81 5409.54 60.90 1.00 120.60 2485.38
   02:25:02.800.28-Jan-2021 4453.81 5406.33 60.90 1.00 120.80 2485.38
   02:25:03.000.28-Jan-2021 4453.81 5411.17 60.90 1.00 121.00 2485.38
   02:25:03.200.28-Jan-2021 4453.81 5411.17 60.90 1.00 121.20 2485.38
   02:25:03.400.28-Jan-2021 4453.81 5413.06 60.90 1.00 121.40 2485.38
   02:25:03.600.28-Jan-2021 4453.81 5412.87 60.90 1.00 121.60 2485.38
   02:25:03.800.28-Jan-2021 4453.81 5411.62 60.90 1.00 121.80 2485.38
   02:25:04.000.28-Jan-2021 4453.81 5411.09 60.90 1.00 122.00 2485.38
   02:25:04.200.28-Jan-2021 4453.81 5411.09 60.90 1.00 122.20 2485.38
   02:25:04.400.28-Jan-2021 4453.81 5411.44 60.90 1.00 122.40 2485.38
   02:25:04.600.28-Jan-2021 4453.81 5412.63 60.90 1.00 122.60 2485.38
   02:25:04.800.28-Jan-2021 4453.81 5412.06 60.89 1.00 122.80 2485.38
   02:25:05.000.28-Jan-2021 4453.81 5411.11 60.89 1.00 123.00 2485.38
   02:25:05.200.28-Jan-2021 4453.81 5411.11 60.89 1.00 123.20 2485.38
   02:25:05.400.28-Jan-2021 4453.81 5411.11 60.89 1.00 123.40 2485.38
   02:25:05.600.28-Jan-2021 4453.81 5411.90 60.89 1.00 123.60 2485.38
   02:25:05.800.28-Jan-2021 4453.81 5412.21 60.89 1.00 123.80 2485.38
   02:25:06.000.28-Jan-2021 4453.81 5411.05 60.89 1.00 124.00 2485.38
   02:25:06.200.28-Jan-2021 4453.81 5411.05 60.89 1.00 124.20 2485.38
   02:25:06.400.28-Jan-2021 4453.81 5411.66 60.89 1.00 124.40 2485.38
   02:25:06.600.28-Jan-2021 4453.81 5412.36 60.89 1.00 124.60 2485.38
   02:25:06.800.28-Jan-2021 4453.81 5415.67 60.89 1.00 124.80 2485.38
   02:25:07.000.28-Jan-2021 4453.81 5404.00 60.89 1.00 125.00 2485.38
   02:25:07.200.28-Jan-2021 4453.81 5404.00 60.89 1.00 125.20 2485.38
   02:25:07.400.28-Jan-2021 4453.81 5411.79 60.89 1.00 125.40 2485.38
   02:25:07.600.28-Jan-2021 4453.81 5414.67 60.89 1.00 125.60 2485.38
   02:25:07.800.28-Jan-2021 4453.81 5413.83 60.89 1.00 125.80 2485.38
   02:25:08.000.28-Jan-2021 4453.81 5403.42 60.89 1.00 126.00 2485.38
   02:25:08.200.28-Jan-2021 4453.81 5403.42 60.89 1.00 126.20 2485.38
   02:25:08.400.28-Jan-2021 4453.81 5412.21 60.89 1.00 126.40 2485.38
   02:25:08.600.28-Jan-2021 4453.81 5410.48 60.89 1.00 126.60 2485.38
   02:25:08.800.28-Jan-2021 4453.81 5408.99 60.89 1.00 126.80 2485.38
   02:25:09.000.28-Jan-2021 4453.81 5410.91 60.89 1.00 127.00 2485.38
   02:25:09.200.28-Jan-2021 4453.81 5410.91 60.89 1.00 127.20 2485.38
   02:25:09.400.28-Jan-2021 4453.81 5414.46 60.89 1.00 127.40 2485.38
   02:25:09.600.28-Jan-2021 4453.81 5411.45 60.89 1.00 127.60 2485.38
   02:25:09.800.28-Jan-2021 4453.81 5412.34 60.89 1.00 127.80 2485.38
   02:25:10.000.28-Jan-2021 4453.81 5402.39 60.89 1.00 128.00 2485.38
   02:25:10.200.28-Jan-2021 4453.81 5402.39 60.89 1.00 128.20 2485.38
   02:25:10.400.28-Jan-2021 4453.81 5413.00 60.89 1.00 128.40 2485.38
   02:25:10.600.28-Jan-2021 4453.81 5413.83 60.89 1.00 128.60 2485.38
   02:25:10.800.28-Jan-2021 4453.81 5413.57 60.89 1.00 128.80 2485.38
   02:25:11.000.28-Jan-2021 4453.81 5411.39 60.89 1.00 129.00 2485.38
   02:25:11.200.28-Jan-2021 4453.81 5411.39 60.89 1.00 129.20 2485.38
   02:25:11.400.28-Jan-2021 4453.81 5411.96 60.89 1.00 129.40 2485.38
   02:25:11.600.28-Jan-2021 4453.81 5411.15 60.89 1.00 129.60 2485.38
   02:25:11.800.28-Jan-2021 4453.81 5413.09 60.89 1.00 129.80 2485.38
   02:25:12.000.28-Jan-2021 4453.81 5412.41 60.88 1.00 130.00 2485.38
   02:25:12.200.28-Jan-2021 4453.81 5412.41 60.88 1.00 130.20 2485.38
   02:25:12.400.28-Jan-2021 4453.81 5413.16 60.88 1.00 130.40 2485.38
   02:25:12.600.28-Jan-2021 4453.81 5410.69 60.88 1.00 130.60 2485.38
   02:25:12.800.28-Jan-2021 4453.81 5412.04 60.88 1.00 130.80 2485.38
   02:25:13.000.28-Jan-2021 4453.81 5411.81 60.88 1.00 131.00 2485.38
   02:25:13.200.28-Jan-2021 4453.81 5411.81 60.88 1.00 131.20 2485.38
   02:25:13.400.28-Jan-2021 4453.81 5405.10 60.88 1.00 131.40 2485.38
   02:25:13.600.28-Jan-2021 4453.81 5410.56 60.88 1.00 131.60 2485.38
   02:25:13.800.28-Jan-2021 4453.81 5411.62 60.88 1.00 131.80 2485.38
   02:25:14.000.28-Jan-2021 4453.81 5414.49 60.88 1.00 132.00 2485.38
   02:25:14.200.28-Jan-2021 4453.81 5414.49 60.88 1.00 132.20 2485.38
   02:25:14.400.28-Jan-2021 4453.81 5413.32 60.88 1.00 132.40 2485.38
   02:25:14.600.28-Jan-2021 4453.81 5411.19 60.88 1.00 132.60 2485.38
   02:25:14.800.28-Jan-2021 4453.81 5411.72 60.88 1.00 132.80 2485.38
   02:25:15.000.28-Jan-2021 4453.81 5412.99 60.88 1.00 133.00 2485.38
   02:25:15.200.28-Jan-2021 4453.81 5412.99 60.88 1.00 133.20 2485.38
   02:25:15.400.28-Jan-2021 4453.81 5413.36 60.88 1.00 133.40 2485.38
   02:25:15.600.28-Jan-2021 4453.81 5411.65 60.88 1.00 133.60 2485.38
   02:25:15.800.28-Jan-2021 4453.81 5412.03 60.88 1.00 133.80 2485.38
   02:25:16.000.28-Jan-2021 4453.81 5413.33 60.88 1.00 134.00 2485.38
   02:25:16.200.28-Jan-2021 4453.81 5413.33 60.88 1.00 134.20 2485.38
   02:25:16.400.28-Jan-2021 4453.81 5412.97 60.88 1.00 134.40 2485.38
   02:25:16.600.28-Jan-2021 4453.81 5412.35 60.88 1.00 134.60 2485.38
   02:25:16.800.28-Jan-2021 4453.81 5408.88 60.88 1.00 134.80 2485.38
   02:25:17.000.28-Jan-2021 4453.81 5408.95 60.88 1.00 135.00 2485.38
   02:25:17.200.28-Jan-2021 4453.81 5408.95 60.88 1.00 135.20 2485.38
   02:25:17.400.28-Jan-2021 4453.81 5413.89 60.88 1.00 135.40 2485.38
   02:25:17.600.28-Jan-2021 4453.81 5414.44 60.88 1.00 135.60 2485.38
   02:25:17.800.28-Jan-2021 4453.81 5404.08 60.88 1.00 135.80 2485.38
   02:25:18.000.28-Jan-2021 4453.81 5413.66 60.88 1.00 136.00 2485.38
   02:25:18.200.28-Jan-2021 4453.81 5413.66 60.88 1.00 136.20 2485.38
   02:25:18.400.28-Jan-2021 4453.81 5415.35 60.88 1.00 136.40 2485.38
   02:25:18.600.28-Jan-2021 4453.81 5409.60 60.88 1.00 136.60 2485.38
   02:25:18.800.28-Jan-2021 4453.81 5407.45 60.87 1.00 136.80 2485.38
   02:25:19.000.28-Jan-2021 4453.81 5413.13 60.87 1.00 137.00 2485.38
   02:25:19.200.28-Jan-2021 4453.81 5413.13 60.87 1.00 137.20 2485.38
   02:25:19.400.28-Jan-2021 4453.81 5406.43 60.87 1.00 137.40 2485.38
   02:25:19.600.28-Jan-2021 4453.81 5413.31 60.87 1.00 137.60 2485.38
   02:25:19.800.28-Jan-2021 4453.81 5411.09 60.87 1.00 137.80 2485.38
