~Version Information
 VERS.                  2.0:   CWLS log ASCII Standard -VERSION 2.0
 WRAP.                   NO:   One line per depth step
~Well Information Block
#MNEM.UNIT     VALUE/NAME     DESCRIPTION
#---------     -----------    ---------------------------
 STRT.S             17:31:15 28-Jan-21: START TIME 17:31:15 28-Jan-21
 STOP.S             17:37:46 28-Jan-21: STOP TIME  17:37:46 28-Jan-21
 STEP.S                   0.00: STEP TIME
 NULL.                 -999.25: NULL VALUE
 DFWT.                        :  DIST FWL TEXT
 DFST.                        :  DIST FSL TEXT
 DMF .             Drill Floor:  DRILL MEAS FROM
 STIM.      00.00.00 25-Sep-20:  START TIME
 DATE.      16.12.48 31-Jan-21:  END TIME
 SPUD.               20-Sep-20:  SPUD DATE
 NREF.                    Grid:  NORTH REFERENCE
 HPTY.       Minimum Curvature:  HOLE POS TYPE
 DMOD.             Drill Model:  DRILL MOD DESC
 SVYD.                  Survey:  SURVEY DESC
 ILTD.               Lithology:  INTERP LTH DESC
 FTOP.          Formation Tops:  FORM TOPS DESC
 RIG .              East Azeri:  RIG NAME
 PDAT.          Mean Sea Level:  PERMANENT DATUM
 FLD .                     ACG:  FIELD NAME
 SON .        AZ-XX-0906591820:  JOB NUMBER
 CTRY.              Azerbaijan:  COUNTRY NAME
 WELL.                     D37:  WELL NAME
 SRVC.     Turan Drilling & Engineering:  CONTRACTOR
 COMP.     BP Exploration (Caspian Sea) ltd.:  COMPANY
 WTYP.                Deviated:  WELL TYPE
 MDS .        Operator Entered:  MAG DATA SOURCE
 UWI .                     N/A:  UNIQUE WELL IDENTIFIER
 API .                     N/A:  API NUMBER
 BASE.              Azerbaijan:  LOGGING EQUIPMENT BASE LOCATION
 REGN.                   EESSA:  REGION
 PROV.                    Baku:  PROVINCE
 STAT.                    Baku:  STATE NAME
 MWDS.                    Baku:  MWD SHOP
 JOBN.        AZ-XX-0906591820:  JOB TICKET NUMB
 DOE .                     N/A:  DOE NUMBER
 DCON.         Sperry Drilling:  DIRECTNL CONTR
 UNIT.                     N/A:  LOGGING EQUIPMENT ID
 CNTY.                        :  COUNTY
 LOC .                        :  LOCATION
 LMF .             Drill Floor:  LOG MEASURED FROM
 TVDS.m                  43.60:  TVDSS CORRECTN
 LATI.deg                40.02:  LATITUDE
 LONG.deg                51.45:  LONGITUDE
 WHNS.m                  11.04:  WELL HEAD N/S
 WHEW.m                 -12.38:  WELL HEAD E/W
 UTMX.m              538763.98:  UTM X
 UTMY.m             4431880.20:  UTM Y
 DFWL.m                   0.00:  DISTANCE FWL
 DFSL.m                   0.00:  DISTANCE FSL
 SDEP.m                 300.00:  START DEPTH
 TDD .m                4900.01:  TOTAL DEPTH (DRILLER)
 VSDR.deg               185.64:  VERT SEC DIRECT
 GVFD.g                   1.00:  GRAVITY FIELD
 MFLD.nT              50301.00:  MAGNETIC FIELD
 MDIP.deg                59.46:  MAGNETIC DIP
 MDEC.deg                 6.43:  MAGNETIC DECL
 GRDC.deg                 0.29:  GRID CORRECTION
 AZTC.deg                 6.14:  AZM TOTAL CORR
 EPD .m                   0.00:  ELEVATION
 EGL .m                   0.00:  GROUND ELEVATION
 WDMS.m                 151.80:  WD ELEV
 APD .m                  43.60:  DEPTH ABOVE PD
 DEP .m                 571.69:  DEPTH
 AGAP.m                  43.60:  AIR GAP
 VSEW.m                 -12.38:  VERT SEC E/W
 VSNS.m                  11.04:  VERT SEC N/S
 EKB .m                  43.60:  KB ELEVATION
 EDF .m                  43.60:  DF ELEVATION
 TDL .m                 412.00:  TOTAL DEPTH (LOGGER)
 VSC .                       0:  VS TO CLOSURE
 MAGU.                 1849300:  MAGUTM CHECKSUM
~Parameter Information Block
#MNEM.UNIT       Value        Description
#---------     -----------    ---------------------------
 AV  .mps                 2.21:  Ann Velocity 
 AVMX.mps                 2.53:  Max Ann Veloc 
 AZIF.deg               144.83:  Azm, Final 
 BHAT.        Rotary Steerable:  BHA Type 
 BROT.°/30m              -0.52:  Build Rotating 
 BS  .in                  6.50:  Bit Size 
 BTPL.psig              209.00:  Bit Press Loss 
 CABU.                      No:  Customer Abuse 
 CGEO.        Ali Isfandiyarov:  Customer Geo 
 COMM.                     ¼¨M:  Run Comments 1 
 TCS .hr                 61.31:  Time Ciculation Ended 
 CV  .mps                 4.66:  Crit Velocity 
 CVMX.mps                 5.02:  Max Crit Veloc 
 DD1 .          Fariz Nahmatov:  Direct Drillr 1 
 DD2 .            Musa Ahmadov:  Direct Drillr 2 
 DDSV.               Geo-Pilot:  DD Service 
 DEFF.%                 100.00:  % Det Eff 
 DLRX.°/30m               1.44:  Dogleg Rot Max 
 DLSO.°/30m               0.83:  Dogleg Oriented 
 DLSX.°/30m               1.44:  Dogleg Str Max 
 DRET.      08.30.00 30-Jan-21:  Drill End Time 
 DRST.      21.15.00 27-Jan-21:  Drill Start Tim 
 DTIM.hr                 37.28:  Time Drilling 
 EDEP.m                4867.01:  End Depth 
 ENG1.          Rasim Hashimov:  Engineer 1 
 ENG2.         Almaz Almadatov:  Engineer 2 
 ENG3.        Tamerlan Ahmadov:  Engineer 3 
 ETIM.      22.41.04 31-Jan-21:  End Time 
 FLOI.gpm               400.00:  Flow In 
 FLON.gpm               300.00:  Flow In Min 
 FLOS.cptm                0.00:  Fluid Loss 
 FLOX.gpm               400.00:  Flow In Max 
 HFLO.                      No:  High Flow 
 HPRE.                      No:  High Pressure 
 HTEM.                      No:  High Temp 
 HYDO.m                   1.80:  Hydro Offset 
 IFIN.deg                65.63:  Inc, Final 
 IMAX.deg                66.77:  Inc Max 
 IMIN.deg                65.61:  Inc Min 
 IMND.m                4612.67:  Inc Min Depth 
 IMXD.m                4811.63:  Inc Max Depth 
 JARR.                      No:  Jarring 
 LETM.      08.30.00 30-Jan-21:  Log End Time 
 LOST.hr                     0:  Lost Rig Time 
 LSTM.      21.15.00 27-Jan-21:  Log Start Time 
 MDCL.ppm             41000.00:  Mud Chlorides 
 MDES.     Inversion Oil/Synthetic:  Mud Desc 
 DFD .sg                  1.40:  Mud Density 
 MDMN.sg                  1.40:  Dens Mud Min 
 MDMX.sg                  1.40:  Dens Mud Max 
 MOIL.                      53:  Run Mud Oil % 
 MOWR.                   66:34:  Run Mud OWR 
 MSND.                     0.2:  Run Mud Sand % 
 MSOL.                    17.9:  Run Mud Solids% 
 DFV .spqt               77.00:  Mud Viscosity 
 MWOD.in                  4.75:  MWD Tool OD 
 MWSI.                      No:  Serv Intrp, MWD 
 OTIM.hr                110.38:  Time Operating 
 PCON.           Look Like New:  Pad Condition 
 PMAX.psia             5300.00:  Press Op, Max 
 PV  .cP                 57.00:  Mud PV 
 RUN .                    1200:  Run Number 
 ROPA.m/hr               13.00:  ROP Avg 
 ROPN.m/hr                9.00:  ROP Min 
 ROPX.m/hr               15.00:  ROP Max 
 RPMA.rpm               120.00:  RPM Surface Avg 
 RPMN.rpm               100.00:  RPM Surface Min 
 RPMX.rpm               135.00:  RPM Surface Max 
 RRUN.                    1200:  Rig Run Number 
 RTIM.hr                  2.65:  Time Reaming 
 SAZI.deg               145.04:  Azm, Start 
 SDEP.m                4455.01:  Start Depth 
 SIDD.                      No:  Serv Intrp, DD 
 SINC.deg                65.83:  Inc, Start 
 SPPA.psig             5037.00:  SPP Avg 
 SPPN.psig             4430.00:  SPP Min 
 SPPX.psig             5300.00:  SPP Max 
 STIM.      22.41.04 26-Jan-21:  Start Time 
 SVCS.                 DD, MWD:  Services 
 SVER.                    9.20:  Sperry Version 
 TDAT.m                 412.00:  Tot Depth Attmp 
 TDDF.                      No:  Trip for DD 
 TDLG.m                 412.00:  Tot Depth Loggd 
 TFF .                      No:  Trip for Fail 
 TQAA.f-kp               15.00:  Torque Abs Avg 
 TQAN.f-kp               12.00:  Torque Abs Min 
 TQAX.f-kp               17.00:  Torque Abs Max 
 TRRT.°/30m               1.18:  Turn Rotating 
 MRT .                     ADR:  Maximum Recorded Temperature 
 TTMX.degC               88.24:  Max Tool Temp 
 VS01.                90619458:  Virtual Str1 SN 
 VS02.                90519326:  Virtual Str2 SN 
 VS03.                90522176:  Virtual Str3 SN 
 VS04.                90512683:  Virtual Str4 SN 
 WBMN.klb                 1.00:  WOB Min 
 WITN.           Murad Giluyev:  Customer Rep 
 WITN.     Kamran Kemberlinski:  Customer Rep 2 
 WOBA.klb                 5.00:  WOB Avg 
 WOBX.klb                 9.00:  WOB Max 
 YP  .lhf2               41.00:  Yield Point 
~Curve Information Block
#MNEM.UNIT                 API CODE     Curve Description
#---------               -----------    ---------------------------
 TIME.HHMMSS            00 000 000 000:  GT Time & Date
 GTDEPTH.m              00 000 000 000:  GT Depth
 GTPQH.psia             00 000 000 000:  GT HR Quartz Pressure
 GTTQ.degC              00 000 000 000:  GT Quartz Temperature
 GTTN.NONE              00 000 000 000:  GT Test Number
 GTET.sec               00 000 000 000:  GT Elapsed Test Time
 GTTVD.m                00 000 000 000:  GT True Vertical Depth
#Other Information
#
#WARRANTY: Halliburton will use its best efforts to furnish customers with 
#accurate information and interpretations that are part of, and incident to, the services 
#provided.  However, Halliburton cannot and does not warrant the accuracy 
#or correctness of such information and interpretations.  Under no circumstances should any 
#such information or interpretation be relied upon as the sole basis for any drilling, 
#completion, production, or financial decision or any procedure involving any risk to the 
#safety of any drilling venture, drilling rig or its crew or any other third party.  The 
#Customer has full responsibility for all drilling, completion and production operation.  
#Halliburton makes no representations or warranties, either expressed or 
#implied, including, but not limited to, the implied warranties of merchantability or fitness 
#for a particular purpose, with respect to the services rendered.  In no event will 
#Halliburton be liable for failure to obtain any particular results or for 
#any damages, including, but not limited to, indirect, special or consequential damages, 
#resulting from the use of any information or interpretation provided by Halliburton.
#
~A           TIME           GTDEPTH  GTPQH  GTTQ  GTTN  GTET   GTTVD  
# ...
   17:37:23.361.28-Jan-2021 4557.01 5592.78 74.19 5.00 368.07 2527.68
   17:37:23.561.28-Jan-2021 4557.01 5592.78 74.19 5.00 368.27 2527.68
   17:37:23.761.28-Jan-2021 4557.01 5592.37 74.19 5.00 368.47 2527.68
   17:37:23.961.28-Jan-2021 4557.01 5592.72 74.19 5.00 368.67 2527.68
   17:37:24.161.28-Jan-2021 4557.01 5592.45 74.19 5.00 368.87 2527.68
   17:37:24.361.28-Jan-2021 4557.01 5592.80 74.19 5.00 369.07 2527.68
   17:37:24.561.28-Jan-2021 4557.01 5592.80 74.19 5.00 369.27 2527.68
   17:37:24.761.28-Jan-2021 4557.01 5592.37 74.19 5.00 369.47 2527.68
   17:37:24.961.28-Jan-2021 4557.01 5586.90 74.19 5.00 369.67 2527.68
   17:37:25.161.28-Jan-2021 4557.01 5591.44 74.19 5.00 369.87 2527.68
   17:37:25.361.28-Jan-2021 4557.01 5592.57 74.19 5.00 370.07 2527.68
   17:37:25.561.28-Jan-2021 4557.01 5592.57 74.19 5.00 370.27 2527.68
   17:37:25.761.28-Jan-2021 4557.01 5594.24 74.19 5.00 370.47 2527.68
   17:37:25.961.28-Jan-2021 4557.01 5592.76 74.19 5.00 370.67 2527.68
   17:37:26.161.28-Jan-2021 4557.01 5593.60 74.19 5.00 370.87 2527.68
   17:37:26.362.28-Jan-2021 4557.01 5593.22 74.19 5.00 371.07 2527.68
   17:37:26.562.28-Jan-2021 4557.01 5593.22 74.19 5.00 371.27 2527.68
   17:37:26.762.28-Jan-2021 4557.01 5592.88 74.19 5.00 371.47 2527.68
   17:37:26.962.28-Jan-2021 4557.01 5592.37 74.19 5.00 371.67 2527.68
   17:37:27.162.28-Jan-2021 4557.01 5592.42 74.19 5.00 371.87 2527.68
   17:37:27.362.28-Jan-2021 4557.01 5592.50 74.19 5.00 372.07 2527.68
   17:37:27.562.28-Jan-2021 4557.01 5592.50 74.19 5.00 372.27 2527.68
   17:37:27.762.28-Jan-2021 4557.01 5592.41 74.18 5.00 372.47 2527.68
   17:37:27.962.28-Jan-2021 4557.01 5592.68 74.18 5.00 372.67 2527.68
   17:37:28.162.28-Jan-2021 4557.01 5592.29 74.18 5.00 372.87 2527.68
   17:37:28.362.28-Jan-2021 4557.01 5585.76 74.18 5.00 373.07 2527.68
   17:37:28.562.28-Jan-2021 4557.01 5585.76 74.18 5.00 373.27 2527.68
   17:37:28.762.28-Jan-2021 4557.01 5590.13 74.18 5.00 373.47 2527.68
   17:37:28.962.28-Jan-2021 4557.01 5591.04 74.18 5.00 373.67 2527.68
   17:37:29.162.28-Jan-2021 4557.01 5590.70 74.18 5.00 373.87 2527.68
   17:37:29.362.28-Jan-2021 4557.01 5591.69 74.18 5.00 374.07 2527.68
   17:37:29.562.28-Jan-2021 4557.01 5591.69 74.18 5.00 374.27 2527.68
   17:37:29.762.28-Jan-2021 4557.01 5592.83 74.18 5.00 374.47 2527.68
   17:37:29.962.28-Jan-2021 4557.01 5592.97 74.18 5.00 374.67 2527.68
   17:37:30.162.28-Jan-2021 4557.01 5594.31 74.18 5.00 374.87 2527.68
   17:37:30.362.28-Jan-2021 4557.01 5591.21 74.18 5.00 375.07 2527.68
   17:37:30.562.28-Jan-2021 4557.01 5591.21 74.18 5.00 375.27 2527.68
   17:37:30.762.28-Jan-2021 4557.01 5589.21 74.18 5.00 375.47 2527.68
   17:37:30.962.28-Jan-2021 4557.01 5593.27 74.18 5.00 375.67 2527.68
   17:37:31.162.28-Jan-2021 4557.01 5592.42 74.18 5.00 375.87 2527.68
   17:37:31.363.28-Jan-2021 4557.01 5594.22 74.18 5.00 376.07 2527.68
   17:37:31.563.28-Jan-2021 4557.01 5594.22 74.18 5.00 376.27 2527.68
   17:37:31.763.28-Jan-2021 4557.01 5587.08 74.18 5.00 376.47 2527.68
   17:37:31.963.28-Jan-2021 4557.01 5591.39 74.18 5.00 376.67 2527.68
   17:37:32.163.28-Jan-2021 4557.01 5591.58 74.18 5.00 376.87 2527.68
   17:37:32.363.28-Jan-2021 4557.01 5590.20 74.18 5.00 377.07 2527.68
   17:37:32.563.28-Jan-2021 4557.01 5590.20 74.18 5.00 377.27 2527.68
   17:37:32.763.28-Jan-2021 4557.01 5592.09 74.18 5.00 377.47 2527.68
   17:37:32.963.28-Jan-2021 4557.01 5593.51 74.18 5.00 377.67 2527.68
   17:37:33.163.28-Jan-2021 4557.01 5586.27 74.18 5.00 377.87 2527.68
   17:37:33.363.28-Jan-2021 4557.01 5593.59 74.18 5.00 378.07 2527.68
   17:37:33.563.28-Jan-2021 4557.01 5593.59 74.18 5.00 378.27 2527.68
   17:37:33.763.28-Jan-2021 4557.01 5590.51 74.18 5.00 378.47 2527.68
   17:37:33.963.28-Jan-2021 4557.01 5592.94 74.18 5.00 378.67 2527.68
   17:37:34.163.28-Jan-2021 4557.01 5592.82 74.18 5.00 378.87 2527.68
   17:37:34.363.28-Jan-2021 4557.01 5594.07 74.17 5.00 379.07 2527.68
   17:37:34.563.28-Jan-2021 4557.01 5594.07 74.17 5.00 379.27 2527.68
   17:37:34.763.28-Jan-2021 4557.01 5593.60 74.17 5.00 379.47 2527.68
   17:37:34.963.28-Jan-2021 4557.01 5592.97 74.17 5.00 379.67 2527.68
   17:37:35.163.28-Jan-2021 4557.01 5592.63 74.17 5.00 379.87 2527.68
   17:37:35.363.28-Jan-2021 4557.01 5592.25 74.17 5.00 380.07 2527.68
   17:37:35.563.28-Jan-2021 4557.01 5592.25 74.17 5.00 380.27 2527.68
   17:37:35.763.28-Jan-2021 4557.01 5591.66 74.17 5.00 380.47 2527.68
   17:37:35.963.28-Jan-2021 4557.01 5591.24 74.17 5.00 380.67 2527.68
   17:37:36.163.28-Jan-2021 4557.01 5591.26 74.17 5.00 380.87 2527.68
   17:37:36.363.28-Jan-2021 4557.01 5591.40 74.17 5.00 381.07 2527.68
   17:37:36.564.28-Jan-2021 4557.01 5591.40 74.17 5.00 381.27 2527.68
   17:37:36.764.28-Jan-2021 4557.01 5587.11 74.17 5.00 381.47 2527.68
   17:37:36.964.28-Jan-2021 4557.01 5588.63 74.17 5.00 381.67 2527.68
   17:37:37.164.28-Jan-2021 4557.01 5591.99 74.17 5.00 381.87 2527.68
   17:37:37.364.28-Jan-2021 4557.01 5590.74 74.17 5.00 382.07 2527.68
   17:37:37.564.28-Jan-2021 4557.01 5590.74 74.17 5.00 382.27 2527.68
   17:37:37.764.28-Jan-2021 4557.01 5593.34 74.17 5.00 382.48 2527.68
   17:37:37.964.28-Jan-2021 4557.01 5592.96 74.17 5.00 382.68 2527.68
   17:37:38.164.28-Jan-2021 4557.01 5593.53 74.17 5.00 382.88 2527.68
   17:37:38.364.28-Jan-2021 4557.01 5592.67 74.17 5.00 383.08 2527.68
   17:37:38.564.28-Jan-2021 4557.01 5592.67 74.17 5.00 383.28 2527.68
   17:37:38.764.28-Jan-2021 4557.01 5592.67 74.17 5.00 383.48 2527.68
   17:37:38.964.28-Jan-2021 4557.01 5592.67 74.17 5.00 383.68 2527.68
   17:37:39.164.28-Jan-2021 4557.01 5592.75 74.17 5.00 383.88 2527.68
   17:37:39.364.28-Jan-2021 4557.01 5592.09 74.17 5.00 384.08 2527.68
   17:37:39.564.28-Jan-2021 4557.01 5592.09 74.17 5.00 384.28 2527.68
   17:37:39.764.28-Jan-2021 4557.01 5592.12 74.17 5.00 384.48 2527.68
   17:37:39.964.28-Jan-2021 4557.01 5592.13 74.17 5.00 384.68 2527.68
   17:37:40.164.28-Jan-2021 4557.01 5586.41 74.17 5.00 384.88 2527.68
   17:37:40.364.28-Jan-2021 4557.01 5591.18 74.16 5.00 385.08 2527.68
   17:37:40.564.28-Jan-2021 4557.01 5591.18 74.16 5.00 385.28 2527.68
   17:37:40.764.28-Jan-2021 4557.01 5590.21 74.16 5.00 385.48 2527.68
   17:37:40.964.28-Jan-2021 4557.01 5586.84 74.16 5.00 385.68 2527.68
   17:37:41.164.28-Jan-2021 4557.01 5594.40 74.16 5.00 385.88 2527.68
   17:37:41.364.28-Jan-2021 4557.01 5591.22 74.16 5.00 386.08 2527.68
   17:37:41.565.28-Jan-2021 4557.01 5591.22 74.16 5.00 386.28 2527.68
   17:37:41.765.28-Jan-2021 4557.01 5592.49 74.16 5.00 386.48 2527.68
   17:37:41.965.28-Jan-2021 4557.01 5593.74 74.16 5.00 386.68 2527.68
   17:37:42.165.28-Jan-2021 4557.01 5586.89 74.16 5.00 386.88 2527.68
   17:37:42.365.28-Jan-2021 4557.01 5594.05 74.16 5.00 387.08 2527.68
   17:37:42.565.28-Jan-2021 4557.01 5594.05 74.16 5.00 387.28 2527.68
   17:37:42.765.28-Jan-2021 4557.01 5591.13 74.16 5.00 387.48 2527.68
   17:37:42.965.28-Jan-2021 4557.01 5593.31 74.16 5.00 387.68 2527.68
   17:37:43.165.28-Jan-2021 4557.01 5592.81 74.16 5.00 387.88 2527.68
   17:37:43.365.28-Jan-2021 4557.01 5593.00 74.16 5.00 388.08 2527.68
   17:37:43.565.28-Jan-2021 4557.01 5593.00 74.16 5.00 388.28 2527.68
   17:37:43.765.28-Jan-2021 4557.01 5589.20 74.16 5.00 388.48 2527.68
   17:37:43.965.28-Jan-2021 4557.01 5592.16 74.16 5.00 388.68 2527.68
   17:37:44.165.28-Jan-2021 4557.01 5590.59 74.16 5.00 388.88 2527.68
   17:37:44.365.28-Jan-2021 4557.01 5593.33 74.16 5.00 389.08 2527.68
   17:37:44.565.28-Jan-2021 4557.01 5593.33 74.16 5.00 389.28 2527.68
   17:37:44.765.28-Jan-2021 4557.01 5592.46 74.16 5.00 389.48 2527.68
   17:37:44.965.28-Jan-2021 4557.01 5587.01 74.16 5.00 389.68 2527.68
   17:37:45.165.28-Jan-2021 4557.01 5590.32 74.16 5.00 389.88 2527.68
   17:37:45.365.28-Jan-2021 4557.01 5591.75 74.16 5.00 390.08 2527.68
   17:37:45.565.28-Jan-2021 4557.01 5591.75 74.16 5.00 390.28 2527.68
   17:37:45.765.28-Jan-2021 4557.01 5593.32 74.16 5.00 390.48 2527.68
   17:37:45.965.28-Jan-2021 4557.01 5592.90 74.16 5.00 390.68 2527.68
   17:37:46.165.28-Jan-2021 4557.01 5593.25 74.16 5.00 390.88 2527.68
