~Version Information
 VERS.                  2.0:   CWLS log ASCII Standard -VERSION 2.0
 WRAP.                   NO:   One line per depth step
~Well Information Block
#MNEM.UNIT     VALUE/NAME     DESCRIPTION
#---------     -----------    ---------------------------
 STRT.S             20:44:12 29-Jan-21: START TIME 20:44:12 29-Jan-21
 STOP.S             20:50:42 29-Jan-21: STOP TIME  20:50:42 29-Jan-21
 STEP.S                   0.00: STEP TIME
 NULL.                 -999.25: NULL VALUE
 DFWT.                        :  DIST FWL TEXT
 DFST.                        :  DIST FSL TEXT
 DMF .             Drill Floor:  DRILL MEAS FROM
 STIM.      00.00.00 25-Sep-20:  START TIME
 DATE.      16.12.48 31-Jan-21:  END TIME
 SPUD.               20-Sep-20:  SPUD DATE
 NREF.                    Grid:  NORTH REFERENCE
 HPTY.       Minimum Curvature:  HOLE POS TYPE
 DMOD.             Drill Model:  DRILL MOD DESC
 SVYD.                  Survey:  SURVEY DESC
 ILTD.               Lithology:  INTERP LTH DESC
 FTOP.          Formation Tops:  FORM TOPS DESC
 RIG .              East Azeri:  RIG NAME
 PDAT.          Mean Sea Level:  PERMANENT DATUM
 FLD .                     ACG:  FIELD NAME
 SON .        AZ-XX-0906591820:  JOB NUMBER
 CTRY.              Azerbaijan:  COUNTRY NAME
 WELL.                     D37:  WELL NAME
 SRVC.     Turan Drilling & Engineering:  CONTRACTOR
 COMP.     BP Exploration (Caspian Sea) ltd.:  COMPANY
 WTYP.                Deviated:  WELL TYPE
 MDS .        Operator Entered:  MAG DATA SOURCE
 UWI .                     N/A:  UNIQUE WELL IDENTIFIER
 API .                     N/A:  API NUMBER
 BASE.              Azerbaijan:  LOGGING EQUIPMENT BASE LOCATION
 REGN.                   EESSA:  REGION
 PROV.                    Baku:  PROVINCE
 STAT.                    Baku:  STATE NAME
 MWDS.                    Baku:  MWD SHOP
 JOBN.        AZ-XX-0906591820:  JOB TICKET NUMB
 DOE .                     N/A:  DOE NUMBER
 DCON.         Sperry Drilling:  DIRECTNL CONTR
 UNIT.                     N/A:  LOGGING EQUIPMENT ID
 CNTY.                        :  COUNTY
 LOC .                        :  LOCATION
 LMF .             Drill Floor:  LOG MEASURED FROM
 TVDS.m                  43.60:  TVDSS CORRECTN
 LATI.deg                40.02:  LATITUDE
 LONG.deg                51.45:  LONGITUDE
 WHNS.m                  11.04:  WELL HEAD N/S
 WHEW.m                 -12.38:  WELL HEAD E/W
 UTMX.m              538763.98:  UTM X
 UTMY.m             4431880.20:  UTM Y
 DFWL.m                   0.00:  DISTANCE FWL
 DFSL.m                   0.00:  DISTANCE FSL
 SDEP.m                 300.00:  START DEPTH
 TDD .m                4900.01:  TOTAL DEPTH (DRILLER)
 VSDR.deg               185.64:  VERT SEC DIRECT
 GVFD.g                   1.00:  GRAVITY FIELD
 MFLD.nT              50301.00:  MAGNETIC FIELD
 MDIP.deg                59.46:  MAGNETIC DIP
 MDEC.deg                 6.43:  MAGNETIC DECL
 GRDC.deg                 0.29:  GRID CORRECTION
 AZTC.deg                 6.14:  AZM TOTAL CORR
 EPD .m                   0.00:  ELEVATION
 EGL .m                   0.00:  GROUND ELEVATION
 WDMS.m                 151.80:  WD ELEV
 APD .m                  43.60:  DEPTH ABOVE PD
 DEP .m                 571.69:  DEPTH
 AGAP.m                  43.60:  AIR GAP
 VSEW.m                 -12.38:  VERT SEC E/W
 VSNS.m                  11.04:  VERT SEC N/S
 EKB .m                  43.60:  KB ELEVATION
 EDF .m                  43.60:  DF ELEVATION
 TDL .m                 412.00:  TOTAL DEPTH (LOGGER)
 VSC .                       0:  VS TO CLOSURE
 MAGU.                 1849300:  MAGUTM CHECKSUM
~Parameter Information Block
#MNEM.UNIT       Value        Description
#---------     -----------    ---------------------------
 AV  .mps                 2.21:  Ann Velocity 
 AVMX.mps                 2.53:  Max Ann Veloc 
 AZIF.deg               144.83:  Azm, Final 
 BHAT.        Rotary Steerable:  BHA Type 
 BROT.°/30m              -0.52:  Build Rotating 
 BS  .in                  6.50:  Bit Size 
 BTPL.psig              209.00:  Bit Press Loss 
 CABU.                      No:  Customer Abuse 
 CGEO.        Ali Isfandiyarov:  Customer Geo 
 TCS .hr                 61.31:  Time Ciculation Ended 
 CV  .mps                 4.66:  Crit Velocity 
 CVMX.mps                 5.02:  Max Crit Veloc 
 DD1 .          Fariz Nahmatov:  Direct Drillr 1 
 DD2 .            Musa Ahmadov:  Direct Drillr 2 
 DDSV.               Geo-Pilot:  DD Service 
 DEFF.%                 100.00:  % Det Eff 
 DLRX.°/30m               1.44:  Dogleg Rot Max 
 DLSO.°/30m               0.83:  Dogleg Oriented 
 DLSX.°/30m               1.44:  Dogleg Str Max 
 DRET.      08.30.00 30-Jan-21:  Drill End Time 
 DRST.      21.15.00 27-Jan-21:  Drill Start Tim 
 DTIM.hr                 37.28:  Time Drilling 
 EDEP.m                4867.01:  End Depth 
 ENG1.          Rasim Hashimov:  Engineer 1 
 ENG2.         Almaz Almadatov:  Engineer 2 
 ENG3.        Tamerlan Ahmadov:  Engineer 3 
 ETIM.      22.41.04 31-Jan-21:  End Time 
 FLOI.gpm               400.00:  Flow In 
 FLON.gpm               300.00:  Flow In Min 
 FLOS.cptm                0.00:  Fluid Loss 
 FLOX.gpm               400.00:  Flow In Max 
 HFLO.                      No:  High Flow 
 HPRE.                      No:  High Pressure 
 HTEM.                      No:  High Temp 
 HYDO.m                   1.80:  Hydro Offset 
 IFIN.deg                65.63:  Inc, Final 
 IMAX.deg                66.77:  Inc Max 
 IMIN.deg                65.61:  Inc Min 
 IMND.m                4612.67:  Inc Min Depth 
 IMXD.m                4811.63:  Inc Max Depth 
 JARR.                      No:  Jarring 
 LETM.      08.30.00 30-Jan-21:  Log End Time 
 LOST.hr                     0:  Lost Rig Time 
 LSTM.      21.15.00 27-Jan-21:  Log Start Time 
 MDCL.ppm             41000.00:  Mud Chlorides 
 MDES.     Inversion Oil/Synthetic:  Mud Desc 
 DFD .sg                  1.40:  Mud Density 
 MDMN.sg                  1.40:  Dens Mud Min 
 MDMX.sg                  1.40:  Dens Mud Max 
 MOIL.                      53:  Run Mud Oil % 
 MOWR.                   66:34:  Run Mud OWR 
 MSND.                     0.2:  Run Mud Sand % 
 MSOL.                    17.9:  Run Mud Solids% 
 DFV .spqt               77.00:  Mud Viscosity 
 MWOD.in                  4.75:  MWD Tool OD 
 MWSI.                      No:  Serv Intrp, MWD 
 OTIM.hr                110.38:  Time Operating 
 PCON.           Look Like New:  Pad Condition 
 PMAX.psia             5300.00:  Press Op, Max 
 PV  .cP                 57.00:  Mud PV 
 RUN .                    1200:  Run Number 
 ROPA.m/hr               13.00:  ROP Avg 
 ROPN.m/hr                9.00:  ROP Min 
 ROPX.m/hr               15.00:  ROP Max 
 RPMA.rpm               120.00:  RPM Surface Avg 
 RPMN.rpm               100.00:  RPM Surface Min 
 RPMX.rpm               135.00:  RPM Surface Max 
 RRUN.                    1200:  Rig Run Number 
 RTIM.hr                  2.65:  Time Reaming 
 SAZI.deg               145.04:  Azm, Start 
 SDEP.m                4455.01:  Start Depth 
 SIDD.                      No:  Serv Intrp, DD 
 SINC.deg                65.83:  Inc, Start 
 SPPA.psig             5037.00:  SPP Avg 
 SPPN.psig             4430.00:  SPP Min 
 SPPX.psig             5300.00:  SPP Max 
 STIM.      22.41.04 26-Jan-21:  Start Time 
 SVCS.                 DD, MWD:  Services 
 SVER.                    9.20:  Sperry Version 
 TDAT.m                 412.00:  Tot Depth Attmp 
 TDDF.                      No:  Trip for DD 
 TDLG.m                 412.00:  Tot Depth Loggd 
 TFF .                      No:  Trip for Fail 
 TQAA.f-kp               15.00:  Torque Abs Avg 
 TQAN.f-kp               12.00:  Torque Abs Min 
 TQAX.f-kp               17.00:  Torque Abs Max 
 TRRT.°/30m               1.18:  Turn Rotating 
 MRT .                     ADR:  Maximum Recorded Temperature 
 TTMX.degC               88.24:  Max Tool Temp 
 VS01.                90619458:  Virtual Str1 SN 
 VS02.                90519326:  Virtual Str2 SN 
 VS03.                90522176:  Virtual Str3 SN 
 VS04.                90512683:  Virtual Str4 SN 
 WBMN.klb                 1.00:  WOB Min 
 WITN.           Murad Giluyev:  Customer Rep 
 WITN.     Kamran Kemberlinski:  Customer Rep 2 
 WOBA.klb                 5.00:  WOB Avg 
 WOBX.klb                 9.00:  WOB Max 
 YP  .lhf2               41.00:  Yield Point 
~Curve Information Block
#MNEM.UNIT                 API CODE     Curve Description
#---------               -----------    ---------------------------
 TIME.HHMMSS            00 000 000 000:  GT Time & Date
 GTDEPTH.m              00 000 000 000:  GT Depth
 GTPQH.psia             00 000 000 000:  GT HR Quartz Pressure
 GTTQ.degC              00 000 000 000:  GT Quartz Temperature
 GTTN.NONE              00 000 000 000:  GT Test Number
 GTET.sec               00 000 000 000:  GT Elapsed Test Time
 GTTVD.m                00 000 000 000:  GT True Vertical Depth
#Other Information
#
#WARRANTY: Halliburton will use its best efforts to furnish customers with 
#accurate information and interpretations that are part of, and incident to, the services 
#provided.  However, Halliburton cannot and does not warrant the accuracy 
#or correctness of such information and interpretations.  Under no circumstances should any 
#such information or interpretation be relied upon as the sole basis for any drilling, 
#completion, production, or financial decision or any procedure involving any risk to the 
#safety of any drilling venture, drilling rig or its crew or any other third party.  The 
#Customer has full responsibility for all drilling, completion and production operation.  
#Halliburton makes no representations or warranties, either expressed or 
#implied, including, but not limited to, the implied warranties of merchantability or fitness 
#for a particular purpose, with respect to the services rendered.  In no event will 
#Halliburton be liable for failure to obtain any particular results or for 
#any damages, including, but not limited to, indirect, special or consequential damages, 
#resulting from the use of any information or interpretation provided by Halliburton.
#
~A           TIME           GTDEPTH  GTPQH  GTTQ  GTTN   GTET   GTTVD  
# ...
   20:47:58.625.29-Jan-2021 4766.51 3131.33 83.14 13.00 226.03 2612.24
   20:47:58.825.29-Jan-2021 4766.51 3131.33 83.14 13.00 226.23 2612.24
   20:47:59.025.29-Jan-2021 4766.51 3131.33 83.14 13.00 226.43 2612.24
   20:47:59.225.29-Jan-2021 4766.51 3131.31 83.14 13.00 226.63 2612.24
   20:47:59.425.29-Jan-2021 4766.51 3131.35 83.14 13.00 226.83 2612.24
   20:47:59.625.29-Jan-2021 4766.51 3131.33 83.14 13.00 227.03 2612.24
   20:47:59.825.29-Jan-2021 4766.51 3131.33 83.14 13.00 227.23 2612.24
   20:48:00.025.29-Jan-2021 4766.51 3131.32 83.13 13.00 227.43 2612.24
   20:48:00.225.29-Jan-2021 4766.51 3131.34 83.13 13.00 227.63 2612.24
   20:48:00.425.29-Jan-2021 4766.51 3131.33 83.13 13.00 227.83 2612.24
   20:48:00.625.29-Jan-2021 4766.51 3131.34 83.13 13.00 228.03 2612.24
   20:48:00.825.29-Jan-2021 4766.51 3131.34 83.13 13.00 228.23 2612.24
   20:48:01.025.29-Jan-2021 4766.51 3131.32 83.13 13.00 228.43 2612.24
   20:48:01.225.29-Jan-2021 4766.51 3131.33 83.13 13.00 228.63 2612.24
   20:48:01.425.29-Jan-2021 4766.51 3131.33 83.13 13.00 228.83 2612.24
   20:48:01.625.29-Jan-2021 4766.51 3131.31 83.13 13.00 229.03 2612.24
   20:48:01.825.29-Jan-2021 4766.51 3131.31 83.13 13.00 229.23 2612.24
   20:48:02.025.29-Jan-2021 4766.51 3131.31 83.13 13.00 229.43 2612.24
   20:48:02.225.29-Jan-2021 4766.51 3131.33 83.13 13.00 229.63 2612.24
   20:48:02.425.29-Jan-2021 4766.51 3131.31 83.13 13.00 229.83 2612.24
   20:48:02.625.29-Jan-2021 4766.51 3131.34 83.13 13.00 230.03 2612.24
   20:48:02.825.29-Jan-2021 4766.51 3131.34 83.13 13.00 230.23 2612.24
   20:48:03.025.29-Jan-2021 4766.51 3131.34 83.13 13.00 230.43 2612.24
   20:48:03.225.29-Jan-2021 4766.51 3131.26 83.12 13.00 230.63 2612.24
   20:48:03.425.29-Jan-2021 4766.51 3131.38 83.12 13.00 230.83 2612.24
   20:48:03.626.29-Jan-2021 4766.51 3131.35 83.12 13.00 231.03 2612.24
   20:48:03.826.29-Jan-2021 4766.51 3131.35 83.12 13.00 231.23 2612.24
   20:48:04.026.29-Jan-2021 4766.51 3131.31 83.12 13.00 231.43 2612.24
   20:48:04.226.29-Jan-2021 4766.51 3131.29 83.12 13.00 231.63 2612.24
   20:48:04.426.29-Jan-2021 4766.51 3131.38 83.12 13.00 231.83 2612.24
   20:48:04.626.29-Jan-2021 4766.51 3131.35 83.12 13.00 232.03 2612.24
   20:48:04.826.29-Jan-2021 4766.51 3131.35 83.12 13.00 232.23 2612.24
   20:48:05.026.29-Jan-2021 4766.51 3131.30 83.12 13.00 232.43 2612.24
   20:48:05.226.29-Jan-2021 4766.51 3131.30 83.12 13.00 232.63 2612.24
   20:48:05.426.29-Jan-2021 4766.51 3131.38 83.12 13.00 232.83 2612.24
   20:48:05.626.29-Jan-2021 4766.51 3131.34 83.12 13.00 233.03 2612.24
   20:48:05.826.29-Jan-2021 4766.51 3131.34 83.12 13.00 233.23 2612.24
   20:48:06.026.29-Jan-2021 4766.51 3131.31 83.12 13.00 233.43 2612.24
   20:48:06.226.29-Jan-2021 4766.51 3131.34 83.12 13.00 233.63 2612.24
   20:48:06.426.29-Jan-2021 4766.51 3131.28 83.11 13.00 233.83 2612.24
   20:48:06.626.29-Jan-2021 4766.51 3131.38 83.11 13.00 234.03 2612.24
   20:48:06.826.29-Jan-2021 4766.51 3131.38 83.11 13.00 234.23 2612.24
   20:48:07.026.29-Jan-2021 4766.51 3131.34 83.11 13.00 234.43 2612.24
   20:48:07.226.29-Jan-2021 4766.51 3131.30 83.11 13.00 234.63 2612.24
   20:48:07.426.29-Jan-2021 4766.51 3131.34 83.11 13.00 234.83 2612.24
   20:48:07.626.29-Jan-2021 4766.51 3131.32 83.11 13.00 235.03 2612.24
   20:48:07.826.29-Jan-2021 4766.51 3131.32 83.11 13.00 235.23 2612.24
   20:48:08.026.29-Jan-2021 4766.51 3131.31 83.11 13.00 235.43 2612.24
   20:48:08.226.29-Jan-2021 4766.51 3131.32 83.11 13.00 235.63 2612.24
   20:48:08.426.29-Jan-2021 4766.51 3131.32 83.11 13.00 235.83 2612.24
   20:48:08.626.29-Jan-2021 4766.51 3131.32 83.11 13.00 236.03 2612.24
   20:48:08.826.29-Jan-2021 4766.51 3131.32 83.11 13.00 236.23 2612.24
   20:48:09.026.29-Jan-2021 4766.51 3131.31 83.11 13.00 236.43 2612.24
   20:48:09.226.29-Jan-2021 4766.51 3131.31 83.11 13.00 236.63 2612.24
   20:48:09.426.29-Jan-2021 4766.51 3131.32 83.11 13.00 236.83 2612.24
   20:48:09.626.29-Jan-2021 4766.51 3131.31 83.11 13.00 237.03 2612.24
   20:48:09.826.29-Jan-2021 4766.51 3131.31 83.11 13.00 237.23 2612.24
   20:48:10.026.29-Jan-2021 4766.51 3131.26 83.10 13.00 237.43 2612.24
   20:48:10.226.29-Jan-2021 4766.51 3131.37 83.10 13.00 237.63 2612.24
   20:48:10.426.29-Jan-2021 4766.51 3131.33 83.10 13.00 237.83 2612.24
   20:48:10.626.29-Jan-2021 4766.51 3131.32 83.10 13.00 238.03 2612.24
   20:48:10.826.29-Jan-2021 4766.51 3131.32 83.10 13.00 238.23 2612.24
   20:48:11.026.29-Jan-2021 4766.51 3131.32 83.10 13.00 238.43 2612.24
   20:48:11.226.29-Jan-2021 4766.51 3131.32 83.10 13.00 238.63 2612.24
   20:48:11.426.29-Jan-2021 4766.51 3131.31 83.10 13.00 238.83 2612.24
   20:48:11.626.29-Jan-2021 4766.51 3131.31 83.10 13.00 239.03 2612.24
   20:48:11.826.29-Jan-2021 4766.51 3131.31 83.10 13.00 239.23 2612.24
   20:48:12.027.29-Jan-2021 4766.51 3131.32 83.10 13.00 239.43 2612.24
   20:48:12.227.29-Jan-2021 4766.51 3131.19 83.10 13.00 239.63 2612.24
   20:48:12.427.29-Jan-2021 4766.51 3119.20 83.10 13.00 239.83 2612.24
   20:48:12.627.29-Jan-2021 4766.51 3118.04 83.10 13.00 240.03 2612.24
   20:48:12.827.29-Jan-2021 4766.51 3118.04 83.10 13.00 240.23 2612.24
   20:48:13.027.29-Jan-2021 4766.51 3118.06 83.10 13.00 240.43 2612.24
   20:48:13.227.29-Jan-2021 4766.51 3117.58 83.09 13.00 240.63 2612.24
   20:48:13.427.29-Jan-2021 4766.51 3118.16 83.09 13.00 240.83 2612.24
   20:48:13.627.29-Jan-2021 4766.51 3117.90 83.09 13.00 241.03 2612.24
   20:48:13.827.29-Jan-2021 4766.51 3117.90 83.09 13.00 241.23 2612.24
   20:48:14.027.29-Jan-2021 4766.51 3117.68 83.09 13.00 241.43 2612.24
   20:48:14.227.29-Jan-2021 4766.51 3118.04 83.09 13.00 241.63 2612.24
   20:48:14.427.29-Jan-2021 4766.51 3117.88 83.09 13.00 241.83 2612.24
   20:48:14.627.29-Jan-2021 4766.51 3117.91 83.09 13.00 242.03 2612.24
   20:48:14.827.29-Jan-2021 4766.51 3117.91 83.09 13.00 242.23 2612.24
   20:48:15.027.29-Jan-2021 4766.51 3117.98 83.09 13.00 242.43 2612.24
   20:48:15.227.29-Jan-2021 4766.51 3117.80 83.09 13.00 242.63 2612.24
   20:48:15.427.29-Jan-2021 4766.51 3118.02 83.09 13.00 242.83 2612.24
   20:48:15.627.29-Jan-2021 4766.51 3117.72 83.09 13.00 243.03 2612.24
   20:48:15.827.29-Jan-2021 4766.51 3117.72 83.09 13.00 243.23 2612.24
   20:48:16.027.29-Jan-2021 4766.51 3117.74 83.09 13.00 243.43 2612.24
   20:48:16.227.29-Jan-2021 4766.51 3118.09 83.09 13.00 243.63 2612.24
   20:48:16.427.29-Jan-2021 4766.51 3117.91 83.09 13.00 243.83 2612.24
   20:48:16.627.29-Jan-2021 4766.51 3117.93 83.08 13.00 244.03 2612.24
   20:48:16.827.29-Jan-2021 4766.51 3117.93 83.08 13.00 244.23 2612.24
   20:48:17.027.29-Jan-2021 4766.51 3117.97 83.08 13.00 244.43 2612.24
   20:48:17.227.29-Jan-2021 4766.51 3117.80 83.08 13.00 244.63 2612.24
   20:48:17.427.29-Jan-2021 4766.51 3118.06 83.08 13.00 244.83 2612.24
   20:48:17.627.29-Jan-2021 4766.51 3117.88 83.08 13.00 245.03 2612.24
   20:48:17.827.29-Jan-2021 4766.51 3117.88 83.08 13.00 245.23 2612.24
   20:48:18.027.29-Jan-2021 4766.51 3117.81 83.08 13.00 245.43 2612.24
   20:48:18.227.29-Jan-2021 4766.51 3118.01 83.08 13.00 245.63 2612.24
   20:48:18.427.29-Jan-2021 4766.51 3117.82 83.08 13.00 245.83 2612.24
   20:48:18.627.29-Jan-2021 4766.51 3118.05 83.08 13.00 246.03 2612.24
   20:48:18.827.29-Jan-2021 4766.51 3118.05 83.08 13.00 246.23 2612.24
   20:48:19.027.29-Jan-2021 4766.51 3117.79 83.08 13.00 246.43 2612.24
   20:48:19.227.29-Jan-2021 4766.51 3117.89 83.08 13.00 246.63 2612.24
   20:48:19.427.29-Jan-2021 4766.51 3117.87 83.08 13.00 246.83 2612.24
   20:48:19.627.29-Jan-2021 4766.51 3117.88 83.08 13.00 247.03 2612.24
   20:48:19.827.29-Jan-2021 4766.51 3117.88 83.08 13.00 247.23 2612.24
   20:48:20.027.29-Jan-2021 4766.51 3117.80 83.07 13.00 247.43 2612.24
   20:48:20.227.29-Jan-2021 4766.51 3117.89 83.07 13.00 247.63 2612.24
   20:48:20.427.29-Jan-2021 4766.51 3117.94 83.07 13.00 247.83 2612.24
   20:48:20.628.29-Jan-2021 4766.51 3117.95 83.07 13.00 248.03 2612.24
   20:48:20.828.29-Jan-2021 4766.51 3117.95 83.07 13.00 248.23 2612.24
   20:48:21.028.29-Jan-2021 4766.51 3118.02 83.07 13.00 248.43 2612.24
