~Version Information
 VERS.                  2.0:   CWLS log ASCII Standard -VERSION 2.0
 WRAP.                   NO:   One line per depth step
~Well Information Block
#MNEM.UNIT     VALUE/NAME     DESCRIPTION
#---------     -----------    ---------------------------
 STRT.S             05:51:52 30-Jan-21: START TIME 05:51:52 30-Jan-21
 STOP.S             05:58:20 30-Jan-21: STOP TIME  05:58:20 30-Jan-21
 STEP.S                   0.00: STEP TIME
 NULL.                 -999.25: NULL VALUE
 DFWT.                        :  DIST FWL TEXT
 DFST.                        :  DIST FSL TEXT
 DMF .             Drill Floor:  DRILL MEAS FROM
 STIM.      00.00.00 25-Sep-20:  START TIME
 DATE.      16.12.48 31-Jan-21:  END TIME
 SPUD.               20-Sep-20:  SPUD DATE
 NREF.                    Grid:  NORTH REFERENCE
 HPTY.       Minimum Curvature:  HOLE POS TYPE
 DMOD.             Drill Model:  DRILL MOD DESC
 SVYD.                  Survey:  SURVEY DESC
 ILTD.               Lithology:  INTERP LTH DESC
 FTOP.          Formation Tops:  FORM TOPS DESC
 RIG .              East Azeri:  RIG NAME
 PDAT.          Mean Sea Level:  PERMANENT DATUM
 FLD .                     ACG:  FIELD NAME
 SON .        AZ-XX-0906591820:  JOB NUMBER
 CTRY.              Azerbaijan:  COUNTRY NAME
 WELL.                     D37:  WELL NAME
 SRVC.     Turan Drilling & Engineering:  CONTRACTOR
 COMP.     BP Exploration (Caspian Sea) ltd.:  COMPANY
 WTYP.                Deviated:  WELL TYPE
 MDS .        Operator Entered:  MAG DATA SOURCE
 UWI .                     N/A:  UNIQUE WELL IDENTIFIER
 API .                     N/A:  API NUMBER
 BASE.              Azerbaijan:  LOGGING EQUIPMENT BASE LOCATION
 REGN.                   EESSA:  REGION
 PROV.                    Baku:  PROVINCE
 STAT.                    Baku:  STATE NAME
 MWDS.                    Baku:  MWD SHOP
 JOBN.        AZ-XX-0906591820:  JOB TICKET NUMB
 DOE .                     N/A:  DOE NUMBER
 DCON.         Sperry Drilling:  DIRECTNL CONTR
 UNIT.                     N/A:  LOGGING EQUIPMENT ID
 CNTY.                        :  COUNTY
 LOC .                        :  LOCATION
 LMF .             Drill Floor:  LOG MEASURED FROM
 TVDS.m                  43.60:  TVDSS CORRECTN
 LATI.deg                40.02:  LATITUDE
 LONG.deg                51.45:  LONGITUDE
 WHNS.m                  11.04:  WELL HEAD N/S
 WHEW.m                 -12.38:  WELL HEAD E/W
 UTMX.m              538763.98:  UTM X
 UTMY.m             4431880.20:  UTM Y
 DFWL.m                   0.00:  DISTANCE FWL
 DFSL.m                   0.00:  DISTANCE FSL
 SDEP.m                 300.00:  START DEPTH
 TDD .m                4900.01:  TOTAL DEPTH (DRILLER)
 VSDR.deg               185.64:  VERT SEC DIRECT
 GVFD.g                   1.00:  GRAVITY FIELD
 MFLD.nT              50301.00:  MAGNETIC FIELD
 MDIP.deg                59.46:  MAGNETIC DIP
 MDEC.deg                 6.43:  MAGNETIC DECL
 GRDC.deg                 0.29:  GRID CORRECTION
 AZTC.deg                 6.14:  AZM TOTAL CORR
 EPD .m                   0.00:  ELEVATION
 EGL .m                   0.00:  GROUND ELEVATION
 WDMS.m                 151.80:  WD ELEV
 APD .m                  43.60:  DEPTH ABOVE PD
 DEP .m                 571.69:  DEPTH
 AGAP.m                  43.60:  AIR GAP
 VSEW.m                 -12.38:  VERT SEC E/W
 VSNS.m                  11.04:  VERT SEC N/S
 EKB .m                  43.60:  KB ELEVATION
 EDF .m                  43.60:  DF ELEVATION
 TDL .m                 412.00:  TOTAL DEPTH (LOGGER)
 VSC .                       0:  VS TO CLOSURE
 MAGU.                 1849300:  MAGUTM CHECKSUM
~Parameter Information Block
#MNEM.UNIT       Value        Description
#---------     -----------    ---------------------------
 AV  .mps                 2.21:  Ann Velocity 
 AVMX.mps                 2.53:  Max Ann Veloc 
 AZIF.deg               144.83:  Azm, Final 
 BHAT.        Rotary Steerable:  BHA Type 
 BROT.°/30m              -0.52:  Build Rotating 
 BS  .in                  6.50:  Bit Size 
 BTPL.psig              209.00:  Bit Press Loss 
 CABU.                      No:  Customer Abuse 
 CGEO.        Ali Isfandiyarov:  Customer Geo 
 COMM.                     ü:x:  Run Comments 1 
 TCS .hr                 61.31:  Time Ciculation Ended 
 CV  .mps                 4.66:  Crit Velocity 
 CVMX.mps                 5.02:  Max Crit Veloc 
 DD1 .          Fariz Nahmatov:  Direct Drillr 1 
 DD2 .            Musa Ahmadov:  Direct Drillr 2 
 DDSV.               Geo-Pilot:  DD Service 
 DEFF.%                 100.00:  % Det Eff 
 DLRX.°/30m               1.44:  Dogleg Rot Max 
 DLSO.°/30m               0.83:  Dogleg Oriented 
 DLSX.°/30m               1.44:  Dogleg Str Max 
 DRET.      08.30.00 30-Jan-21:  Drill End Time 
 DRST.      21.15.00 27-Jan-21:  Drill Start Tim 
 DTIM.hr                 37.28:  Time Drilling 
 EDEP.m                4867.01:  End Depth 
 ENG1.          Rasim Hashimov:  Engineer 1 
 ENG2.         Almaz Almadatov:  Engineer 2 
 ENG3.        Tamerlan Ahmadov:  Engineer 3 
 ETIM.      22.41.04 31-Jan-21:  End Time 
 FLOI.gpm               400.00:  Flow In 
 FLON.gpm               300.00:  Flow In Min 
 FLOS.cptm                0.00:  Fluid Loss 
 FLOX.gpm               400.00:  Flow In Max 
 HFLO.                      No:  High Flow 
 HPRE.                      No:  High Pressure 
 HTEM.                      No:  High Temp 
 HYDO.m                   1.80:  Hydro Offset 
 IFIN.deg                65.63:  Inc, Final 
 IMAX.deg                66.77:  Inc Max 
 IMIN.deg                65.61:  Inc Min 
 IMND.m                4612.67:  Inc Min Depth 
 IMXD.m                4811.63:  Inc Max Depth 
 JARR.                      No:  Jarring 
 LETM.      08.30.00 30-Jan-21:  Log End Time 
 LOST.hr                     0:  Lost Rig Time 
 LSTM.      21.15.00 27-Jan-21:  Log Start Time 
 MDCL.ppm             41000.00:  Mud Chlorides 
 MDES.     Inversion Oil/Synthetic:  Mud Desc 
 DFD .sg                  1.40:  Mud Density 
 MDMN.sg                  1.40:  Dens Mud Min 
 MDMX.sg                  1.40:  Dens Mud Max 
 MOIL.                      53:  Run Mud Oil % 
 MOWR.                   66:34:  Run Mud OWR 
 MSND.                     0.2:  Run Mud Sand % 
 MSOL.                    17.9:  Run Mud Solids% 
 DFV .spqt               77.00:  Mud Viscosity 
 MWOD.in                  4.75:  MWD Tool OD 
 MWSI.                      No:  Serv Intrp, MWD 
 OTIM.hr                110.38:  Time Operating 
 PCON.           Look Like New:  Pad Condition 
 PMAX.psia             5300.00:  Press Op, Max 
 PV  .cP                 57.00:  Mud PV 
 RUN .                    1200:  Run Number 
 ROPA.m/hr               13.00:  ROP Avg 
 ROPN.m/hr                9.00:  ROP Min 
 ROPX.m/hr               15.00:  ROP Max 
 RPMA.rpm               120.00:  RPM Surface Avg 
 RPMN.rpm               100.00:  RPM Surface Min 
 RPMX.rpm               135.00:  RPM Surface Max 
 RRUN.                    1200:  Rig Run Number 
 RTIM.hr                  2.65:  Time Reaming 
 SAZI.deg               145.04:  Azm, Start 
 SDEP.m                4455.01:  Start Depth 
 SIDD.                      No:  Serv Intrp, DD 
 SINC.deg                65.83:  Inc, Start 
 SPPA.psig             5037.00:  SPP Avg 
 SPPN.psig             4430.00:  SPP Min 
 SPPX.psig             5300.00:  SPP Max 
 STIM.      22.41.04 26-Jan-21:  Start Time 
 SVCS.                 DD, MWD:  Services 
 SVER.                    9.20:  Sperry Version 
 TDAT.m                 412.00:  Tot Depth Attmp 
 TDDF.                      No:  Trip for DD 
 TDLG.m                 412.00:  Tot Depth Loggd 
 TFF .                      No:  Trip for Fail 
 TQAA.f-kp               15.00:  Torque Abs Avg 
 TQAN.f-kp               12.00:  Torque Abs Min 
 TQAX.f-kp               17.00:  Torque Abs Max 
 TRRT.°/30m               1.18:  Turn Rotating 
 MRT .                     ADR:  Maximum Recorded Temperature 
 TTMX.degC               88.24:  Max Tool Temp 
 VS01.                90619458:  Virtual Str1 SN 
 VS02.                90519326:  Virtual Str2 SN 
 VS03.                90522176:  Virtual Str3 SN 
 VS04.                90512683:  Virtual Str4 SN 
 WBMN.klb                 1.00:  WOB Min 
 WITN.           Murad Giluyev:  Customer Rep 
 WITN.     Kamran Kemberlinski:  Customer Rep 2 
 WOBA.klb                 5.00:  WOB Avg 
 WOBX.klb                 9.00:  WOB Max 
 YP  .lhf2               41.00:  Yield Point 
~Curve Information Block
#MNEM.UNIT                 API CODE     Curve Description
#---------               -----------    ---------------------------
 TIME.HHMMSS            00 000 000 000:  GT Time & Date
 GTDEPTH.m              00 000 000 000:  GT Depth
 GTPQH.psia             00 000 000 000:  GT HR Quartz Pressure
 GTTQ.degC              00 000 000 000:  GT Quartz Temperature
 GTTN.NONE              00 000 000 000:  GT Test Number
 GTET.sec               00 000 000 000:  GT Elapsed Test Time
 GTTVD.m                00 000 000 000:  GT True Vertical Depth
#Other Information
#
#WARRANTY: Halliburton will use its best efforts to furnish customers with 
#accurate information and interpretations that are part of, and incident to, the services 
#provided.  However, Halliburton cannot and does not warrant the accuracy 
#or correctness of such information and interpretations.  Under no circumstances should any 
#such information or interpretation be relied upon as the sole basis for any drilling, 
#completion, production, or financial decision or any procedure involving any risk to the 
#safety of any drilling venture, drilling rig or its crew or any other third party.  The 
#Customer has full responsibility for all drilling, completion and production operation.  
#Halliburton makes no representations or warranties, either expressed or 
#implied, including, but not limited to, the implied warranties of merchantability or fitness 
#for a particular purpose, with respect to the services rendered.  In no event will 
#Halliburton be liable for failure to obtain any particular results or for 
#any damages, including, but not limited to, indirect, special or consequential damages, 
#resulting from the use of any information or interpretation provided by Halliburton.
#
~A           TIME           GTDEPTH  GTPQH  GTTQ  GTTN   GTET   GTTVD  
   05:51:52.139.30-Jan-2021 4813.01 5746.96 84.65 17.00   0.00 2630.70
   05:51:52.339.30-Jan-2021 4813.01 5746.96 84.65 17.00   0.20 2630.70
   05:51:52.540.30-Jan-2021 4813.01 5738.00 84.65 17.00   0.40 2630.70
   05:51:52.740.30-Jan-2021 4813.01 5744.81 84.65 17.00   0.60 2630.70
   05:51:52.940.30-Jan-2021 4813.01 5746.38 84.65 17.00   0.80 2630.70
   05:51:53.140.30-Jan-2021 4813.01 5745.59 84.65 17.00   1.00 2630.70
   05:51:53.340.30-Jan-2021 4813.01 5745.59 84.65 17.00   1.20 2630.70
   05:51:53.540.30-Jan-2021 4813.01 5744.35 84.65 17.00   1.40 2630.70
   05:51:53.740.30-Jan-2021 4813.01 5743.71 84.65 17.00   1.60 2630.70
   05:51:53.940.30-Jan-2021 4813.01 5742.20 84.64 17.00   1.80 2630.70
   05:51:54.140.30-Jan-2021 4813.01 5746.75 84.64 17.00   2.00 2630.70
   05:51:54.340.30-Jan-2021 4813.01 5746.75 84.64 17.00   2.20 2630.70
   05:51:54.540.30-Jan-2021 4813.01 5746.34 84.64 17.00   2.40 2630.70
   05:51:54.740.30-Jan-2021 4813.01 5744.64 84.64 17.00   2.60 2630.70
   05:51:54.940.30-Jan-2021 4813.01 5748.22 84.64 17.00   2.80 2630.70
   05:51:55.140.30-Jan-2021 4813.01 5747.48 84.64 17.00   3.00 2630.70
   05:51:55.340.30-Jan-2021 4813.01 5747.48 84.64 17.00   3.20 2630.70
   05:51:55.540.30-Jan-2021 4813.01 5747.72 84.64 17.00   3.40 2630.70
   05:51:55.740.30-Jan-2021 4813.01 5747.86 84.64 17.00   3.60 2630.70
   05:51:55.940.30-Jan-2021 4813.01 5741.60 84.64 17.00   3.80 2630.70
   05:51:56.140.30-Jan-2021 4813.01 5750.92 84.64 17.00   4.00 2630.70
   05:51:56.340.30-Jan-2021 4813.01 5750.92 84.64 17.00   4.20 2630.70
   05:51:56.540.30-Jan-2021 4813.01 5748.24 84.63 17.00   4.40 2630.70
   05:51:56.740.30-Jan-2021 4813.01 5747.52 84.63 17.00   4.60 2630.70
   05:51:56.940.30-Jan-2021 4813.01 5744.86 84.63 17.00   4.80 2630.70
   05:51:57.140.30-Jan-2021 4813.01 5747.10 84.63 17.00   5.00 2630.70
   05:51:57.340.30-Jan-2021 4813.01 5747.10 84.63 17.00   5.20 2630.70
   05:51:57.540.30-Jan-2021 4813.01 5748.45 84.63 17.00   5.40 2630.70
   05:51:57.740.30-Jan-2021 4813.01 5747.56 84.63 17.00   5.60 2630.70
   05:51:57.940.30-Jan-2021 4813.01 5747.89 84.63 17.00   5.80 2630.70
   05:51:58.140.30-Jan-2021 4813.01 5748.33 84.63 17.00   6.00 2630.70
   05:51:58.340.30-Jan-2021 4813.01 5748.33 84.63 17.00   6.20 2630.70
   05:51:58.540.30-Jan-2021 4813.01 5749.29 84.63 17.00   6.40 2630.70
   05:51:58.740.30-Jan-2021 4813.01 5749.41 84.63 17.00   6.60 2630.70
   05:51:58.940.30-Jan-2021 4813.01 5748.23 84.63 17.00   6.80 2630.70
   05:51:59.140.30-Jan-2021 4813.01 5749.69 84.63 17.00   7.00 2630.70
   05:51:59.340.30-Jan-2021 4813.01 5749.69 84.63 17.00   7.20 2630.70
   05:51:59.540.30-Jan-2021 4813.01 5749.69 84.63 17.00   7.40 2630.70
   05:51:59.740.30-Jan-2021 4813.01 5749.41 84.62 17.00   7.60 2630.70
   05:51:59.940.30-Jan-2021 4813.01 5749.73 84.62 17.00   7.80 2630.70
   05:52:00.141.30-Jan-2021 4813.01 5747.57 84.62 17.00   8.00 2630.70
   05:52:00.341.30-Jan-2021 4813.01 5747.57 84.62 17.00   8.20 2630.70
   05:52:00.541.30-Jan-2021 4813.01 5745.78 84.62 17.00   8.40 2630.70
   05:52:00.741.30-Jan-2021 4813.01 5747.72 84.62 17.00   8.60 2630.70
   05:52:00.941.30-Jan-2021 4813.01 5749.44 84.62 17.00   8.80 2630.70
   05:52:01.141.30-Jan-2021 4813.01 5749.20 84.62 17.00   9.00 2630.70
   05:52:01.341.30-Jan-2021 4813.01 5749.20 84.62 17.00   9.20 2630.70
   05:52:01.541.30-Jan-2021 4813.01 5748.23 84.62 17.00   9.40 2630.70
   05:52:01.741.30-Jan-2021 4813.01 5749.07 84.62 17.00   9.60 2630.70
   05:52:01.941.30-Jan-2021 4813.01 5748.99 84.61 17.00   9.80 2630.70
   05:52:02.141.30-Jan-2021 4813.01 5749.78 84.61 17.00  10.00 2630.70
   05:52:02.341.30-Jan-2021 4813.01 5749.78 84.61 17.00  10.20 2630.70
   05:52:02.541.30-Jan-2021 4813.01 5749.51 84.61 17.00  10.40 2630.70
   05:52:02.741.30-Jan-2021 4813.01 5748.71 84.61 17.00  10.60 2630.70
   05:52:02.941.30-Jan-2021 4813.01 5750.18 84.61 17.00  10.80 2630.70
   05:52:03.141.30-Jan-2021 4813.01 5748.72 84.61 17.00  11.00 2630.70
   05:52:03.341.30-Jan-2021 4813.01 5748.72 84.61 17.00  11.20 2630.70
   05:52:03.541.30-Jan-2021 4813.01 5748.93 84.61 17.00  11.40 2630.70
   05:52:03.741.30-Jan-2021 4813.01 5751.07 84.61 17.00  11.60 2630.70
   05:52:03.941.30-Jan-2021 4813.01 5749.20 84.61 17.00  11.80 2630.70
   05:52:04.141.30-Jan-2021 4813.01 5747.30 84.61 17.00  12.00 2630.70
   05:52:04.341.30-Jan-2021 4813.01 5747.30 84.61 17.00  12.20 2630.70
   05:52:04.541.30-Jan-2021 4813.01 5750.70 84.61 17.00  12.40 2630.70
   05:52:04.741.30-Jan-2021 4813.01 5752.10 84.60 17.00  12.60 2630.70
   05:52:04.941.30-Jan-2021 4813.01 5749.56 84.60 17.00  12.80 2630.70
   05:52:05.141.30-Jan-2021 4813.01 5741.54 84.60 17.00  13.00 2630.70
   05:52:05.341.30-Jan-2021 4813.01 5741.54 84.60 17.00  13.20 2630.70
   05:52:05.541.30-Jan-2021 4813.01 5750.40 84.60 17.00  13.40 2630.70
   05:52:05.741.30-Jan-2021 4813.01 5751.02 84.60 17.00  13.60 2630.70
   05:52:05.941.30-Jan-2021 4813.01 5747.13 84.60 17.00  13.80 2630.70
   05:52:06.141.30-Jan-2021 4813.01 5745.34 84.60 17.00  14.00 2630.70
   05:52:06.341.30-Jan-2021 4813.01 5745.34 84.60 17.00  14.20 2630.70
   05:52:06.541.30-Jan-2021 4813.01 5747.74 84.60 17.00  14.40 2630.70
   05:52:06.741.30-Jan-2021 4813.01 5748.58 84.60 17.00  14.60 2630.70
   05:52:06.941.30-Jan-2021 4813.01 5749.01 84.60 17.00  14.80 2630.70
   05:52:07.141.30-Jan-2021 4813.01 5750.52 84.60 17.00  15.00 2630.70
   05:52:07.341.30-Jan-2021 4813.01 5750.52 84.60 17.00  15.20 2630.70
   05:52:07.541.30-Jan-2021 4813.01 5747.53 84.59 17.00  15.40 2630.70
   05:52:07.741.30-Jan-2021 4813.01 5745.21 84.59 17.00  15.60 2630.70
   05:52:07.942.30-Jan-2021 4813.01 5750.45 84.59 17.00  15.80 2630.70
   05:52:08.142.30-Jan-2021 4813.01 5753.38 84.59 17.00  16.00 2630.70
   05:52:08.342.30-Jan-2021 4813.01 5753.38 84.59 17.00  16.20 2630.70
   05:52:08.542.30-Jan-2021 4813.01 5843.51 84.59 17.00  16.40 2630.70
   05:52:08.742.30-Jan-2021 4813.01 5896.96 84.59 17.00  16.60 2630.70
   05:52:08.942.30-Jan-2021 4813.01 5937.44 84.59 17.00  16.80 2630.70
   05:52:09.142.30-Jan-2021 4813.01 5894.93 84.59 17.00  17.00 2630.70
   05:52:09.342.30-Jan-2021 4813.01 5894.93 84.59 17.00  17.20 2630.70
   05:52:09.542.30-Jan-2021 4813.01 6019.68 85.26 17.00  17.40 2630.70
   05:52:09.742.30-Jan-2021 4813.01 6074.35 84.59 17.00  17.60 2630.70
   05:52:09.942.30-Jan-2021 4813.01 6114.39 84.59 17.00  17.80 2630.70
   05:52:10.142.30-Jan-2021 4813.01 6187.54 84.58 17.00  18.00 2630.70
   05:52:10.342.30-Jan-2021 4813.01 6187.54 84.58 17.00  18.20 2630.70
   05:52:10.542.30-Jan-2021 4813.01 6346.82 84.58 17.00  18.40 2630.70
   05:52:10.742.30-Jan-2021 4813.01 6363.57 84.58 17.00  18.60 2630.70
   05:52:10.942.30-Jan-2021 4813.01 6293.40 84.58 17.00  18.80 2630.70
   05:52:11.142.30-Jan-2021 4813.01 6331.48 84.58 17.00  19.00 2630.70
   05:52:11.342.30-Jan-2021 4813.01 6331.48 84.58 17.00  19.20 2630.70
   05:52:11.542.30-Jan-2021 4813.01 6351.37 84.58 17.00  19.40 2630.70
   05:52:11.742.30-Jan-2021 4813.01 6333.22 84.58 17.00  19.60 2630.70
   05:52:11.942.30-Jan-2021 4813.01 6035.66 84.58 17.00  19.80 2630.70
   05:52:12.142.30-Jan-2021 4813.01 6108.49 84.58 17.00  20.00 2630.70
   05:52:12.342.30-Jan-2021 4813.01 6108.49 84.58 17.00  20.20 2630.70
   05:52:12.542.30-Jan-2021 4813.01 6296.86 84.58 17.00  20.40 2630.70
   05:52:12.742.30-Jan-2021 4813.01 6355.18 84.58 17.00  20.60 2630.70
   05:52:12.942.30-Jan-2021 4813.01 6087.07 84.57 17.00  20.80 2630.70
   05:52:13.142.30-Jan-2021 4813.01 5951.95 84.57 17.00  21.00 2630.70
   05:52:13.342.30-Jan-2021 4813.01 5951.95 84.57 17.00  21.20 2630.70
   05:52:13.542.30-Jan-2021 4813.01 5962.12 84.57 17.00  21.40 2630.70
   05:52:13.742.30-Jan-2021 4813.01 5970.39 84.57 17.00  21.60 2630.70
   05:52:13.942.30-Jan-2021 4813.01 5971.95 84.57 17.00  21.80 2630.70
   05:52:14.142.30-Jan-2021 4813.01 5971.61 84.57 17.00  22.00 2630.70
   05:52:14.342.30-Jan-2021 4813.01 5971.61 84.57 17.00  22.20 2630.70
   05:52:14.542.30-Jan-2021 4813.01 5971.97 84.57 17.00  22.40 2630.70
