~Version Information
 VERS.                  2.0:   CWLS log ASCII Standard -VERSION 2.0
 WRAP.                   NO:   One line per depth step
~Well Information Block
#MNEM.UNIT     VALUE/NAME     DESCRIPTION
#---------     -----------    ---------------------------
 STRT.S             00:06:31 30-Jan-21: START TIME 00:06:31 30-Jan-21
 STOP.S             00:13:00 30-Jan-21: STOP TIME  00:13:00 30-Jan-21
 STEP.S                   0.00: STEP TIME
 NULL.                 -999.25: NULL VALUE
 DFWT.                        :  DIST FWL TEXT
 DFST.                        :  DIST FSL TEXT
 DMF .             Drill Floor:  DRILL MEAS FROM
 STIM.      00.00.00 25-Sep-20:  START TIME
 DATE.      16.12.48 31-Jan-21:  END TIME
 SPUD.               20-Sep-20:  SPUD DATE
 NREF.                    Grid:  NORTH REFERENCE
 HPTY.       Minimum Curvature:  HOLE POS TYPE
 DMOD.             Drill Model:  DRILL MOD DESC
 SVYD.                  Survey:  SURVEY DESC
 ILTD.               Lithology:  INTERP LTH DESC
 FTOP.          Formation Tops:  FORM TOPS DESC
 RIG .              East Azeri:  RIG NAME
 PDAT.          Mean Sea Level:  PERMANENT DATUM
 FLD .                     ACG:  FIELD NAME
 SON .        AZ-XX-0906591820:  JOB NUMBER
 CTRY.              Azerbaijan:  COUNTRY NAME
 WELL.                     D37:  WELL NAME
 SRVC.     Turan Drilling & Engineering:  CONTRACTOR
 COMP.     BP Exploration (Caspian Sea) ltd.:  COMPANY
 WTYP.                Deviated:  WELL TYPE
 MDS .        Operator Entered:  MAG DATA SOURCE
 UWI .                     N/A:  UNIQUE WELL IDENTIFIER
 API .                     N/A:  API NUMBER
 BASE.              Azerbaijan:  LOGGING EQUIPMENT BASE LOCATION
 REGN.                   EESSA:  REGION
 PROV.                    Baku:  PROVINCE
 STAT.                    Baku:  STATE NAME
 MWDS.                    Baku:  MWD SHOP
 JOBN.        AZ-XX-0906591820:  JOB TICKET NUMB
 DOE .                     N/A:  DOE NUMBER
 DCON.         Sperry Drilling:  DIRECTNL CONTR
 UNIT.                     N/A:  LOGGING EQUIPMENT ID
 CNTY.                        :  COUNTY
 LOC .                        :  LOCATION
 LMF .             Drill Floor:  LOG MEASURED FROM
 TVDS.m                  43.60:  TVDSS CORRECTN
 LATI.deg                40.02:  LATITUDE
 LONG.deg                51.45:  LONGITUDE
 WHNS.m                  11.04:  WELL HEAD N/S
 WHEW.m                 -12.38:  WELL HEAD E/W
 UTMX.m              538763.98:  UTM X
 UTMY.m             4431880.20:  UTM Y
 DFWL.m                   0.00:  DISTANCE FWL
 DFSL.m                   0.00:  DISTANCE FSL
 SDEP.m                 300.00:  START DEPTH
 TDD .m                4900.01:  TOTAL DEPTH (DRILLER)
 VSDR.deg               185.64:  VERT SEC DIRECT
 GVFD.g                   1.00:  GRAVITY FIELD
 MFLD.nT              50301.00:  MAGNETIC FIELD
 MDIP.deg                59.46:  MAGNETIC DIP
 MDEC.deg                 6.43:  MAGNETIC DECL
 GRDC.deg                 0.29:  GRID CORRECTION
 AZTC.deg                 6.14:  AZM TOTAL CORR
 EPD .m                   0.00:  ELEVATION
 EGL .m                   0.00:  GROUND ELEVATION
 WDMS.m                 151.80:  WD ELEV
 APD .m                  43.60:  DEPTH ABOVE PD
 DEP .m                 571.69:  DEPTH
 AGAP.m                  43.60:  AIR GAP
 VSEW.m                 -12.38:  VERT SEC E/W
 VSNS.m                  11.04:  VERT SEC N/S
 EKB .m                  43.60:  KB ELEVATION
 EDF .m                  43.60:  DF ELEVATION
 TDL .m                 412.00:  TOTAL DEPTH (LOGGER)
 VSC .                       0:  VS TO CLOSURE
 MAGU.                 1849300:  MAGUTM CHECKSUM
~Parameter Information Block
#MNEM.UNIT       Value        Description
#---------     -----------    ---------------------------
 AV  .mps                 2.21:  Ann Velocity 
 AVMX.mps                 2.53:  Max Ann Veloc 
 AZIF.deg               144.83:  Azm, Final 
 BHAT.        Rotary Steerable:  BHA Type 
 BROT.°/30m              -0.52:  Build Rotating 
 BS  .in                  6.50:  Bit Size 
 BTPL.psig              209.00:  Bit Press Loss 
 CABU.                      No:  Customer Abuse 
 CGEO.        Ali Isfandiyarov:  Customer Geo 
 COMM.                     Új:  Run Comments 1 
 TCS .hr                 61.31:  Time Ciculation Ended 
 CV  .mps                 4.66:  Crit Velocity 
 CVMX.mps                 5.02:  Max Crit Veloc 
 DD1 .          Fariz Nahmatov:  Direct Drillr 1 
 DD2 .            Musa Ahmadov:  Direct Drillr 2 
 DDSV.               Geo-Pilot:  DD Service 
 DEFF.%                 100.00:  % Det Eff 
 DLRX.°/30m               1.44:  Dogleg Rot Max 
 DLSO.°/30m               0.83:  Dogleg Oriented 
 DLSX.°/30m               1.44:  Dogleg Str Max 
 DRET.      08.30.00 30-Jan-21:  Drill End Time 
 DRST.      21.15.00 27-Jan-21:  Drill Start Tim 
 DTIM.hr                 37.28:  Time Drilling 
 EDEP.m                4867.01:  End Depth 
 ENG1.          Rasim Hashimov:  Engineer 1 
 ENG2.         Almaz Almadatov:  Engineer 2 
 ENG3.        Tamerlan Ahmadov:  Engineer 3 
 ETIM.      22.41.04 31-Jan-21:  End Time 
 FLOI.gpm               400.00:  Flow In 
 FLON.gpm               300.00:  Flow In Min 
 FLOS.cptm                0.00:  Fluid Loss 
 FLOX.gpm               400.00:  Flow In Max 
 HFLO.                      No:  High Flow 
 HPRE.                      No:  High Pressure 
 HTEM.                      No:  High Temp 
 HYDO.m                   1.80:  Hydro Offset 
 IFIN.deg                65.63:  Inc, Final 
 IMAX.deg                66.77:  Inc Max 
 IMIN.deg                65.61:  Inc Min 
 IMND.m                4612.67:  Inc Min Depth 
 IMXD.m                4811.63:  Inc Max Depth 
 JARR.                      No:  Jarring 
 LETM.      08.30.00 30-Jan-21:  Log End Time 
 LOST.hr                     0:  Lost Rig Time 
 LSTM.      21.15.00 27-Jan-21:  Log Start Time 
 MDCL.ppm             41000.00:  Mud Chlorides 
 MDES.     Inversion Oil/Synthetic:  Mud Desc 
 DFD .sg                  1.40:  Mud Density 
 MDMN.sg                  1.40:  Dens Mud Min 
 MDMX.sg                  1.40:  Dens Mud Max 
 MOIL.                      53:  Run Mud Oil % 
 MOWR.                   66:34:  Run Mud OWR 
 MSND.                     0.2:  Run Mud Sand % 
 MSOL.                    17.9:  Run Mud Solids% 
 DFV .spqt               77.00:  Mud Viscosity 
 MWOD.in                  4.75:  MWD Tool OD 
 MWSI.                      No:  Serv Intrp, MWD 
 OTIM.hr                110.38:  Time Operating 
 PCON.           Look Like New:  Pad Condition 
 PMAX.psia             5300.00:  Press Op, Max 
 PV  .cP                 57.00:  Mud PV 
 RUN .                    1200:  Run Number 
 ROPA.m/hr               13.00:  ROP Avg 
 ROPN.m/hr                9.00:  ROP Min 
 ROPX.m/hr               15.00:  ROP Max 
 RPMA.rpm               120.00:  RPM Surface Avg 
 RPMN.rpm               100.00:  RPM Surface Min 
 RPMX.rpm               135.00:  RPM Surface Max 
 RRUN.                    1200:  Rig Run Number 
 RTIM.hr                  2.65:  Time Reaming 
 SAZI.deg               145.04:  Azm, Start 
 SDEP.m                4455.01:  Start Depth 
 SIDD.                      No:  Serv Intrp, DD 
 SINC.deg                65.83:  Inc, Start 
 SPPA.psig             5037.00:  SPP Avg 
 SPPN.psig             4430.00:  SPP Min 
 SPPX.psig             5300.00:  SPP Max 
 STIM.      22.41.04 26-Jan-21:  Start Time 
 SVCS.                 DD, MWD:  Services 
 SVER.                    9.20:  Sperry Version 
 TDAT.m                 412.00:  Tot Depth Attmp 
 TDDF.                      No:  Trip for DD 
 TDLG.m                 412.00:  Tot Depth Loggd 
 TFF .                      No:  Trip for Fail 
 TQAA.f-kp               15.00:  Torque Abs Avg 
 TQAN.f-kp               12.00:  Torque Abs Min 
 TQAX.f-kp               17.00:  Torque Abs Max 
 TRRT.°/30m               1.18:  Turn Rotating 
 MRT .                     ADR:  Maximum Recorded Temperature 
 TTMX.degC               88.24:  Max Tool Temp 
 VS01.                90619458:  Virtual Str1 SN 
 VS02.                90519326:  Virtual Str2 SN 
 VS03.                90522176:  Virtual Str3 SN 
 VS04.                90512683:  Virtual Str4 SN 
 WBMN.klb                 1.00:  WOB Min 
 WITN.           Murad Giluyev:  Customer Rep 
 WITN.     Kamran Kemberlinski:  Customer Rep 2 
 WOBA.klb                 5.00:  WOB Avg 
 WOBX.klb                 9.00:  WOB Max 
 YP  .lhf2               41.00:  Yield Point 
~Curve Information Block
#MNEM.UNIT                 API CODE     Curve Description
#---------               -----------    ---------------------------
 TIME.HHMMSS            00 000 000 000:  GT Time & Date
 GTDEPTH.m              00 000 000 000:  GT Depth
 GTPQH.psia             00 000 000 000:  GT HR Quartz Pressure
 GTTQ.degC              00 000 000 000:  GT Quartz Temperature
 GTTN.NONE              00 000 000 000:  GT Test Number
 GTET.sec               00 000 000 000:  GT Elapsed Test Time
 GTTVD.m                00 000 000 000:  GT True Vertical Depth
#Other Information
#
#WARRANTY: Halliburton will use its best efforts to furnish customers with 
#accurate information and interpretations that are part of, and incident to, the services 
#provided.  However, Halliburton cannot and does not warrant the accuracy 
#or correctness of such information and interpretations.  Under no circumstances should any 
#such information or interpretation be relied upon as the sole basis for any drilling, 
#completion, production, or financial decision or any procedure involving any risk to the 
#safety of any drilling venture, drilling rig or its crew or any other third party.  The 
#Customer has full responsibility for all drilling, completion and production operation.  
#Halliburton makes no representations or warranties, either expressed or 
#implied, including, but not limited to, the implied warranties of merchantability or fitness 
#for a particular purpose, with respect to the services rendered.  In no event will 
#Halliburton be liable for failure to obtain any particular results or for 
#any damages, including, but not limited to, indirect, special or consequential damages, 
#resulting from the use of any information or interpretation provided by Halliburton.
#
~A           TIME           GTDEPTH  GTPQH  GTTQ  GTTN   GTET   GTTVD  
# ...
   00:12:33.352.30-Jan-2021 4782.01 5736.36 81.19 14.00 361.67 2618.40
   00:12:33.552.30-Jan-2021 4782.01 5736.44 81.19 14.00 361.87 2618.40
   00:12:33.752.30-Jan-2021 4782.01 5736.88 81.19 14.00 362.07 2618.40
   00:12:33.952.30-Jan-2021 4782.01 5736.88 81.19 14.00 362.27 2618.40
   00:12:34.152.30-Jan-2021 4782.01 5735.81 81.19 14.00 362.47 2618.40
   00:12:34.352.30-Jan-2021 4782.01 5736.71 81.19 14.00 362.67 2618.40
   00:12:34.552.30-Jan-2021 4782.01 5736.79 81.19 14.00 362.87 2618.40
   00:12:34.752.30-Jan-2021 4782.01 5736.29 81.19 14.00 363.07 2618.40
   00:12:34.952.30-Jan-2021 4782.01 5736.29 81.19 14.00 363.27 2618.40
   00:12:35.152.30-Jan-2021 4782.01 5737.11 81.19 14.00 363.47 2618.40
   00:12:35.352.30-Jan-2021 4782.01 5735.78 81.19 14.00 363.67 2618.40
   00:12:35.552.30-Jan-2021 4782.01 5736.95 81.19 14.00 363.87 2618.40
   00:12:35.752.30-Jan-2021 4782.01 5736.10 81.19 14.00 364.07 2618.40
   00:12:35.952.30-Jan-2021 4782.01 5736.10 81.19 14.00 364.27 2618.40
   00:12:36.153.30-Jan-2021 4782.01 5736.00 81.19 14.00 364.47 2618.40
   00:12:36.353.30-Jan-2021 4782.01 5737.15 81.19 14.00 364.67 2618.40
   00:12:36.553.30-Jan-2021 4782.01 5735.78 81.19 14.00 364.87 2618.40
   00:12:36.753.30-Jan-2021 4782.01 5732.44 81.19 14.00 365.07 2618.40
   00:12:36.953.30-Jan-2021 4782.01 5732.44 81.19 14.00 365.27 2618.40
   00:12:37.153.30-Jan-2021 4782.01 5736.21 81.19 14.00 365.47 2618.40
   00:12:37.353.30-Jan-2021 4782.01 5737.15 81.19 14.00 365.67 2618.40
   00:12:37.553.30-Jan-2021 4782.01 5732.41 81.19 14.00 365.87 2618.40
   00:12:37.753.30-Jan-2021 4782.01 5736.58 81.19 14.00 366.07 2618.40
   00:12:37.953.30-Jan-2021 4782.01 5736.58 81.19 14.00 366.27 2618.40
   00:12:38.153.30-Jan-2021 4782.01 5737.92 81.19 14.00 366.47 2618.40
   00:12:38.353.30-Jan-2021 4782.01 5734.67 81.19 14.00 366.67 2618.40
   00:12:38.553.30-Jan-2021 4782.01 5736.37 81.19 14.00 366.87 2618.40
   00:12:38.753.30-Jan-2021 4782.01 5735.24 81.19 14.00 367.07 2618.40
   00:12:38.953.30-Jan-2021 4782.01 5735.24 81.19 14.00 367.27 2618.40
   00:12:39.153.30-Jan-2021 4782.01 5736.10 81.19 14.00 367.47 2618.40
   00:12:39.353.30-Jan-2021 4782.01 5737.34 81.19 14.00 367.67 2618.40
   00:12:39.553.30-Jan-2021 4782.01 5735.83 81.19 14.00 367.87 2618.40
   00:12:39.753.30-Jan-2021 4782.01 5736.76 81.19 14.00 368.07 2618.40
   00:12:39.953.30-Jan-2021 4782.01 5736.76 81.19 14.00 368.27 2618.40
   00:12:40.153.30-Jan-2021 4782.01 5732.25 81.19 14.00 368.47 2618.40
   00:12:40.353.30-Jan-2021 4782.01 5736.08 81.19 14.00 368.67 2618.40
   00:12:40.553.30-Jan-2021 4782.01 5736.21 81.19 14.00 368.87 2618.40
   00:12:40.753.30-Jan-2021 4782.01 5737.55 81.19 14.00 369.07 2618.40
   00:12:40.953.30-Jan-2021 4782.01 5737.55 81.19 14.00 369.27 2618.40
   00:12:41.154.30-Jan-2021 4782.01 5736.92 81.19 14.00 369.47 2618.40
   00:12:41.354.30-Jan-2021 4782.01 5736.62 81.19 14.00 369.67 2618.40
   00:12:41.554.30-Jan-2021 4782.01 5739.06 81.19 14.00 369.87 2618.40
   00:12:41.754.30-Jan-2021 4782.01 5730.69 81.19 14.00 370.07 2618.40
   00:12:41.954.30-Jan-2021 4782.01 5730.69 81.19 14.00 370.27 2618.40
   00:12:42.154.30-Jan-2021 4782.01 5735.54 81.19 14.00 370.47 2618.40
   00:12:42.354.30-Jan-2021 4782.01 5739.20 81.19 14.00 370.67 2618.40
   00:12:42.554.30-Jan-2021 4782.01 5735.81 81.19 14.00 370.87 2618.40
   00:12:42.754.30-Jan-2021 4782.01 5733.11 81.19 14.00 371.07 2618.40
   00:12:42.954.30-Jan-2021 4782.01 5733.11 81.19 14.00 371.27 2618.40
   00:12:43.154.30-Jan-2021 4782.01 5731.94 81.19 14.00 371.47 2618.40
   00:12:43.354.30-Jan-2021 4782.01 5738.61 81.19 14.00 371.67 2618.40
   00:12:43.554.30-Jan-2021 4782.01 5736.47 81.19 14.00 371.87 2618.40
   00:12:43.754.30-Jan-2021 4782.01 5736.75 81.19 14.00 372.07 2618.40
   00:12:43.954.30-Jan-2021 4782.01 5736.75 81.19 14.00 372.27 2618.40
   00:12:44.154.30-Jan-2021 4782.01 5737.33 81.19 14.00 372.47 2618.40
   00:12:44.354.30-Jan-2021 4782.01 5735.52 81.19 14.00 372.67 2618.40
   00:12:44.554.30-Jan-2021 4782.01 5733.80 81.19 14.00 372.87 2618.40
   00:12:44.754.30-Jan-2021 4782.01 5733.59 81.19 14.00 373.07 2618.40
   00:12:44.954.30-Jan-2021 4782.01 5733.59 81.19 14.00 373.27 2618.40
   00:12:45.154.30-Jan-2021 4782.01 5736.35 81.19 14.00 373.47 2618.40
   00:12:45.354.30-Jan-2021 4782.01 5734.01 81.19 14.00 373.67 2618.40
   00:12:45.554.30-Jan-2021 4782.01 5735.28 81.19 14.00 373.87 2618.40
   00:12:45.754.30-Jan-2021 4782.01 5737.57 81.19 14.00 374.07 2618.40
   00:12:45.954.30-Jan-2021 4782.01 5737.57 81.19 14.00 374.27 2618.40
   00:12:46.154.30-Jan-2021 4782.01 5736.17 81.18 14.00 374.47 2618.40
   00:12:46.355.30-Jan-2021 4782.01 5736.32 81.18 14.00 374.67 2618.40
   00:12:46.555.30-Jan-2021 4782.01 5737.12 81.18 14.00 374.87 2618.40
   00:12:46.755.30-Jan-2021 4782.01 5737.48 81.18 14.00 375.07 2618.40
   00:12:46.955.30-Jan-2021 4782.01 5737.48 81.18 14.00 375.27 2618.40
   00:12:47.155.30-Jan-2021 4782.01 5737.28 81.18 14.00 375.47 2618.40
   00:12:47.355.30-Jan-2021 4782.01 5735.98 81.18 14.00 375.67 2618.40
   00:12:47.555.30-Jan-2021 4782.01 5737.12 81.18 14.00 375.87 2618.40
   00:12:47.755.30-Jan-2021 4782.01 5735.87 81.18 14.00 376.07 2618.40
   00:12:47.955.30-Jan-2021 4782.01 5735.87 81.18 14.00 376.27 2618.40
   00:12:48.155.30-Jan-2021 4782.01 5733.97 81.18 14.00 376.47 2618.40
   00:12:48.355.30-Jan-2021 4782.01 5736.41 81.18 14.00 376.67 2618.40
   00:12:48.555.30-Jan-2021 4782.01 5734.55 81.18 14.00 376.87 2618.40
   00:12:48.755.30-Jan-2021 4782.01 5735.20 81.18 14.00 377.07 2618.40
   00:12:48.955.30-Jan-2021 4782.01 5735.20 81.18 14.00 377.27 2618.40
   00:12:49.155.30-Jan-2021 4782.01 5735.36 81.18 14.00 377.47 2618.40
   00:12:49.355.30-Jan-2021 4782.01 5735.82 81.18 14.00 377.67 2618.40
   00:12:49.555.30-Jan-2021 4782.01 5736.73 81.18 14.00 377.87 2618.40
   00:12:49.755.30-Jan-2021 4782.01 5734.22 81.18 14.00 378.07 2618.40
   00:12:49.955.30-Jan-2021 4782.01 5734.22 81.18 14.00 378.27 2618.40
   00:12:50.155.30-Jan-2021 4782.01 5735.99 81.18 14.00 378.47 2618.40
   00:12:50.355.30-Jan-2021 4782.01 5736.21 81.18 14.00 378.67 2618.40
   00:12:50.555.30-Jan-2021 4782.01 5736.19 81.18 14.00 378.87 2618.40
   00:12:50.755.30-Jan-2021 4782.01 5735.15 81.18 14.00 379.07 2618.40
   00:12:50.955.30-Jan-2021 4782.01 5735.15 81.18 14.00 379.27 2618.40
   00:12:51.155.30-Jan-2021 4782.01 5735.21 81.18 14.00 379.47 2618.40
   00:12:51.355.30-Jan-2021 4782.01 5731.88 81.18 14.00 379.67 2618.40
   00:12:51.556.30-Jan-2021 4782.01 5733.87 81.18 14.00 379.87 2618.40
   00:12:51.756.30-Jan-2021 4782.01 5736.28 81.18 14.00 380.07 2618.40
   00:12:51.956.30-Jan-2021 4782.01 5736.28 81.18 14.00 380.27 2618.40
   00:12:52.156.30-Jan-2021 4782.01 5734.69 81.18 14.00 380.47 2618.40
   00:12:52.356.30-Jan-2021 4782.01 5728.46 81.18 14.00 380.67 2618.40
   00:12:52.556.30-Jan-2021 4782.01 5734.99 81.18 14.00 380.87 2618.40
   00:12:52.756.30-Jan-2021 4782.01 5736.01 81.18 14.00 381.07 2618.40
   00:12:52.956.30-Jan-2021 4782.01 5736.01 81.18 14.00 381.27 2618.40
   00:12:53.156.30-Jan-2021 4782.01 5731.28 81.18 14.00 381.47 2618.40
   00:12:53.356.30-Jan-2021 4782.01 5731.70 81.18 14.00 381.67 2618.40
   00:12:53.556.30-Jan-2021 4782.01 5737.01 81.18 14.00 381.87 2618.40
   00:12:53.756.30-Jan-2021 4782.01 5738.22 81.18 14.00 382.07 2618.40
   00:12:53.956.30-Jan-2021 4782.01 5738.22 81.18 14.00 382.27 2618.40
   00:12:54.156.30-Jan-2021 4782.01 5732.62 81.18 14.00 382.47 2618.40
   00:12:54.356.30-Jan-2021 4782.01 5729.13 81.18 14.00 382.67 2618.40
   00:12:54.556.30-Jan-2021 4782.01 5739.76 81.17 14.00 382.87 2618.40
   00:12:54.756.30-Jan-2021 4782.01 5740.14 81.17 14.00 383.07 2618.40
   00:12:54.956.30-Jan-2021 4782.01 5740.14 81.17 14.00 383.27 2618.40
   00:12:55.156.30-Jan-2021 4782.01 5734.10 81.17 14.00 383.47 2618.40
   00:12:55.356.30-Jan-2021 4782.01 5731.29 81.17 14.00 383.67 2618.40
   00:12:55.556.30-Jan-2021 4782.01 5737.51 81.17 14.00 383.87 2618.40
   00:12:55.756.30-Jan-2021 4782.01 5737.77 81.17 14.00 384.07 2618.40
