~Version Information
 VERS.                  2.0:   CWLS log ASCII Standard -VERSION 2.0
 WRAP.                   NO:   One line per depth step
~Well Information Block
#MNEM.UNIT     VALUE/NAME     DESCRIPTION
#---------     -----------    ---------------------------
 STRT.S             10:42:31 29-Jan-21: START TIME 10:42:31 29-Jan-21
 STOP.S             10:49:01 29-Jan-21: STOP TIME  10:49:01 29-Jan-21
 STEP.S                   0.00: STEP TIME
 NULL.                 -999.25: NULL VALUE
 DFWT.                        :  DIST FWL TEXT
 DFST.                        :  DIST FSL TEXT
 DMF .             Drill Floor:  DRILL MEAS FROM
 STIM.      00.00.00 25-Sep-20:  START TIME
 DATE.      16.12.48 31-Jan-21:  END TIME
 SPUD.               20-Sep-20:  SPUD DATE
 NREF.                    Grid:  NORTH REFERENCE
 HPTY.       Minimum Curvature:  HOLE POS TYPE
 DMOD.             Drill Model:  DRILL MOD DESC
 SVYD.                  Survey:  SURVEY DESC
 ILTD.               Lithology:  INTERP LTH DESC
 FTOP.          Formation Tops:  FORM TOPS DESC
 RIG .              East Azeri:  RIG NAME
 PDAT.          Mean Sea Level:  PERMANENT DATUM
 FLD .                     ACG:  FIELD NAME
 SON .        AZ-XX-0906591820:  JOB NUMBER
 CTRY.              Azerbaijan:  COUNTRY NAME
 WELL.                     D37:  WELL NAME
 SRVC.     Turan Drilling & Engineering:  CONTRACTOR
 COMP.     BP Exploration (Caspian Sea) ltd.:  COMPANY
 WTYP.                Deviated:  WELL TYPE
 MDS .        Operator Entered:  MAG DATA SOURCE
 UWI .                     N/A:  UNIQUE WELL IDENTIFIER
 API .                     N/A:  API NUMBER
 BASE.              Azerbaijan:  LOGGING EQUIPMENT BASE LOCATION
 REGN.                   EESSA:  REGION
 PROV.                    Baku:  PROVINCE
 STAT.                    Baku:  STATE NAME
 MWDS.                    Baku:  MWD SHOP
 JOBN.        AZ-XX-0906591820:  JOB TICKET NUMB
 DOE .                     N/A:  DOE NUMBER
 DCON.         Sperry Drilling:  DIRECTNL CONTR
 UNIT.                     N/A:  LOGGING EQUIPMENT ID
 CNTY.                        :  COUNTY
 LOC .                        :  LOCATION
 LMF .             Drill Floor:  LOG MEASURED FROM
 TVDS.m                  43.60:  TVDSS CORRECTN
 LATI.deg                40.02:  LATITUDE
 LONG.deg                51.45:  LONGITUDE
 WHNS.m                  11.04:  WELL HEAD N/S
 WHEW.m                 -12.38:  WELL HEAD E/W
 UTMX.m              538763.98:  UTM X
 UTMY.m             4431880.20:  UTM Y
 DFWL.m                   0.00:  DISTANCE FWL
 DFSL.m                   0.00:  DISTANCE FSL
 SDEP.m                 300.00:  START DEPTH
 TDD .m                4900.01:  TOTAL DEPTH (DRILLER)
 VSDR.deg               185.64:  VERT SEC DIRECT
 GVFD.g                   1.00:  GRAVITY FIELD
 MFLD.nT              50301.00:  MAGNETIC FIELD
 MDIP.deg                59.46:  MAGNETIC DIP
 MDEC.deg                 6.43:  MAGNETIC DECL
 GRDC.deg                 0.29:  GRID CORRECTION
 AZTC.deg                 6.14:  AZM TOTAL CORR
 EPD .m                   0.00:  ELEVATION
 EGL .m                   0.00:  GROUND ELEVATION
 WDMS.m                 151.80:  WD ELEV
 APD .m                  43.60:  DEPTH ABOVE PD
 DEP .m                 571.69:  DEPTH
 AGAP.m                  43.60:  AIR GAP
 VSEW.m                 -12.38:  VERT SEC E/W
 VSNS.m                  11.04:  VERT SEC N/S
 EKB .m                  43.60:  KB ELEVATION
 EDF .m                  43.60:  DF ELEVATION
 TDL .m                 412.00:  TOTAL DEPTH (LOGGER)
 VSC .                       0:  VS TO CLOSURE
 MAGU.                 1849300:  MAGUTM CHECKSUM
~Parameter Information Block
#MNEM.UNIT       Value        Description
#---------     -----------    ---------------------------
 AV  .mps                 2.21:  Ann Velocity 
 AVMX.mps                 2.53:  Max Ann Veloc 
 AZIF.deg               144.83:  Azm, Final 
 BHAT.        Rotary Steerable:  BHA Type 
 BROT.°/30m              -0.52:  Build Rotating 
 BS  .in                  6.50:  Bit Size 
 BTPL.psig              209.00:  Bit Press Loss 
 CABU.                      No:  Customer Abuse 
 CGEO.        Ali Isfandiyarov:  Customer Geo 
 COMM.                     ,H:  Run Comments 1 
 TCS .hr                 61.31:  Time Ciculation Ended 
 CV  .mps                 4.66:  Crit Velocity 
 CVMX.mps                 5.02:  Max Crit Veloc 
 DD1 .          Fariz Nahmatov:  Direct Drillr 1 
 DD2 .            Musa Ahmadov:  Direct Drillr 2 
 DDSV.               Geo-Pilot:  DD Service 
 DEFF.%                 100.00:  % Det Eff 
 DLRX.°/30m               1.44:  Dogleg Rot Max 
 DLSO.°/30m               0.83:  Dogleg Oriented 
 DLSX.°/30m               1.44:  Dogleg Str Max 
 DRET.      08.30.00 30-Jan-21:  Drill End Time 
 DRST.      21.15.00 27-Jan-21:  Drill Start Tim 
 DTIM.hr                 37.28:  Time Drilling 
 EDEP.m                4867.01:  End Depth 
 ENG1.          Rasim Hashimov:  Engineer 1 
 ENG2.         Almaz Almadatov:  Engineer 2 
 ENG3.        Tamerlan Ahmadov:  Engineer 3 
 ETIM.      22.41.04 31-Jan-21:  End Time 
 FLOI.gpm               400.00:  Flow In 
 FLON.gpm               300.00:  Flow In Min 
 FLOS.cptm                0.00:  Fluid Loss 
 FLOX.gpm               400.00:  Flow In Max 
 HFLO.                      No:  High Flow 
 HPRE.                      No:  High Pressure 
 HTEM.                      No:  High Temp 
 HYDO.m                   1.80:  Hydro Offset 
 IFIN.deg                65.63:  Inc, Final 
 IMAX.deg                66.77:  Inc Max 
 IMIN.deg                65.61:  Inc Min 
 IMND.m                4612.67:  Inc Min Depth 
 IMXD.m                4811.63:  Inc Max Depth 
 JARR.                      No:  Jarring 
 LETM.      08.30.00 30-Jan-21:  Log End Time 
 LOST.hr                     0:  Lost Rig Time 
 LSTM.      21.15.00 27-Jan-21:  Log Start Time 
 MDCL.ppm             41000.00:  Mud Chlorides 
 MDES.     Inversion Oil/Synthetic:  Mud Desc 
 DFD .sg                  1.40:  Mud Density 
 MDMN.sg                  1.40:  Dens Mud Min 
 MDMX.sg                  1.40:  Dens Mud Max 
 MOIL.                      53:  Run Mud Oil % 
 MOWR.                   66:34:  Run Mud OWR 
 MSND.                     0.2:  Run Mud Sand % 
 MSOL.                    17.9:  Run Mud Solids% 
 DFV .spqt               77.00:  Mud Viscosity 
 MWOD.in                  4.75:  MWD Tool OD 
 MWSI.                      No:  Serv Intrp, MWD 
 OTIM.hr                110.38:  Time Operating 
 PCON.           Look Like New:  Pad Condition 
 PMAX.psia             5300.00:  Press Op, Max 
 PV  .cP                 57.00:  Mud PV 
 RUN .                    1200:  Run Number 
 ROPA.m/hr               13.00:  ROP Avg 
 ROPN.m/hr                9.00:  ROP Min 
 ROPX.m/hr               15.00:  ROP Max 
 RPMA.rpm               120.00:  RPM Surface Avg 
 RPMN.rpm               100.00:  RPM Surface Min 
 RPMX.rpm               135.00:  RPM Surface Max 
 RRUN.                    1200:  Rig Run Number 
 RTIM.hr                  2.65:  Time Reaming 
 SAZI.deg               145.04:  Azm, Start 
 SDEP.m                4455.01:  Start Depth 
 SIDD.                      No:  Serv Intrp, DD 
 SINC.deg                65.83:  Inc, Start 
 SPPA.psig             5037.00:  SPP Avg 
 SPPN.psig             4430.00:  SPP Min 
 SPPX.psig             5300.00:  SPP Max 
 STIM.      22.41.04 26-Jan-21:  Start Time 
 SVCS.                 DD, MWD:  Services 
 SVER.                    9.20:  Sperry Version 
 TDAT.m                 412.00:  Tot Depth Attmp 
 TDDF.                      No:  Trip for DD 
 TDLG.m                 412.00:  Tot Depth Loggd 
 TFF .                      No:  Trip for Fail 
 TQAA.f-kp               15.00:  Torque Abs Avg 
 TQAN.f-kp               12.00:  Torque Abs Min 
 TQAX.f-kp               17.00:  Torque Abs Max 
 TRRT.°/30m               1.18:  Turn Rotating 
 MRT .                     ADR:  Maximum Recorded Temperature 
 TTMX.degC               88.24:  Max Tool Temp 
 VS01.                90619458:  Virtual Str1 SN 
 VS02.                90519326:  Virtual Str2 SN 
 VS03.                90522176:  Virtual Str3 SN 
 VS04.                90512683:  Virtual Str4 SN 
 WBMN.klb                 1.00:  WOB Min 
 WITN.           Murad Giluyev:  Customer Rep 
 WITN.     Kamran Kemberlinski:  Customer Rep 2 
 WOBA.klb                 5.00:  WOB Avg 
 WOBX.klb                 9.00:  WOB Max 
 YP  .lhf2               41.00:  Yield Point 
~Curve Information Block
#MNEM.UNIT                 API CODE     Curve Description
#---------               -----------    ---------------------------
 TIME.HHMMSS            00 000 000 000:  GT Time & Date
 GTDEPTH.m              00 000 000 000:  GT Depth
 GTPQH.psia             00 000 000 000:  GT HR Quartz Pressure
 GTTQ.degC              00 000 000 000:  GT Quartz Temperature
 GTTN.NONE              00 000 000 000:  GT Test Number
 GTET.sec               00 000 000 000:  GT Elapsed Test Time
 GTTVD.m                00 000 000 000:  GT True Vertical Depth
#Other Information
#
#WARRANTY: Halliburton will use its best efforts to furnish customers with 
#accurate information and interpretations that are part of, and incident to, the services 
#provided.  However, Halliburton cannot and does not warrant the accuracy 
#or correctness of such information and interpretations.  Under no circumstances should any 
#such information or interpretation be relied upon as the sole basis for any drilling, 
#completion, production, or financial decision or any procedure involving any risk to the 
#safety of any drilling venture, drilling rig or its crew or any other third party.  The 
#Customer has full responsibility for all drilling, completion and production operation.  
#Halliburton makes no representations or warranties, either expressed or 
#implied, including, but not limited to, the implied warranties of merchantability or fitness 
#for a particular purpose, with respect to the services rendered.  In no event will 
#Halliburton be liable for failure to obtain any particular results or for 
#any damages, including, but not limited to, indirect, special or consequential damages, 
#resulting from the use of any information or interpretation provided by Halliburton.
#
~A           TIME           GTDEPTH  GTPQH  GTTQ  GTTN   GTET   GTTVD  
# ...
   10:48:32.801.29-Jan-2021 4690.01 5646.66 79.78 10.00 361.63 2581.69
   10:48:33.001.29-Jan-2021 4690.01 5648.38 79.78 10.00 361.83 2581.69
   10:48:33.201.29-Jan-2021 4690.01 5638.69 79.78 10.00 362.03 2581.69
   10:48:33.401.29-Jan-2021 4690.01 5638.69 79.78 10.00 362.23 2581.69
   10:48:33.601.29-Jan-2021 4690.01 5647.77 79.78 10.00 362.43 2581.69
   10:48:33.801.29-Jan-2021 4690.01 5643.70 79.78 10.00 362.63 2581.69
   10:48:34.002.29-Jan-2021 4690.01 5645.92 79.78 10.00 362.83 2581.69
   10:48:34.202.29-Jan-2021 4690.01 5645.62 79.78 10.00 363.03 2581.69
   10:48:34.402.29-Jan-2021 4690.01 5645.62 79.78 10.00 363.23 2581.69
   10:48:34.602.29-Jan-2021 4690.01 5646.00 79.78 10.00 363.43 2581.69
   10:48:34.802.29-Jan-2021 4690.01 5647.12 79.78 10.00 363.63 2581.69
   10:48:35.002.29-Jan-2021 4690.01 5643.64 79.78 10.00 363.83 2581.69
   10:48:35.202.29-Jan-2021 4690.01 5647.17 79.78 10.00 364.03 2581.69
   10:48:35.402.29-Jan-2021 4690.01 5647.17 79.78 10.00 364.23 2581.69
   10:48:35.602.29-Jan-2021 4690.01 5646.85 79.78 10.00 364.43 2581.69
   10:48:35.802.29-Jan-2021 4690.01 5647.33 79.78 10.00 364.63 2581.69
   10:48:36.002.29-Jan-2021 4690.01 5647.65 79.78 10.00 364.83 2581.69
   10:48:36.202.29-Jan-2021 4690.01 5647.54 79.78 10.00 365.03 2581.69
   10:48:36.402.29-Jan-2021 4690.01 5647.54 79.78 10.00 365.23 2581.69
   10:48:36.602.29-Jan-2021 4690.01 5647.08 79.78 10.00 365.43 2581.69
   10:48:36.802.29-Jan-2021 4690.01 5646.81 79.78 10.00 365.63 2581.69
   10:48:37.002.29-Jan-2021 4690.01 5646.90 79.78 10.00 365.83 2581.69
   10:48:37.202.29-Jan-2021 4690.01 5646.00 79.77 10.00 366.03 2581.69
   10:48:37.402.29-Jan-2021 4690.01 5646.00 79.77 10.00 366.23 2581.69
   10:48:37.602.29-Jan-2021 4690.01 5645.61 79.77 10.00 366.43 2581.69
   10:48:37.802.29-Jan-2021 4690.01 5643.06 79.77 10.00 366.63 2581.69
   10:48:38.002.29-Jan-2021 4690.01 5643.90 79.77 10.00 366.83 2581.69
   10:48:38.202.29-Jan-2021 4690.01 5645.13 79.77 10.00 367.03 2581.69
   10:48:38.402.29-Jan-2021 4690.01 5645.13 79.77 10.00 367.23 2581.69
   10:48:38.602.29-Jan-2021 4690.01 5644.09 79.77 10.00 367.43 2581.69
   10:48:38.802.29-Jan-2021 4690.01 5645.80 79.77 10.00 367.63 2581.69
   10:48:39.002.29-Jan-2021 4690.01 5647.44 79.77 10.00 367.83 2581.69
   10:48:39.202.29-Jan-2021 4690.01 5646.21 79.77 10.00 368.03 2581.69
   10:48:39.402.29-Jan-2021 4690.01 5646.21 79.77 10.00 368.23 2581.69
   10:48:39.602.29-Jan-2021 4690.01 5647.14 79.77 10.00 368.43 2581.69
   10:48:39.802.29-Jan-2021 4690.01 5647.78 79.77 10.00 368.63 2581.69
   10:48:40.002.29-Jan-2021 4690.01 5647.49 79.77 10.00 368.83 2581.69
   10:48:40.202.29-Jan-2021 4690.01 5647.27 79.77 10.00 369.03 2581.69
   10:48:40.402.29-Jan-2021 4690.01 5647.27 79.77 10.00 369.23 2581.69
   10:48:40.602.29-Jan-2021 4690.01 5646.78 79.77 10.00 369.43 2581.69
   10:48:40.802.29-Jan-2021 4690.01 5646.77 79.77 10.00 369.63 2581.69
   10:48:41.002.29-Jan-2021 4690.01 5646.27 79.77 10.00 369.83 2581.69
   10:48:41.202.29-Jan-2021 4690.01 5643.28 79.77 10.00 370.03 2581.69
   10:48:41.402.29-Jan-2021 4690.01 5643.28 79.77 10.00 370.23 2581.69
   10:48:41.602.29-Jan-2021 4690.01 5645.87 79.77 10.00 370.43 2581.69
   10:48:41.802.29-Jan-2021 4690.01 5644.63 79.77 10.00 370.63 2581.69
   10:48:42.002.29-Jan-2021 4690.01 5643.90 79.77 10.00 370.83 2581.69
   10:48:42.202.29-Jan-2021 4690.01 5640.27 79.76 10.00 371.03 2581.69
   10:48:42.402.29-Jan-2021 4690.01 5640.27 79.76 10.00 371.23 2581.69
   10:48:42.602.29-Jan-2021 4690.01 5646.47 79.76 10.00 371.43 2581.69
   10:48:42.802.29-Jan-2021 4690.01 5642.59 79.76 10.00 371.63 2581.69
   10:48:43.002.29-Jan-2021 4690.01 5640.43 79.76 10.00 371.83 2581.69
   10:48:43.202.29-Jan-2021 4690.01 5649.18 79.76 10.00 372.03 2581.69
   10:48:43.402.29-Jan-2021 4690.01 5649.18 79.76 10.00 372.23 2581.69
   10:48:43.602.29-Jan-2021 4690.01 5641.86 79.76 10.00 372.43 2581.69
   10:48:43.802.29-Jan-2021 4690.01 5640.54 79.76 10.00 372.63 2581.69
   10:48:44.002.29-Jan-2021 4690.01 5650.19 79.76 10.00 372.83 2581.69
   10:48:44.202.29-Jan-2021 4690.01 5647.45 79.76 10.00 373.03 2581.69
   10:48:44.402.29-Jan-2021 4690.01 5647.45 79.76 10.00 373.23 2581.69
   10:48:44.602.29-Jan-2021 4690.01 5647.44 79.76 10.00 373.43 2581.69
   10:48:44.802.29-Jan-2021 4690.01 5640.73 79.76 10.00 373.63 2581.69
   10:48:45.002.29-Jan-2021 4690.01 5648.90 79.76 10.00 373.83 2581.69
   10:48:45.202.29-Jan-2021 4690.01 5647.31 79.76 10.00 374.03 2581.69
   10:48:45.402.29-Jan-2021 4690.01 5647.31 79.76 10.00 374.23 2581.69
   10:48:45.602.29-Jan-2021 4690.01 5647.44 79.76 10.00 374.43 2581.69
   10:48:45.802.29-Jan-2021 4690.01 5646.21 79.76 10.00 374.63 2581.69
   10:48:46.002.29-Jan-2021 4690.01 5646.09 79.76 10.00 374.83 2581.69
   10:48:46.202.29-Jan-2021 4690.01 5645.78 79.76 10.00 375.03 2581.69
   10:48:46.402.29-Jan-2021 4690.01 5645.78 79.76 10.00 375.23 2581.69
   10:48:46.602.29-Jan-2021 4690.01 5645.92 79.76 10.00 375.43 2581.69
   10:48:46.802.29-Jan-2021 4690.01 5645.42 79.76 10.00 375.63 2581.69
   10:48:47.002.29-Jan-2021 4690.01 5645.43 79.75 10.00 375.83 2581.69
   10:48:47.202.29-Jan-2021 4690.01 5645.91 79.75 10.00 376.03 2581.69
   10:48:47.402.29-Jan-2021 4690.01 5645.91 79.75 10.00 376.23 2581.69
   10:48:47.602.29-Jan-2021 4690.01 5646.10 79.75 10.00 376.43 2581.69
   10:48:47.802.29-Jan-2021 4690.01 5645.84 79.75 10.00 376.63 2581.69
   10:48:48.002.29-Jan-2021 4690.01 5646.54 79.75 10.00 376.83 2581.69
   10:48:48.203.29-Jan-2021 4690.01 5645.95 79.75 10.00 377.03 2581.69
   10:48:48.403.29-Jan-2021 4690.01 5645.95 79.75 10.00 377.23 2581.69
   10:48:48.603.29-Jan-2021 4690.01 5646.23 79.75 10.00 377.43 2581.69
   10:48:48.803.29-Jan-2021 4690.01 5647.42 79.75 10.00 377.63 2581.69
   10:48:49.003.29-Jan-2021 4690.01 5642.32 79.75 10.00 377.83 2581.69
   10:48:49.203.29-Jan-2021 4690.01 5646.06 79.75 10.00 378.03 2581.69
   10:48:49.403.29-Jan-2021 4690.01 5646.06 79.75 10.00 378.23 2581.69
   10:48:49.603.29-Jan-2021 4690.01 5645.52 79.75 10.00 378.43 2581.69
   10:48:49.803.29-Jan-2021 4690.01 5645.46 79.75 10.00 378.63 2581.69
   10:48:50.003.29-Jan-2021 4690.01 5645.66 79.75 10.00 378.83 2581.69
   10:48:50.203.29-Jan-2021 4690.01 5646.22 79.75 10.00 379.03 2581.69
   10:48:50.403.29-Jan-2021 4690.01 5646.22 79.75 10.00 379.23 2581.69
   10:48:50.603.29-Jan-2021 4690.01 5645.45 79.75 10.00 379.43 2581.69
   10:48:50.803.29-Jan-2021 4690.01 5645.76 79.75 10.00 379.63 2581.69
   10:48:51.003.29-Jan-2021 4690.01 5646.17 79.75 10.00 379.83 2581.69
   10:48:51.203.29-Jan-2021 4690.01 5645.48 79.74 10.00 380.03 2581.69
   10:48:51.403.29-Jan-2021 4690.01 5645.48 79.74 10.00 380.23 2581.69
   10:48:51.603.29-Jan-2021 4690.01 5645.90 79.74 10.00 380.43 2581.69
   10:48:51.803.29-Jan-2021 4690.01 5641.24 79.74 10.00 380.63 2581.69
   10:48:52.003.29-Jan-2021 4690.01 5646.20 79.74 10.00 380.83 2581.69
   10:48:52.203.29-Jan-2021 4690.01 5647.74 79.74 10.00 381.03 2581.69
   10:48:52.403.29-Jan-2021 4690.01 5647.74 79.74 10.00 381.23 2581.69
   10:48:52.603.29-Jan-2021 4690.01 5640.14 79.74 10.00 381.43 2581.69
   10:48:52.803.29-Jan-2021 4690.01 5648.66 79.74 10.00 381.63 2581.69
   10:48:53.003.29-Jan-2021 4690.01 5647.89 79.74 10.00 381.83 2581.69
   10:48:53.203.29-Jan-2021 4690.01 5642.23 79.74 10.00 382.03 2581.69
   10:48:53.403.29-Jan-2021 4690.01 5642.23 79.74 10.00 382.23 2581.69
   10:48:53.603.29-Jan-2021 4690.01 5650.75 79.74 10.00 382.43 2581.69
   10:48:53.803.29-Jan-2021 4690.01 5647.29 79.74 10.00 382.63 2581.69
   10:48:54.003.29-Jan-2021 4690.01 5643.16 79.74 10.00 382.83 2581.69
   10:48:54.203.29-Jan-2021 4690.01 5643.28 79.74 10.00 383.03 2581.69
   10:48:54.403.29-Jan-2021 4690.01 5643.28 79.74 10.00 383.23 2581.69
   10:48:54.603.29-Jan-2021 4690.01 5645.95 79.74 10.00 383.43 2581.69
   10:48:54.803.29-Jan-2021 4690.01 5644.89 79.74 10.00 383.63 2581.69
   10:48:55.003.29-Jan-2021 4690.01 5644.46 79.74 10.00 383.83 2581.69
   10:48:55.203.29-Jan-2021 4690.01 5639.90 79.74 10.00 384.03 2581.69
