~Version Information
 VERS.                  2.0:   CWLS log ASCII Standard -VERSION 2.0
 WRAP.                   NO:   One line per depth step
~Well Information Block
#MNEM.UNIT     VALUE/NAME     DESCRIPTION
#---------     -----------    ---------------------------
 STRT.S             18:28:03 29-Jan-21: START TIME 18:28:03 29-Jan-21
 STOP.S             18:34:33 29-Jan-21: STOP TIME  18:34:33 29-Jan-21
 STEP.S                   0.00: STEP TIME
 NULL.                 -999.25: NULL VALUE
 DFWT.                        :  DIST FWL TEXT
 DFST.                        :  DIST FSL TEXT
 DMF .             Drill Floor:  DRILL MEAS FROM
 STIM.      00.00.00 25-Sep-20:  START TIME
 DATE.      16.12.48 31-Jan-21:  END TIME
 SPUD.               20-Sep-20:  SPUD DATE
 NREF.                    Grid:  NORTH REFERENCE
 HPTY.       Minimum Curvature:  HOLE POS TYPE
 DMOD.             Drill Model:  DRILL MOD DESC
 SVYD.                  Survey:  SURVEY DESC
 ILTD.               Lithology:  INTERP LTH DESC
 FTOP.          Formation Tops:  FORM TOPS DESC
 RIG .              East Azeri:  RIG NAME
 PDAT.          Mean Sea Level:  PERMANENT DATUM
 FLD .                     ACG:  FIELD NAME
 SON .        AZ-XX-0906591820:  JOB NUMBER
 CTRY.              Azerbaijan:  COUNTRY NAME
 WELL.                     D37:  WELL NAME
 SRVC.     Turan Drilling & Engineering:  CONTRACTOR
 COMP.     BP Exploration (Caspian Sea) ltd.:  COMPANY
 WTYP.                Deviated:  WELL TYPE
 MDS .        Operator Entered:  MAG DATA SOURCE
 UWI .                     N/A:  UNIQUE WELL IDENTIFIER
 API .                     N/A:  API NUMBER
 BASE.              Azerbaijan:  LOGGING EQUIPMENT BASE LOCATION
 REGN.                   EESSA:  REGION
 PROV.                    Baku:  PROVINCE
 STAT.                    Baku:  STATE NAME
 MWDS.                    Baku:  MWD SHOP
 JOBN.        AZ-XX-0906591820:  JOB TICKET NUMB
 DOE .                     N/A:  DOE NUMBER
 DCON.         Sperry Drilling:  DIRECTNL CONTR
 UNIT.                     N/A:  LOGGING EQUIPMENT ID
 CNTY.                        :  COUNTY
 LOC .                        :  LOCATION
 LMF .             Drill Floor:  LOG MEASURED FROM
 TVDS.m                  43.60:  TVDSS CORRECTN
 LATI.deg                40.02:  LATITUDE
 LONG.deg                51.45:  LONGITUDE
 WHNS.m                  11.04:  WELL HEAD N/S
 WHEW.m                 -12.38:  WELL HEAD E/W
 UTMX.m              538763.98:  UTM X
 UTMY.m             4431880.20:  UTM Y
 DFWL.m                   0.00:  DISTANCE FWL
 DFSL.m                   0.00:  DISTANCE FSL
 SDEP.m                 300.00:  START DEPTH
 TDD .m                4900.01:  TOTAL DEPTH (DRILLER)
 VSDR.deg               185.64:  VERT SEC DIRECT
 GVFD.g                   1.00:  GRAVITY FIELD
 MFLD.nT              50301.00:  MAGNETIC FIELD
 MDIP.deg                59.46:  MAGNETIC DIP
 MDEC.deg                 6.43:  MAGNETIC DECL
 GRDC.deg                 0.29:  GRID CORRECTION
 AZTC.deg                 6.14:  AZM TOTAL CORR
 EPD .m                   0.00:  ELEVATION
 EGL .m                   0.00:  GROUND ELEVATION
 WDMS.m                 151.80:  WD ELEV
 APD .m                  43.60:  DEPTH ABOVE PD
 DEP .m                 571.69:  DEPTH
 AGAP.m                  43.60:  AIR GAP
 VSEW.m                 -12.38:  VERT SEC E/W
 VSNS.m                  11.04:  VERT SEC N/S
 EKB .m                  43.60:  KB ELEVATION
 EDF .m                  43.60:  DF ELEVATION
 TDL .m                 412.00:  TOTAL DEPTH (LOGGER)
 VSC .                       0:  VS TO CLOSURE
 MAGU.                 1849300:  MAGUTM CHECKSUM
~Parameter Information Block
#MNEM.UNIT       Value        Description
#---------     -----------    ---------------------------
 AV  .mps                 2.21:  Ann Velocity 
 AVMX.mps                 2.53:  Max Ann Veloc 
 AZIF.deg               144.83:  Azm, Final 
 BHAT.        Rotary Steerable:  BHA Type 
 BROT.°/30m              -0.52:  Build Rotating 
 BS  .in                  6.50:  Bit Size 
 BTPL.psig              209.00:  Bit Press Loss 
 CABU.                      No:  Customer Abuse 
 CGEO.        Ali Isfandiyarov:  Customer Geo 
 COMM.                     tðz:  Run Comments 1 
 TCS .hr                 61.31:  Time Ciculation Ended 
 CV  .mps                 4.66:  Crit Velocity 
 CVMX.mps                 5.02:  Max Crit Veloc 
 DD1 .          Fariz Nahmatov:  Direct Drillr 1 
 DD2 .            Musa Ahmadov:  Direct Drillr 2 
 DDSV.               Geo-Pilot:  DD Service 
 DEFF.%                 100.00:  % Det Eff 
 DLRX.°/30m               1.44:  Dogleg Rot Max 
 DLSO.°/30m               0.83:  Dogleg Oriented 
 DLSX.°/30m               1.44:  Dogleg Str Max 
 DRET.      08.30.00 30-Jan-21:  Drill End Time 
 DRST.      21.15.00 27-Jan-21:  Drill Start Tim 
 DTIM.hr                 37.28:  Time Drilling 
 EDEP.m                4867.01:  End Depth 
 ENG1.          Rasim Hashimov:  Engineer 1 
 ENG2.         Almaz Almadatov:  Engineer 2 
 ENG3.        Tamerlan Ahmadov:  Engineer 3 
 ETIM.      22.41.04 31-Jan-21:  End Time 
 FLOI.gpm               400.00:  Flow In 
 FLON.gpm               300.00:  Flow In Min 
 FLOS.cptm                0.00:  Fluid Loss 
 FLOX.gpm               400.00:  Flow In Max 
 HFLO.                      No:  High Flow 
 HPRE.                      No:  High Pressure 
 HTEM.                      No:  High Temp 
 HYDO.m                   1.80:  Hydro Offset 
 IFIN.deg                65.63:  Inc, Final 
 IMAX.deg                66.77:  Inc Max 
 IMIN.deg                65.61:  Inc Min 
 IMND.m                4612.67:  Inc Min Depth 
 IMXD.m                4811.63:  Inc Max Depth 
 JARR.                      No:  Jarring 
 LETM.      08.30.00 30-Jan-21:  Log End Time 
 LOST.hr                     0:  Lost Rig Time 
 LSTM.      21.15.00 27-Jan-21:  Log Start Time 
 MDCL.ppm             41000.00:  Mud Chlorides 
 MDES.     Inversion Oil/Synthetic:  Mud Desc 
 DFD .sg                  1.40:  Mud Density 
 MDMN.sg                  1.40:  Dens Mud Min 
 MDMX.sg                  1.40:  Dens Mud Max 
 MOIL.                      53:  Run Mud Oil % 
 MOWR.                   66:34:  Run Mud OWR 
 MSND.                     0.2:  Run Mud Sand % 
 MSOL.                    17.9:  Run Mud Solids% 
 DFV .spqt               77.00:  Mud Viscosity 
 MWOD.in                  4.75:  MWD Tool OD 
 MWSI.                      No:  Serv Intrp, MWD 
 OTIM.hr                110.38:  Time Operating 
 PCON.           Look Like New:  Pad Condition 
 PMAX.psia             5300.00:  Press Op, Max 
 PV  .cP                 57.00:  Mud PV 
 RUN .                    1200:  Run Number 
 ROPA.m/hr               13.00:  ROP Avg 
 ROPN.m/hr                9.00:  ROP Min 
 ROPX.m/hr               15.00:  ROP Max 
 RPMA.rpm               120.00:  RPM Surface Avg 
 RPMN.rpm               100.00:  RPM Surface Min 
 RPMX.rpm               135.00:  RPM Surface Max 
 RRUN.                    1200:  Rig Run Number 
 RTIM.hr                  2.65:  Time Reaming 
 SAZI.deg               145.04:  Azm, Start 
 SDEP.m                4455.01:  Start Depth 
 SIDD.                      No:  Serv Intrp, DD 
 SINC.deg                65.83:  Inc, Start 
 SPPA.psig             5037.00:  SPP Avg 
 SPPN.psig             4430.00:  SPP Min 
 SPPX.psig             5300.00:  SPP Max 
 STIM.      22.41.04 26-Jan-21:  Start Time 
 SVCS.                 DD, MWD:  Services 
 SVER.                    9.20:  Sperry Version 
 TDAT.m                 412.00:  Tot Depth Attmp 
 TDDF.                      No:  Trip for DD 
 TDLG.m                 412.00:  Tot Depth Loggd 
 TFF .                      No:  Trip for Fail 
 TQAA.f-kp               15.00:  Torque Abs Avg 
 TQAN.f-kp               12.00:  Torque Abs Min 
 TQAX.f-kp               17.00:  Torque Abs Max 
 TRRT.°/30m               1.18:  Turn Rotating 
 MRT .                     ADR:  Maximum Recorded Temperature 
 TTMX.degC               88.24:  Max Tool Temp 
 VS01.                90619458:  Virtual Str1 SN 
 VS02.                90519326:  Virtual Str2 SN 
 VS03.                90522176:  Virtual Str3 SN 
 VS04.                90512683:  Virtual Str4 SN 
 WBMN.klb                 1.00:  WOB Min 
 WITN.           Murad Giluyev:  Customer Rep 
 WITN.     Kamran Kemberlinski:  Customer Rep 2 
 WOBA.klb                 5.00:  WOB Avg 
 WOBX.klb                 9.00:  WOB Max 
 YP  .lhf2               41.00:  Yield Point 
~Curve Information Block
#MNEM.UNIT                 API CODE     Curve Description
#---------               -----------    ---------------------------
 TIME.HHMMSS            00 000 000 000:  GT Time & Date
 GTDEPTH.m              00 000 000 000:  GT Depth
 GTPQH.psia             00 000 000 000:  GT HR Quartz Pressure
 GTTQ.degC              00 000 000 000:  GT Quartz Temperature
 GTTN.NONE              00 000 000 000:  GT Test Number
 GTET.sec               00 000 000 000:  GT Elapsed Test Time
 GTTVD.m                00 000 000 000:  GT True Vertical Depth
#Other Information
#
#WARRANTY: Halliburton will use its best efforts to furnish customers with 
#accurate information and interpretations that are part of, and incident to, the services 
#provided.  However, Halliburton cannot and does not warrant the accuracy 
#or correctness of such information and interpretations.  Under no circumstances should any 
#such information or interpretation be relied upon as the sole basis for any drilling, 
#completion, production, or financial decision or any procedure involving any risk to the 
#safety of any drilling venture, drilling rig or its crew or any other third party.  The 
#Customer has full responsibility for all drilling, completion and production operation.  
#Halliburton makes no representations or warranties, either expressed or 
#implied, including, but not limited to, the implied warranties of merchantability or fitness 
#for a particular purpose, with respect to the services rendered.  In no event will 
#Halliburton be liable for failure to obtain any particular results or for 
#any damages, including, but not limited to, indirect, special or consequential damages, 
#resulting from the use of any information or interpretation provided by Halliburton.
#
~A           TIME           GTDEPTH  GTPQH  GTTQ  GTTN   GTET   GTTVD  
# ...
   18:32:34.865.29-Jan-2021 4752.01 3125.22 82.43 12.00 271.23 2606.49
   18:32:35.065.29-Jan-2021 4752.01 3125.22 82.43 12.00 271.43 2606.49
   18:32:35.265.29-Jan-2021 4752.01 3125.27 82.43 12.00 271.63 2606.49
   18:32:35.465.29-Jan-2021 4752.01 3125.24 82.43 12.00 271.83 2606.49
   18:32:35.665.29-Jan-2021 4752.01 3125.23 82.43 12.00 272.03 2606.49
   18:32:35.866.29-Jan-2021 4752.01 3125.23 82.43 12.00 272.23 2606.49
   18:32:36.066.29-Jan-2021 4752.01 3125.24 82.43 12.00 272.43 2606.49
   18:32:36.266.29-Jan-2021 4752.01 3125.23 82.43 12.00 272.63 2606.49
   18:32:36.466.29-Jan-2021 4752.01 3125.23 82.43 12.00 272.83 2606.49
   18:32:36.666.29-Jan-2021 4752.01 3125.22 82.43 12.00 273.03 2606.49
   18:32:36.866.29-Jan-2021 4752.01 3125.22 82.43 12.00 273.23 2606.49
   18:32:37.066.29-Jan-2021 4752.01 3125.23 82.42 12.00 273.43 2606.49
   18:32:37.266.29-Jan-2021 4752.01 3125.22 82.42 12.00 273.63 2606.49
   18:32:37.466.29-Jan-2021 4752.01 3125.22 82.42 12.00 273.83 2606.49
   18:32:37.666.29-Jan-2021 4752.01 3125.22 82.42 12.00 274.03 2606.49
   18:32:37.866.29-Jan-2021 4752.01 3125.22 82.42 12.00 274.23 2606.49
   18:32:38.066.29-Jan-2021 4752.01 3125.22 82.42 12.00 274.43 2606.49
   18:32:38.266.29-Jan-2021 4752.01 3125.21 82.42 12.00 274.63 2606.49
   18:32:38.466.29-Jan-2021 4752.01 3125.25 82.42 12.00 274.83 2606.49
   18:32:38.666.29-Jan-2021 4752.01 3125.24 82.42 12.00 275.03 2606.49
   18:32:38.866.29-Jan-2021 4752.01 3125.24 82.42 12.00 275.23 2606.49
   18:32:39.066.29-Jan-2021 4752.01 3125.18 82.42 12.00 275.43 2606.49
   18:32:39.266.29-Jan-2021 4752.01 3125.28 82.42 12.00 275.63 2606.49
   18:32:39.466.29-Jan-2021 4752.01 3125.26 82.42 12.00 275.83 2606.49
   18:32:39.666.29-Jan-2021 4752.01 3125.23 82.42 12.00 276.03 2606.49
   18:32:39.866.29-Jan-2021 4752.01 3125.23 82.42 12.00 276.23 2606.49
   18:32:40.066.29-Jan-2021 4752.01 3125.23 82.42 12.00 276.43 2606.49
   18:32:40.266.29-Jan-2021 4752.01 3125.26 82.41 12.00 276.63 2606.49
   18:32:40.466.29-Jan-2021 4752.01 3125.24 82.41 12.00 276.83 2606.49
   18:32:40.666.29-Jan-2021 4752.01 3125.21 82.41 12.00 277.03 2606.49
   18:32:40.866.29-Jan-2021 4752.01 3125.21 82.41 12.00 277.23 2606.49
   18:32:41.066.29-Jan-2021 4752.01 3125.22 82.41 12.00 277.43 2606.49
   18:32:41.266.29-Jan-2021 4752.01 3125.27 82.41 12.00 277.63 2606.49
   18:32:41.466.29-Jan-2021 4752.01 3125.22 82.41 12.00 277.83 2606.49
   18:32:41.666.29-Jan-2021 4752.01 3125.23 82.41 12.00 278.03 2606.49
   18:32:41.866.29-Jan-2021 4752.01 3125.23 82.41 12.00 278.23 2606.49
   18:32:42.066.29-Jan-2021 4752.01 3125.27 82.41 12.00 278.43 2606.49
   18:32:42.266.29-Jan-2021 4752.01 3125.23 82.41 12.00 278.63 2606.49
   18:32:42.466.29-Jan-2021 4752.01 3125.22 82.41 12.00 278.83 2606.49
   18:32:42.666.29-Jan-2021 4752.01 3125.22 82.41 12.00 279.03 2606.49
   18:32:42.866.29-Jan-2021 4752.01 3125.22 82.41 12.00 279.23 2606.49
   18:32:43.066.29-Jan-2021 4752.01 3125.22 82.41 12.00 279.43 2606.49
   18:32:43.266.29-Jan-2021 4752.01 3125.22 82.41 12.00 279.63 2606.49
   18:32:43.466.29-Jan-2021 4752.01 3125.21 82.40 12.00 279.83 2606.49
   18:32:43.666.29-Jan-2021 4752.01 3125.22 82.40 12.00 280.03 2606.49
   18:32:43.866.29-Jan-2021 4752.01 3125.22 82.40 12.00 280.23 2606.49
   18:32:44.066.29-Jan-2021 4752.01 3125.22 82.40 12.00 280.43 2606.49
   18:32:44.267.29-Jan-2021 4752.01 3125.21 82.40 12.00 280.63 2606.49
   18:32:44.467.29-Jan-2021 4752.01 3125.22 82.40 12.00 280.83 2606.49
   18:32:44.667.29-Jan-2021 4752.01 3125.21 82.40 12.00 281.03 2606.49
   18:32:44.867.29-Jan-2021 4752.01 3125.21 82.40 12.00 281.23 2606.49
   18:32:45.067.29-Jan-2021 4752.01 3125.22 82.40 12.00 281.43 2606.49
   18:32:45.267.29-Jan-2021 4752.01 3125.21 82.40 12.00 281.63 2606.49
   18:32:45.467.29-Jan-2021 4752.01 3125.21 82.40 12.00 281.83 2606.49
   18:32:45.667.29-Jan-2021 4752.01 3125.25 82.40 12.00 282.03 2606.49
   18:32:45.867.29-Jan-2021 4752.01 3125.25 82.40 12.00 282.23 2606.49
   18:32:46.067.29-Jan-2021 4752.01 3125.22 82.40 12.00 282.43 2606.49
   18:32:46.267.29-Jan-2021 4752.01 3125.22 82.40 12.00 282.63 2606.49
   18:32:46.467.29-Jan-2021 4752.01 3125.22 82.39 12.00 282.83 2606.49
   18:32:46.667.29-Jan-2021 4752.01 3125.23 82.39 12.00 283.03 2606.49
   18:32:46.867.29-Jan-2021 4752.01 3125.23 82.39 12.00 283.23 2606.49
   18:32:47.067.29-Jan-2021 4752.01 3125.23 82.39 12.00 283.43 2606.49
   18:32:47.267.29-Jan-2021 4752.01 3125.21 82.39 12.00 283.63 2606.49
   18:32:47.467.29-Jan-2021 4752.01 3125.22 82.39 12.00 283.83 2606.49
   18:32:47.667.29-Jan-2021 4752.01 3125.20 82.39 12.00 284.03 2606.49
   18:32:47.867.29-Jan-2021 4752.01 3125.20 82.39 12.00 284.23 2606.49
   18:32:48.067.29-Jan-2021 4752.01 3125.22 82.39 12.00 284.43 2606.49
   18:32:48.267.29-Jan-2021 4752.01 3125.20 82.39 12.00 284.63 2606.49
   18:32:48.467.29-Jan-2021 4752.01 3125.21 82.39 12.00 284.83 2606.49
   18:32:48.667.29-Jan-2021 4752.01 3125.20 82.39 12.00 285.03 2606.49
   18:32:48.867.29-Jan-2021 4752.01 3125.20 82.39 12.00 285.23 2606.49
   18:32:49.067.29-Jan-2021 4752.01 3125.23 82.39 12.00 285.43 2606.49
   18:32:49.267.29-Jan-2021 4752.01 3125.22 82.39 12.00 285.63 2606.49
   18:32:49.467.29-Jan-2021 4752.01 3125.17 82.39 12.00 285.83 2606.49
   18:32:49.667.29-Jan-2021 4752.01 3125.28 82.38 12.00 286.03 2606.49
   18:32:49.867.29-Jan-2021 4752.01 3125.28 82.38 12.00 286.23 2606.49
   18:32:50.067.29-Jan-2021 4752.01 3125.22 82.38 12.00 286.43 2606.49
   18:32:50.267.29-Jan-2021 4752.01 3125.20 82.38 12.00 286.63 2606.49
   18:32:50.467.29-Jan-2021 4752.01 3125.23 82.38 12.00 286.83 2606.49
   18:32:50.667.29-Jan-2021 4752.01 3125.24 82.38 12.00 287.03 2606.49
   18:32:50.867.29-Jan-2021 4752.01 3125.24 82.38 12.00 287.23 2606.49
   18:32:51.067.29-Jan-2021 4752.01 3125.20 82.38 12.00 287.43 2606.49
   18:32:51.267.29-Jan-2021 4752.01 3125.22 82.38 12.00 287.63 2606.49
   18:32:51.467.29-Jan-2021 4752.01 3125.21 82.38 12.00 287.83 2606.49
   18:32:51.667.29-Jan-2021 4752.01 3125.25 82.38 12.00 288.03 2606.49
   18:32:51.867.29-Jan-2021 4752.01 3125.25 82.38 12.00 288.23 2606.49
   18:32:52.067.29-Jan-2021 4752.01 3125.22 82.38 12.00 288.43 2606.49
   18:32:52.267.29-Jan-2021 4752.01 3125.21 82.38 12.00 288.63 2606.49
   18:32:52.467.29-Jan-2021 4752.01 3125.24 82.38 12.00 288.83 2606.49
   18:32:52.668.29-Jan-2021 4752.01 3125.23 82.38 12.00 289.03 2606.49
   18:32:52.868.29-Jan-2021 4752.01 3125.23 82.38 12.00 289.23 2606.49
   18:32:53.068.29-Jan-2021 4752.01 3125.22 82.37 12.00 289.43 2606.49
   18:32:53.268.29-Jan-2021 4752.01 3125.21 82.37 12.00 289.63 2606.49
   18:32:53.468.29-Jan-2021 4752.01 3125.22 82.37 12.00 289.83 2606.49
   18:32:53.668.29-Jan-2021 4752.01 3125.21 82.37 12.00 290.03 2606.49
   18:32:53.868.29-Jan-2021 4752.01 3125.21 82.37 12.00 290.23 2606.49
   18:32:54.068.29-Jan-2021 4752.01 3125.21 82.37 12.00 290.43 2606.49
   18:32:54.268.29-Jan-2021 4752.01 3125.21 82.37 12.00 290.63 2606.49
   18:32:54.468.29-Jan-2021 4752.01 3125.20 82.37 12.00 290.83 2606.49
   18:32:54.668.29-Jan-2021 4752.01 3125.20 82.37 12.00 291.03 2606.49
   18:32:54.868.29-Jan-2021 4752.01 3125.20 82.37 12.00 291.23 2606.49
   18:32:55.068.29-Jan-2021 4752.01 3125.20 82.37 12.00 291.43 2606.49
   18:32:55.268.29-Jan-2021 4752.01 3125.21 82.37 12.00 291.63 2606.49
   18:32:55.468.29-Jan-2021 4752.01 3125.20 82.37 12.00 291.83 2606.49
   18:32:55.668.29-Jan-2021 4752.01 3125.20 82.37 12.00 292.03 2606.49
   18:32:55.868.29-Jan-2021 4752.01 3125.20 82.37 12.00 292.23 2606.49
   18:32:56.068.29-Jan-2021 4752.01 3125.24 82.36 12.00 292.43 2606.49
   18:32:56.268.29-Jan-2021 4752.01 3125.22 82.36 12.00 292.63 2606.49
   18:32:56.468.29-Jan-2021 4752.01 3125.22 82.36 12.00 292.83 2606.49
   18:32:56.668.29-Jan-2021 4752.01 3125.21 82.36 12.00 293.03 2606.49
   18:32:56.868.29-Jan-2021 4752.01 3125.21 82.36 12.00 293.23 2606.49
   18:32:57.068.29-Jan-2021 4752.01 3125.22 82.36 12.00 293.43 2606.49
   18:32:57.268.29-Jan-2021 4752.01 3125.20 82.36 12.00 293.63 2606.49
