~Version Information
 VERS.                  2.0:   CWLS log ASCII Standard -VERSION 2.0
 WRAP.                   NO:   One line per depth step
~Well Information Block
#MNEM.UNIT     VALUE/NAME     DESCRIPTION
#---------     -----------    ---------------------------
 STRT.S             20:27:59 28-Jan-21: START TIME 20:27:59 28-Jan-21
 STOP.S             20:34:29 28-Jan-21: STOP TIME  20:34:29 28-Jan-21
 STEP.S                   0.00: STEP TIME
 NULL.                 -999.25: NULL VALUE
 DFWT.                        :  DIST FWL TEXT
 DFST.                        :  DIST FSL TEXT
 DMF .             Drill Floor:  DRILL MEAS FROM
 STIM.      00.00.00 25-Sep-20:  START TIME
 DATE.      16.12.48 31-Jan-21:  END TIME
 SPUD.               20-Sep-20:  SPUD DATE
 NREF.                    Grid:  NORTH REFERENCE
 HPTY.       Minimum Curvature:  HOLE POS TYPE
 DMOD.             Drill Model:  DRILL MOD DESC
 SVYD.                  Survey:  SURVEY DESC
 ILTD.               Lithology:  INTERP LTH DESC
 FTOP.          Formation Tops:  FORM TOPS DESC
 RIG .              East Azeri:  RIG NAME
 PDAT.          Mean Sea Level:  PERMANENT DATUM
 FLD .                     ACG:  FIELD NAME
 SON .        AZ-XX-0906591820:  JOB NUMBER
 CTRY.              Azerbaijan:  COUNTRY NAME
 WELL.                     D37:  WELL NAME
 SRVC.     Turan Drilling & Engineering:  CONTRACTOR
 COMP.     BP Exploration (Caspian Sea) ltd.:  COMPANY
 WTYP.                Deviated:  WELL TYPE
 MDS .        Operator Entered:  MAG DATA SOURCE
 UWI .                     N/A:  UNIQUE WELL IDENTIFIER
 API .                     N/A:  API NUMBER
 BASE.              Azerbaijan:  LOGGING EQUIPMENT BASE LOCATION
 REGN.                   EESSA:  REGION
 PROV.                    Baku:  PROVINCE
 STAT.                    Baku:  STATE NAME
 MWDS.                    Baku:  MWD SHOP
 JOBN.        AZ-XX-0906591820:  JOB TICKET NUMB
 DOE .                     N/A:  DOE NUMBER
 DCON.         Sperry Drilling:  DIRECTNL CONTR
 UNIT.                     N/A:  LOGGING EQUIPMENT ID
 CNTY.                        :  COUNTY
 LOC .                        :  LOCATION
 LMF .             Drill Floor:  LOG MEASURED FROM
 TVDS.m                  43.60:  TVDSS CORRECTN
 LATI.deg                40.02:  LATITUDE
 LONG.deg                51.45:  LONGITUDE
 WHNS.m                  11.04:  WELL HEAD N/S
 WHEW.m                 -12.38:  WELL HEAD E/W
 UTMX.m              538763.98:  UTM X
 UTMY.m             4431880.20:  UTM Y
 DFWL.m                   0.00:  DISTANCE FWL
 DFSL.m                   0.00:  DISTANCE FSL
 SDEP.m                 300.00:  START DEPTH
 TDD .m                4900.01:  TOTAL DEPTH (DRILLER)
 VSDR.deg               185.64:  VERT SEC DIRECT
 GVFD.g                   1.00:  GRAVITY FIELD
 MFLD.nT              50301.00:  MAGNETIC FIELD
 MDIP.deg                59.46:  MAGNETIC DIP
 MDEC.deg                 6.43:  MAGNETIC DECL
 GRDC.deg                 0.29:  GRID CORRECTION
 AZTC.deg                 6.14:  AZM TOTAL CORR
 EPD .m                   0.00:  ELEVATION
 EGL .m                   0.00:  GROUND ELEVATION
 WDMS.m                 151.80:  WD ELEV
 APD .m                  43.60:  DEPTH ABOVE PD
 DEP .m                 571.69:  DEPTH
 AGAP.m                  43.60:  AIR GAP
 VSEW.m                 -12.38:  VERT SEC E/W
 VSNS.m                  11.04:  VERT SEC N/S
 EKB .m                  43.60:  KB ELEVATION
 EDF .m                  43.60:  DF ELEVATION
 TDL .m                 412.00:  TOTAL DEPTH (LOGGER)
 VSC .                       0:  VS TO CLOSURE
 MAGU.                 1849300:  MAGUTM CHECKSUM
~Parameter Information Block
#MNEM.UNIT       Value        Description
#---------     -----------    ---------------------------
 AV  .mps                 2.21:  Ann Velocity 
 AVMX.mps                 2.53:  Max Ann Veloc 
 AZIF.deg               144.83:  Azm, Final 
 BHAT.        Rotary Steerable:  BHA Type 
 BROT.°/30m              -0.52:  Build Rotating 
 BS  .in                  6.50:  Bit Size 
 BTPL.psig              209.00:  Bit Press Loss 
 CABU.                      No:  Customer Abuse 
 CGEO.        Ali Isfandiyarov:  Customer Geo 
 COMM.                     ,´U:  Run Comments 1 
 TCS .hr                 61.31:  Time Ciculation Ended 
 CV  .mps                 4.66:  Crit Velocity 
 CVMX.mps                 5.02:  Max Crit Veloc 
 DD1 .          Fariz Nahmatov:  Direct Drillr 1 
 DD2 .            Musa Ahmadov:  Direct Drillr 2 
 DDSV.               Geo-Pilot:  DD Service 
 DEFF.%                 100.00:  % Det Eff 
 DLRX.°/30m               1.44:  Dogleg Rot Max 
 DLSO.°/30m               0.83:  Dogleg Oriented 
 DLSX.°/30m               1.44:  Dogleg Str Max 
 DRET.      08.30.00 30-Jan-21:  Drill End Time 
 DRST.      21.15.00 27-Jan-21:  Drill Start Tim 
 DTIM.hr                 37.28:  Time Drilling 
 EDEP.m                4867.01:  End Depth 
 ENG1.          Rasim Hashimov:  Engineer 1 
 ENG2.         Almaz Almadatov:  Engineer 2 
 ENG3.        Tamerlan Ahmadov:  Engineer 3 
 ETIM.      22.41.04 31-Jan-21:  End Time 
 FLOI.gpm               400.00:  Flow In 
 FLON.gpm               300.00:  Flow In Min 
 FLOS.cptm                0.00:  Fluid Loss 
 FLOX.gpm               400.00:  Flow In Max 
 HFLO.                      No:  High Flow 
 HPRE.                      No:  High Pressure 
 HTEM.                      No:  High Temp 
 HYDO.m                   1.80:  Hydro Offset 
 IFIN.deg                65.63:  Inc, Final 
 IMAX.deg                66.77:  Inc Max 
 IMIN.deg                65.61:  Inc Min 
 IMND.m                4612.67:  Inc Min Depth 
 IMXD.m                4811.63:  Inc Max Depth 
 JARR.                      No:  Jarring 
 LETM.      08.30.00 30-Jan-21:  Log End Time 
 LOST.hr                     0:  Lost Rig Time 
 LSTM.      21.15.00 27-Jan-21:  Log Start Time 
 MDCL.ppm             41000.00:  Mud Chlorides 
 MDES.     Inversion Oil/Synthetic:  Mud Desc 
 DFD .sg                  1.40:  Mud Density 
 MDMN.sg                  1.40:  Dens Mud Min 
 MDMX.sg                  1.40:  Dens Mud Max 
 MOIL.                      53:  Run Mud Oil % 
 MOWR.                   66:34:  Run Mud OWR 
 MSND.                     0.2:  Run Mud Sand % 
 MSOL.                    17.9:  Run Mud Solids% 
 DFV .spqt               77.00:  Mud Viscosity 
 MWOD.in                  4.75:  MWD Tool OD 
 MWSI.                      No:  Serv Intrp, MWD 
 OTIM.hr                110.38:  Time Operating 
 PCON.           Look Like New:  Pad Condition 
 PMAX.psia             5300.00:  Press Op, Max 
 PV  .cP                 57.00:  Mud PV 
 RUN .                    1200:  Run Number 
 ROPA.m/hr               13.00:  ROP Avg 
 ROPN.m/hr                9.00:  ROP Min 
 ROPX.m/hr               15.00:  ROP Max 
 RPMA.rpm               120.00:  RPM Surface Avg 
 RPMN.rpm               100.00:  RPM Surface Min 
 RPMX.rpm               135.00:  RPM Surface Max 
 RRUN.                    1200:  Rig Run Number 
 RTIM.hr                  2.65:  Time Reaming 
 SAZI.deg               145.04:  Azm, Start 
 SDEP.m                4455.01:  Start Depth 
 SIDD.                      No:  Serv Intrp, DD 
 SINC.deg                65.83:  Inc, Start 
 SPPA.psig             5037.00:  SPP Avg 
 SPPN.psig             4430.00:  SPP Min 
 SPPX.psig             5300.00:  SPP Max 
 STIM.      22.41.04 26-Jan-21:  Start Time 
 SVCS.                 DD, MWD:  Services 
 SVER.                    9.20:  Sperry Version 
 TDAT.m                 412.00:  Tot Depth Attmp 
 TDDF.                      No:  Trip for DD 
 TDLG.m                 412.00:  Tot Depth Loggd 
 TFF .                      No:  Trip for Fail 
 TQAA.f-kp               15.00:  Torque Abs Avg 
 TQAN.f-kp               12.00:  Torque Abs Min 
 TQAX.f-kp               17.00:  Torque Abs Max 
 TRRT.°/30m               1.18:  Turn Rotating 
 MRT .                     ADR:  Maximum Recorded Temperature 
 TTMX.degC               88.24:  Max Tool Temp 
 VS01.                90619458:  Virtual Str1 SN 
 VS02.                90519326:  Virtual Str2 SN 
 VS03.                90522176:  Virtual Str3 SN 
 VS04.                90512683:  Virtual Str4 SN 
 WBMN.klb                 1.00:  WOB Min 
 WITN.           Murad Giluyev:  Customer Rep 
 WITN.     Kamran Kemberlinski:  Customer Rep 2 
 WOBA.klb                 5.00:  WOB Avg 
 WOBX.klb                 9.00:  WOB Max 
 YP  .lhf2               41.00:  Yield Point 
~Curve Information Block
#MNEM.UNIT                 API CODE     Curve Description
#---------               -----------    ---------------------------
 TIME.HHMMSS            00 000 000 000:  GT Time & Date
 GTDEPTH.m              00 000 000 000:  GT Depth
 GTPQH.psia             00 000 000 000:  GT HR Quartz Pressure
 GTTQ.degC              00 000 000 000:  GT Quartz Temperature
 GTTN.NONE              00 000 000 000:  GT Test Number
 GTET.sec               00 000 000 000:  GT Elapsed Test Time
 GTTVD.m                00 000 000 000:  GT True Vertical Depth
#Other Information
#
#WARRANTY: Halliburton will use its best efforts to furnish customers with 
#accurate information and interpretations that are part of, and incident to, the services 
#provided.  However, Halliburton cannot and does not warrant the accuracy 
#or correctness of such information and interpretations.  Under no circumstances should any 
#such information or interpretation be relied upon as the sole basis for any drilling, 
#completion, production, or financial decision or any procedure involving any risk to the 
#safety of any drilling venture, drilling rig or its crew or any other third party.  The 
#Customer has full responsibility for all drilling, completion and production operation.  
#Halliburton makes no representations or warranties, either expressed or 
#implied, including, but not limited to, the implied warranties of merchantability or fitness 
#for a particular purpose, with respect to the services rendered.  In no event will 
#Halliburton be liable for failure to obtain any particular results or for 
#any damages, including, but not limited to, indirect, special or consequential damages, 
#resulting from the use of any information or interpretation provided by Halliburton.
#
~A           TIME           GTDEPTH  GTPQH  GTTQ  GTTN  GTET   GTTVD  
# ...
   20:33:21.432.28-Jan-2021 4575.01 3008.84 74.28 6.00 322.06 2534.93
   20:33:21.632.28-Jan-2021 4575.01 3008.84 74.28 6.00 322.26 2534.93
   20:33:21.832.28-Jan-2021 4575.01 3008.85 74.28 6.00 322.46 2534.93
   20:33:22.032.28-Jan-2021 4575.01 3008.88 74.28 6.00 322.66 2534.93
   20:33:22.232.28-Jan-2021 4575.01 3008.87 74.28 6.00 322.86 2534.93
   20:33:22.432.28-Jan-2021 4575.01 3008.87 74.28 6.00 323.06 2534.93
   20:33:22.632.28-Jan-2021 4575.01 3008.87 74.28 6.00 323.26 2534.93
   20:33:22.832.28-Jan-2021 4575.01 3008.86 74.28 6.00 323.46 2534.93
   20:33:23.032.28-Jan-2021 4575.01 3008.87 74.28 6.00 323.66 2534.93
   20:33:23.232.28-Jan-2021 4575.01 3008.85 74.28 6.00 323.86 2534.93
   20:33:23.432.28-Jan-2021 4575.01 3008.80 74.28 6.00 324.06 2534.93
   20:33:23.632.28-Jan-2021 4575.01 3008.80 74.28 6.00 324.26 2534.93
   20:33:23.833.28-Jan-2021 4575.01 3008.83 74.27 6.00 324.46 2534.93
   20:33:24.033.28-Jan-2021 4575.01 3008.88 74.27 6.00 324.66 2534.93
   20:33:24.233.28-Jan-2021 4575.01 3008.86 74.27 6.00 324.86 2534.93
   20:33:24.433.28-Jan-2021 4575.01 3008.88 74.27 6.00 325.06 2534.93
   20:33:24.633.28-Jan-2021 4575.01 3008.88 74.27 6.00 325.26 2534.93
   20:33:24.833.28-Jan-2021 4575.01 3008.90 74.27 6.00 325.46 2534.93
   20:33:25.033.28-Jan-2021 4575.01 3008.87 74.27 6.00 325.66 2534.93
   20:33:25.233.28-Jan-2021 4575.01 3008.88 74.27 6.00 325.86 2534.93
   20:33:25.433.28-Jan-2021 4575.01 3008.75 74.27 6.00 326.06 2534.93
   20:33:25.633.28-Jan-2021 4575.01 3008.75 74.27 6.00 326.26 2534.93
   20:33:25.833.28-Jan-2021 4575.01 3008.87 74.27 6.00 326.46 2534.93
   20:33:26.033.28-Jan-2021 4575.01 3008.88 74.27 6.00 326.66 2534.93
   20:33:26.233.28-Jan-2021 4575.01 3008.89 74.27 6.00 326.86 2534.93
   20:33:26.433.28-Jan-2021 4575.01 3008.85 74.27 6.00 327.06 2534.93
   20:33:26.633.28-Jan-2021 4575.01 3008.85 74.27 6.00 327.26 2534.93
   20:33:26.833.28-Jan-2021 4575.01 3008.82 74.27 6.00 327.46 2534.93
   20:33:27.033.28-Jan-2021 4575.01 3008.91 74.27 6.00 327.66 2534.93
   20:33:27.233.28-Jan-2021 4575.01 3008.85 74.27 6.00 327.86 2534.93
   20:33:27.433.28-Jan-2021 4575.01 3008.88 74.27 6.00 328.06 2534.93
   20:33:27.633.28-Jan-2021 4575.01 3008.88 74.27 6.00 328.26 2534.93
   20:33:27.833.28-Jan-2021 4575.01 3008.86 74.27 6.00 328.46 2534.93
   20:33:28.033.28-Jan-2021 4575.01 3008.85 74.27 6.00 328.66 2534.93
   20:33:28.233.28-Jan-2021 4575.01 3008.84 74.27 6.00 328.86 2534.93
   20:33:28.433.28-Jan-2021 4575.01 3008.91 74.27 6.00 329.06 2534.93
   20:33:28.633.28-Jan-2021 4575.01 3008.91 74.27 6.00 329.26 2534.93
   20:33:28.833.28-Jan-2021 4575.01 3008.91 74.27 6.00 329.46 2534.93
   20:33:29.034.28-Jan-2021 4575.01 3008.83 74.27 6.00 329.66 2534.93
   20:33:29.234.28-Jan-2021 4575.01 3008.89 74.27 6.00 329.86 2534.93
   20:33:29.434.28-Jan-2021 4575.01 3008.84 74.27 6.00 330.06 2534.93
   20:33:29.634.28-Jan-2021 4575.01 3008.84 74.27 6.00 330.26 2534.93
   20:33:29.834.28-Jan-2021 4575.01 3008.86 74.27 6.00 330.46 2534.93
   20:33:30.034.28-Jan-2021 4575.01 3008.86 74.27 6.00 330.66 2534.93
   20:33:30.234.28-Jan-2021 4575.01 3008.87 74.27 6.00 330.86 2534.93
   20:33:30.434.28-Jan-2021 4575.01 3008.84 74.27 6.00 331.06 2534.93
   20:33:30.634.28-Jan-2021 4575.01 3008.84 74.27 6.00 331.26 2534.93
   20:33:30.834.28-Jan-2021 4575.01 3008.84 74.26 6.00 331.47 2534.93
   20:33:31.034.28-Jan-2021 4575.01 3008.88 74.26 6.00 331.67 2534.93
   20:33:31.234.28-Jan-2021 4575.01 3008.84 74.26 6.00 331.87 2534.93
   20:33:31.434.28-Jan-2021 4575.01 3008.87 74.26 6.00 332.07 2534.93
   20:33:31.634.28-Jan-2021 4575.01 3008.87 74.26 6.00 332.27 2534.93
   20:33:31.834.28-Jan-2021 4575.01 3008.96 74.26 6.00 332.47 2534.93
   20:33:32.034.28-Jan-2021 4575.01 3008.84 74.26 6.00 332.67 2534.93
   20:33:32.234.28-Jan-2021 4575.01 3008.87 74.26 6.00 332.87 2534.93
   20:33:32.434.28-Jan-2021 4575.01 3008.87 74.26 6.00 333.07 2534.93
   20:33:32.634.28-Jan-2021 4575.01 3008.87 74.26 6.00 333.27 2534.93
   20:33:32.834.28-Jan-2021 4575.01 3008.88 74.26 6.00 333.47 2534.93
   20:33:33.034.28-Jan-2021 4575.01 3008.85 74.26 6.00 333.67 2534.93
   20:33:33.234.28-Jan-2021 4575.01 3008.87 74.26 6.00 333.87 2534.93
   20:33:33.434.28-Jan-2021 4575.01 3008.85 74.26 6.00 334.07 2534.93
   20:33:33.634.28-Jan-2021 4575.01 3008.85 74.26 6.00 334.27 2534.93
   20:33:33.834.28-Jan-2021 4575.01 3008.84 74.26 6.00 334.47 2534.93
   20:33:34.035.28-Jan-2021 4575.01 3008.87 74.26 6.00 334.67 2534.93
   20:33:34.235.28-Jan-2021 4575.01 3008.84 74.26 6.00 334.87 2534.93
   20:33:34.435.28-Jan-2021 4575.01 3008.86 74.26 6.00 335.07 2534.93
   20:33:34.635.28-Jan-2021 4575.01 3008.86 74.26 6.00 335.27 2534.93
   20:33:34.835.28-Jan-2021 4575.01 3008.84 74.26 6.00 335.47 2534.93
   20:33:35.035.28-Jan-2021 4575.01 3008.85 74.26 6.00 335.67 2534.93
   20:33:35.235.28-Jan-2021 4575.01 3008.89 74.26 6.00 335.87 2534.93
   20:33:35.435.28-Jan-2021 4575.01 3008.83 74.26 6.00 336.07 2534.93
   20:33:35.635.28-Jan-2021 4575.01 3008.83 74.26 6.00 336.27 2534.93
   20:33:35.835.28-Jan-2021 4575.01 3008.93 74.26 6.00 336.47 2534.93
   20:33:36.035.28-Jan-2021 4575.01 3008.86 74.26 6.00 336.67 2534.93
   20:33:36.235.28-Jan-2021 4575.01 3008.86 74.26 6.00 336.87 2534.93
   20:33:36.435.28-Jan-2021 4575.01 3008.89 74.26 6.00 337.07 2534.93
   20:33:36.635.28-Jan-2021 4575.01 3008.89 74.26 6.00 337.27 2534.93
   20:33:36.835.28-Jan-2021 4575.01 3008.86 74.26 6.00 337.47 2534.93
   20:33:37.035.28-Jan-2021 4575.01 3008.83 74.26 6.00 337.67 2534.93
   20:33:37.235.28-Jan-2021 4575.01 3008.90 74.26 6.00 337.87 2534.93
   20:33:37.435.28-Jan-2021 4575.01 3008.85 74.26 6.00 338.07 2534.93
   20:33:37.635.28-Jan-2021 4575.01 3008.85 74.26 6.00 338.27 2534.93
   20:33:37.835.28-Jan-2021 4575.01 3008.75 74.26 6.00 338.47 2534.93
   20:33:38.035.28-Jan-2021 4575.01 3008.94 74.26 6.00 338.67 2534.93
   20:33:38.235.28-Jan-2021 4575.01 3008.87 74.25 6.00 338.87 2534.93
   20:33:38.435.28-Jan-2021 4575.01 3008.85 74.26 6.00 339.07 2534.93
   20:33:38.635.28-Jan-2021 4575.01 3008.85 74.26 6.00 339.27 2534.93
   20:33:38.835.28-Jan-2021 4575.01 3008.85 74.25 6.00 339.47 2534.93
   20:33:39.035.28-Jan-2021 4575.01 3008.88 74.25 6.00 339.67 2534.93
   20:33:39.236.28-Jan-2021 4575.01 3008.78 74.25 6.00 339.87 2534.93
   20:33:39.436.28-Jan-2021 4575.01 3008.93 74.25 6.00 340.07 2534.93
   20:33:39.636.28-Jan-2021 4575.01 3008.93 74.25 6.00 340.27 2534.93
   20:33:39.836.28-Jan-2021 4575.01 3008.89 74.25 6.00 340.47 2534.93
   20:33:40.036.28-Jan-2021 4575.01 3008.85 74.25 6.00 340.67 2534.93
   20:33:40.236.28-Jan-2021 4575.01 3008.87 74.25 6.00 340.87 2534.93
   20:33:40.436.28-Jan-2021 4575.01 3008.88 74.25 6.00 341.07 2534.93
   20:33:40.636.28-Jan-2021 4575.01 3008.88 74.25 6.00 341.27 2534.93
   20:33:40.836.28-Jan-2021 4575.01 3008.89 74.25 6.00 341.47 2534.93
   20:33:41.036.28-Jan-2021 4575.01 3008.83 74.25 6.00 341.67 2534.93
   20:33:41.236.28-Jan-2021 4575.01 3008.88 74.25 6.00 341.87 2534.93
   20:33:41.436.28-Jan-2021 4575.01 3008.83 74.25 6.00 342.07 2534.93
   20:33:41.636.28-Jan-2021 4575.01 3008.83 74.25 6.00 342.27 2534.93
   20:33:41.836.28-Jan-2021 4575.01 3008.83 74.25 6.00 342.47 2534.93
   20:33:42.036.28-Jan-2021 4575.01 3008.87 74.25 6.00 342.67 2534.93
   20:33:42.236.28-Jan-2021 4575.01 3008.83 74.25 6.00 342.87 2534.93
   20:33:42.436.28-Jan-2021 4575.01 3008.86 74.25 6.00 343.07 2534.93
   20:33:42.636.28-Jan-2021 4575.01 3008.86 74.25 6.00 343.27 2534.93
   20:33:42.836.28-Jan-2021 4575.01 3008.84 74.25 6.00 343.47 2534.93
   20:33:43.036.28-Jan-2021 4575.01 3008.85 74.25 6.00 343.67 2534.93
   20:33:43.236.28-Jan-2021 4575.01 3008.82 74.25 6.00 343.87 2534.93
   20:33:43.436.28-Jan-2021 4575.01 3008.91 74.25 6.00 344.07 2534.93
   20:33:43.636.28-Jan-2021 4575.01 3008.91 74.25 6.00 344.27 2534.93
   20:33:43.836.28-Jan-2021 4575.01 3008.88 74.25 6.00 344.47 2534.93
   20:33:44.036.28-Jan-2021 4575.01 3008.85 74.25 6.00 344.67 2534.93
   20:33:44.237.28-Jan-2021 4575.01 3008.88 74.25 6.00 344.87 2534.93
