~Version Information
 VERS.                  2.0:   CWLS log ASCII Standard -VERSION 2.0
 WRAP.                   NO:   One line per depth step
~Well Information Block
#MNEM.UNIT     VALUE/NAME     DESCRIPTION
#---------     -----------    ---------------------------
 STRT.S             10:42:31 29-Jan-21: START TIME 10:42:31 29-Jan-21
 STOP.S             10:49:01 29-Jan-21: STOP TIME  10:49:01 29-Jan-21
 STEP.S                   0.00: STEP TIME
 NULL.                 -999.25: NULL VALUE
 DFWT.                        :  DIST FWL TEXT
 DFST.                        :  DIST FSL TEXT
 DMF .             Drill Floor:  DRILL MEAS FROM
 STIM.      00.00.00 25-Sep-20:  START TIME
 DATE.      16.12.48 31-Jan-21:  END TIME
 SPUD.               20-Sep-20:  SPUD DATE
 NREF.                    Grid:  NORTH REFERENCE
 HPTY.       Minimum Curvature:  HOLE POS TYPE
 DMOD.             Drill Model:  DRILL MOD DESC
 SVYD.                  Survey:  SURVEY DESC
 ILTD.               Lithology:  INTERP LTH DESC
 FTOP.          Formation Tops:  FORM TOPS DESC
 RIG .              East Azeri:  RIG NAME
 PDAT.          Mean Sea Level:  PERMANENT DATUM
 FLD .                     ACG:  FIELD NAME
 SON .        AZ-XX-0906591820:  JOB NUMBER
 CTRY.              Azerbaijan:  COUNTRY NAME
 WELL.                     D37:  WELL NAME
 SRVC.     Turan Drilling & Engineering:  CONTRACTOR
 COMP.     BP Exploration (Caspian Sea) ltd.:  COMPANY
 WTYP.                Deviated:  WELL TYPE
 MDS .        Operator Entered:  MAG DATA SOURCE
 UWI .                     N/A:  UNIQUE WELL IDENTIFIER
 API .                     N/A:  API NUMBER
 BASE.              Azerbaijan:  LOGGING EQUIPMENT BASE LOCATION
 REGN.                   EESSA:  REGION
 PROV.                    Baku:  PROVINCE
 STAT.                    Baku:  STATE NAME
 MWDS.                    Baku:  MWD SHOP
 JOBN.        AZ-XX-0906591820:  JOB TICKET NUMB
 DOE .                     N/A:  DOE NUMBER
 DCON.         Sperry Drilling:  DIRECTNL CONTR
 UNIT.                     N/A:  LOGGING EQUIPMENT ID
 CNTY.                        :  COUNTY
 LOC .                        :  LOCATION
 LMF .             Drill Floor:  LOG MEASURED FROM
 TVDS.m                  43.60:  TVDSS CORRECTN
 LATI.deg                40.02:  LATITUDE
 LONG.deg                51.45:  LONGITUDE
 WHNS.m                  11.04:  WELL HEAD N/S
 WHEW.m                 -12.38:  WELL HEAD E/W
 UTMX.m              538763.98:  UTM X
 UTMY.m             4431880.20:  UTM Y
 DFWL.m                   0.00:  DISTANCE FWL
 DFSL.m                   0.00:  DISTANCE FSL
 SDEP.m                 300.00:  START DEPTH
 TDD .m                4900.01:  TOTAL DEPTH (DRILLER)
 VSDR.deg               185.64:  VERT SEC DIRECT
 GVFD.g                   1.00:  GRAVITY FIELD
 MFLD.nT              50301.00:  MAGNETIC FIELD
 MDIP.deg                59.46:  MAGNETIC DIP
 MDEC.deg                 6.43:  MAGNETIC DECL
 GRDC.deg                 0.29:  GRID CORRECTION
 AZTC.deg                 6.14:  AZM TOTAL CORR
 EPD .m                   0.00:  ELEVATION
 EGL .m                   0.00:  GROUND ELEVATION
 WDMS.m                 151.80:  WD ELEV
 APD .m                  43.60:  DEPTH ABOVE PD
 DEP .m                 571.69:  DEPTH
 AGAP.m                  43.60:  AIR GAP
 VSEW.m                 -12.38:  VERT SEC E/W
 VSNS.m                  11.04:  VERT SEC N/S
 EKB .m                  43.60:  KB ELEVATION
 EDF .m                  43.60:  DF ELEVATION
 TDL .m                 412.00:  TOTAL DEPTH (LOGGER)
 VSC .                       0:  VS TO CLOSURE
 MAGU.                 1849300:  MAGUTM CHECKSUM
~Parameter Information Block
#MNEM.UNIT       Value        Description
#---------     -----------    ---------------------------
 AV  .mps                 2.21:  Ann Velocity 
 AVMX.mps                 2.53:  Max Ann Veloc 
 AZIF.deg               144.83:  Azm, Final 
 BHAT.        Rotary Steerable:  BHA Type 
 BROT.°/30m              -0.52:  Build Rotating 
 BS  .in                  6.50:  Bit Size 
 BTPL.psig              209.00:  Bit Press Loss 
 CABU.                      No:  Customer Abuse 
 CGEO.        Ali Isfandiyarov:  Customer Geo 
 COMM.                     ,H:  Run Comments 1 
 TCS .hr                 61.31:  Time Ciculation Ended 
 CV  .mps                 4.66:  Crit Velocity 
 CVMX.mps                 5.02:  Max Crit Veloc 
 DD1 .          Fariz Nahmatov:  Direct Drillr 1 
 DD2 .            Musa Ahmadov:  Direct Drillr 2 
 DDSV.               Geo-Pilot:  DD Service 
 DEFF.%                 100.00:  % Det Eff 
 DLRX.°/30m               1.44:  Dogleg Rot Max 
 DLSO.°/30m               0.83:  Dogleg Oriented 
 DLSX.°/30m               1.44:  Dogleg Str Max 
 DRET.      08.30.00 30-Jan-21:  Drill End Time 
 DRST.      21.15.00 27-Jan-21:  Drill Start Tim 
 DTIM.hr                 37.28:  Time Drilling 
 EDEP.m                4867.01:  End Depth 
 ENG1.          Rasim Hashimov:  Engineer 1 
 ENG2.         Almaz Almadatov:  Engineer 2 
 ENG3.        Tamerlan Ahmadov:  Engineer 3 
 ETIM.      22.41.04 31-Jan-21:  End Time 
 FLOI.gpm               400.00:  Flow In 
 FLON.gpm               300.00:  Flow In Min 
 FLOS.cptm                0.00:  Fluid Loss 
 FLOX.gpm               400.00:  Flow In Max 
 HFLO.                      No:  High Flow 
 HPRE.                      No:  High Pressure 
 HTEM.                      No:  High Temp 
 HYDO.m                   1.80:  Hydro Offset 
 IFIN.deg                65.63:  Inc, Final 
 IMAX.deg                66.77:  Inc Max 
 IMIN.deg                65.61:  Inc Min 
 IMND.m                4612.67:  Inc Min Depth 
 IMXD.m                4811.63:  Inc Max Depth 
 JARR.                      No:  Jarring 
 LETM.      08.30.00 30-Jan-21:  Log End Time 
 LOST.hr                     0:  Lost Rig Time 
 LSTM.      21.15.00 27-Jan-21:  Log Start Time 
 MDCL.ppm             41000.00:  Mud Chlorides 
 MDES.     Inversion Oil/Synthetic:  Mud Desc 
 DFD .sg                  1.40:  Mud Density 
 MDMN.sg                  1.40:  Dens Mud Min 
 MDMX.sg                  1.40:  Dens Mud Max 
 MOIL.                      53:  Run Mud Oil % 
 MOWR.                   66:34:  Run Mud OWR 
 MSND.                     0.2:  Run Mud Sand % 
 MSOL.                    17.9:  Run Mud Solids% 
 DFV .spqt               77.00:  Mud Viscosity 
 MWOD.in                  4.75:  MWD Tool OD 
 MWSI.                      No:  Serv Intrp, MWD 
 OTIM.hr                110.38:  Time Operating 
 PCON.           Look Like New:  Pad Condition 
 PMAX.psia             5300.00:  Press Op, Max 
 PV  .cP                 57.00:  Mud PV 
 RUN .                    1200:  Run Number 
 ROPA.m/hr               13.00:  ROP Avg 
 ROPN.m/hr                9.00:  ROP Min 
 ROPX.m/hr               15.00:  ROP Max 
 RPMA.rpm               120.00:  RPM Surface Avg 
 RPMN.rpm               100.00:  RPM Surface Min 
 RPMX.rpm               135.00:  RPM Surface Max 
 RRUN.                    1200:  Rig Run Number 
 RTIM.hr                  2.65:  Time Reaming 
 SAZI.deg               145.04:  Azm, Start 
 SDEP.m                4455.01:  Start Depth 
 SIDD.                      No:  Serv Intrp, DD 
 SINC.deg                65.83:  Inc, Start 
 SPPA.psig             5037.00:  SPP Avg 
 SPPN.psig             4430.00:  SPP Min 
 SPPX.psig             5300.00:  SPP Max 
 STIM.      22.41.04 26-Jan-21:  Start Time 
 SVCS.                 DD, MWD:  Services 
 SVER.                    9.20:  Sperry Version 
 TDAT.m                 412.00:  Tot Depth Attmp 
 TDDF.                      No:  Trip for DD 
 TDLG.m                 412.00:  Tot Depth Loggd 
 TFF .                      No:  Trip for Fail 
 TQAA.f-kp               15.00:  Torque Abs Avg 
 TQAN.f-kp               12.00:  Torque Abs Min 
 TQAX.f-kp               17.00:  Torque Abs Max 
 TRRT.°/30m               1.18:  Turn Rotating 
 MRT .                     ADR:  Maximum Recorded Temperature 
 TTMX.degC               88.24:  Max Tool Temp 
 VS01.                90619458:  Virtual Str1 SN 
 VS02.                90519326:  Virtual Str2 SN 
 VS03.                90522176:  Virtual Str3 SN 
 VS04.                90512683:  Virtual Str4 SN 
 WBMN.klb                 1.00:  WOB Min 
 WITN.           Murad Giluyev:  Customer Rep 
 WITN.     Kamran Kemberlinski:  Customer Rep 2 
 WOBA.klb                 5.00:  WOB Avg 
 WOBX.klb                 9.00:  WOB Max 
 YP  .lhf2               41.00:  Yield Point 
~Curve Information Block
#MNEM.UNIT                 API CODE     Curve Description
#---------               -----------    ---------------------------
 TIME.HHMMSS            00 000 000 000:  GT Time & Date
 GTDEPTH.m              00 000 000 000:  GT Depth
 GTPQH.psia             00 000 000 000:  GT HR Quartz Pressure
 GTTQ.degC              00 000 000 000:  GT Quartz Temperature
 GTTN.NONE              00 000 000 000:  GT Test Number
 GTET.sec               00 000 000 000:  GT Elapsed Test Time
 GTTVD.m                00 000 000 000:  GT True Vertical Depth
#Other Information
#
#WARRANTY: Halliburton will use its best efforts to furnish customers with 
#accurate information and interpretations that are part of, and incident to, the services 
#provided.  However, Halliburton cannot and does not warrant the accuracy 
#or correctness of such information and interpretations.  Under no circumstances should any 
#such information or interpretation be relied upon as the sole basis for any drilling, 
#completion, production, or financial decision or any procedure involving any risk to the 
#safety of any drilling venture, drilling rig or its crew or any other third party.  The 
#Customer has full responsibility for all drilling, completion and production operation.  
#Halliburton makes no representations or warranties, either expressed or 
#implied, including, but not limited to, the implied warranties of merchantability or fitness 
#for a particular purpose, with respect to the services rendered.  In no event will 
#Halliburton be liable for failure to obtain any particular results or for 
#any damages, including, but not limited to, indirect, special or consequential damages, 
#resulting from the use of any information or interpretation provided by Halliburton.
#
~A           TIME           GTDEPTH  GTPQH  GTTQ  GTTN   GTET   GTTVD  
# ...
   10:46:17.192.29-Jan-2021 4690.01 3067.60 80.13 10.00 226.02 2581.69
   10:46:17.392.29-Jan-2021 4690.01 3067.60 80.13 10.00 226.22 2581.69
   10:46:17.592.29-Jan-2021 4690.01 3067.59 80.13 10.00 226.42 2581.69
   10:46:17.792.29-Jan-2021 4690.01 3067.59 80.13 10.00 226.62 2581.69
   10:46:17.992.29-Jan-2021 4690.01 3067.59 80.13 10.00 226.82 2581.69
   10:46:18.192.29-Jan-2021 4690.01 3067.58 80.13 10.00 227.02 2581.69
   10:46:18.392.29-Jan-2021 4690.01 3067.58 80.13 10.00 227.22 2581.69
   10:46:18.592.29-Jan-2021 4690.01 3067.58 80.13 10.00 227.42 2581.69
   10:46:18.792.29-Jan-2021 4690.01 3067.59 80.13 10.00 227.62 2581.69
   10:46:18.992.29-Jan-2021 4690.01 3067.58 80.13 10.00 227.82 2581.69
   10:46:19.192.29-Jan-2021 4690.01 3067.58 80.13 10.00 228.02 2581.69
   10:46:19.392.29-Jan-2021 4690.01 3067.58 80.13 10.00 228.22 2581.69
   10:46:19.592.29-Jan-2021 4690.01 3067.61 80.12 10.00 228.42 2581.69
   10:46:19.792.29-Jan-2021 4690.01 3067.60 80.12 10.00 228.62 2581.69
   10:46:19.992.29-Jan-2021 4690.01 3067.60 80.12 10.00 228.82 2581.69
   10:46:20.192.29-Jan-2021 4690.01 3067.59 80.12 10.00 229.02 2581.69
   10:46:20.392.29-Jan-2021 4690.01 3067.59 80.12 10.00 229.22 2581.69
   10:46:20.592.29-Jan-2021 4690.01 3067.60 80.12 10.00 229.42 2581.69
   10:46:20.792.29-Jan-2021 4690.01 3067.59 80.12 10.00 229.62 2581.69
   10:46:20.992.29-Jan-2021 4690.01 3067.59 80.12 10.00 229.82 2581.69
   10:46:21.192.29-Jan-2021 4690.01 3067.59 80.12 10.00 230.02 2581.69
   10:46:21.392.29-Jan-2021 4690.01 3067.59 80.12 10.00 230.22 2581.69
   10:46:21.592.29-Jan-2021 4690.01 3067.58 80.12 10.00 230.42 2581.69
   10:46:21.792.29-Jan-2021 4690.01 3067.59 80.12 10.00 230.62 2581.69
   10:46:21.992.29-Jan-2021 4690.01 3067.57 80.12 10.00 230.82 2581.69
   10:46:22.192.29-Jan-2021 4690.01 3067.58 80.12 10.00 231.02 2581.69
   10:46:22.392.29-Jan-2021 4690.01 3067.58 80.12 10.00 231.22 2581.69
   10:46:22.592.29-Jan-2021 4690.01 3067.55 80.12 10.00 231.42 2581.69
   10:46:22.792.29-Jan-2021 4690.01 3067.63 80.12 10.00 231.62 2581.69
   10:46:22.992.29-Jan-2021 4690.01 3067.60 80.12 10.00 231.82 2581.69
   10:46:23.192.29-Jan-2021 4690.01 3067.58 80.11 10.00 232.02 2581.69
   10:46:23.392.29-Jan-2021 4690.01 3067.58 80.11 10.00 232.22 2581.69
   10:46:23.592.29-Jan-2021 4690.01 3067.61 80.11 10.00 232.42 2581.69
   10:46:23.792.29-Jan-2021 4690.01 3067.60 80.11 10.00 232.62 2581.69
   10:46:23.992.29-Jan-2021 4690.01 3067.60 80.11 10.00 232.82 2581.69
   10:46:24.192.29-Jan-2021 4690.01 3067.58 80.11 10.00 233.02 2581.69
   10:46:24.392.29-Jan-2021 4690.01 3067.58 80.11 10.00 233.22 2581.69
   10:46:24.592.29-Jan-2021 4690.01 3067.58 80.11 10.00 233.42 2581.69
   10:46:24.792.29-Jan-2021 4690.01 3067.59 80.11 10.00 233.62 2581.69
   10:46:24.992.29-Jan-2021 4690.01 3067.57 80.11 10.00 233.82 2581.69
   10:46:25.192.29-Jan-2021 4690.01 3067.60 80.11 10.00 234.02 2581.69
   10:46:25.392.29-Jan-2021 4690.01 3067.60 80.11 10.00 234.22 2581.69
   10:46:25.592.29-Jan-2021 4690.01 3067.58 80.11 10.00 234.42 2581.69
   10:46:25.793.29-Jan-2021 4690.01 3067.59 80.11 10.00 234.62 2581.69
   10:46:25.993.29-Jan-2021 4690.01 3067.59 80.11 10.00 234.82 2581.69
   10:46:26.193.29-Jan-2021 4690.01 3067.57 80.11 10.00 235.02 2581.69
   10:46:26.393.29-Jan-2021 4690.01 3067.57 80.11 10.00 235.22 2581.69
   10:46:26.593.29-Jan-2021 4690.01 3067.59 80.10 10.00 235.42 2581.69
   10:46:26.793.29-Jan-2021 4690.01 3067.58 80.10 10.00 235.62 2581.69
   10:46:26.993.29-Jan-2021 4690.01 3067.58 80.10 10.00 235.82 2581.69
   10:46:27.193.29-Jan-2021 4690.01 3067.58 80.10 10.00 236.02 2581.69
   10:46:27.393.29-Jan-2021 4690.01 3067.58 80.10 10.00 236.22 2581.69
   10:46:27.593.29-Jan-2021 4690.01 3067.61 80.10 10.00 236.42 2581.69
   10:46:27.793.29-Jan-2021 4690.01 3067.60 80.10 10.00 236.62 2581.69
   10:46:27.993.29-Jan-2021 4690.01 3067.56 80.10 10.00 236.82 2581.69
   10:46:28.193.29-Jan-2021 4690.01 3067.60 80.10 10.00 237.02 2581.69
   10:46:28.393.29-Jan-2021 4690.01 3067.60 80.10 10.00 237.22 2581.69
   10:46:28.593.29-Jan-2021 4690.01 3067.58 80.10 10.00 237.42 2581.69
   10:46:28.793.29-Jan-2021 4690.01 3067.58 80.10 10.00 237.62 2581.69
   10:46:28.993.29-Jan-2021 4690.01 3067.58 80.10 10.00 237.82 2581.69
   10:46:29.193.29-Jan-2021 4690.01 3067.57 80.10 10.00 238.02 2581.69
   10:46:29.393.29-Jan-2021 4690.01 3067.57 80.10 10.00 238.22 2581.69
   10:46:29.593.29-Jan-2021 4690.01 3067.58 80.10 10.00 238.42 2581.69
   10:46:29.793.29-Jan-2021 4690.01 3067.57 80.10 10.00 238.62 2581.69
   10:46:29.993.29-Jan-2021 4690.01 3067.57 80.09 10.00 238.82 2581.69
   10:46:30.193.29-Jan-2021 4690.01 3067.57 80.09 10.00 239.02 2581.69
   10:46:30.393.29-Jan-2021 4690.01 3067.57 80.09 10.00 239.22 2581.69
   10:46:30.593.29-Jan-2021 4690.01 3067.57 80.09 10.00 239.42 2581.69
   10:46:30.793.29-Jan-2021 4690.01 3067.57 80.09 10.00 239.62 2581.69
   10:46:30.993.29-Jan-2021 4690.01 3067.54 80.09 10.00 239.82 2581.69
   10:46:31.193.29-Jan-2021 4690.01 3066.00 80.09 10.00 240.02 2581.69
   10:46:31.393.29-Jan-2021 4690.01 3066.00 80.09 10.00 240.22 2581.69
   10:46:31.593.29-Jan-2021 4690.01 3062.19 80.09 10.00 240.42 2581.69
   10:46:31.793.29-Jan-2021 4690.01 3062.29 80.09 10.00 240.62 2581.69
   10:46:31.993.29-Jan-2021 4690.01 3062.27 80.09 10.00 240.82 2581.69
   10:46:32.193.29-Jan-2021 4690.01 3062.29 80.09 10.00 241.02 2581.69
   10:46:32.393.29-Jan-2021 4690.01 3062.29 80.09 10.00 241.22 2581.69
   10:46:32.593.29-Jan-2021 4690.01 3062.19 80.09 10.00 241.42 2581.69
   10:46:32.793.29-Jan-2021 4690.01 3062.27 80.09 10.00 241.62 2581.69
   10:46:32.993.29-Jan-2021 4690.01 3062.24 80.09 10.00 241.82 2581.69
   10:46:33.193.29-Jan-2021 4690.01 3062.33 80.09 10.00 242.02 2581.69
   10:46:33.393.29-Jan-2021 4690.01 3062.33 80.09 10.00 242.22 2581.69
   10:46:33.593.29-Jan-2021 4690.01 3062.33 80.08 10.00 242.42 2581.69
   10:46:33.793.29-Jan-2021 4690.01 3062.43 80.08 10.00 242.62 2581.69
   10:46:33.993.29-Jan-2021 4690.01 3063.35 80.08 10.00 242.82 2581.69
   10:46:34.193.29-Jan-2021 4690.01 3062.41 80.08 10.00 243.02 2581.69
   10:46:34.393.29-Jan-2021 4690.01 3062.41 80.08 10.00 243.22 2581.69
   10:46:34.593.29-Jan-2021 4690.01 3062.36 80.08 10.00 243.42 2581.69
   10:46:34.793.29-Jan-2021 4690.01 3062.32 80.08 10.00 243.62 2581.69
   10:46:34.993.29-Jan-2021 4690.01 3062.28 80.08 10.00 243.82 2581.69
   10:46:35.193.29-Jan-2021 4690.01 3062.40 80.08 10.00 244.02 2581.69
   10:46:35.393.29-Jan-2021 4690.01 3062.40 80.08 10.00 244.22 2581.69
   10:46:35.593.29-Jan-2021 4690.01 3062.27 80.08 10.00 244.42 2581.69
   10:46:35.793.29-Jan-2021 4690.01 3062.39 80.08 10.00 244.62 2581.69
   10:46:35.993.29-Jan-2021 4690.01 3062.33 80.08 10.00 244.82 2581.69
   10:46:36.193.29-Jan-2021 4690.01 3062.30 80.08 10.00 245.02 2581.69
   10:46:36.393.29-Jan-2021 4690.01 3062.30 80.08 10.00 245.22 2581.69
   10:46:36.593.29-Jan-2021 4690.01 3062.31 80.08 10.00 245.42 2581.69
   10:46:36.793.29-Jan-2021 4690.01 3062.31 80.08 10.00 245.62 2581.69
   10:46:36.993.29-Jan-2021 4690.01 3062.27 80.07 10.00 245.82 2581.69
   10:46:37.193.29-Jan-2021 4690.01 3062.30 80.07 10.00 246.02 2581.69
   10:46:37.393.29-Jan-2021 4690.01 3062.30 80.07 10.00 246.22 2581.69
   10:46:37.593.29-Jan-2021 4690.01 3062.34 80.07 10.00 246.42 2581.69
   10:46:37.793.29-Jan-2021 4690.01 3062.18 80.07 10.00 246.62 2581.69
   10:46:37.993.29-Jan-2021 4690.01 3062.40 80.07 10.00 246.82 2581.69
   10:46:38.193.29-Jan-2021 4690.01 3062.32 80.07 10.00 247.02 2581.69
   10:46:38.393.29-Jan-2021 4690.01 3062.32 80.07 10.00 247.22 2581.69
   10:46:38.593.29-Jan-2021 4690.01 3062.37 80.07 10.00 247.42 2581.69
   10:46:38.793.29-Jan-2021 4690.01 3062.29 80.07 10.00 247.62 2581.69
   10:46:38.993.29-Jan-2021 4690.01 3062.29 80.07 10.00 247.82 2581.69
   10:46:39.193.29-Jan-2021 4690.01 3062.34 80.07 10.00 248.02 2581.69
   10:46:39.393.29-Jan-2021 4690.01 3062.34 80.07 10.00 248.22 2581.69
   10:46:39.593.29-Jan-2021 4690.01 3062.27 80.07 10.00 248.42 2581.69
