~Version Information
 VERS.                  2.0:   CWLS log ASCII Standard -VERSION 2.0
 WRAP.                   NO:   One line per depth step
~Well Information Block
#MNEM.UNIT     VALUE/NAME     DESCRIPTION
#---------     -----------    ---------------------------
 STRT.S             02:53:50 29-Jan-21: START TIME 02:53:50 29-Jan-21
 STOP.S             03:00:20 29-Jan-21: STOP TIME  03:00:20 29-Jan-21
 STEP.S                   0.00: STEP TIME
 NULL.                 -999.25: NULL VALUE
 DFWT.                        :  DIST FWL TEXT
 DFST.                        :  DIST FSL TEXT
 DMF .             Drill Floor:  DRILL MEAS FROM
 STIM.      00.00.00 25-Sep-20:  START TIME
 DATE.      16.12.48 31-Jan-21:  END TIME
 SPUD.               20-Sep-20:  SPUD DATE
 NREF.                    Grid:  NORTH REFERENCE
 HPTY.       Minimum Curvature:  HOLE POS TYPE
 DMOD.             Drill Model:  DRILL MOD DESC
 SVYD.                  Survey:  SURVEY DESC
 ILTD.               Lithology:  INTERP LTH DESC
 FTOP.          Formation Tops:  FORM TOPS DESC
 RIG .              East Azeri:  RIG NAME
 PDAT.          Mean Sea Level:  PERMANENT DATUM
 FLD .                     ACG:  FIELD NAME
 SON .        AZ-XX-0906591820:  JOB NUMBER
 CTRY.              Azerbaijan:  COUNTRY NAME
 WELL.                     D37:  WELL NAME
 SRVC.     Turan Drilling & Engineering:  CONTRACTOR
 COMP.     BP Exploration (Caspian Sea) ltd.:  COMPANY
 WTYP.                Deviated:  WELL TYPE
 MDS .        Operator Entered:  MAG DATA SOURCE
 UWI .                     N/A:  UNIQUE WELL IDENTIFIER
 API .                     N/A:  API NUMBER
 BASE.              Azerbaijan:  LOGGING EQUIPMENT BASE LOCATION
 REGN.                   EESSA:  REGION
 PROV.                    Baku:  PROVINCE
 STAT.                    Baku:  STATE NAME
 MWDS.                    Baku:  MWD SHOP
 JOBN.        AZ-XX-0906591820:  JOB TICKET NUMB
 DOE .                     N/A:  DOE NUMBER
 DCON.         Sperry Drilling:  DIRECTNL CONTR
 UNIT.                     N/A:  LOGGING EQUIPMENT ID
 CNTY.                        :  COUNTY
 LOC .                        :  LOCATION
 LMF .             Drill Floor:  LOG MEASURED FROM
 TVDS.m                  43.60:  TVDSS CORRECTN
 LATI.deg                40.02:  LATITUDE
 LONG.deg                51.45:  LONGITUDE
 WHNS.m                  11.04:  WELL HEAD N/S
 WHEW.m                 -12.38:  WELL HEAD E/W
 UTMX.m              538763.98:  UTM X
 UTMY.m             4431880.20:  UTM Y
 DFWL.m                   0.00:  DISTANCE FWL
 DFSL.m                   0.00:  DISTANCE FSL
 SDEP.m                 300.00:  START DEPTH
 TDD .m                4900.01:  TOTAL DEPTH (DRILLER)
 VSDR.deg               185.64:  VERT SEC DIRECT
 GVFD.g                   1.00:  GRAVITY FIELD
 MFLD.nT              50301.00:  MAGNETIC FIELD
 MDIP.deg                59.46:  MAGNETIC DIP
 MDEC.deg                 6.43:  MAGNETIC DECL
 GRDC.deg                 0.29:  GRID CORRECTION
 AZTC.deg                 6.14:  AZM TOTAL CORR
 EPD .m                   0.00:  ELEVATION
 EGL .m                   0.00:  GROUND ELEVATION
 WDMS.m                 151.80:  WD ELEV
 APD .m                  43.60:  DEPTH ABOVE PD
 DEP .m                 571.69:  DEPTH
 AGAP.m                  43.60:  AIR GAP
 VSEW.m                 -12.38:  VERT SEC E/W
 VSNS.m                  11.04:  VERT SEC N/S
 EKB .m                  43.60:  KB ELEVATION
 EDF .m                  43.60:  DF ELEVATION
 TDL .m                 412.00:  TOTAL DEPTH (LOGGER)
 VSC .                       0:  VS TO CLOSURE
 MAGU.                 1849300:  MAGUTM CHECKSUM
~Parameter Information Block
#MNEM.UNIT       Value        Description
#---------     -----------    ---------------------------
 AV  .mps                 2.21:  Ann Velocity 
 AVMX.mps                 2.53:  Max Ann Veloc 
 AZIF.deg               144.83:  Azm, Final 
 BHAT.        Rotary Steerable:  BHA Type 
 BROT.°/30m              -0.52:  Build Rotating 
 BS  .in                  6.50:  Bit Size 
 BTPL.psig              209.00:  Bit Press Loss 
 CABU.                      No:  Customer Abuse 
 CGEO.        Ali Isfandiyarov:  Customer Geo 
 COMM.                     tÿr:  Run Comments 1 
 TCS .hr                 61.31:  Time Ciculation Ended 
 CV  .mps                 4.66:  Crit Velocity 
 CVMX.mps                 5.02:  Max Crit Veloc 
 DD1 .          Fariz Nahmatov:  Direct Drillr 1 
 DD2 .            Musa Ahmadov:  Direct Drillr 2 
 DDSV.               Geo-Pilot:  DD Service 
 DEFF.%                 100.00:  % Det Eff 
 DLRX.°/30m               1.44:  Dogleg Rot Max 
 DLSO.°/30m               0.83:  Dogleg Oriented 
 DLSX.°/30m               1.44:  Dogleg Str Max 
 DRET.      08.30.00 30-Jan-21:  Drill End Time 
 DRST.      21.15.00 27-Jan-21:  Drill Start Tim 
 DTIM.hr                 37.28:  Time Drilling 
 EDEP.m                4867.01:  End Depth 
 ENG1.          Rasim Hashimov:  Engineer 1 
 ENG2.         Almaz Almadatov:  Engineer 2 
 ENG3.        Tamerlan Ahmadov:  Engineer 3 
 ETIM.      22.41.04 31-Jan-21:  End Time 
 FLOI.gpm               400.00:  Flow In 
 FLON.gpm               300.00:  Flow In Min 
 FLOS.cptm                0.00:  Fluid Loss 
 FLOX.gpm               400.00:  Flow In Max 
 HFLO.                      No:  High Flow 
 HPRE.                      No:  High Pressure 
 HTEM.                      No:  High Temp 
 HYDO.m                   1.80:  Hydro Offset 
 IFIN.deg                65.63:  Inc, Final 
 IMAX.deg                66.77:  Inc Max 
 IMIN.deg                65.61:  Inc Min 
 IMND.m                4612.67:  Inc Min Depth 
 IMXD.m                4811.63:  Inc Max Depth 
 JARR.                      No:  Jarring 
 LETM.      08.30.00 30-Jan-21:  Log End Time 
 LOST.hr                     0:  Lost Rig Time 
 LSTM.      21.15.00 27-Jan-21:  Log Start Time 
 MDCL.ppm             41000.00:  Mud Chlorides 
 MDES.     Inversion Oil/Synthetic:  Mud Desc 
 DFD .sg                  1.40:  Mud Density 
 MDMN.sg                  1.40:  Dens Mud Min 
 MDMX.sg                  1.40:  Dens Mud Max 
 MOIL.                      53:  Run Mud Oil % 
 MOWR.                   66:34:  Run Mud OWR 
 MSND.                     0.2:  Run Mud Sand % 
 MSOL.                    17.9:  Run Mud Solids% 
 DFV .spqt               77.00:  Mud Viscosity 
 MWOD.in                  4.75:  MWD Tool OD 
 MWSI.                      No:  Serv Intrp, MWD 
 OTIM.hr                110.38:  Time Operating 
 PCON.           Look Like New:  Pad Condition 
 PMAX.psia             5300.00:  Press Op, Max 
 PV  .cP                 57.00:  Mud PV 
 RUN .                    1200:  Run Number 
 ROPA.m/hr               13.00:  ROP Avg 
 ROPN.m/hr                9.00:  ROP Min 
 ROPX.m/hr               15.00:  ROP Max 
 RPMA.rpm               120.00:  RPM Surface Avg 
 RPMN.rpm               100.00:  RPM Surface Min 
 RPMX.rpm               135.00:  RPM Surface Max 
 RRUN.                    1200:  Rig Run Number 
 RTIM.hr                  2.65:  Time Reaming 
 SAZI.deg               145.04:  Azm, Start 
 SDEP.m                4455.01:  Start Depth 
 SIDD.                      No:  Serv Intrp, DD 
 SINC.deg                65.83:  Inc, Start 
 SPPA.psig             5037.00:  SPP Avg 
 SPPN.psig             4430.00:  SPP Min 
 SPPX.psig             5300.00:  SPP Max 
 STIM.      22.41.04 26-Jan-21:  Start Time 
 SVCS.                 DD, MWD:  Services 
 SVER.                    9.20:  Sperry Version 
 TDAT.m                 412.00:  Tot Depth Attmp 
 TDDF.                      No:  Trip for DD 
 TDLG.m                 412.00:  Tot Depth Loggd 
 TFF .                      No:  Trip for Fail 
 TQAA.f-kp               15.00:  Torque Abs Avg 
 TQAN.f-kp               12.00:  Torque Abs Min 
 TQAX.f-kp               17.00:  Torque Abs Max 
 TRRT.°/30m               1.18:  Turn Rotating 
 MRT .                     ADR:  Maximum Recorded Temperature 
 TTMX.degC               88.24:  Max Tool Temp 
 VS01.                90619458:  Virtual Str1 SN 
 VS02.                90519326:  Virtual Str2 SN 
 VS03.                90522176:  Virtual Str3 SN 
 VS04.                90512683:  Virtual Str4 SN 
 WBMN.klb                 1.00:  WOB Min 
 WITN.           Murad Giluyev:  Customer Rep 
 WITN.     Kamran Kemberlinski:  Customer Rep 2 
 WOBA.klb                 5.00:  WOB Avg 
 WOBX.klb                 9.00:  WOB Max 
 YP  .lhf2               41.00:  Yield Point 
~Curve Information Block
#MNEM.UNIT                 API CODE     Curve Description
#---------               -----------    ---------------------------
 TIME.HHMMSS            00 000 000 000:  GT Time & Date
 GTDEPTH.m              00 000 000 000:  GT Depth
 GTPQH.psia             00 000 000 000:  GT HR Quartz Pressure
 GTTQ.degC              00 000 000 000:  GT Quartz Temperature
 GTTN.NONE              00 000 000 000:  GT Test Number
 GTET.sec               00 000 000 000:  GT Elapsed Test Time
 GTTVD.m                00 000 000 000:  GT True Vertical Depth
#Other Information
#
#WARRANTY: Halliburton will use its best efforts to furnish customers with 
#accurate information and interpretations that are part of, and incident to, the services 
#provided.  However, Halliburton cannot and does not warrant the accuracy 
#or correctness of such information and interpretations.  Under no circumstances should any 
#such information or interpretation be relied upon as the sole basis for any drilling, 
#completion, production, or financial decision or any procedure involving any risk to the 
#safety of any drilling venture, drilling rig or its crew or any other third party.  The 
#Customer has full responsibility for all drilling, completion and production operation.  
#Halliburton makes no representations or warranties, either expressed or 
#implied, including, but not limited to, the implied warranties of merchantability or fitness 
#for a particular purpose, with respect to the services rendered.  In no event will 
#Halliburton be liable for failure to obtain any particular results or for 
#any damages, including, but not limited to, indirect, special or consequential damages, 
#resulting from the use of any information or interpretation provided by Halliburton.
#
~A           TIME           GTDEPTH  GTPQH  GTTQ  GTTN  GTET   GTTVD  
# ...
   02:54:13.781.29-Jan-2021 4635.01 6129.65 77.69 7.00  23.00 2559.44
   02:54:13.981.29-Jan-2021 4635.01 6129.65 77.69 7.00  23.20 2559.44
   02:54:14.181.29-Jan-2021 4635.01 6142.86 77.69 7.00  23.40 2559.44
   02:54:14.381.29-Jan-2021 4635.01 6147.17 77.69 7.00  23.60 2559.44
   02:54:14.582.29-Jan-2021 4635.01 6150.89 77.69 7.00  23.80 2559.44
   02:54:14.782.29-Jan-2021 4635.01 6154.18 77.69 7.00  24.00 2559.44
   02:54:14.982.29-Jan-2021 4635.01 6154.18 77.69 7.00  24.20 2559.44
   02:54:15.182.29-Jan-2021 4635.01 6159.47 77.69 7.00  24.40 2559.44
   02:54:15.382.29-Jan-2021 4635.01 6161.82 77.68 7.00  24.60 2559.44
   02:54:15.582.29-Jan-2021 4635.01 6163.78 77.68 7.00  24.80 2559.44
   02:54:15.782.29-Jan-2021 4635.01 6164.48 77.68 7.00  25.00 2559.44
   02:54:15.982.29-Jan-2021 4635.01 6164.48 77.68 7.00  25.20 2559.44
   02:54:16.182.29-Jan-2021 4635.01 6165.79 77.68 7.00  25.40 2559.44
   02:54:16.382.29-Jan-2021 4635.01 6166.68 77.68 7.00  25.60 2559.44
   02:54:16.582.29-Jan-2021 4635.01 6070.75 77.68 7.00  25.80 2559.44
   02:54:16.782.29-Jan-2021 4635.01 5575.26 77.68 7.00  26.00 2559.44
   02:54:16.982.29-Jan-2021 4635.01 5575.26 77.68 7.00  26.20 2559.44
   02:54:17.182.29-Jan-2021 4635.01 5091.46 77.68 7.00  26.40 2559.44
   02:54:17.382.29-Jan-2021 4635.01 4490.41 77.68 7.00  26.60 2559.44
   02:54:17.582.29-Jan-2021 4635.01 3690.10 77.68 7.00  26.80 2559.44
   02:54:17.782.29-Jan-2021 4635.01 3129.19 77.68 7.00  27.00 2559.44
   02:54:17.982.29-Jan-2021 4635.01 3129.19 77.68 7.00  27.20 2559.44
   02:54:18.182.29-Jan-2021 4635.01 2959.64 77.68 7.00  27.40 2559.44
   02:54:18.382.29-Jan-2021 4635.01 2950.99 77.68 7.00  27.60 2559.44
   02:54:18.582.29-Jan-2021 4635.01 2949.78 77.68 7.00  27.80 2559.44
   02:54:18.782.29-Jan-2021 4635.01 2948.29 77.68 7.00  28.00 2559.44
   02:54:18.982.29-Jan-2021 4635.01 2948.29 77.68 7.00  28.20 2559.44
   02:54:19.182.29-Jan-2021 4635.01 2948.29 77.68 7.00  28.40 2559.44
   02:54:19.382.29-Jan-2021 4635.01 2943.62 77.67 7.00  28.60 2559.44
   02:54:19.582.29-Jan-2021 4635.01 2944.44 77.67 7.00  28.80 2559.44
   02:54:19.782.29-Jan-2021 4635.01 2942.65 77.67 7.00  29.00 2559.44
   02:54:19.982.29-Jan-2021 4635.01 2942.65 77.67 7.00  29.20 2559.44
   02:54:20.182.29-Jan-2021 4635.01 2946.41 77.67 7.00  29.40 2559.44
   02:54:20.382.29-Jan-2021 4635.01 2945.17 77.67 7.00  29.60 2559.44
   02:54:20.582.29-Jan-2021 4635.01 2945.50 77.67 7.00  29.80 2559.44
   02:54:20.782.29-Jan-2021 4635.01 2944.89 77.67 7.00  30.00 2559.44
   02:54:20.982.29-Jan-2021 4635.01 2944.89 77.67 7.00  30.20 2559.44
   02:54:21.182.29-Jan-2021 4635.01 2946.39 77.67 7.00  30.40 2559.44
   02:54:21.382.29-Jan-2021 4635.01 2946.93 77.66 7.00  30.60 2559.44
   02:54:21.583.29-Jan-2021 4635.01 2947.49 77.66 7.00  30.80 2559.44
   02:54:21.783.29-Jan-2021 4635.01 2947.20 77.66 7.00  31.00 2559.44
   02:54:21.983.29-Jan-2021 4635.01 2947.20 77.66 7.00  31.20 2559.44
   02:54:22.183.29-Jan-2021 4635.01 2946.83 77.66 7.00  31.40 2559.44
   02:54:22.383.29-Jan-2021 4635.01 2947.46 77.66 7.00  31.60 2559.44
   02:54:22.583.29-Jan-2021 4635.01 2950.29 77.66 7.00  31.80 2559.44
   02:54:22.783.29-Jan-2021 4635.01 2952.24 77.66 7.00  32.00 2559.44
   02:54:22.983.29-Jan-2021 4635.01 2952.24 77.66 7.00  32.20 2559.44
   02:54:23.183.29-Jan-2021 4635.01 2951.45 77.66 7.00  32.40 2559.44
   02:54:23.383.29-Jan-2021 4635.01 2953.27 77.66 7.00  32.60 2559.44
   02:54:23.583.29-Jan-2021 4635.01 2953.37 77.65 7.00  32.80 2559.44
   02:54:23.783.29-Jan-2021 4635.01 2957.94 77.65 7.00  33.00 2559.44
   02:54:23.983.29-Jan-2021 4635.01 2957.94 77.65 7.00  33.20 2559.44
   02:54:24.183.29-Jan-2021 4635.01 2958.65 77.65 7.00  33.40 2559.44
   02:54:24.383.29-Jan-2021 4635.01 2961.20 77.65 7.00  33.60 2559.44
   02:54:24.583.29-Jan-2021 4635.01 2960.17 77.65 7.00  33.80 2559.44
   02:54:24.783.29-Jan-2021 4635.01 2961.28 77.65 7.00  34.00 2559.44
   02:54:24.983.29-Jan-2021 4635.01 2961.28 77.65 7.00  34.20 2559.44
   02:54:25.183.29-Jan-2021 4635.01 2960.61 77.65 7.00  34.40 2559.44
   02:54:25.383.29-Jan-2021 4635.01 2959.44 77.65 7.00  34.60 2559.44
   02:54:25.583.29-Jan-2021 4635.01 2960.87 77.64 7.00  34.80 2559.44
   02:54:25.783.29-Jan-2021 4635.01 2960.80 77.64 7.00  35.00 2559.44
   02:54:25.983.29-Jan-2021 4635.01 2960.80 77.64 7.00  35.20 2559.44
   02:54:26.183.29-Jan-2021 4635.01 2962.75 77.64 7.00  35.40 2559.44
   02:54:26.383.29-Jan-2021 4635.01 2961.01 77.64 7.00  35.60 2559.44
   02:54:26.583.29-Jan-2021 4635.01 2960.21 77.64 7.00  35.81 2559.44
   02:54:26.783.29-Jan-2021 4635.01 3115.82 77.64 7.00  36.01 2559.44
   02:54:26.983.29-Jan-2021 4635.01 3115.82 77.64 7.00  36.21 2559.44
   02:54:27.183.29-Jan-2021 4635.01 3251.14 77.64 7.00  36.41 2559.44
   02:54:27.383.29-Jan-2021 4635.01 3253.76 77.64 7.00  36.61 2559.44
   02:54:27.583.29-Jan-2021 4635.01 3254.99 77.64 7.00  36.81 2559.44
   02:54:27.783.29-Jan-2021 4635.01 3255.63 77.63 7.00  37.01 2559.44
   02:54:27.983.29-Jan-2021 4635.01 3255.63 77.63 7.00  37.21 2559.44
   02:54:28.183.29-Jan-2021 4635.01 3256.70 77.63 7.00  37.41 2559.44
   02:54:28.383.29-Jan-2021 4635.01 3257.19 77.63 7.00  37.61 2559.44
   02:54:28.583.29-Jan-2021 4635.01 3257.60 77.63 7.00  37.81 2559.44
   02:54:28.784.29-Jan-2021 4635.01 3257.88 77.63 7.00  38.01 2559.44
   02:54:28.984.29-Jan-2021 4635.01 3257.88 77.63 7.00  38.21 2559.44
   02:54:29.184.29-Jan-2021 4635.01 3258.31 77.63 7.00  38.41 2559.44
   02:54:29.384.29-Jan-2021 4635.01 3258.34 77.63 7.00  38.61 2559.44
   02:54:29.584.29-Jan-2021 4635.01 3258.81 77.63 7.00  38.81 2559.44
   02:54:29.784.29-Jan-2021 4635.01 3258.78 77.63 7.00  39.01 2559.44
   02:54:29.984.29-Jan-2021 4635.01 3258.78 77.63 7.00  39.21 2559.44
   02:54:30.184.29-Jan-2021 4635.01 3258.94 77.62 7.00  39.41 2559.44
   02:54:30.384.29-Jan-2021 4635.01 3259.31 77.62 7.00  39.61 2559.44
   02:54:30.584.29-Jan-2021 4635.01 3259.16 77.62 7.00  39.81 2559.44
   02:54:30.784.29-Jan-2021 4635.01 3259.41 77.62 7.00  40.01 2559.44
   02:54:30.984.29-Jan-2021 4635.01 3259.41 77.62 7.00  40.21 2559.44
   02:54:31.184.29-Jan-2021 4635.01 3259.55 77.62 7.00  40.41 2559.44
   02:54:31.384.29-Jan-2021 4635.01 3259.57 77.62 7.00  40.61 2559.44
   02:54:31.584.29-Jan-2021 4635.01 3259.66 77.62 7.00  40.81 2559.44
   02:54:31.784.29-Jan-2021 4635.01 3259.73 77.62 7.00  41.01 2559.44
   02:54:31.984.29-Jan-2021 4635.01 3259.73 77.62 7.00  41.21 2559.44
   02:54:32.184.29-Jan-2021 4635.01 3259.80 77.62 7.00  41.41 2559.44
   02:54:32.384.29-Jan-2021 4635.01 3259.87 77.61 7.00  41.61 2559.44
   02:54:32.584.29-Jan-2021 4635.01 3259.94 77.61 7.00  41.81 2559.44
   02:54:32.784.29-Jan-2021 4635.01 3259.94 77.61 7.00  42.01 2559.44
   02:54:32.984.29-Jan-2021 4635.01 3259.94 77.61 7.00  42.21 2559.44
   02:54:33.184.29-Jan-2021 4635.01 3260.04 77.61 7.00  42.41 2559.44
   02:54:33.384.29-Jan-2021 4635.01 3260.08 77.61 7.00  42.61 2559.44
   02:54:33.584.29-Jan-2021 4635.01 3260.11 77.61 7.00  42.81 2559.44
   02:54:33.784.29-Jan-2021 4635.01 3260.06 77.61 7.00  43.01 2559.44
   02:54:33.984.29-Jan-2021 4635.01 3260.06 77.61 7.00  43.21 2559.44
   02:54:34.184.29-Jan-2021 4635.01 3260.13 77.61 7.00  43.41 2559.44
   02:54:34.384.29-Jan-2021 4635.01 3260.25 77.61 7.00  43.61 2559.44
   02:54:34.584.29-Jan-2021 4635.01 3260.25 77.61 7.00  43.81 2559.44
   02:54:34.784.29-Jan-2021 4635.01 3260.33 77.61 7.00  44.01 2559.44
   02:54:34.984.29-Jan-2021 4635.01 3260.33 77.61 7.00  44.21 2559.44
   02:54:35.184.29-Jan-2021 4635.01 3260.36 77.60 7.00  44.41 2559.44
   02:54:35.384.29-Jan-2021 4635.01 3260.35 77.60 7.00  44.61 2559.44
   02:54:35.584.29-Jan-2021 4635.01 3260.36 77.60 7.00  44.81 2559.44
   02:54:35.784.29-Jan-2021 4635.01 3260.39 77.60 7.00  45.01 2559.44
   02:54:35.985.29-Jan-2021 4635.01 3260.39 77.60 7.00  45.21 2559.44
   02:54:36.185.29-Jan-2021 4635.01 3260.44 77.60 7.00  45.41 2559.44
   02:54:36.385.29-Jan-2021 4635.01 3260.44 77.60 7.00  45.61 2559.44
   02:54:36.585.29-Jan-2021 4635.01 3260.46 77.60 7.00  45.81 2559.44
