~Version Information
 VERS.                  2.0:   CWLS log ASCII Standard -VERSION 2.0
 WRAP.                   NO:   One line per depth step
~Well Information Block
#MNEM.UNIT     VALUE/NAME     DESCRIPTION
#---------     -----------    ---------------------------
 STRT.S             08:50:58 29-Jan-21: START TIME 08:50:58 29-Jan-21
 STOP.S             08:57:28 29-Jan-21: STOP TIME  08:57:28 29-Jan-21
 STEP.S                   0.00: STEP TIME
 NULL.                 -999.25: NULL VALUE
 DFWT.                        :  DIST FWL TEXT
 DFST.                        :  DIST FSL TEXT
 DMF .             Drill Floor:  DRILL MEAS FROM
 STIM.      00.00.00 25-Sep-20:  START TIME
 DATE.      16.12.48 31-Jan-21:  END TIME
 SPUD.               20-Sep-20:  SPUD DATE
 NREF.                    Grid:  NORTH REFERENCE
 HPTY.       Minimum Curvature:  HOLE POS TYPE
 DMOD.             Drill Model:  DRILL MOD DESC
 SVYD.                  Survey:  SURVEY DESC
 ILTD.               Lithology:  INTERP LTH DESC
 FTOP.          Formation Tops:  FORM TOPS DESC
 RIG .              East Azeri:  RIG NAME
 PDAT.          Mean Sea Level:  PERMANENT DATUM
 FLD .                     ACG:  FIELD NAME
 SON .        AZ-XX-0906591820:  JOB NUMBER
 CTRY.              Azerbaijan:  COUNTRY NAME
 WELL.                     D37:  WELL NAME
 SRVC.     Turan Drilling & Engineering:  CONTRACTOR
 COMP.     BP Exploration (Caspian Sea) ltd.:  COMPANY
 WTYP.                Deviated:  WELL TYPE
 MDS .        Operator Entered:  MAG DATA SOURCE
 UWI .                     N/A:  UNIQUE WELL IDENTIFIER
 API .                     N/A:  API NUMBER
 BASE.              Azerbaijan:  LOGGING EQUIPMENT BASE LOCATION
 REGN.                   EESSA:  REGION
 PROV.                    Baku:  PROVINCE
 STAT.                    Baku:  STATE NAME
 MWDS.                    Baku:  MWD SHOP
 JOBN.        AZ-XX-0906591820:  JOB TICKET NUMB
 DOE .                     N/A:  DOE NUMBER
 DCON.         Sperry Drilling:  DIRECTNL CONTR
 UNIT.                     N/A:  LOGGING EQUIPMENT ID
 CNTY.                        :  COUNTY
 LOC .                        :  LOCATION
 LMF .             Drill Floor:  LOG MEASURED FROM
 TVDS.m                  43.60:  TVDSS CORRECTN
 LATI.deg                40.02:  LATITUDE
 LONG.deg                51.45:  LONGITUDE
 WHNS.m                  11.04:  WELL HEAD N/S
 WHEW.m                 -12.38:  WELL HEAD E/W
 UTMX.m              538763.98:  UTM X
 UTMY.m             4431880.20:  UTM Y
 DFWL.m                   0.00:  DISTANCE FWL
 DFSL.m                   0.00:  DISTANCE FSL
 SDEP.m                 300.00:  START DEPTH
 TDD .m                4900.01:  TOTAL DEPTH (DRILLER)
 VSDR.deg               185.64:  VERT SEC DIRECT
 GVFD.g                   1.00:  GRAVITY FIELD
 MFLD.nT              50301.00:  MAGNETIC FIELD
 MDIP.deg                59.46:  MAGNETIC DIP
 MDEC.deg                 6.43:  MAGNETIC DECL
 GRDC.deg                 0.29:  GRID CORRECTION
 AZTC.deg                 6.14:  AZM TOTAL CORR
 EPD .m                   0.00:  ELEVATION
 EGL .m                   0.00:  GROUND ELEVATION
 WDMS.m                 151.80:  WD ELEV
 APD .m                  43.60:  DEPTH ABOVE PD
 DEP .m                 571.69:  DEPTH
 AGAP.m                  43.60:  AIR GAP
 VSEW.m                 -12.38:  VERT SEC E/W
 VSNS.m                  11.04:  VERT SEC N/S
 EKB .m                  43.60:  KB ELEVATION
 EDF .m                  43.60:  DF ELEVATION
 TDL .m                 412.00:  TOTAL DEPTH (LOGGER)
 VSC .                       0:  VS TO CLOSURE
 MAGU.                 1849300:  MAGUTM CHECKSUM
~Parameter Information Block
#MNEM.UNIT       Value        Description
#---------     -----------    ---------------------------
 AV  .mps                 2.21:  Ann Velocity 
 AVMX.mps                 2.53:  Max Ann Veloc 
 AZIF.deg               144.83:  Azm, Final 
 BHAT.        Rotary Steerable:  BHA Type 
 BROT.°/30m              -0.52:  Build Rotating 
 BS  .in                  6.50:  Bit Size 
 BTPL.psig              209.00:  Bit Press Loss 
 CABU.                      No:  Customer Abuse 
 CGEO.        Ali Isfandiyarov:  Customer Geo 
 COMM.                     Ä	‡:  Run Comments 1 
 TCS .hr                 61.31:  Time Ciculation Ended 
 CV  .mps                 4.66:  Crit Velocity 
 CVMX.mps                 5.02:  Max Crit Veloc 
 DD1 .          Fariz Nahmatov:  Direct Drillr 1 
 DD2 .            Musa Ahmadov:  Direct Drillr 2 
 DDSV.               Geo-Pilot:  DD Service 
 DEFF.%                 100.00:  % Det Eff 
 DLRX.°/30m               1.44:  Dogleg Rot Max 
 DLSO.°/30m               0.83:  Dogleg Oriented 
 DLSX.°/30m               1.44:  Dogleg Str Max 
 DRET.      08.30.00 30-Jan-21:  Drill End Time 
 DRST.      21.15.00 27-Jan-21:  Drill Start Tim 
 DTIM.hr                 37.28:  Time Drilling 
 EDEP.m                4867.01:  End Depth 
 ENG1.          Rasim Hashimov:  Engineer 1 
 ENG2.         Almaz Almadatov:  Engineer 2 
 ENG3.        Tamerlan Ahmadov:  Engineer 3 
 ETIM.      22.41.04 31-Jan-21:  End Time 
 FLOI.gpm               400.00:  Flow In 
 FLON.gpm               300.00:  Flow In Min 
 FLOS.cptm                0.00:  Fluid Loss 
 FLOX.gpm               400.00:  Flow In Max 
 HFLO.                      No:  High Flow 
 HPRE.                      No:  High Pressure 
 HTEM.                      No:  High Temp 
 HYDO.m                   1.80:  Hydro Offset 
 IFIN.deg                65.63:  Inc, Final 
 IMAX.deg                66.77:  Inc Max 
 IMIN.deg                65.61:  Inc Min 
 IMND.m                4612.67:  Inc Min Depth 
 IMXD.m                4811.63:  Inc Max Depth 
 JARR.                      No:  Jarring 
 LETM.      08.30.00 30-Jan-21:  Log End Time 
 LOST.hr                     0:  Lost Rig Time 
 LSTM.      21.15.00 27-Jan-21:  Log Start Time 
 MDCL.ppm             41000.00:  Mud Chlorides 
 MDES.     Inversion Oil/Synthetic:  Mud Desc 
 DFD .sg                  1.40:  Mud Density 
 MDMN.sg                  1.40:  Dens Mud Min 
 MDMX.sg                  1.40:  Dens Mud Max 
 MOIL.                      53:  Run Mud Oil % 
 MOWR.                   66:34:  Run Mud OWR 
 MSND.                     0.2:  Run Mud Sand % 
 MSOL.                    17.9:  Run Mud Solids% 
 DFV .spqt               77.00:  Mud Viscosity 
 MWOD.in                  4.75:  MWD Tool OD 
 MWSI.                      No:  Serv Intrp, MWD 
 OTIM.hr                110.38:  Time Operating 
 PCON.           Look Like New:  Pad Condition 
 PMAX.psia             5300.00:  Press Op, Max 
 PV  .cP                 57.00:  Mud PV 
 RUN .                    1200:  Run Number 
 ROPA.m/hr               13.00:  ROP Avg 
 ROPN.m/hr                9.00:  ROP Min 
 ROPX.m/hr               15.00:  ROP Max 
 RPMA.rpm               120.00:  RPM Surface Avg 
 RPMN.rpm               100.00:  RPM Surface Min 
 RPMX.rpm               135.00:  RPM Surface Max 
 RRUN.                    1200:  Rig Run Number 
 RTIM.hr                  2.65:  Time Reaming 
 SAZI.deg               145.04:  Azm, Start 
 SDEP.m                4455.01:  Start Depth 
 SIDD.                      No:  Serv Intrp, DD 
 SINC.deg                65.83:  Inc, Start 
 SPPA.psig             5037.00:  SPP Avg 
 SPPN.psig             4430.00:  SPP Min 
 SPPX.psig             5300.00:  SPP Max 
 STIM.      22.41.04 26-Jan-21:  Start Time 
 SVCS.                 DD, MWD:  Services 
 SVER.                    9.20:  Sperry Version 
 TDAT.m                 412.00:  Tot Depth Attmp 
 TDDF.                      No:  Trip for DD 
 TDLG.m                 412.00:  Tot Depth Loggd 
 TFF .                      No:  Trip for Fail 
 TQAA.f-kp               15.00:  Torque Abs Avg 
 TQAN.f-kp               12.00:  Torque Abs Min 
 TQAX.f-kp               17.00:  Torque Abs Max 
 TRRT.°/30m               1.18:  Turn Rotating 
 MRT .                     ADR:  Maximum Recorded Temperature 
 TTMX.degC               88.24:  Max Tool Temp 
 VS01.                90619458:  Virtual Str1 SN 
 VS02.                90519326:  Virtual Str2 SN 
 VS03.                90522176:  Virtual Str3 SN 
 VS04.                90512683:  Virtual Str4 SN 
 WBMN.klb                 1.00:  WOB Min 
 WITN.           Murad Giluyev:  Customer Rep 
 WITN.     Kamran Kemberlinski:  Customer Rep 2 
 WOBA.klb                 5.00:  WOB Avg 
 WOBX.klb                 9.00:  WOB Max 
 YP  .lhf2               41.00:  Yield Point 
~Curve Information Block
#MNEM.UNIT                 API CODE     Curve Description
#---------               -----------    ---------------------------
 TIME.HHMMSS            00 000 000 000:  GT Time & Date
 GTDEPTH.m              00 000 000 000:  GT Depth
 GTPQH.psia             00 000 000 000:  GT HR Quartz Pressure
 GTTQ.degC              00 000 000 000:  GT Quartz Temperature
 GTTN.NONE              00 000 000 000:  GT Test Number
 GTET.sec               00 000 000 000:  GT Elapsed Test Time
 GTTVD.m                00 000 000 000:  GT True Vertical Depth
#Other Information
#
#WARRANTY: Halliburton will use its best efforts to furnish customers with 
#accurate information and interpretations that are part of, and incident to, the services 
#provided.  However, Halliburton cannot and does not warrant the accuracy 
#or correctness of such information and interpretations.  Under no circumstances should any 
#such information or interpretation be relied upon as the sole basis for any drilling, 
#completion, production, or financial decision or any procedure involving any risk to the 
#safety of any drilling venture, drilling rig or its crew or any other third party.  The 
#Customer has full responsibility for all drilling, completion and production operation.  
#Halliburton makes no representations or warranties, either expressed or 
#implied, including, but not limited to, the implied warranties of merchantability or fitness 
#for a particular purpose, with respect to the services rendered.  In no event will 
#Halliburton be liable for failure to obtain any particular results or for 
#any damages, including, but not limited to, indirect, special or consequential damages, 
#resulting from the use of any information or interpretation provided by Halliburton.
#
~A           TIME           GTDEPTH  GTPQH  GTTQ  GTTN  GTET   GTTVD  
# ...
   08:55:57.738.29-Jan-2021 4683.51 3064.96 80.48 9.00 299.06 2579.09
   08:55:57.938.29-Jan-2021 4683.51 3064.96 80.48 9.00 299.26 2579.09
   08:55:58.138.29-Jan-2021 4683.51 3064.96 80.48 9.00 299.46 2579.09
   08:55:58.338.29-Jan-2021 4683.51 3064.96 80.48 9.00 299.66 2579.09
   08:55:58.538.29-Jan-2021 4683.51 3064.95 80.48 9.00 299.86 2579.09
   08:55:58.738.29-Jan-2021 4683.51 3064.96 80.48 9.00 300.06 2579.09
   08:55:58.938.29-Jan-2021 4683.51 3064.96 80.48 9.00 300.26 2579.09
   08:55:59.138.29-Jan-2021 4683.51 3064.95 80.48 9.00 300.46 2579.09
   08:55:59.338.29-Jan-2021 4683.51 3064.94 80.48 9.00 300.66 2579.09
   08:55:59.538.29-Jan-2021 4683.51 3064.96 80.48 9.00 300.86 2579.09
   08:55:59.738.29-Jan-2021 4683.51 3064.95 80.48 9.00 301.06 2579.09
   08:55:59.938.29-Jan-2021 4683.51 3064.95 80.48 9.00 301.26 2579.09
   08:56:00.139.29-Jan-2021 4683.51 3064.98 80.48 9.00 301.46 2579.09
   08:56:00.339.29-Jan-2021 4683.51 3064.95 80.48 9.00 301.66 2579.09
   08:56:00.539.29-Jan-2021 4683.51 3064.91 80.47 9.00 301.86 2579.09
   08:56:00.739.29-Jan-2021 4683.51 3065.01 80.47 9.00 302.06 2579.09
   08:56:00.939.29-Jan-2021 4683.51 3065.01 80.47 9.00 302.26 2579.09
   08:56:01.139.29-Jan-2021 4683.51 3064.93 80.47 9.00 302.46 2579.09
   08:56:01.339.29-Jan-2021 4683.51 3064.98 80.47 9.00 302.66 2579.09
   08:56:01.539.29-Jan-2021 4683.51 3064.96 80.47 9.00 302.86 2579.09
   08:56:01.739.29-Jan-2021 4683.51 3064.96 80.47 9.00 303.06 2579.09
   08:56:01.939.29-Jan-2021 4683.51 3064.96 80.47 9.00 303.26 2579.09
   08:56:02.139.29-Jan-2021 4683.51 3065.02 80.47 9.00 303.46 2579.09
   08:56:02.339.29-Jan-2021 4683.51 3064.98 80.47 9.00 303.66 2579.09
   08:56:02.539.29-Jan-2021 4683.51 3064.94 80.47 9.00 303.86 2579.09
   08:56:02.739.29-Jan-2021 4683.51 3064.96 80.47 9.00 304.06 2579.09
   08:56:02.939.29-Jan-2021 4683.51 3064.96 80.47 9.00 304.26 2579.09
   08:56:03.139.29-Jan-2021 4683.51 3064.94 80.47 9.00 304.46 2579.09
   08:56:03.339.29-Jan-2021 4683.51 3064.96 80.47 9.00 304.66 2579.09
   08:56:03.539.29-Jan-2021 4683.51 3064.96 80.47 9.00 304.86 2579.09
   08:56:03.739.29-Jan-2021 4683.51 3064.96 80.47 9.00 305.06 2579.09
   08:56:03.939.29-Jan-2021 4683.51 3064.96 80.47 9.00 305.26 2579.09
   08:56:04.139.29-Jan-2021 4683.51 3064.95 80.46 9.00 305.46 2579.09
   08:56:04.339.29-Jan-2021 4683.51 3064.97 80.46 9.00 305.66 2579.09
   08:56:04.539.29-Jan-2021 4683.51 3064.93 80.46 9.00 305.86 2579.09
   08:56:04.740.29-Jan-2021 4683.51 3064.96 80.46 9.00 306.06 2579.09
   08:56:04.940.29-Jan-2021 4683.51 3064.96 80.46 9.00 306.26 2579.09
   08:56:05.140.29-Jan-2021 4683.51 3064.96 80.46 9.00 306.46 2579.09
   08:56:05.340.29-Jan-2021 4683.51 3064.95 80.46 9.00 306.66 2579.09
   08:56:05.540.29-Jan-2021 4683.51 3064.96 80.46 9.00 306.86 2579.09
   08:56:05.740.29-Jan-2021 4683.51 3064.97 80.46 9.00 307.06 2579.09
   08:56:05.940.29-Jan-2021 4683.51 3064.97 80.46 9.00 307.26 2579.09
   08:56:06.140.29-Jan-2021 4683.51 3064.94 80.46 9.00 307.46 2579.09
   08:56:06.340.29-Jan-2021 4683.51 3064.96 80.46 9.00 307.66 2579.09
   08:56:06.540.29-Jan-2021 4683.51 3064.94 80.46 9.00 307.86 2579.09
   08:56:06.740.29-Jan-2021 4683.51 3064.95 80.46 9.00 308.06 2579.09
   08:56:06.940.29-Jan-2021 4683.51 3064.95 80.46 9.00 308.26 2579.09
   08:56:07.140.29-Jan-2021 4683.51 3064.94 80.46 9.00 308.47 2579.09
   08:56:07.340.29-Jan-2021 4683.51 3064.95 80.45 9.00 308.67 2579.09
   08:56:07.540.29-Jan-2021 4683.51 3064.94 80.45 9.00 308.87 2579.09
   08:56:07.740.29-Jan-2021 4683.51 3064.94 80.45 9.00 309.07 2579.09
   08:56:07.940.29-Jan-2021 4683.51 3064.94 80.45 9.00 309.27 2579.09
   08:56:08.140.29-Jan-2021 4683.51 3064.94 80.45 9.00 309.47 2579.09
   08:56:08.340.29-Jan-2021 4683.51 3064.94 80.45 9.00 309.67 2579.09
   08:56:08.540.29-Jan-2021 4683.51 3064.97 80.45 9.00 309.87 2579.09
   08:56:08.740.29-Jan-2021 4683.51 3064.96 80.45 9.00 310.07 2579.09
   08:56:08.940.29-Jan-2021 4683.51 3064.96 80.45 9.00 310.27 2579.09
   08:56:09.140.29-Jan-2021 4683.51 3064.96 80.45 9.00 310.47 2579.09
   08:56:09.340.29-Jan-2021 4683.51 3064.96 80.45 9.00 310.67 2579.09
   08:56:09.541.29-Jan-2021 4683.51 3064.95 80.45 9.00 310.87 2579.09
   08:56:09.741.29-Jan-2021 4683.51 3064.95 80.45 9.00 311.07 2579.09
   08:56:09.941.29-Jan-2021 4683.51 3064.95 80.45 9.00 311.27 2579.09
   08:56:10.141.29-Jan-2021 4683.51 3064.94 80.45 9.00 311.47 2579.09
   08:56:10.341.29-Jan-2021 4683.51 3064.94 80.45 9.00 311.67 2579.09
   08:56:10.541.29-Jan-2021 4683.51 3064.94 80.45 9.00 311.87 2579.09
   08:56:10.741.29-Jan-2021 4683.51 3064.95 80.44 9.00 312.07 2579.09
   08:56:10.941.29-Jan-2021 4683.51 3064.95 80.44 9.00 312.27 2579.09
   08:56:11.141.29-Jan-2021 4683.51 3064.94 80.44 9.00 312.47 2579.09
   08:56:11.341.29-Jan-2021 4683.51 3064.93 80.44 9.00 312.67 2579.09
   08:56:11.541.29-Jan-2021 4683.51 3064.96 80.44 9.00 312.87 2579.09
   08:56:11.741.29-Jan-2021 4683.51 3064.95 80.44 9.00 313.07 2579.09
   08:56:11.941.29-Jan-2021 4683.51 3064.95 80.44 9.00 313.27 2579.09
   08:56:12.141.29-Jan-2021 4683.51 3064.95 80.44 9.00 313.47 2579.09
   08:56:12.341.29-Jan-2021 4683.51 3064.95 80.44 9.00 313.67 2579.09
   08:56:12.541.29-Jan-2021 4683.51 3064.96 80.44 9.00 313.87 2579.09
   08:56:12.741.29-Jan-2021 4683.51 3064.96 80.44 9.00 314.07 2579.09
   08:56:12.941.29-Jan-2021 4683.51 3064.96 80.44 9.00 314.27 2579.09
   08:56:13.141.29-Jan-2021 4683.51 3064.96 80.44 9.00 314.47 2579.09
   08:56:13.341.29-Jan-2021 4683.51 3064.96 80.44 9.00 314.67 2579.09
   08:56:13.541.29-Jan-2021 4683.51 3064.94 80.44 9.00 314.87 2579.09
   08:56:13.741.29-Jan-2021 4683.51 3064.93 80.44 9.00 315.07 2579.09
   08:56:13.941.29-Jan-2021 4683.51 3064.93 80.44 9.00 315.27 2579.09
   08:56:14.141.29-Jan-2021 4683.51 3064.96 80.44 9.00 315.47 2579.09
   08:56:14.342.29-Jan-2021 4683.51 3064.93 80.43 9.00 315.67 2579.09
   08:56:14.542.29-Jan-2021 4683.51 3064.96 80.43 9.00 315.87 2579.09
   08:56:14.742.29-Jan-2021 4683.51 3064.95 80.43 9.00 316.07 2579.09
   08:56:14.942.29-Jan-2021 4683.51 3064.95 80.43 9.00 316.27 2579.09
   08:56:15.142.29-Jan-2021 4683.51 3064.99 80.43 9.00 316.47 2579.09
   08:56:15.342.29-Jan-2021 4683.51 3064.97 80.43 9.00 316.67 2579.09
   08:56:15.542.29-Jan-2021 4683.51 3064.93 80.43 9.00 316.87 2579.09
   08:56:15.742.29-Jan-2021 4683.51 3064.97 80.43 9.00 317.07 2579.09
   08:56:15.942.29-Jan-2021 4683.51 3064.97 80.43 9.00 317.27 2579.09
   08:56:16.142.29-Jan-2021 4683.51 3064.94 80.43 9.00 317.47 2579.09
   08:56:16.342.29-Jan-2021 4683.51 3064.90 80.43 9.00 317.67 2579.09
   08:56:16.542.29-Jan-2021 4683.51 3064.99 80.43 9.00 317.87 2579.09
   08:56:16.742.29-Jan-2021 4683.51 3064.96 80.43 9.00 318.07 2579.09
   08:56:16.942.29-Jan-2021 4683.51 3064.96 80.43 9.00 318.27 2579.09
   08:56:17.142.29-Jan-2021 4683.51 3064.96 80.43 9.00 318.47 2579.09
   08:56:17.342.29-Jan-2021 4683.51 3064.95 80.43 9.00 318.67 2579.09
   08:56:17.542.29-Jan-2021 4683.51 3064.95 80.43 9.00 318.87 2579.09
   08:56:17.742.29-Jan-2021 4683.51 3064.93 80.42 9.00 319.07 2579.09
   08:56:17.942.29-Jan-2021 4683.51 3064.93 80.42 9.00 319.27 2579.09
   08:56:18.142.29-Jan-2021 4683.51 3064.93 80.42 9.00 319.47 2579.09
   08:56:18.342.29-Jan-2021 4683.51 3064.94 80.42 9.00 319.67 2579.09
   08:56:18.542.29-Jan-2021 4683.51 3064.93 80.42 9.00 319.87 2579.09
   08:56:18.742.29-Jan-2021 4683.51 3064.93 80.42 9.00 320.07 2579.09
   08:56:18.942.29-Jan-2021 4683.51 3064.93 80.42 9.00 320.27 2579.09
   08:56:19.143.29-Jan-2021 4683.51 3064.93 80.42 9.00 320.47 2579.09
   08:56:19.343.29-Jan-2021 4683.51 3064.94 80.42 9.00 320.67 2579.09
   08:56:19.543.29-Jan-2021 4683.51 3064.94 80.42 9.00 320.87 2579.09
   08:56:19.743.29-Jan-2021 4683.51 3064.93 80.42 9.00 321.07 2579.09
   08:56:19.943.29-Jan-2021 4683.51 3064.93 80.42 9.00 321.27 2579.09
   08:56:20.143.29-Jan-2021 4683.51 3064.96 80.42 9.00 321.47 2579.09
   08:56:20.343.29-Jan-2021 4683.51 3064.94 80.42 9.00 321.67 2579.09
   08:56:20.543.29-Jan-2021 4683.51 3064.95 80.42 9.00 321.87 2579.09
