~Version Information
 VERS.                  2.0:   CWLS log ASCII Standard -VERSION 2.0
 WRAP.                   NO:   One line per depth step
~Well Information Block
#MNEM.UNIT     VALUE/NAME     DESCRIPTION
#---------     -----------    ---------------------------
 STRT.S             01:29:12 30-Jan-21: START TIME 01:29:12 30-Jan-21
 STOP.S             01:35:33 30-Jan-21: STOP TIME  01:35:33 30-Jan-21
 STEP.S                   0.00: STEP TIME
 NULL.                 -999.25: NULL VALUE
 DFWT.                        :  DIST FWL TEXT
 DFST.                        :  DIST FSL TEXT
 DMF .             Drill Floor:  DRILL MEAS FROM
 STIM.      00.00.00 25-Sep-20:  START TIME
 DATE.      16.12.48 31-Jan-21:  END TIME
 SPUD.               20-Sep-20:  SPUD DATE
 NREF.                    Grid:  NORTH REFERENCE
 HPTY.       Minimum Curvature:  HOLE POS TYPE
 DMOD.             Drill Model:  DRILL MOD DESC
 SVYD.                  Survey:  SURVEY DESC
 ILTD.               Lithology:  INTERP LTH DESC
 FTOP.          Formation Tops:  FORM TOPS DESC
 RIG .              East Azeri:  RIG NAME
 PDAT.          Mean Sea Level:  PERMANENT DATUM
 FLD .                     ACG:  FIELD NAME
 SON .        AZ-XX-0906591820:  JOB NUMBER
 CTRY.              Azerbaijan:  COUNTRY NAME
 WELL.                     D37:  WELL NAME
 SRVC.     Turan Drilling & Engineering:  CONTRACTOR
 COMP.     BP Exploration (Caspian Sea) ltd.:  COMPANY
 WTYP.                Deviated:  WELL TYPE
 MDS .        Operator Entered:  MAG DATA SOURCE
 UWI .                     N/A:  UNIQUE WELL IDENTIFIER
 API .                     N/A:  API NUMBER
 BASE.              Azerbaijan:  LOGGING EQUIPMENT BASE LOCATION
 REGN.                   EESSA:  REGION
 PROV.                    Baku:  PROVINCE
 STAT.                    Baku:  STATE NAME
 MWDS.                    Baku:  MWD SHOP
 JOBN.        AZ-XX-0906591820:  JOB TICKET NUMB
 DOE .                     N/A:  DOE NUMBER
 DCON.         Sperry Drilling:  DIRECTNL CONTR
 UNIT.                     N/A:  LOGGING EQUIPMENT ID
 CNTY.                        :  COUNTY
 LOC .                        :  LOCATION
 LMF .             Drill Floor:  LOG MEASURED FROM
 TVDS.m                  43.60:  TVDSS CORRECTN
 LATI.deg                40.02:  LATITUDE
 LONG.deg                51.45:  LONGITUDE
 WHNS.m                  11.04:  WELL HEAD N/S
 WHEW.m                 -12.38:  WELL HEAD E/W
 UTMX.m              538763.98:  UTM X
 UTMY.m             4431880.20:  UTM Y
 DFWL.m                   0.00:  DISTANCE FWL
 DFSL.m                   0.00:  DISTANCE FSL
 SDEP.m                 300.00:  START DEPTH
 TDD .m                4900.01:  TOTAL DEPTH (DRILLER)
 VSDR.deg               185.64:  VERT SEC DIRECT
 GVFD.g                   1.00:  GRAVITY FIELD
 MFLD.nT              50301.00:  MAGNETIC FIELD
 MDIP.deg                59.46:  MAGNETIC DIP
 MDEC.deg                 6.43:  MAGNETIC DECL
 GRDC.deg                 0.29:  GRID CORRECTION
 AZTC.deg                 6.14:  AZM TOTAL CORR
 EPD .m                   0.00:  ELEVATION
 EGL .m                   0.00:  GROUND ELEVATION
 WDMS.m                 151.80:  WD ELEV
 APD .m                  43.60:  DEPTH ABOVE PD
 DEP .m                 571.69:  DEPTH
 AGAP.m                  43.60:  AIR GAP
 VSEW.m                 -12.38:  VERT SEC E/W
 VSNS.m                  11.04:  VERT SEC N/S
 EKB .m                  43.60:  KB ELEVATION
 EDF .m                  43.60:  DF ELEVATION
 TDL .m                 412.00:  TOTAL DEPTH (LOGGER)
 VSC .                       0:  VS TO CLOSURE
 MAGU.                 1849300:  MAGUTM CHECKSUM
~Parameter Information Block
#MNEM.UNIT       Value        Description
#---------     -----------    ---------------------------
 AV  .mps                 2.21:  Ann Velocity 
 AVMX.mps                 2.53:  Max Ann Veloc 
 AZIF.deg               144.83:  Azm, Final 
 BHAT.        Rotary Steerable:  BHA Type 
 BROT.°/30m              -0.52:  Build Rotating 
 BS  .in                  6.50:  Bit Size 
 BTPL.psig              209.00:  Bit Press Loss 
 CABU.                      No:  Customer Abuse 
 CGEO.        Ali Isfandiyarov:  Customer Geo 
 COMM.                     5j:  Run Comments 1 
 TCS .hr                 61.31:  Time Ciculation Ended 
 CV  .mps                 4.66:  Crit Velocity 
 CVMX.mps                 5.02:  Max Crit Veloc 
 DD1 .          Fariz Nahmatov:  Direct Drillr 1 
 DD2 .            Musa Ahmadov:  Direct Drillr 2 
 DDSV.               Geo-Pilot:  DD Service 
 DEFF.%                 100.00:  % Det Eff 
 DLRX.°/30m               1.44:  Dogleg Rot Max 
 DLSO.°/30m               0.83:  Dogleg Oriented 
 DLSX.°/30m               1.44:  Dogleg Str Max 
 DRET.      08.30.00 30-Jan-21:  Drill End Time 
 DRST.      21.15.00 27-Jan-21:  Drill Start Tim 
 DTIM.hr                 37.28:  Time Drilling 
 EDEP.m                4867.01:  End Depth 
 ENG1.          Rasim Hashimov:  Engineer 1 
 ENG2.         Almaz Almadatov:  Engineer 2 
 ENG3.        Tamerlan Ahmadov:  Engineer 3 
 ETIM.      22.41.04 31-Jan-21:  End Time 
 FLOI.gpm               400.00:  Flow In 
 FLON.gpm               300.00:  Flow In Min 
 FLOS.cptm                0.00:  Fluid Loss 
 FLOX.gpm               400.00:  Flow In Max 
 HFLO.                      No:  High Flow 
 HPRE.                      No:  High Pressure 
 HTEM.                      No:  High Temp 
 HYDO.m                   1.80:  Hydro Offset 
 IFIN.deg                65.63:  Inc, Final 
 IMAX.deg                66.77:  Inc Max 
 IMIN.deg                65.61:  Inc Min 
 IMND.m                4612.67:  Inc Min Depth 
 IMXD.m                4811.63:  Inc Max Depth 
 JARR.                      No:  Jarring 
 LETM.      08.30.00 30-Jan-21:  Log End Time 
 LOST.hr                     0:  Lost Rig Time 
 LSTM.      21.15.00 27-Jan-21:  Log Start Time 
 MDCL.ppm             41000.00:  Mud Chlorides 
 MDES.     Inversion Oil/Synthetic:  Mud Desc 
 DFD .sg                  1.40:  Mud Density 
 MDMN.sg                  1.40:  Dens Mud Min 
 MDMX.sg                  1.40:  Dens Mud Max 
 MOIL.                      53:  Run Mud Oil % 
 MOWR.                   66:34:  Run Mud OWR 
 MSND.                     0.2:  Run Mud Sand % 
 MSOL.                    17.9:  Run Mud Solids% 
 DFV .spqt               77.00:  Mud Viscosity 
 MWOD.in                  4.75:  MWD Tool OD 
 MWSI.                      No:  Serv Intrp, MWD 
 OTIM.hr                110.38:  Time Operating 
 PCON.           Look Like New:  Pad Condition 
 PMAX.psia             5300.00:  Press Op, Max 
 PV  .cP                 57.00:  Mud PV 
 RUN .                    1200:  Run Number 
 ROPA.m/hr               13.00:  ROP Avg 
 ROPN.m/hr                9.00:  ROP Min 
 ROPX.m/hr               15.00:  ROP Max 
 RPMA.rpm               120.00:  RPM Surface Avg 
 RPMN.rpm               100.00:  RPM Surface Min 
 RPMX.rpm               135.00:  RPM Surface Max 
 RRUN.                    1200:  Rig Run Number 
 RTIM.hr                  2.65:  Time Reaming 
 SAZI.deg               145.04:  Azm, Start 
 SDEP.m                4455.01:  Start Depth 
 SIDD.                      No:  Serv Intrp, DD 
 SINC.deg                65.83:  Inc, Start 
 SPPA.psig             5037.00:  SPP Avg 
 SPPN.psig             4430.00:  SPP Min 
 SPPX.psig             5300.00:  SPP Max 
 STIM.      22.41.04 26-Jan-21:  Start Time 
 SVCS.                 DD, MWD:  Services 
 SVER.                    9.20:  Sperry Version 
 TDAT.m                 412.00:  Tot Depth Attmp 
 TDDF.                      No:  Trip for DD 
 TDLG.m                 412.00:  Tot Depth Loggd 
 TFF .                      No:  Trip for Fail 
 TQAA.f-kp               15.00:  Torque Abs Avg 
 TQAN.f-kp               12.00:  Torque Abs Min 
 TQAX.f-kp               17.00:  Torque Abs Max 
 TRRT.°/30m               1.18:  Turn Rotating 
 MRT .                     ADR:  Maximum Recorded Temperature 
 TTMX.degC               88.24:  Max Tool Temp 
 VS01.                90619458:  Virtual Str1 SN 
 VS02.                90519326:  Virtual Str2 SN 
 VS03.                90522176:  Virtual Str3 SN 
 VS04.                90512683:  Virtual Str4 SN 
 WBMN.klb                 1.00:  WOB Min 
 WITN.           Murad Giluyev:  Customer Rep 
 WITN.     Kamran Kemberlinski:  Customer Rep 2 
 WOBA.klb                 5.00:  WOB Avg 
 WOBX.klb                 9.00:  WOB Max 
 YP  .lhf2               41.00:  Yield Point 
~Curve Information Block
#MNEM.UNIT                 API CODE     Curve Description
#---------               -----------    ---------------------------
 TIME.HHMMSS            00 000 000 000:  GT Time & Date
 GTDEPTH.m              00 000 000 000:  GT Depth
 GTPQH.psia             00 000 000 000:  GT HR Quartz Pressure
 GTTQ.degC              00 000 000 000:  GT Quartz Temperature
 GTTN.NONE              00 000 000 000:  GT Test Number
 GTET.sec               00 000 000 000:  GT Elapsed Test Time
 GTTVD.m                00 000 000 000:  GT True Vertical Depth
#Other Information
#
#WARRANTY: Halliburton will use its best efforts to furnish customers with 
#accurate information and interpretations that are part of, and incident to, the services 
#provided.  However, Halliburton cannot and does not warrant the accuracy 
#or correctness of such information and interpretations.  Under no circumstances should any 
#such information or interpretation be relied upon as the sole basis for any drilling, 
#completion, production, or financial decision or any procedure involving any risk to the 
#safety of any drilling venture, drilling rig or its crew or any other third party.  The 
#Customer has full responsibility for all drilling, completion and production operation.  
#Halliburton makes no representations or warranties, either expressed or 
#implied, including, but not limited to, the implied warranties of merchantability or fitness 
#for a particular purpose, with respect to the services rendered.  In no event will 
#Halliburton be liable for failure to obtain any particular results or for 
#any damages, including, but not limited to, indirect, special or consequential damages, 
#resulting from the use of any information or interpretation provided by Halliburton.
#
~A           TIME           GTDEPTH  GTPQH  GTTQ  GTTN   GTET   GTTVD  
   01:29:12.637.30-Jan-2021 4789.01 5723.52 82.50 15.00   0.00 2621.19
   01:29:12.837.30-Jan-2021 4789.01 5723.52 82.50 15.00   0.20 2621.19
   01:29:13.037.30-Jan-2021 4789.01 5721.59 82.50 15.00   0.40 2621.19
   01:29:13.238.30-Jan-2021 4789.01 5722.03 82.50 15.00   0.60 2621.19
   01:29:13.438.30-Jan-2021 4789.01 5722.09 82.50 15.00   0.80 2621.19
   01:29:13.638.30-Jan-2021 4789.01 5716.04 82.50 15.00   1.00 2621.19
   01:29:13.838.30-Jan-2021 4789.01 5716.04 82.50 15.00   1.20 2621.19
   01:29:14.038.30-Jan-2021 4789.01 5721.57 82.49 15.00   1.40 2621.19
   01:29:14.238.30-Jan-2021 4789.01 5723.30 82.49 15.00   1.60 2621.19
   01:29:14.438.30-Jan-2021 4789.01 5717.85 82.49 15.00   1.80 2621.19
   01:29:14.638.30-Jan-2021 4789.01 5722.94 82.49 15.00   2.00 2621.19
   01:29:14.838.30-Jan-2021 4789.01 5722.94 82.49 15.00   2.20 2621.19
   01:29:15.038.30-Jan-2021 4789.01 5725.39 82.49 15.00   2.40 2621.19
   01:29:15.238.30-Jan-2021 4789.01 5722.14 82.49 15.00   2.60 2621.19
   01:29:15.438.30-Jan-2021 4789.01 5717.59 82.49 15.00   2.80 2621.19
   01:29:15.638.30-Jan-2021 4789.01 5725.62 82.49 15.00   3.00 2621.19
   01:29:15.838.30-Jan-2021 4789.01 5725.62 82.49 15.00   3.20 2621.19
   01:29:16.038.30-Jan-2021 4789.01 5724.10 82.49 15.00   3.40 2621.19
   01:29:16.238.30-Jan-2021 4789.01 5723.59 82.49 15.00   3.60 2621.19
   01:29:16.438.30-Jan-2021 4789.01 5723.07 82.49 15.00   3.80 2621.19
   01:29:16.638.30-Jan-2021 4789.01 5724.21 82.49 15.00   4.00 2621.19
   01:29:16.838.30-Jan-2021 4789.01 5724.21 82.49 15.00   4.20 2621.19
   01:29:17.038.30-Jan-2021 4789.01 5725.40 82.48 15.00   4.40 2621.19
   01:29:17.238.30-Jan-2021 4789.01 5724.06 82.48 15.00   4.60 2621.19
   01:29:17.438.30-Jan-2021 4789.01 5724.30 82.48 15.00   4.80 2621.19
   01:29:17.638.30-Jan-2021 4789.01 5725.83 82.48 15.00   5.00 2621.19
   01:29:17.838.30-Jan-2021 4789.01 5725.83 82.48 15.00   5.20 2621.19
   01:29:18.038.30-Jan-2021 4789.01 5725.91 82.48 15.00   5.40 2621.19
   01:29:18.238.30-Jan-2021 4789.01 5724.13 82.48 15.00   5.60 2621.19
   01:29:18.439.30-Jan-2021 4789.01 5725.71 82.48 15.00   5.80 2621.19
   01:29:18.639.30-Jan-2021 4789.01 5724.88 82.48 15.00   6.00 2621.19
   01:29:18.839.30-Jan-2021 4789.01 5724.88 82.48 15.00   6.20 2621.19
   01:29:19.039.30-Jan-2021 4789.01 5718.48 82.48 15.00   6.40 2621.19
   01:29:19.239.30-Jan-2021 4789.01 5726.55 82.48 15.00   6.60 2621.19
   01:29:19.439.30-Jan-2021 4789.01 5726.02 82.48 15.00   6.80 2621.19
   01:29:19.639.30-Jan-2021 4789.01 5726.48 82.48 15.00   7.00 2621.19
   01:29:19.839.30-Jan-2021 4789.01 5726.48 82.48 15.00   7.20 2621.19
   01:29:20.039.30-Jan-2021 4789.01 5726.48 82.48 15.00   7.40 2621.19
   01:29:20.239.30-Jan-2021 4789.01 5725.55 82.47 15.00   7.60 2621.19
   01:29:20.439.30-Jan-2021 4789.01 5727.02 82.47 15.00   7.80 2621.19
   01:29:20.639.30-Jan-2021 4789.01 5726.26 82.47 15.00   8.00 2621.19
   01:29:20.839.30-Jan-2021 4789.01 5726.26 82.47 15.00   8.20 2621.19
   01:29:21.039.30-Jan-2021 4789.01 5725.99 82.47 15.00   8.40 2621.19
   01:29:21.239.30-Jan-2021 4789.01 5725.16 82.47 15.00   8.60 2621.19
   01:29:21.439.30-Jan-2021 4789.01 5726.39 82.47 15.00   8.80 2621.19
   01:29:21.639.30-Jan-2021 4789.01 5724.34 82.47 15.00   9.00 2621.19
   01:29:21.839.30-Jan-2021 4789.01 5724.34 82.47 15.00   9.20 2621.19
   01:29:22.039.30-Jan-2021 4789.01 5723.95 82.47 15.00   9.40 2621.19
   01:29:22.239.30-Jan-2021 4789.01 5726.08 82.47 15.00   9.60 2621.19
   01:29:22.439.30-Jan-2021 4789.01 5724.39 82.47 15.00   9.80 2621.19
   01:29:22.639.30-Jan-2021 4789.01 5725.00 82.47 15.00  10.00 2621.19
   01:29:22.839.30-Jan-2021 4789.01 5725.00 82.47 15.00  10.20 2621.19
   01:29:23.039.30-Jan-2021 4789.01 5725.09 82.46 15.00  10.40 2621.19
   01:29:23.239.30-Jan-2021 4789.01 5725.81 82.46 15.00  10.60 2621.19
   01:29:23.439.30-Jan-2021 4789.01 5726.52 82.46 15.00  10.80 2621.19
   01:29:23.640.30-Jan-2021 4789.01 5722.29 82.46 15.00  11.00 2621.19
   01:29:23.840.30-Jan-2021 4789.01 5722.29 82.46 15.00  11.20 2621.19
   01:29:24.040.30-Jan-2021 4789.01 5727.68 82.46 15.00  11.40 2621.19
   01:29:24.240.30-Jan-2021 4789.01 5728.29 82.46 15.00  11.60 2621.19
   01:29:24.440.30-Jan-2021 4789.01 5726.65 82.46 15.00  11.80 2621.19
   01:29:24.640.30-Jan-2021 4789.01 5715.00 82.46 15.00  12.00 2621.19
   01:29:24.840.30-Jan-2021 4789.01 5715.00 82.46 15.00  12.20 2621.19
   01:29:25.040.30-Jan-2021 4789.01 5726.66 82.46 15.00  12.40 2621.19
   01:29:25.240.30-Jan-2021 4789.01 5728.18 82.46 15.00  12.60 2621.19
   01:29:25.440.30-Jan-2021 4789.01 5719.08 82.46 15.00  12.80 2621.19
   01:29:25.640.30-Jan-2021 4789.01 5724.78 82.46 15.00  13.00 2621.19
   01:29:25.840.30-Jan-2021 4789.01 5724.78 82.46 15.00  13.20 2621.19
   01:29:26.040.30-Jan-2021 4789.01 5725.93 82.46 15.00  13.40 2621.19
   01:29:26.240.30-Jan-2021 4789.01 5722.05 82.45 15.00  13.60 2621.19
   01:29:26.440.30-Jan-2021 4789.01 5725.86 82.45 15.00  13.80 2621.19
   01:29:26.640.30-Jan-2021 4789.01 5726.06 82.45 15.00  14.00 2621.19
   01:29:26.840.30-Jan-2021 4789.01 5726.06 82.45 15.00  14.20 2621.19
   01:29:27.040.30-Jan-2021 4789.01 5724.21 82.45 15.00  14.40 2621.19
   01:29:27.240.30-Jan-2021 4789.01 5721.63 82.45 15.00  14.60 2621.19
   01:29:27.440.30-Jan-2021 4789.01 5727.36 82.45 15.00  14.80 2621.19
   01:29:27.640.30-Jan-2021 4789.01 5728.23 82.45 15.00  15.00 2621.19
   01:29:27.840.30-Jan-2021 4789.01 5728.23 82.45 15.00  15.20 2621.19
   01:29:28.040.30-Jan-2021 4789.01 5723.11 82.45 15.00  15.40 2621.19
   01:29:28.240.30-Jan-2021 4789.01 5727.80 82.45 15.00  15.60 2621.19
   01:29:28.440.30-Jan-2021 4789.01 5727.06 82.45 15.00  15.80 2621.19
   01:29:28.640.30-Jan-2021 4789.01 5729.55 82.45 15.00  16.00 2621.19
   01:29:28.841.30-Jan-2021 4789.01 5729.55 82.45 15.00  16.20 2621.19
   01:29:29.041.30-Jan-2021 4789.01 5727.63 82.45 15.00  16.40 2621.19
   01:29:29.241.30-Jan-2021 4789.01 5727.44 82.44 15.00  16.60 2621.19
   01:29:29.441.30-Jan-2021 4789.01 5766.54 82.44 15.00  16.80 2621.19
   01:29:29.641.30-Jan-2021 4789.01 5887.05 82.44 15.00  17.00 2621.19
   01:29:29.841.30-Jan-2021 4789.01 5887.05 82.44 15.00  17.20 2621.19
   01:29:30.041.30-Jan-2021 4789.01 6043.02 82.44 15.00  17.40 2621.19
   01:29:30.241.30-Jan-2021 4789.01 6118.82 82.44 15.00  17.60 2621.19
   01:29:30.441.30-Jan-2021 4789.01 6192.28 82.44 15.00  17.80 2621.19
   01:29:30.641.30-Jan-2021 4789.01 6251.60 82.44 15.00  18.00 2621.19
   01:29:30.841.30-Jan-2021 4789.01 6251.60 82.44 15.00  18.20 2621.19
   01:29:31.041.30-Jan-2021 4789.01 6309.30 82.44 15.00  18.40 2621.19
   01:29:31.241.30-Jan-2021 4789.01 6301.88 82.44 15.00  18.60 2621.19
   01:29:31.441.30-Jan-2021 4789.01 6244.41 82.44 15.00  18.80 2621.19
   01:29:31.641.30-Jan-2021 4789.01 6256.38 82.44 15.00  19.00 2621.19
   01:29:31.841.30-Jan-2021 4789.01 6256.38 82.44 15.00  19.20 2621.19
   01:29:32.041.30-Jan-2021 4789.01 5734.35 82.44 15.00  19.40 2621.19
   01:29:32.241.30-Jan-2021 4789.01 5759.20 82.44 15.00  19.60 2621.19
   01:29:32.441.30-Jan-2021 4789.01 5793.76 82.43 15.00  19.80 2621.19
   01:29:32.641.30-Jan-2021 4789.01 5837.41 82.43 15.00  20.00 2621.19
   01:29:32.841.30-Jan-2021 4789.01 5837.41 82.43 15.00  20.20 2621.19
   01:29:33.041.30-Jan-2021 4789.01 6104.11 82.43 15.00  20.40 2621.19
   01:29:33.241.30-Jan-2021 4789.01 6014.92 82.43 15.00  20.60 2621.19
   01:29:33.441.30-Jan-2021 4789.01 6185.25 82.43 15.00  20.80 2621.19
   01:29:33.641.30-Jan-2021 4789.01 6148.74 82.43 15.00  21.00 2621.19
   01:29:33.841.30-Jan-2021 4789.01 6148.74 82.43 15.00  21.20 2621.19
   01:29:34.042.30-Jan-2021 4789.01 6148.63 82.43 15.00  21.40 2621.19
   01:29:34.242.30-Jan-2021 4789.01 6130.92 82.43 15.00  21.60 2621.19
   01:29:34.442.30-Jan-2021 4789.01 6117.69 82.43 15.00  21.80 2621.19
   01:29:34.642.30-Jan-2021 4789.01 6103.26 82.43 15.00  22.00 2621.19
   01:29:34.842.30-Jan-2021 4789.01 6103.26 82.43 15.00  22.20 2621.19
   01:29:35.042.30-Jan-2021 4789.01 6087.75 82.43 15.00  22.40 2621.19
