~Version Information
 VERS.                  2.0:   CWLS log ASCII Standard -VERSION 2.0
 WRAP.                   NO:   One line per depth step
~Well Information Block
#MNEM.UNIT     VALUE/NAME     DESCRIPTION
#---------     -----------    ---------------------------
 STRT.S             02:56:18 28-Jan-21: START TIME 02:56:18 28-Jan-21
 STOP.S             03:02:54 28-Jan-21: STOP TIME  03:02:54 28-Jan-21
 STEP.S                   0.00: STEP TIME
 NULL.                 -999.25: NULL VALUE
 DFWT.                        :  DIST FWL TEXT
 DFST.                        :  DIST FSL TEXT
 DMF .             Drill Floor:  DRILL MEAS FROM
 STIM.      00.00.00 25-Sep-20:  START TIME
 DATE.      16.12.48 31-Jan-21:  END TIME
 SPUD.               20-Sep-20:  SPUD DATE
 NREF.                    Grid:  NORTH REFERENCE
 HPTY.       Minimum Curvature:  HOLE POS TYPE
 DMOD.             Drill Model:  DRILL MOD DESC
 SVYD.                  Survey:  SURVEY DESC
 ILTD.               Lithology:  INTERP LTH DESC
 FTOP.          Formation Tops:  FORM TOPS DESC
 RIG .              East Azeri:  RIG NAME
 PDAT.          Mean Sea Level:  PERMANENT DATUM
 FLD .                     ACG:  FIELD NAME
 SON .        AZ-XX-0906591820:  JOB NUMBER
 CTRY.              Azerbaijan:  COUNTRY NAME
 WELL.                     D37:  WELL NAME
 SRVC.     Turan Drilling & Engineering:  CONTRACTOR
 COMP.     BP Exploration (Caspian Sea) ltd.:  COMPANY
 WTYP.                Deviated:  WELL TYPE
 MDS .        Operator Entered:  MAG DATA SOURCE
 UWI .                     N/A:  UNIQUE WELL IDENTIFIER
 API .                     N/A:  API NUMBER
 BASE.              Azerbaijan:  LOGGING EQUIPMENT BASE LOCATION
 REGN.                   EESSA:  REGION
 PROV.                    Baku:  PROVINCE
 STAT.                    Baku:  STATE NAME
 MWDS.                    Baku:  MWD SHOP
 JOBN.        AZ-XX-0906591820:  JOB TICKET NUMB
 DOE .                     N/A:  DOE NUMBER
 DCON.         Sperry Drilling:  DIRECTNL CONTR
 UNIT.                     N/A:  LOGGING EQUIPMENT ID
 CNTY.                        :  COUNTY
 LOC .                        :  LOCATION
 LMF .             Drill Floor:  LOG MEASURED FROM
 TVDS.m                  43.60:  TVDSS CORRECTN
 LATI.deg                40.02:  LATITUDE
 LONG.deg                51.45:  LONGITUDE
 WHNS.m                  11.04:  WELL HEAD N/S
 WHEW.m                 -12.38:  WELL HEAD E/W
 UTMX.m              538763.98:  UTM X
 UTMY.m             4431880.20:  UTM Y
 DFWL.m                   0.00:  DISTANCE FWL
 DFSL.m                   0.00:  DISTANCE FSL
 SDEP.m                 300.00:  START DEPTH
 TDD .m                4900.01:  TOTAL DEPTH (DRILLER)
 VSDR.deg               185.64:  VERT SEC DIRECT
 GVFD.g                   1.00:  GRAVITY FIELD
 MFLD.nT              50301.00:  MAGNETIC FIELD
 MDIP.deg                59.46:  MAGNETIC DIP
 MDEC.deg                 6.43:  MAGNETIC DECL
 GRDC.deg                 0.29:  GRID CORRECTION
 AZTC.deg                 6.14:  AZM TOTAL CORR
 EPD .m                   0.00:  ELEVATION
 EGL .m                   0.00:  GROUND ELEVATION
 WDMS.m                 151.80:  WD ELEV
 APD .m                  43.60:  DEPTH ABOVE PD
 DEP .m                 571.69:  DEPTH
 AGAP.m                  43.60:  AIR GAP
 VSEW.m                 -12.38:  VERT SEC E/W
 VSNS.m                  11.04:  VERT SEC N/S
 EKB .m                  43.60:  KB ELEVATION
 EDF .m                  43.60:  DF ELEVATION
 TDL .m                 412.00:  TOTAL DEPTH (LOGGER)
 VSC .                       0:  VS TO CLOSURE
 MAGU.                 1849300:  MAGUTM CHECKSUM
~Parameter Information Block
#MNEM.UNIT       Value        Description
#---------     -----------    ---------------------------
 AV  .mps                 2.21:  Ann Velocity 
 AVMX.mps                 2.53:  Max Ann Veloc 
 AZIF.deg               144.83:  Azm, Final 
 BHAT.        Rotary Steerable:  BHA Type 
 BROT.°/30m              -0.52:  Build Rotating 
 BS  .in                  6.50:  Bit Size 
 BTPL.psig              209.00:  Bit Press Loss 
 CABU.                      No:  Customer Abuse 
 CGEO.        Ali Isfandiyarov:  Customer Geo 
 COMM.                     ì¡€:  Run Comments 1 
 TCS .hr                 61.31:  Time Ciculation Ended 
 CV  .mps                 4.66:  Crit Velocity 
 CVMX.mps                 5.02:  Max Crit Veloc 
 DD1 .          Fariz Nahmatov:  Direct Drillr 1 
 DD2 .            Musa Ahmadov:  Direct Drillr 2 
 DDSV.               Geo-Pilot:  DD Service 
 DEFF.%                 100.00:  % Det Eff 
 DLRX.°/30m               1.44:  Dogleg Rot Max 
 DLSO.°/30m               0.83:  Dogleg Oriented 
 DLSX.°/30m               1.44:  Dogleg Str Max 
 DRET.      08.30.00 30-Jan-21:  Drill End Time 
 DRST.      21.15.00 27-Jan-21:  Drill Start Tim 
 DTIM.hr                 37.28:  Time Drilling 
 EDEP.m                4867.01:  End Depth 
 ENG1.          Rasim Hashimov:  Engineer 1 
 ENG2.         Almaz Almadatov:  Engineer 2 
 ENG3.        Tamerlan Ahmadov:  Engineer 3 
 ETIM.      22.41.04 31-Jan-21:  End Time 
 FLOI.gpm               400.00:  Flow In 
 FLON.gpm               300.00:  Flow In Min 
 FLOS.cptm                0.00:  Fluid Loss 
 FLOX.gpm               400.00:  Flow In Max 
 HFLO.                      No:  High Flow 
 HPRE.                      No:  High Pressure 
 HTEM.                      No:  High Temp 
 HYDO.m                   1.80:  Hydro Offset 
 IFIN.deg                65.63:  Inc, Final 
 IMAX.deg                66.77:  Inc Max 
 IMIN.deg                65.61:  Inc Min 
 IMND.m                4612.67:  Inc Min Depth 
 IMXD.m                4811.63:  Inc Max Depth 
 JARR.                      No:  Jarring 
 LETM.      08.30.00 30-Jan-21:  Log End Time 
 LOST.hr                     0:  Lost Rig Time 
 LSTM.      21.15.00 27-Jan-21:  Log Start Time 
 MDCL.ppm             41000.00:  Mud Chlorides 
 MDES.     Inversion Oil/Synthetic:  Mud Desc 
 DFD .sg                  1.40:  Mud Density 
 MDMN.sg                  1.40:  Dens Mud Min 
 MDMX.sg                  1.40:  Dens Mud Max 
 MOIL.                      53:  Run Mud Oil % 
 MOWR.                   66:34:  Run Mud OWR 
 MSND.                     0.2:  Run Mud Sand % 
 MSOL.                    17.9:  Run Mud Solids% 
 DFV .spqt               77.00:  Mud Viscosity 
 MWOD.in                  4.75:  MWD Tool OD 
 MWSI.                      No:  Serv Intrp, MWD 
 OTIM.hr                110.38:  Time Operating 
 PCON.           Look Like New:  Pad Condition 
 PMAX.psia             5300.00:  Press Op, Max 
 PV  .cP                 57.00:  Mud PV 
 RUN .                    1200:  Run Number 
 ROPA.m/hr               13.00:  ROP Avg 
 ROPN.m/hr                9.00:  ROP Min 
 ROPX.m/hr               15.00:  ROP Max 
 RPMA.rpm               120.00:  RPM Surface Avg 
 RPMN.rpm               100.00:  RPM Surface Min 
 RPMX.rpm               135.00:  RPM Surface Max 
 RRUN.                    1200:  Rig Run Number 
 RTIM.hr                  2.65:  Time Reaming 
 SAZI.deg               145.04:  Azm, Start 
 SDEP.m                4455.01:  Start Depth 
 SIDD.                      No:  Serv Intrp, DD 
 SINC.deg                65.83:  Inc, Start 
 SPPA.psig             5037.00:  SPP Avg 
 SPPN.psig             4430.00:  SPP Min 
 SPPX.psig             5300.00:  SPP Max 
 STIM.      22.41.04 26-Jan-21:  Start Time 
 SVCS.                 DD, MWD:  Services 
 SVER.                    9.20:  Sperry Version 
 TDAT.m                 412.00:  Tot Depth Attmp 
 TDDF.                      No:  Trip for DD 
 TDLG.m                 412.00:  Tot Depth Loggd 
 TFF .                      No:  Trip for Fail 
 TQAA.f-kp               15.00:  Torque Abs Avg 
 TQAN.f-kp               12.00:  Torque Abs Min 
 TQAX.f-kp               17.00:  Torque Abs Max 
 TRRT.°/30m               1.18:  Turn Rotating 
 MRT .                     ADR:  Maximum Recorded Temperature 
 TTMX.degC               88.24:  Max Tool Temp 
 VS01.                90619458:  Virtual Str1 SN 
 VS02.                90519326:  Virtual Str2 SN 
 VS03.                90522176:  Virtual Str3 SN 
 VS04.                90512683:  Virtual Str4 SN 
 WBMN.klb                 1.00:  WOB Min 
 WITN.           Murad Giluyev:  Customer Rep 
 WITN.     Kamran Kemberlinski:  Customer Rep 2 
 WOBA.klb                 5.00:  WOB Avg 
 WOBX.klb                 9.00:  WOB Max 
 YP  .lhf2               41.00:  Yield Point 
~Curve Information Block
#MNEM.UNIT                 API CODE     Curve Description
#---------               -----------    ---------------------------
 TIME.HHMMSS            00 000 000 000:  GT Time & Date
 GTDEPTH.m              00 000 000 000:  GT Depth
 GTPQH.psia             00 000 000 000:  GT HR Quartz Pressure
 GTTQ.degC              00 000 000 000:  GT Quartz Temperature
 GTTN.NONE              00 000 000 000:  GT Test Number
 GTET.sec               00 000 000 000:  GT Elapsed Test Time
 GTTVD.m                00 000 000 000:  GT True Vertical Depth
#Other Information
#
#WARRANTY: Halliburton will use its best efforts to furnish customers with 
#accurate information and interpretations that are part of, and incident to, the services 
#provided.  However, Halliburton cannot and does not warrant the accuracy 
#or correctness of such information and interpretations.  Under no circumstances should any 
#such information or interpretation be relied upon as the sole basis for any drilling, 
#completion, production, or financial decision or any procedure involving any risk to the 
#safety of any drilling venture, drilling rig or its crew or any other third party.  The 
#Customer has full responsibility for all drilling, completion and production operation.  
#Halliburton makes no representations or warranties, either expressed or 
#implied, including, but not limited to, the implied warranties of merchantability or fitness 
#for a particular purpose, with respect to the services rendered.  In no event will 
#Halliburton be liable for failure to obtain any particular results or for 
#any damages, including, but not limited to, indirect, special or consequential damages, 
#resulting from the use of any information or interpretation provided by Halliburton.
#
~A           TIME           GTDEPTH  GTPQH  GTTQ  GTTN  GTET   GTTVD  
# ...
   03:00:08.000.28-Jan-2021 4452.31 5408.69 59.21 2.00 230.00 2484.76
   03:00:08.200.28-Jan-2021 4452.31 5408.69 59.21 2.00 230.20 2484.76
   03:00:08.400.28-Jan-2021 4452.31 5405.10 59.21 2.00 230.40 2484.76
   03:00:08.600.28-Jan-2021 4452.31 5403.87 59.21 2.00 230.60 2484.76
   03:00:08.800.28-Jan-2021 4452.31 5408.10 59.21 2.00 230.80 2484.76
   03:00:09.000.28-Jan-2021 4452.31 5407.87 59.21 2.00 231.00 2484.76
   03:00:09.200.28-Jan-2021 4452.31 5407.87 59.21 2.00 231.20 2484.76
   03:00:09.400.28-Jan-2021 4452.31 5405.38 59.21 2.00 231.40 2484.76
   03:00:09.600.28-Jan-2021 4452.31 5395.61 59.21 2.00 231.60 2484.76
   03:00:09.800.28-Jan-2021 4452.31 5405.54 59.21 2.00 231.80 2484.76
   03:00:10.000.28-Jan-2021 4452.31 5405.71 59.21 2.00 232.00 2484.76
   03:00:10.200.28-Jan-2021 4452.31 5405.71 59.21 2.00 232.20 2484.76
   03:00:10.400.28-Jan-2021 4452.31 5407.02 59.21 2.00 232.40 2484.76
   03:00:10.600.28-Jan-2021 4452.31 5405.39 59.21 2.00 232.60 2484.76
   03:00:10.800.28-Jan-2021 4452.31 5405.89 59.21 2.00 232.80 2484.76
   03:00:11.000.28-Jan-2021 4452.31 5405.80 59.21 2.00 233.00 2484.76
   03:00:11.200.28-Jan-2021 4452.31 5405.80 59.21 2.00 233.20 2484.76
   03:00:11.400.28-Jan-2021 4452.31 5406.73 59.21 2.00 233.40 2484.76
   03:00:11.600.28-Jan-2021 4452.31 5406.22 59.21 2.00 233.60 2484.76
   03:00:11.800.28-Jan-2021 4452.31 5405.80 59.21 2.00 233.80 2484.76
   03:00:12.000.28-Jan-2021 4452.31 5406.54 59.21 2.00 234.00 2484.76
   03:00:12.200.28-Jan-2021 4452.31 5406.54 59.21 2.00 234.20 2484.76
   03:00:12.400.28-Jan-2021 4452.31 5405.91 59.21 2.00 234.40 2484.76
   03:00:12.600.28-Jan-2021 4452.31 5405.50 59.21 2.00 234.60 2484.76
   03:00:12.800.28-Jan-2021 4452.31 5405.41 59.21 2.00 234.80 2484.76
   03:00:13.000.28-Jan-2021 4452.31 5398.59 59.21 2.00 235.00 2484.76
   03:00:13.200.28-Jan-2021 4452.31 5398.59 59.21 2.00 235.20 2484.76
   03:00:13.400.28-Jan-2021 4452.31 5405.95 59.21 2.00 235.40 2484.76
   03:00:13.600.28-Jan-2021 4452.31 5407.52 59.21 2.00 235.60 2484.76
   03:00:13.800.28-Jan-2021 4452.31 5407.09 59.21 2.00 235.80 2484.76
   03:00:14.000.28-Jan-2021 4452.31 5406.25 59.21 2.00 236.00 2484.76
   03:00:14.200.28-Jan-2021 4452.31 5406.25 59.21 2.00 236.20 2484.76
   03:00:14.400.28-Jan-2021 4452.31 5405.75 59.21 2.00 236.40 2484.76
   03:00:14.600.28-Jan-2021 4452.31 5406.21 59.21 2.00 236.60 2484.76
   03:00:14.800.28-Jan-2021 4452.31 5405.78 59.21 2.00 236.80 2484.76
   03:00:15.000.28-Jan-2021 4452.31 5406.68 59.21 2.00 237.00 2484.76
   03:00:15.200.28-Jan-2021 4452.31 5406.68 59.21 2.00 237.20 2484.76
   03:00:15.400.28-Jan-2021 4452.31 5406.32 59.21 2.00 237.40 2484.76
   03:00:15.600.28-Jan-2021 4452.31 5406.72 59.21 2.00 237.60 2484.76
   03:00:15.800.28-Jan-2021 4452.31 5405.19 59.21 2.00 237.80 2484.76
   03:00:16.000.28-Jan-2021 4452.31 5406.52 59.21 2.00 238.00 2484.76
   03:00:16.200.28-Jan-2021 4452.31 5406.52 59.21 2.00 238.20 2484.76
   03:00:16.400.28-Jan-2021 4452.31 5404.20 59.21 2.00 238.40 2484.76
   03:00:16.600.28-Jan-2021 4452.31 5400.77 59.21 2.00 238.60 2484.76
   03:00:16.800.28-Jan-2021 4452.31 5405.20 59.21 2.00 238.80 2484.76
   03:00:17.000.28-Jan-2021 4452.31 5407.04 59.21 2.00 239.00 2484.76
   03:00:17.200.28-Jan-2021 4452.31 5407.04 59.21 2.00 239.20 2484.76
   03:00:17.400.28-Jan-2021 4452.31 5398.15 59.21 2.00 239.40 2484.76
   03:00:17.600.28-Jan-2021 4452.31 5406.77 59.21 2.00 239.60 2484.76
   03:00:17.800.28-Jan-2021 4452.31 5406.09 59.21 2.00 239.80 2484.76
   03:00:18.000.28-Jan-2021 4452.31 5409.01 59.21 2.00 240.00 2484.76
   03:00:18.200.28-Jan-2021 4452.31 5409.01 59.21 2.00 240.20 2484.76
   03:00:18.400.28-Jan-2021 4452.31 5405.52 59.21 2.00 240.40 2484.76
   03:00:18.600.28-Jan-2021 4452.31 5406.95 59.21 2.00 240.60 2484.76
   03:00:18.800.28-Jan-2021 4452.31 5408.87 59.21 2.00 240.80 2484.76
   03:00:19.000.28-Jan-2021 4452.31 5407.97 59.21 2.00 241.00 2484.76
   03:00:19.200.28-Jan-2021 4452.31 5407.97 59.21 2.00 241.20 2484.76
   03:00:19.400.28-Jan-2021 4452.31 5404.50 59.21 2.00 241.40 2484.76
   03:00:19.600.28-Jan-2021 4452.31 5404.78 59.21 2.00 241.60 2484.76
   03:00:19.800.28-Jan-2021 4452.31 5408.36 59.21 2.00 241.80 2484.76
   03:00:20.000.28-Jan-2021 4452.31 5407.20 59.21 2.00 242.00 2484.76
   03:00:20.200.28-Jan-2021 4452.31 5407.20 59.21 2.00 242.20 2484.76
   03:00:20.400.28-Jan-2021 4452.31 5396.06 59.21 2.00 242.40 2484.76
   03:00:20.600.28-Jan-2021 4452.31 5405.07 59.21 2.00 242.60 2484.76
   03:00:20.800.28-Jan-2021 4452.31 5405.39 59.21 2.00 242.80 2484.76
   03:00:21.000.28-Jan-2021 4452.31 5408.19 59.21 2.00 243.00 2484.76
   03:00:21.200.28-Jan-2021 4452.31 5408.19 59.21 2.00 243.20 2484.76
   03:00:21.400.28-Jan-2021 4452.31 5405.67 59.21 2.00 243.40 2484.76
   03:00:21.600.28-Jan-2021 4452.31 5406.09 59.21 2.00 243.60 2484.76
   03:00:21.800.28-Jan-2021 4452.31 5405.59 59.21 2.00 243.80 2484.76
   03:00:22.000.28-Jan-2021 4452.31 5405.67 59.21 2.00 244.00 2484.76
   03:00:22.200.28-Jan-2021 4452.31 5405.67 59.21 2.00 244.20 2484.76
   03:00:22.400.28-Jan-2021 4452.31 5405.97 59.21 2.00 244.40 2484.76
   03:00:22.600.28-Jan-2021 4452.31 5406.12 59.21 2.00 244.60 2484.76
   03:00:22.800.28-Jan-2021 4452.31 5406.19 59.21 2.00 244.80 2484.76
   03:00:23.000.28-Jan-2021 4452.31 5405.56 59.21 2.00 245.00 2484.76
   03:00:23.200.28-Jan-2021 4452.31 5405.56 59.21 2.00 245.20 2484.76
   03:00:23.400.28-Jan-2021 4452.31 5405.11 59.21 2.00 245.40 2484.76
   03:00:23.600.28-Jan-2021 4452.31 5405.49 59.21 2.00 245.60 2484.76
   03:00:23.800.28-Jan-2021 4452.31 5403.26 59.21 2.00 245.80 2484.76
   03:00:24.000.28-Jan-2021 4452.31 5396.02 59.21 2.00 246.00 2484.76
   03:00:24.200.28-Jan-2021 4452.31 5396.02 59.21 2.00 246.20 2484.76
   03:00:24.400.28-Jan-2021 4452.31 5403.98 59.21 2.00 246.40 2484.76
   03:00:24.600.28-Jan-2021 4452.31 5405.15 59.21 2.00 246.60 2484.76
   03:00:24.800.28-Jan-2021 4452.31 5403.65 59.21 2.00 246.80 2484.76
   03:00:25.000.28-Jan-2021 4452.31 5402.70 59.21 2.00 247.00 2484.76
   03:00:25.200.28-Jan-2021 4452.31 5402.70 59.21 2.00 247.20 2484.76
   03:00:25.400.28-Jan-2021 4452.31 5403.35 59.21 2.00 247.40 2484.76
   03:00:25.600.28-Jan-2021 4452.31 5403.48 59.21 2.00 247.60 2484.76
   03:00:25.800.28-Jan-2021 4452.31 5404.30 59.21 2.00 247.80 2484.76
   03:00:26.000.28-Jan-2021 4452.31 5403.63 59.21 2.00 248.00 2484.76
   03:00:26.200.28-Jan-2021 4452.31 5403.63 59.21 2.00 248.20 2484.76
   03:00:26.400.28-Jan-2021 4452.31 5404.63 59.21 2.00 248.40 2484.76
   03:00:26.600.28-Jan-2021 4452.31 5403.05 59.21 2.00 248.60 2484.76
   03:00:26.800.28-Jan-2021 4452.31 5403.91 59.21 2.00 248.80 2484.76
   03:00:27.000.28-Jan-2021 4452.31 5403.45 59.21 2.00 249.00 2484.76
   03:00:27.200.28-Jan-2021 4452.31 5403.45 59.21 2.00 249.20 2484.76
   03:00:27.400.28-Jan-2021 4452.31 5396.33 59.21 2.00 249.40 2484.76
   03:00:27.600.28-Jan-2021 4452.31 5403.10 59.21 2.00 249.60 2484.76
   03:00:27.800.28-Jan-2021 4452.31 5403.96 59.21 2.00 249.80 2484.76
   03:00:28.000.28-Jan-2021 4452.31 5405.95 59.21 2.00 250.00 2484.76
   03:00:28.200.28-Jan-2021 4452.31 5405.95 59.21 2.00 250.20 2484.76
   03:00:28.400.28-Jan-2021 4452.31 5404.39 59.21 2.00 250.40 2484.76
   03:00:28.600.28-Jan-2021 4452.31 5403.64 59.21 2.00 250.60 2484.76
   03:00:28.800.28-Jan-2021 4452.31 5407.20 59.21 2.00 250.80 2484.76
   03:00:29.000.28-Jan-2021 4452.31 5396.39 59.21 2.00 251.00 2484.76
   03:00:29.200.28-Jan-2021 4452.31 5396.39 59.21 2.00 251.20 2484.76
   03:00:29.400.28-Jan-2021 4452.31 5404.09 59.21 2.00 251.40 2484.76
   03:00:29.600.28-Jan-2021 4452.31 5405.51 59.21 2.00 251.60 2484.76
   03:00:29.800.28-Jan-2021 4452.31 5407.01 59.21 2.00 251.80 2484.76
   03:00:30.000.28-Jan-2021 4452.31 5396.08 59.21 2.00 252.00 2484.76
   03:00:30.200.28-Jan-2021 4452.31 5396.08 59.21 2.00 252.20 2484.76
   03:00:30.400.28-Jan-2021 4452.31 5402.48 59.21 2.00 252.40 2484.76
   03:00:30.600.28-Jan-2021 4452.31 5405.24 59.21 2.00 252.60 2484.76
   03:00:30.800.28-Jan-2021 4452.31 5405.96 59.21 2.00 252.80 2484.76
