~Version Information
 VERS.                  2.0:   CWLS log ASCII Standard -VERSION 2.0
 WRAP.                   NO:   One line per depth step
~Well Information Block
#MNEM.UNIT     VALUE/NAME     DESCRIPTION
#---------     -----------    ---------------------------
 STRT.S             01:54:12 30-Jan-21: START TIME 01:54:12 30-Jan-21
 STOP.S             02:00:42 30-Jan-21: STOP TIME  02:00:42 30-Jan-21
 STEP.S                   0.00: STEP TIME
 NULL.                 -999.25: NULL VALUE
 DFWT.                        :  DIST FWL TEXT
 DFST.                        :  DIST FSL TEXT
 DMF .             Drill Floor:  DRILL MEAS FROM
 STIM.      00.00.00 25-Sep-20:  START TIME
 DATE.      16.12.48 31-Jan-21:  END TIME
 SPUD.               20-Sep-20:  SPUD DATE
 NREF.                    Grid:  NORTH REFERENCE
 HPTY.       Minimum Curvature:  HOLE POS TYPE
 DMOD.             Drill Model:  DRILL MOD DESC
 SVYD.                  Survey:  SURVEY DESC
 ILTD.               Lithology:  INTERP LTH DESC
 FTOP.          Formation Tops:  FORM TOPS DESC
 RIG .              East Azeri:  RIG NAME
 PDAT.          Mean Sea Level:  PERMANENT DATUM
 FLD .                     ACG:  FIELD NAME
 SON .        AZ-XX-0906591820:  JOB NUMBER
 CTRY.              Azerbaijan:  COUNTRY NAME
 WELL.                     D37:  WELL NAME
 SRVC.     Turan Drilling & Engineering:  CONTRACTOR
 COMP.     BP Exploration (Caspian Sea) ltd.:  COMPANY
 WTYP.                Deviated:  WELL TYPE
 MDS .        Operator Entered:  MAG DATA SOURCE
 UWI .                     N/A:  UNIQUE WELL IDENTIFIER
 API .                     N/A:  API NUMBER
 BASE.              Azerbaijan:  LOGGING EQUIPMENT BASE LOCATION
 REGN.                   EESSA:  REGION
 PROV.                    Baku:  PROVINCE
 STAT.                    Baku:  STATE NAME
 MWDS.                    Baku:  MWD SHOP
 JOBN.        AZ-XX-0906591820:  JOB TICKET NUMB
 DOE .                     N/A:  DOE NUMBER
 DCON.         Sperry Drilling:  DIRECTNL CONTR
 UNIT.                     N/A:  LOGGING EQUIPMENT ID
 CNTY.                        :  COUNTY
 LOC .                        :  LOCATION
 LMF .             Drill Floor:  LOG MEASURED FROM
 TVDS.m                  43.60:  TVDSS CORRECTN
 LATI.deg                40.02:  LATITUDE
 LONG.deg                51.45:  LONGITUDE
 WHNS.m                  11.04:  WELL HEAD N/S
 WHEW.m                 -12.38:  WELL HEAD E/W
 UTMX.m              538763.98:  UTM X
 UTMY.m             4431880.20:  UTM Y
 DFWL.m                   0.00:  DISTANCE FWL
 DFSL.m                   0.00:  DISTANCE FSL
 SDEP.m                 300.00:  START DEPTH
 TDD .m                4900.01:  TOTAL DEPTH (DRILLER)
 VSDR.deg               185.64:  VERT SEC DIRECT
 GVFD.g                   1.00:  GRAVITY FIELD
 MFLD.nT              50301.00:  MAGNETIC FIELD
 MDIP.deg                59.46:  MAGNETIC DIP
 MDEC.deg                 6.43:  MAGNETIC DECL
 GRDC.deg                 0.29:  GRID CORRECTION
 AZTC.deg                 6.14:  AZM TOTAL CORR
 EPD .m                   0.00:  ELEVATION
 EGL .m                   0.00:  GROUND ELEVATION
 WDMS.m                 151.80:  WD ELEV
 APD .m                  43.60:  DEPTH ABOVE PD
 DEP .m                 571.69:  DEPTH
 AGAP.m                  43.60:  AIR GAP
 VSEW.m                 -12.38:  VERT SEC E/W
 VSNS.m                  11.04:  VERT SEC N/S
 EKB .m                  43.60:  KB ELEVATION
 EDF .m                  43.60:  DF ELEVATION
 TDL .m                 412.00:  TOTAL DEPTH (LOGGER)
 VSC .                       0:  VS TO CLOSURE
 MAGU.                 1849300:  MAGUTM CHECKSUM
~Parameter Information Block
#MNEM.UNIT       Value        Description
#---------     -----------    ---------------------------
 AV  .mps                 2.21:  Ann Velocity 
 AVMX.mps                 2.53:  Max Ann Veloc 
 AZIF.deg               144.83:  Azm, Final 
 BHAT.        Rotary Steerable:  BHA Type 
 BROT.°/30m              -0.52:  Build Rotating 
 BS  .in                  6.50:  Bit Size 
 BTPL.psig              209.00:  Bit Press Loss 
 CABU.                      No:  Customer Abuse 
 CGEO.        Ali Isfandiyarov:  Customer Geo 
 COMM.                     d!e:  Run Comments 1 
 TCS .hr                 61.31:  Time Ciculation Ended 
 CV  .mps                 4.66:  Crit Velocity 
 CVMX.mps                 5.02:  Max Crit Veloc 
 DD1 .          Fariz Nahmatov:  Direct Drillr 1 
 DD2 .            Musa Ahmadov:  Direct Drillr 2 
 DDSV.               Geo-Pilot:  DD Service 
 DEFF.%                 100.00:  % Det Eff 
 DLRX.°/30m               1.44:  Dogleg Rot Max 
 DLSO.°/30m               0.83:  Dogleg Oriented 
 DLSX.°/30m               1.44:  Dogleg Str Max 
 DRET.      08.30.00 30-Jan-21:  Drill End Time 
 DRST.      21.15.00 27-Jan-21:  Drill Start Tim 
 DTIM.hr                 37.28:  Time Drilling 
 EDEP.m                4867.01:  End Depth 
 ENG1.          Rasim Hashimov:  Engineer 1 
 ENG2.         Almaz Almadatov:  Engineer 2 
 ENG3.        Tamerlan Ahmadov:  Engineer 3 
 ETIM.      22.41.04 31-Jan-21:  End Time 
 FLOI.gpm               400.00:  Flow In 
 FLON.gpm               300.00:  Flow In Min 
 FLOS.cptm                0.00:  Fluid Loss 
 FLOX.gpm               400.00:  Flow In Max 
 HFLO.                      No:  High Flow 
 HPRE.                      No:  High Pressure 
 HTEM.                      No:  High Temp 
 HYDO.m                   1.80:  Hydro Offset 
 IFIN.deg                65.63:  Inc, Final 
 IMAX.deg                66.77:  Inc Max 
 IMIN.deg                65.61:  Inc Min 
 IMND.m                4612.67:  Inc Min Depth 
 IMXD.m                4811.63:  Inc Max Depth 
 JARR.                      No:  Jarring 
 LETM.      08.30.00 30-Jan-21:  Log End Time 
 LOST.hr                     0:  Lost Rig Time 
 LSTM.      21.15.00 27-Jan-21:  Log Start Time 
 MDCL.ppm             41000.00:  Mud Chlorides 
 MDES.     Inversion Oil/Synthetic:  Mud Desc 
 DFD .sg                  1.40:  Mud Density 
 MDMN.sg                  1.40:  Dens Mud Min 
 MDMX.sg                  1.40:  Dens Mud Max 
 MOIL.                      53:  Run Mud Oil % 
 MOWR.                   66:34:  Run Mud OWR 
 MSND.                     0.2:  Run Mud Sand % 
 MSOL.                    17.9:  Run Mud Solids% 
 DFV .spqt               77.00:  Mud Viscosity 
 MWOD.in                  4.75:  MWD Tool OD 
 MWSI.                      No:  Serv Intrp, MWD 
 OTIM.hr                110.38:  Time Operating 
 PCON.           Look Like New:  Pad Condition 
 PMAX.psia             5300.00:  Press Op, Max 
 PV  .cP                 57.00:  Mud PV 
 RUN .                    1200:  Run Number 
 ROPA.m/hr               13.00:  ROP Avg 
 ROPN.m/hr                9.00:  ROP Min 
 ROPX.m/hr               15.00:  ROP Max 
 RPMA.rpm               120.00:  RPM Surface Avg 
 RPMN.rpm               100.00:  RPM Surface Min 
 RPMX.rpm               135.00:  RPM Surface Max 
 RRUN.                    1200:  Rig Run Number 
 RTIM.hr                  2.65:  Time Reaming 
 SAZI.deg               145.04:  Azm, Start 
 SDEP.m                4455.01:  Start Depth 
 SIDD.                      No:  Serv Intrp, DD 
 SINC.deg                65.83:  Inc, Start 
 SPPA.psig             5037.00:  SPP Avg 
 SPPN.psig             4430.00:  SPP Min 
 SPPX.psig             5300.00:  SPP Max 
 STIM.      22.41.04 26-Jan-21:  Start Time 
 SVCS.                 DD, MWD:  Services 
 SVER.                    9.20:  Sperry Version 
 TDAT.m                 412.00:  Tot Depth Attmp 
 TDDF.                      No:  Trip for DD 
 TDLG.m                 412.00:  Tot Depth Loggd 
 TFF .                      No:  Trip for Fail 
 TQAA.f-kp               15.00:  Torque Abs Avg 
 TQAN.f-kp               12.00:  Torque Abs Min 
 TQAX.f-kp               17.00:  Torque Abs Max 
 TRRT.°/30m               1.18:  Turn Rotating 
 MRT .                     ADR:  Maximum Recorded Temperature 
 TTMX.degC               88.24:  Max Tool Temp 
 VS01.                90619458:  Virtual Str1 SN 
 VS02.                90519326:  Virtual Str2 SN 
 VS03.                90522176:  Virtual Str3 SN 
 VS04.                90512683:  Virtual Str4 SN 
 WBMN.klb                 1.00:  WOB Min 
 WITN.           Murad Giluyev:  Customer Rep 
 WITN.     Kamran Kemberlinski:  Customer Rep 2 
 WOBA.klb                 5.00:  WOB Avg 
 WOBX.klb                 9.00:  WOB Max 
 YP  .lhf2               41.00:  Yield Point 
~Curve Information Block
#MNEM.UNIT                 API CODE     Curve Description
#---------               -----------    ---------------------------
 TIME.HHMMSS            00 000 000 000:  GT Time & Date
 GTDEPTH.m              00 000 000 000:  GT Depth
 GTPQH.psia             00 000 000 000:  GT HR Quartz Pressure
 GTTQ.degC              00 000 000 000:  GT Quartz Temperature
 GTTN.NONE              00 000 000 000:  GT Test Number
 GTET.sec               00 000 000 000:  GT Elapsed Test Time
 GTTVD.m                00 000 000 000:  GT True Vertical Depth
#Other Information
#
#WARRANTY: Halliburton will use its best efforts to furnish customers with 
#accurate information and interpretations that are part of, and incident to, the services 
#provided.  However, Halliburton cannot and does not warrant the accuracy 
#or correctness of such information and interpretations.  Under no circumstances should any 
#such information or interpretation be relied upon as the sole basis for any drilling, 
#completion, production, or financial decision or any procedure involving any risk to the 
#safety of any drilling venture, drilling rig or its crew or any other third party.  The 
#Customer has full responsibility for all drilling, completion and production operation.  
#Halliburton makes no representations or warranties, either expressed or 
#implied, including, but not limited to, the implied warranties of merchantability or fitness 
#for a particular purpose, with respect to the services rendered.  In no event will 
#Halliburton be liable for failure to obtain any particular results or for 
#any damages, including, but not limited to, indirect, special or consequential damages, 
#resulting from the use of any information or interpretation provided by Halliburton.
#
~A           TIME           GTDEPTH  GTPQH  GTTQ  GTTN   GTET   GTTVD  
# ...
   01:56:51.157.30-Jan-2021 4790.01 5742.44 80.54 16.00 158.23 2621.59
   01:56:51.357.30-Jan-2021 4790.01 5739.10 80.54 16.00 158.43 2621.59
   01:56:51.557.30-Jan-2021 4790.01 5740.18 80.54 16.00 158.63 2621.59
   01:56:51.757.30-Jan-2021 4790.01 5741.13 80.54 16.00 158.83 2621.59
   01:56:51.957.30-Jan-2021 4790.01 5741.55 80.54 16.00 159.03 2621.59
   01:56:52.157.30-Jan-2021 4790.01 5741.55 80.54 16.00 159.23 2621.59
   01:56:52.357.30-Jan-2021 4790.01 5739.75 80.54 16.00 159.43 2621.59
   01:56:52.557.30-Jan-2021 4790.01 5740.03 80.54 16.00 159.63 2621.59
   01:56:52.757.30-Jan-2021 4790.01 5740.34 80.54 16.00 159.83 2621.59
   01:56:52.957.30-Jan-2021 4790.01 5740.34 80.54 16.00 160.03 2621.59
   01:56:53.157.30-Jan-2021 4790.01 5740.34 80.54 16.00 160.23 2621.59
   01:56:53.357.30-Jan-2021 4790.01 5741.47 80.54 16.00 160.43 2621.59
   01:56:53.557.30-Jan-2021 4790.01 5740.53 80.54 16.00 160.63 2621.59
   01:56:53.757.30-Jan-2021 4790.01 5739.94 80.54 16.00 160.83 2621.59
   01:56:53.957.30-Jan-2021 4790.01 5737.99 80.54 16.00 161.03 2621.59
   01:56:54.157.30-Jan-2021 4790.01 5737.99 80.54 16.00 161.23 2621.59
   01:56:54.357.30-Jan-2021 4790.01 5739.00 80.54 16.00 161.43 2621.59
   01:56:54.557.30-Jan-2021 4790.01 5740.60 80.54 16.00 161.63 2621.59
   01:56:54.757.30-Jan-2021 4790.01 5740.30 80.54 16.00 161.83 2621.59
   01:56:54.957.30-Jan-2021 4790.01 5738.54 80.54 16.00 162.03 2621.59
   01:56:55.157.30-Jan-2021 4790.01 5738.54 80.54 16.00 162.23 2621.59
   01:56:55.358.30-Jan-2021 4790.01 5739.99 80.54 16.00 162.43 2621.59
   01:56:55.558.30-Jan-2021 4790.01 5740.15 80.54 16.00 162.63 2621.59
   01:56:55.758.30-Jan-2021 4790.01 5739.47 80.54 16.00 162.83 2621.59
   01:56:55.958.30-Jan-2021 4790.01 5739.85 80.54 16.00 163.03 2621.59
   01:56:56.158.30-Jan-2021 4790.01 5739.85 80.54 16.00 163.23 2621.59
   01:56:56.358.30-Jan-2021 4790.01 5739.97 80.54 16.00 163.43 2621.59
   01:56:56.558.30-Jan-2021 4790.01 5732.68 80.54 16.00 163.63 2621.59
   01:56:56.758.30-Jan-2021 4790.01 5741.61 80.54 16.00 163.83 2621.59
   01:56:56.958.30-Jan-2021 4790.01 5740.17 80.54 16.00 164.03 2621.59
   01:56:57.158.30-Jan-2021 4790.01 5740.17 80.54 16.00 164.23 2621.59
   01:56:57.358.30-Jan-2021 4790.01 5735.63 80.54 16.00 164.43 2621.59
   01:56:57.558.30-Jan-2021 4790.01 5737.06 80.54 16.00 164.63 2621.59
   01:56:57.758.30-Jan-2021 4790.01 5739.72 80.54 16.00 164.83 2621.59
   01:56:57.958.30-Jan-2021 4790.01 5740.68 80.54 16.00 165.03 2621.59
   01:56:58.158.30-Jan-2021 4790.01 5740.68 80.54 16.00 165.23 2621.59
   01:56:58.358.30-Jan-2021 4790.01 5736.62 80.54 16.00 165.43 2621.59
   01:56:58.558.30-Jan-2021 4790.01 5735.44 80.54 16.00 165.63 2621.59
   01:56:58.758.30-Jan-2021 4790.01 5741.56 80.54 16.00 165.83 2621.59
   01:56:58.958.30-Jan-2021 4790.01 5743.28 80.54 16.00 166.03 2621.59
   01:56:59.158.30-Jan-2021 4790.01 5743.28 80.54 16.00 166.23 2621.59
   01:56:59.358.30-Jan-2021 4790.01 5737.10 80.54 16.00 166.43 2621.59
   01:56:59.558.30-Jan-2021 4790.01 5737.88 80.54 16.00 166.63 2621.59
   01:56:59.758.30-Jan-2021 4790.01 5740.41 80.54 16.00 166.83 2621.59
   01:56:59.958.30-Jan-2021 4790.01 5742.45 80.54 16.00 167.03 2621.59
   01:57:00.158.30-Jan-2021 4790.01 5742.45 80.54 16.00 167.23 2621.59
   01:57:00.358.30-Jan-2021 4790.01 5732.55 80.54 16.00 167.43 2621.59
   01:57:00.559.30-Jan-2021 4790.01 5740.40 80.54 16.00 167.63 2621.59
   01:57:00.759.30-Jan-2021 4790.01 5741.75 80.54 16.00 167.83 2621.59
   01:57:00.959.30-Jan-2021 4790.01 5741.11 80.54 16.00 168.03 2621.59
   01:57:01.159.30-Jan-2021 4790.01 5741.11 80.54 16.00 168.23 2621.59
   01:57:01.359.30-Jan-2021 4790.01 5737.31 80.54 16.00 168.43 2621.59
   01:57:01.559.30-Jan-2021 4790.01 5739.67 80.54 16.00 168.63 2621.59
   01:57:01.759.30-Jan-2021 4790.01 5741.61 80.54 16.00 168.83 2621.59
   01:57:01.959.30-Jan-2021 4790.01 5741.16 80.54 16.00 169.03 2621.59
   01:57:02.159.30-Jan-2021 4790.01 5741.16 80.54 16.00 169.23 2621.59
   01:57:02.359.30-Jan-2021 4790.01 5740.30 80.54 16.00 169.43 2621.59
   01:57:02.559.30-Jan-2021 4790.01 5740.22 80.54 16.00 169.63 2621.59
   01:57:02.759.30-Jan-2021 4790.01 5740.92 80.54 16.00 169.83 2621.59
   01:57:02.959.30-Jan-2021 4790.01 5740.55 80.54 16.00 170.03 2621.59
   01:57:03.159.30-Jan-2021 4790.01 5740.55 80.54 16.00 170.23 2621.59
   01:57:03.359.30-Jan-2021 4790.01 5740.26 80.54 16.00 170.43 2621.59
   01:57:03.559.30-Jan-2021 4790.01 5741.02 80.54 16.00 170.63 2621.59
   01:57:03.759.30-Jan-2021 4790.01 5740.83 80.54 16.00 170.83 2621.59
   01:57:03.959.30-Jan-2021 4790.01 5733.88 80.54 16.00 171.03 2621.59
   01:57:04.159.30-Jan-2021 4790.01 5733.88 80.54 16.00 171.23 2621.59
   01:57:04.359.30-Jan-2021 4790.01 5741.48 80.54 16.00 171.43 2621.59
   01:57:04.559.30-Jan-2021 4790.01 5740.68 80.54 16.00 171.63 2621.59
   01:57:04.759.30-Jan-2021 4790.01 5736.89 80.54 16.00 171.83 2621.59
   01:57:04.959.30-Jan-2021 4790.01 5739.86 80.53 16.00 172.03 2621.59
   01:57:05.159.30-Jan-2021 4790.01 5739.86 80.53 16.00 172.23 2621.59
   01:57:05.359.30-Jan-2021 4790.01 5741.32 80.53 16.00 172.43 2621.59
   01:57:05.559.30-Jan-2021 4790.01 5739.74 80.53 16.00 172.63 2621.59
   01:57:05.760.30-Jan-2021 4790.01 5739.06 80.53 16.00 172.83 2621.59
   01:57:05.960.30-Jan-2021 4790.01 5739.78 80.53 16.00 173.03 2621.59
   01:57:06.160.30-Jan-2021 4790.01 5739.78 80.53 16.00 173.23 2621.59
   01:57:06.360.30-Jan-2021 4790.01 5739.93 80.53 16.00 173.43 2621.59
   01:57:06.560.30-Jan-2021 4790.01 5739.66 80.53 16.00 173.63 2621.59
   01:57:06.760.30-Jan-2021 4790.01 5739.67 80.53 16.00 173.83 2621.59
   01:57:06.960.30-Jan-2021 4790.01 5739.84 80.53 16.00 174.03 2621.59
   01:57:07.160.30-Jan-2021 4790.01 5739.84 80.53 16.00 174.23 2621.59
   01:57:07.360.30-Jan-2021 4790.01 5734.00 80.53 16.00 174.43 2621.59
   01:57:07.560.30-Jan-2021 4790.01 5740.98 80.53 16.00 174.63 2621.59
   01:57:07.760.30-Jan-2021 4790.01 5741.12 80.53 16.00 174.83 2621.59
   01:57:07.960.30-Jan-2021 4790.01 5740.57 80.53 16.00 175.03 2621.59
   01:57:08.160.30-Jan-2021 4790.01 5740.57 80.53 16.00 175.23 2621.59
   01:57:08.360.30-Jan-2021 4790.01 5741.27 80.53 16.00 175.43 2621.59
   01:57:08.560.30-Jan-2021 4790.01 5740.44 80.53 16.00 175.63 2621.59
   01:57:08.760.30-Jan-2021 4790.01 5740.96 80.53 16.00 175.83 2621.59
   01:57:08.960.30-Jan-2021 4790.01 5738.96 80.53 16.00 176.03 2621.59
   01:57:09.160.30-Jan-2021 4790.01 5738.96 80.53 16.00 176.23 2621.59
   01:57:09.360.30-Jan-2021 4790.01 5737.04 80.53 16.00 176.43 2621.59
   01:57:09.560.30-Jan-2021 4790.01 5741.34 80.53 16.00 176.63 2621.59
   01:57:09.760.30-Jan-2021 4790.01 5741.45 80.53 16.00 176.83 2621.59
   01:57:09.960.30-Jan-2021 4790.01 5739.78 80.53 16.00 177.03 2621.59
   01:57:10.160.30-Jan-2021 4790.01 5739.78 80.53 16.00 177.23 2621.59
   01:57:10.360.30-Jan-2021 4790.01 5733.43 80.53 16.00 177.43 2621.59
   01:57:10.560.30-Jan-2021 4790.01 5743.91 80.53 16.00 177.63 2621.59
   01:57:10.760.30-Jan-2021 4790.01 5743.25 80.53 16.00 177.83 2621.59
   01:57:10.961.30-Jan-2021 4790.01 5739.70 80.53 16.00 178.03 2621.59
   01:57:11.161.30-Jan-2021 4790.01 5739.70 80.53 16.00 178.23 2621.59
   01:57:11.361.30-Jan-2021 4790.01 5742.36 80.53 16.00 178.43 2621.59
   01:57:11.561.30-Jan-2021 4790.01 5742.32 80.53 16.00 178.63 2621.59
   01:57:11.761.30-Jan-2021 4790.01 5742.06 80.53 16.00 178.83 2621.59
   01:57:11.961.30-Jan-2021 4790.01 5739.19 80.53 16.00 179.03 2621.59
   01:57:12.161.30-Jan-2021 4790.01 5739.19 80.53 16.00 179.23 2621.59
   01:57:12.361.30-Jan-2021 4790.01 5741.01 80.53 16.00 179.43 2621.59
   01:57:12.561.30-Jan-2021 4790.01 5742.91 80.53 16.00 179.63 2621.59
   01:57:12.761.30-Jan-2021 4790.01 5742.01 80.53 16.00 179.83 2621.59
   01:57:12.961.30-Jan-2021 4790.01 5739.70 80.53 16.00 180.03 2621.59
   01:57:13.161.30-Jan-2021 4790.01 5739.70 80.53 16.00 180.23 2621.59
   01:57:13.361.30-Jan-2021 4790.01 5740.98 80.53 16.00 180.43 2621.59
   01:57:13.561.30-Jan-2021 4790.01 5741.59 80.53 16.00 180.63 2621.59
