~Version Information
 VERS.                  2.0:   CWLS log ASCII Standard -VERSION 2.0
 WRAP.                   NO:   One line per depth step
~Well Information Block
#MNEM.UNIT     VALUE/NAME     DESCRIPTION
#---------     -----------    ---------------------------
 STRT.S             20:44:12 29-Jan-21: START TIME 20:44:12 29-Jan-21
 STOP.S             20:50:42 29-Jan-21: STOP TIME  20:50:42 29-Jan-21
 STEP.S                   0.00: STEP TIME
 NULL.                 -999.25: NULL VALUE
 DFWT.                        :  DIST FWL TEXT
 DFST.                        :  DIST FSL TEXT
 DMF .             Drill Floor:  DRILL MEAS FROM
 STIM.      00.00.00 25-Sep-20:  START TIME
 DATE.      16.12.48 31-Jan-21:  END TIME
 SPUD.               20-Sep-20:  SPUD DATE
 NREF.                    Grid:  NORTH REFERENCE
 HPTY.       Minimum Curvature:  HOLE POS TYPE
 DMOD.             Drill Model:  DRILL MOD DESC
 SVYD.                  Survey:  SURVEY DESC
 ILTD.               Lithology:  INTERP LTH DESC
 FTOP.          Formation Tops:  FORM TOPS DESC
 RIG .              East Azeri:  RIG NAME
 PDAT.          Mean Sea Level:  PERMANENT DATUM
 FLD .                     ACG:  FIELD NAME
 SON .        AZ-XX-0906591820:  JOB NUMBER
 CTRY.              Azerbaijan:  COUNTRY NAME
 WELL.                     D37:  WELL NAME
 SRVC.     Turan Drilling & Engineering:  CONTRACTOR
 COMP.     BP Exploration (Caspian Sea) ltd.:  COMPANY
 WTYP.                Deviated:  WELL TYPE
 MDS .        Operator Entered:  MAG DATA SOURCE
 UWI .                     N/A:  UNIQUE WELL IDENTIFIER
 API .                     N/A:  API NUMBER
 BASE.              Azerbaijan:  LOGGING EQUIPMENT BASE LOCATION
 REGN.                   EESSA:  REGION
 PROV.                    Baku:  PROVINCE
 STAT.                    Baku:  STATE NAME
 MWDS.                    Baku:  MWD SHOP
 JOBN.        AZ-XX-0906591820:  JOB TICKET NUMB
 DOE .                     N/A:  DOE NUMBER
 DCON.         Sperry Drilling:  DIRECTNL CONTR
 UNIT.                     N/A:  LOGGING EQUIPMENT ID
 CNTY.                        :  COUNTY
 LOC .                        :  LOCATION
 LMF .             Drill Floor:  LOG MEASURED FROM
 TVDS.m                  43.60:  TVDSS CORRECTN
 LATI.deg                40.02:  LATITUDE
 LONG.deg                51.45:  LONGITUDE
 WHNS.m                  11.04:  WELL HEAD N/S
 WHEW.m                 -12.38:  WELL HEAD E/W
 UTMX.m              538763.98:  UTM X
 UTMY.m             4431880.20:  UTM Y
 DFWL.m                   0.00:  DISTANCE FWL
 DFSL.m                   0.00:  DISTANCE FSL
 SDEP.m                 300.00:  START DEPTH
 TDD .m                4900.01:  TOTAL DEPTH (DRILLER)
 VSDR.deg               185.64:  VERT SEC DIRECT
 GVFD.g                   1.00:  GRAVITY FIELD
 MFLD.nT              50301.00:  MAGNETIC FIELD
 MDIP.deg                59.46:  MAGNETIC DIP
 MDEC.deg                 6.43:  MAGNETIC DECL
 GRDC.deg                 0.29:  GRID CORRECTION
 AZTC.deg                 6.14:  AZM TOTAL CORR
 EPD .m                   0.00:  ELEVATION
 EGL .m                   0.00:  GROUND ELEVATION
 WDMS.m                 151.80:  WD ELEV
 APD .m                  43.60:  DEPTH ABOVE PD
 DEP .m                 571.69:  DEPTH
 AGAP.m                  43.60:  AIR GAP
 VSEW.m                 -12.38:  VERT SEC E/W
 VSNS.m                  11.04:  VERT SEC N/S
 EKB .m                  43.60:  KB ELEVATION
 EDF .m                  43.60:  DF ELEVATION
 TDL .m                 412.00:  TOTAL DEPTH (LOGGER)
 VSC .                       0:  VS TO CLOSURE
 MAGU.                 1849300:  MAGUTM CHECKSUM
~Parameter Information Block
#MNEM.UNIT       Value        Description
#---------     -----------    ---------------------------
 AV  .mps                 2.21:  Ann Velocity 
 AVMX.mps                 2.53:  Max Ann Veloc 
 AZIF.deg               144.83:  Azm, Final 
 BHAT.        Rotary Steerable:  BHA Type 
 BROT.°/30m              -0.52:  Build Rotating 
 BS  .in                  6.50:  Bit Size 
 BTPL.psig              209.00:  Bit Press Loss 
 CABU.                      No:  Customer Abuse 
 CGEO.        Ali Isfandiyarov:  Customer Geo 
 TCS .hr                 61.31:  Time Ciculation Ended 
 CV  .mps                 4.66:  Crit Velocity 
 CVMX.mps                 5.02:  Max Crit Veloc 
 DD1 .          Fariz Nahmatov:  Direct Drillr 1 
 DD2 .            Musa Ahmadov:  Direct Drillr 2 
 DDSV.               Geo-Pilot:  DD Service 
 DEFF.%                 100.00:  % Det Eff 
 DLRX.°/30m               1.44:  Dogleg Rot Max 
 DLSO.°/30m               0.83:  Dogleg Oriented 
 DLSX.°/30m               1.44:  Dogleg Str Max 
 DRET.      08.30.00 30-Jan-21:  Drill End Time 
 DRST.      21.15.00 27-Jan-21:  Drill Start Tim 
 DTIM.hr                 37.28:  Time Drilling 
 EDEP.m                4867.01:  End Depth 
 ENG1.          Rasim Hashimov:  Engineer 1 
 ENG2.         Almaz Almadatov:  Engineer 2 
 ENG3.        Tamerlan Ahmadov:  Engineer 3 
 ETIM.      22.41.04 31-Jan-21:  End Time 
 FLOI.gpm               400.00:  Flow In 
 FLON.gpm               300.00:  Flow In Min 
 FLOS.cptm                0.00:  Fluid Loss 
 FLOX.gpm               400.00:  Flow In Max 
 HFLO.                      No:  High Flow 
 HPRE.                      No:  High Pressure 
 HTEM.                      No:  High Temp 
 HYDO.m                   1.80:  Hydro Offset 
 IFIN.deg                65.63:  Inc, Final 
 IMAX.deg                66.77:  Inc Max 
 IMIN.deg                65.61:  Inc Min 
 IMND.m                4612.67:  Inc Min Depth 
 IMXD.m                4811.63:  Inc Max Depth 
 JARR.                      No:  Jarring 
 LETM.      08.30.00 30-Jan-21:  Log End Time 
 LOST.hr                     0:  Lost Rig Time 
 LSTM.      21.15.00 27-Jan-21:  Log Start Time 
 MDCL.ppm             41000.00:  Mud Chlorides 
 MDES.     Inversion Oil/Synthetic:  Mud Desc 
 DFD .sg                  1.40:  Mud Density 
 MDMN.sg                  1.40:  Dens Mud Min 
 MDMX.sg                  1.40:  Dens Mud Max 
 MOIL.                      53:  Run Mud Oil % 
 MOWR.                   66:34:  Run Mud OWR 
 MSND.                     0.2:  Run Mud Sand % 
 MSOL.                    17.9:  Run Mud Solids% 
 DFV .spqt               77.00:  Mud Viscosity 
 MWOD.in                  4.75:  MWD Tool OD 
 MWSI.                      No:  Serv Intrp, MWD 
 OTIM.hr                110.38:  Time Operating 
 PCON.           Look Like New:  Pad Condition 
 PMAX.psia             5300.00:  Press Op, Max 
 PV  .cP                 57.00:  Mud PV 
 RUN .                    1200:  Run Number 
 ROPA.m/hr               13.00:  ROP Avg 
 ROPN.m/hr                9.00:  ROP Min 
 ROPX.m/hr               15.00:  ROP Max 
 RPMA.rpm               120.00:  RPM Surface Avg 
 RPMN.rpm               100.00:  RPM Surface Min 
 RPMX.rpm               135.00:  RPM Surface Max 
 RRUN.                    1200:  Rig Run Number 
 RTIM.hr                  2.65:  Time Reaming 
 SAZI.deg               145.04:  Azm, Start 
 SDEP.m                4455.01:  Start Depth 
 SIDD.                      No:  Serv Intrp, DD 
 SINC.deg                65.83:  Inc, Start 
 SPPA.psig             5037.00:  SPP Avg 
 SPPN.psig             4430.00:  SPP Min 
 SPPX.psig             5300.00:  SPP Max 
 STIM.      22.41.04 26-Jan-21:  Start Time 
 SVCS.                 DD, MWD:  Services 
 SVER.                    9.20:  Sperry Version 
 TDAT.m                 412.00:  Tot Depth Attmp 
 TDDF.                      No:  Trip for DD 
 TDLG.m                 412.00:  Tot Depth Loggd 
 TFF .                      No:  Trip for Fail 
 TQAA.f-kp               15.00:  Torque Abs Avg 
 TQAN.f-kp               12.00:  Torque Abs Min 
 TQAX.f-kp               17.00:  Torque Abs Max 
 TRRT.°/30m               1.18:  Turn Rotating 
 MRT .                     ADR:  Maximum Recorded Temperature 
 TTMX.degC               88.24:  Max Tool Temp 
 VS01.                90619458:  Virtual Str1 SN 
 VS02.                90519326:  Virtual Str2 SN 
 VS03.                90522176:  Virtual Str3 SN 
 VS04.                90512683:  Virtual Str4 SN 
 WBMN.klb                 1.00:  WOB Min 
 WITN.           Murad Giluyev:  Customer Rep 
 WITN.     Kamran Kemberlinski:  Customer Rep 2 
 WOBA.klb                 5.00:  WOB Avg 
 WOBX.klb                 9.00:  WOB Max 
 YP  .lhf2               41.00:  Yield Point 
~Curve Information Block
#MNEM.UNIT                 API CODE     Curve Description
#---------               -----------    ---------------------------
 TIME.HHMMSS            00 000 000 000:  GT Time & Date
 GTDEPTH.m              00 000 000 000:  GT Depth
 GTPQH.psia             00 000 000 000:  GT HR Quartz Pressure
 GTTQ.degC              00 000 000 000:  GT Quartz Temperature
 GTTN.NONE              00 000 000 000:  GT Test Number
 GTET.sec               00 000 000 000:  GT Elapsed Test Time
 GTTVD.m                00 000 000 000:  GT True Vertical Depth
#Other Information
#
#WARRANTY: Halliburton will use its best efforts to furnish customers with 
#accurate information and interpretations that are part of, and incident to, the services 
#provided.  However, Halliburton cannot and does not warrant the accuracy 
#or correctness of such information and interpretations.  Under no circumstances should any 
#such information or interpretation be relied upon as the sole basis for any drilling, 
#completion, production, or financial decision or any procedure involving any risk to the 
#safety of any drilling venture, drilling rig or its crew or any other third party.  The 
#Customer has full responsibility for all drilling, completion and production operation.  
#Halliburton makes no representations or warranties, either expressed or 
#implied, including, but not limited to, the implied warranties of merchantability or fitness 
#for a particular purpose, with respect to the services rendered.  In no event will 
#Halliburton be liable for failure to obtain any particular results or for 
#any damages, including, but not limited to, indirect, special or consequential damages, 
#resulting from the use of any information or interpretation provided by Halliburton.
#
~A           TIME           GTDEPTH  GTPQH  GTTQ  GTTN   GTET   GTTVD  
# ...
   20:48:21.228.29-Jan-2021 4766.51 3117.84 83.07 13.00 248.63 2612.24
   20:48:21.428.29-Jan-2021 4766.51 3117.83 83.07 13.00 248.83 2612.24
   20:48:21.628.29-Jan-2021 4766.51 3117.82 83.07 13.00 249.03 2612.24
   20:48:21.828.29-Jan-2021 4766.51 3117.82 83.07 13.00 249.23 2612.24
   20:48:22.028.29-Jan-2021 4766.51 3117.94 83.07 13.00 249.43 2612.24
   20:48:22.228.29-Jan-2021 4766.51 3117.93 83.07 13.00 249.63 2612.24
   20:48:22.428.29-Jan-2021 4766.51 3117.85 83.07 13.00 249.83 2612.24
   20:48:22.628.29-Jan-2021 4766.51 3127.42 83.07 13.00 250.03 2612.24
   20:48:22.828.29-Jan-2021 4766.51 3127.42 83.07 13.00 250.23 2612.24
   20:48:23.028.29-Jan-2021 4766.51 3131.19 83.07 13.00 250.43 2612.24
   20:48:23.228.29-Jan-2021 4766.51 3131.19 83.07 13.00 250.63 2612.24
   20:48:23.428.29-Jan-2021 4766.51 3131.21 83.06 13.00 250.83 2612.24
   20:48:23.628.29-Jan-2021 4766.51 3131.22 83.06 13.00 251.03 2612.24
   20:48:23.828.29-Jan-2021 4766.51 3131.22 83.06 13.00 251.23 2612.24
   20:48:24.028.29-Jan-2021 4766.51 3131.20 83.06 13.00 251.43 2612.24
   20:48:24.228.29-Jan-2021 4766.51 3131.29 83.06 13.00 251.63 2612.24
   20:48:24.428.29-Jan-2021 4766.51 3131.27 83.06 13.00 251.83 2612.24
   20:48:24.628.29-Jan-2021 4766.51 3131.26 83.06 13.00 252.03 2612.24
   20:48:24.828.29-Jan-2021 4766.51 3131.26 83.06 13.00 252.23 2612.24
   20:48:25.028.29-Jan-2021 4766.51 3131.29 83.06 13.00 252.43 2612.24
   20:48:25.228.29-Jan-2021 4766.51 3131.29 83.06 13.00 252.63 2612.24
   20:48:25.428.29-Jan-2021 4766.51 3131.29 83.06 13.00 252.83 2612.24
   20:48:25.628.29-Jan-2021 4766.51 3131.26 83.06 13.00 253.03 2612.24
   20:48:25.828.29-Jan-2021 4766.51 3131.26 83.06 13.00 253.23 2612.24
   20:48:26.028.29-Jan-2021 4766.51 3131.27 83.06 13.00 253.43 2612.24
   20:48:26.228.29-Jan-2021 4766.51 3131.31 83.06 13.00 253.63 2612.24
   20:48:26.428.29-Jan-2021 4766.51 3131.28 83.06 13.00 253.83 2612.24
   20:48:26.628.29-Jan-2021 4766.51 3131.30 83.06 13.00 254.03 2612.24
   20:48:26.828.29-Jan-2021 4766.51 3131.30 83.06 13.00 254.23 2612.24
   20:48:27.028.29-Jan-2021 4766.51 3131.31 83.05 13.00 254.43 2612.24
   20:48:27.228.29-Jan-2021 4766.51 3131.29 83.05 13.00 254.63 2612.24
   20:48:27.428.29-Jan-2021 4766.51 3131.31 83.05 13.00 254.83 2612.24
   20:48:27.628.29-Jan-2021 4766.51 3131.27 83.05 13.00 255.03 2612.24
   20:48:27.828.29-Jan-2021 4766.51 3131.27 83.05 13.00 255.23 2612.24
   20:48:28.028.29-Jan-2021 4766.51 3131.29 83.05 13.00 255.43 2612.24
   20:48:28.228.29-Jan-2021 4766.51 3131.30 83.05 13.00 255.63 2612.24
   20:48:28.428.29-Jan-2021 4766.51 3131.29 83.05 13.00 255.83 2612.24
   20:48:28.628.29-Jan-2021 4766.51 3131.31 83.05 13.00 256.03 2612.24
   20:48:28.828.29-Jan-2021 4766.51 3131.31 83.05 13.00 256.23 2612.24
   20:48:29.029.29-Jan-2021 4766.51 3131.30 83.05 13.00 256.43 2612.24
   20:48:29.229.29-Jan-2021 4766.51 3131.30 83.05 13.00 256.63 2612.24
   20:48:29.429.29-Jan-2021 4766.51 3131.30 83.05 13.00 256.83 2612.24
   20:48:29.629.29-Jan-2021 4766.51 3131.29 83.05 13.00 257.03 2612.24
   20:48:29.829.29-Jan-2021 4766.51 3131.29 83.05 13.00 257.23 2612.24
   20:48:30.029.29-Jan-2021 4766.51 3131.29 83.05 13.00 257.43 2612.24
   20:48:30.229.29-Jan-2021 4766.51 3131.29 83.04 13.00 257.63 2612.24
   20:48:30.429.29-Jan-2021 4766.51 3131.28 83.04 13.00 257.83 2612.24
   20:48:30.629.29-Jan-2021 4766.51 3131.29 83.04 13.00 258.03 2612.24
   20:48:30.829.29-Jan-2021 4766.51 3131.29 83.04 13.00 258.23 2612.24
   20:48:31.029.29-Jan-2021 4766.51 3131.29 83.04 13.00 258.43 2612.24
   20:48:31.229.29-Jan-2021 4766.51 3131.29 83.04 13.00 258.63 2612.24
   20:48:31.429.29-Jan-2021 4766.51 3131.28 83.04 13.00 258.83 2612.24
   20:48:31.629.29-Jan-2021 4766.51 3131.28 83.04 13.00 259.03 2612.24
   20:48:31.829.29-Jan-2021 4766.51 3131.28 83.04 13.00 259.23 2612.24
   20:48:32.029.29-Jan-2021 4766.51 3131.30 83.04 13.00 259.43 2612.24
   20:48:32.229.29-Jan-2021 4766.51 3131.31 83.04 13.00 259.63 2612.24
   20:48:32.429.29-Jan-2021 4766.51 3131.28 83.04 13.00 259.83 2612.24
   20:48:32.629.29-Jan-2021 4766.51 3131.30 83.04 13.00 260.03 2612.24
   20:48:32.829.29-Jan-2021 4766.51 3131.30 83.04 13.00 260.23 2612.24
   20:48:33.029.29-Jan-2021 4766.51 3131.31 83.04 13.00 260.43 2612.24
   20:48:33.229.29-Jan-2021 4766.51 3131.29 83.04 13.00 260.63 2612.24
   20:48:33.429.29-Jan-2021 4766.51 3131.28 83.04 13.00 260.83 2612.24
   20:48:33.629.29-Jan-2021 4766.51 3131.29 83.04 13.00 261.03 2612.24
   20:48:33.829.29-Jan-2021 4766.51 3131.29 83.04 13.00 261.23 2612.24
   20:48:34.029.29-Jan-2021 4766.51 3131.28 83.03 13.00 261.43 2612.24
   20:48:34.229.29-Jan-2021 4766.51 3131.29 83.03 13.00 261.63 2612.24
   20:48:34.429.29-Jan-2021 4766.51 3131.29 83.03 13.00 261.83 2612.24
   20:48:34.629.29-Jan-2021 4766.51 3131.29 83.03 13.00 262.03 2612.24
   20:48:34.829.29-Jan-2021 4766.51 3131.29 83.03 13.00 262.23 2612.24
   20:48:35.029.29-Jan-2021 4766.51 3131.31 83.03 13.00 262.43 2612.24
   20:48:35.229.29-Jan-2021 4766.51 3131.31 83.03 13.00 262.63 2612.24
   20:48:35.429.29-Jan-2021 4766.51 3131.30 83.03 13.00 262.83 2612.24
   20:48:35.629.29-Jan-2021 4766.51 3131.29 83.03 13.00 263.03 2612.24
   20:48:35.829.29-Jan-2021 4766.51 3131.29 83.03 13.00 263.23 2612.24
   20:48:36.029.29-Jan-2021 4766.51 3131.32 83.03 13.00 263.43 2612.24
   20:48:36.229.29-Jan-2021 4766.51 3131.30 83.03 13.00 263.63 2612.24
   20:48:36.429.29-Jan-2021 4766.51 3131.31 83.03 13.00 263.83 2612.24
   20:48:36.629.29-Jan-2021 4766.51 3131.28 83.03 13.00 264.03 2612.24
   20:48:36.829.29-Jan-2021 4766.51 3131.28 83.03 13.00 264.23 2612.24
   20:48:37.029.29-Jan-2021 4766.51 3131.35 83.03 13.00 264.43 2612.24
   20:48:37.229.29-Jan-2021 4766.51 3131.31 83.02 13.00 264.63 2612.24
   20:48:37.430.29-Jan-2021 4766.51 3131.29 83.02 13.00 264.83 2612.24
   20:48:37.630.29-Jan-2021 4766.51 3131.28 83.02 13.00 265.03 2612.24
   20:48:37.830.29-Jan-2021 4766.51 3131.28 83.02 13.00 265.23 2612.24
   20:48:38.030.29-Jan-2021 4766.51 3131.31 83.02 13.00 265.43 2612.24
   20:48:38.230.29-Jan-2021 4766.51 3131.31 83.02 13.00 265.63 2612.24
   20:48:38.430.29-Jan-2021 4766.51 3131.29 83.02 13.00 265.83 2612.24
   20:48:38.630.29-Jan-2021 4766.51 3131.28 83.02 13.00 266.03 2612.24
   20:48:38.830.29-Jan-2021 4766.51 3131.28 83.02 13.00 266.23 2612.24
   20:48:39.030.29-Jan-2021 4766.51 3131.29 83.02 13.00 266.43 2612.24
   20:48:39.230.29-Jan-2021 4766.51 3131.30 83.02 13.00 266.63 2612.24
   20:48:39.430.29-Jan-2021 4766.51 3131.30 83.02 13.00 266.83 2612.24
   20:48:39.630.29-Jan-2021 4766.51 3131.30 83.02 13.00 267.03 2612.24
   20:48:39.830.29-Jan-2021 4766.51 3131.30 83.02 13.00 267.23 2612.24
   20:48:40.030.29-Jan-2021 4766.51 3131.29 83.02 13.00 267.43 2612.24
   20:48:40.230.29-Jan-2021 4766.51 3131.29 83.02 13.00 267.63 2612.24
   20:48:40.430.29-Jan-2021 4766.51 3131.29 83.02 13.00 267.83 2612.24
   20:48:40.630.29-Jan-2021 4766.51 3131.28 83.02 13.00 268.03 2612.24
   20:48:40.830.29-Jan-2021 4766.51 3131.28 83.02 13.00 268.23 2612.24
   20:48:41.030.29-Jan-2021 4766.51 3131.29 83.01 13.00 268.43 2612.24
   20:48:41.230.29-Jan-2021 4766.51 3131.28 83.01 13.00 268.63 2612.24
   20:48:41.430.29-Jan-2021 4766.51 3131.27 83.01 13.00 268.83 2612.24
   20:48:41.630.29-Jan-2021 4766.51 3131.28 83.01 13.00 269.03 2612.24
   20:48:41.830.29-Jan-2021 4766.51 3131.28 83.01 13.00 269.23 2612.24
   20:48:42.030.29-Jan-2021 4766.51 3131.28 83.01 13.00 269.43 2612.24
   20:48:42.230.29-Jan-2021 4766.51 3131.28 83.01 13.00 269.63 2612.24
   20:48:42.430.29-Jan-2021 4766.51 3131.29 83.01 13.00 269.83 2612.24
   20:48:42.630.29-Jan-2021 4766.51 3131.27 83.01 13.00 270.03 2612.24
   20:48:42.830.29-Jan-2021 4766.51 3131.27 83.01 13.00 270.23 2612.24
   20:48:43.030.29-Jan-2021 4766.51 3131.29 83.01 13.00 270.43 2612.24
   20:48:43.230.29-Jan-2021 4766.51 3131.29 83.01 13.00 270.63 2612.24
   20:48:43.430.29-Jan-2021 4766.51 3131.28 83.01 13.00 270.83 2612.24
   20:48:43.630.29-Jan-2021 4766.51 3131.29 83.01 13.00 271.03 2612.24
