~Version Information
 VERS.                  2.0:   CWLS log ASCII Standard -VERSION 2.0
 WRAP.                   NO:   One line per depth step
~Well Information Block
#MNEM.UNIT     VALUE/NAME     DESCRIPTION
#---------     -----------    ---------------------------
 STRT.S             05:51:52 30-Jan-21: START TIME 05:51:52 30-Jan-21
 STOP.S             05:58:20 30-Jan-21: STOP TIME  05:58:20 30-Jan-21
 STEP.S                   0.00: STEP TIME
 NULL.                 -999.25: NULL VALUE
 DFWT.                        :  DIST FWL TEXT
 DFST.                        :  DIST FSL TEXT
 DMF .             Drill Floor:  DRILL MEAS FROM
 STIM.      00.00.00 25-Sep-20:  START TIME
 DATE.      16.12.48 31-Jan-21:  END TIME
 SPUD.               20-Sep-20:  SPUD DATE
 NREF.                    Grid:  NORTH REFERENCE
 HPTY.       Minimum Curvature:  HOLE POS TYPE
 DMOD.             Drill Model:  DRILL MOD DESC
 SVYD.                  Survey:  SURVEY DESC
 ILTD.               Lithology:  INTERP LTH DESC
 FTOP.          Formation Tops:  FORM TOPS DESC
 RIG .              East Azeri:  RIG NAME
 PDAT.          Mean Sea Level:  PERMANENT DATUM
 FLD .                     ACG:  FIELD NAME
 SON .        AZ-XX-0906591820:  JOB NUMBER
 CTRY.              Azerbaijan:  COUNTRY NAME
 WELL.                     D37:  WELL NAME
 SRVC.     Turan Drilling & Engineering:  CONTRACTOR
 COMP.     BP Exploration (Caspian Sea) ltd.:  COMPANY
 WTYP.                Deviated:  WELL TYPE
 MDS .        Operator Entered:  MAG DATA SOURCE
 UWI .                     N/A:  UNIQUE WELL IDENTIFIER
 API .                     N/A:  API NUMBER
 BASE.              Azerbaijan:  LOGGING EQUIPMENT BASE LOCATION
 REGN.                   EESSA:  REGION
 PROV.                    Baku:  PROVINCE
 STAT.                    Baku:  STATE NAME
 MWDS.                    Baku:  MWD SHOP
 JOBN.        AZ-XX-0906591820:  JOB TICKET NUMB
 DOE .                     N/A:  DOE NUMBER
 DCON.         Sperry Drilling:  DIRECTNL CONTR
 UNIT.                     N/A:  LOGGING EQUIPMENT ID
 CNTY.                        :  COUNTY
 LOC .                        :  LOCATION
 LMF .             Drill Floor:  LOG MEASURED FROM
 TVDS.m                  43.60:  TVDSS CORRECTN
 LATI.deg                40.02:  LATITUDE
 LONG.deg                51.45:  LONGITUDE
 WHNS.m                  11.04:  WELL HEAD N/S
 WHEW.m                 -12.38:  WELL HEAD E/W
 UTMX.m              538763.98:  UTM X
 UTMY.m             4431880.20:  UTM Y
 DFWL.m                   0.00:  DISTANCE FWL
 DFSL.m                   0.00:  DISTANCE FSL
 SDEP.m                 300.00:  START DEPTH
 TDD .m                4900.01:  TOTAL DEPTH (DRILLER)
 VSDR.deg               185.64:  VERT SEC DIRECT
 GVFD.g                   1.00:  GRAVITY FIELD
 MFLD.nT              50301.00:  MAGNETIC FIELD
 MDIP.deg                59.46:  MAGNETIC DIP
 MDEC.deg                 6.43:  MAGNETIC DECL
 GRDC.deg                 0.29:  GRID CORRECTION
 AZTC.deg                 6.14:  AZM TOTAL CORR
 EPD .m                   0.00:  ELEVATION
 EGL .m                   0.00:  GROUND ELEVATION
 WDMS.m                 151.80:  WD ELEV
 APD .m                  43.60:  DEPTH ABOVE PD
 DEP .m                 571.69:  DEPTH
 AGAP.m                  43.60:  AIR GAP
 VSEW.m                 -12.38:  VERT SEC E/W
 VSNS.m                  11.04:  VERT SEC N/S
 EKB .m                  43.60:  KB ELEVATION
 EDF .m                  43.60:  DF ELEVATION
 TDL .m                 412.00:  TOTAL DEPTH (LOGGER)
 VSC .                       0:  VS TO CLOSURE
 MAGU.                 1849300:  MAGUTM CHECKSUM
~Parameter Information Block
#MNEM.UNIT       Value        Description
#---------     -----------    ---------------------------
 AV  .mps                 2.21:  Ann Velocity 
 AVMX.mps                 2.53:  Max Ann Veloc 
 AZIF.deg               144.83:  Azm, Final 
 BHAT.        Rotary Steerable:  BHA Type 
 BROT.°/30m              -0.52:  Build Rotating 
 BS  .in                  6.50:  Bit Size 
 BTPL.psig              209.00:  Bit Press Loss 
 CABU.                      No:  Customer Abuse 
 CGEO.        Ali Isfandiyarov:  Customer Geo 
 COMM.                     ü:x:  Run Comments 1 
 TCS .hr                 61.31:  Time Ciculation Ended 
 CV  .mps                 4.66:  Crit Velocity 
 CVMX.mps                 5.02:  Max Crit Veloc 
 DD1 .          Fariz Nahmatov:  Direct Drillr 1 
 DD2 .            Musa Ahmadov:  Direct Drillr 2 
 DDSV.               Geo-Pilot:  DD Service 
 DEFF.%                 100.00:  % Det Eff 
 DLRX.°/30m               1.44:  Dogleg Rot Max 
 DLSO.°/30m               0.83:  Dogleg Oriented 
 DLSX.°/30m               1.44:  Dogleg Str Max 
 DRET.      08.30.00 30-Jan-21:  Drill End Time 
 DRST.      21.15.00 27-Jan-21:  Drill Start Tim 
 DTIM.hr                 37.28:  Time Drilling 
 EDEP.m                4867.01:  End Depth 
 ENG1.          Rasim Hashimov:  Engineer 1 
 ENG2.         Almaz Almadatov:  Engineer 2 
 ENG3.        Tamerlan Ahmadov:  Engineer 3 
 ETIM.      22.41.04 31-Jan-21:  End Time 
 FLOI.gpm               400.00:  Flow In 
 FLON.gpm               300.00:  Flow In Min 
 FLOS.cptm                0.00:  Fluid Loss 
 FLOX.gpm               400.00:  Flow In Max 
 HFLO.                      No:  High Flow 
 HPRE.                      No:  High Pressure 
 HTEM.                      No:  High Temp 
 HYDO.m                   1.80:  Hydro Offset 
 IFIN.deg                65.63:  Inc, Final 
 IMAX.deg                66.77:  Inc Max 
 IMIN.deg                65.61:  Inc Min 
 IMND.m                4612.67:  Inc Min Depth 
 IMXD.m                4811.63:  Inc Max Depth 
 JARR.                      No:  Jarring 
 LETM.      08.30.00 30-Jan-21:  Log End Time 
 LOST.hr                     0:  Lost Rig Time 
 LSTM.      21.15.00 27-Jan-21:  Log Start Time 
 MDCL.ppm             41000.00:  Mud Chlorides 
 MDES.     Inversion Oil/Synthetic:  Mud Desc 
 DFD .sg                  1.40:  Mud Density 
 MDMN.sg                  1.40:  Dens Mud Min 
 MDMX.sg                  1.40:  Dens Mud Max 
 MOIL.                      53:  Run Mud Oil % 
 MOWR.                   66:34:  Run Mud OWR 
 MSND.                     0.2:  Run Mud Sand % 
 MSOL.                    17.9:  Run Mud Solids% 
 DFV .spqt               77.00:  Mud Viscosity 
 MWOD.in                  4.75:  MWD Tool OD 
 MWSI.                      No:  Serv Intrp, MWD 
 OTIM.hr                110.38:  Time Operating 
 PCON.           Look Like New:  Pad Condition 
 PMAX.psia             5300.00:  Press Op, Max 
 PV  .cP                 57.00:  Mud PV 
 RUN .                    1200:  Run Number 
 ROPA.m/hr               13.00:  ROP Avg 
 ROPN.m/hr                9.00:  ROP Min 
 ROPX.m/hr               15.00:  ROP Max 
 RPMA.rpm               120.00:  RPM Surface Avg 
 RPMN.rpm               100.00:  RPM Surface Min 
 RPMX.rpm               135.00:  RPM Surface Max 
 RRUN.                    1200:  Rig Run Number 
 RTIM.hr                  2.65:  Time Reaming 
 SAZI.deg               145.04:  Azm, Start 
 SDEP.m                4455.01:  Start Depth 
 SIDD.                      No:  Serv Intrp, DD 
 SINC.deg                65.83:  Inc, Start 
 SPPA.psig             5037.00:  SPP Avg 
 SPPN.psig             4430.00:  SPP Min 
 SPPX.psig             5300.00:  SPP Max 
 STIM.      22.41.04 26-Jan-21:  Start Time 
 SVCS.                 DD, MWD:  Services 
 SVER.                    9.20:  Sperry Version 
 TDAT.m                 412.00:  Tot Depth Attmp 
 TDDF.                      No:  Trip for DD 
 TDLG.m                 412.00:  Tot Depth Loggd 
 TFF .                      No:  Trip for Fail 
 TQAA.f-kp               15.00:  Torque Abs Avg 
 TQAN.f-kp               12.00:  Torque Abs Min 
 TQAX.f-kp               17.00:  Torque Abs Max 
 TRRT.°/30m               1.18:  Turn Rotating 
 MRT .                     ADR:  Maximum Recorded Temperature 
 TTMX.degC               88.24:  Max Tool Temp 
 VS01.                90619458:  Virtual Str1 SN 
 VS02.                90519326:  Virtual Str2 SN 
 VS03.                90522176:  Virtual Str3 SN 
 VS04.                90512683:  Virtual Str4 SN 
 WBMN.klb                 1.00:  WOB Min 
 WITN.           Murad Giluyev:  Customer Rep 
 WITN.     Kamran Kemberlinski:  Customer Rep 2 
 WOBA.klb                 5.00:  WOB Avg 
 WOBX.klb                 9.00:  WOB Max 
 YP  .lhf2               41.00:  Yield Point 
~Curve Information Block
#MNEM.UNIT                 API CODE     Curve Description
#---------               -----------    ---------------------------
 TIME.HHMMSS            00 000 000 000:  GT Time & Date
 GTDEPTH.m              00 000 000 000:  GT Depth
 GTPQH.psia             00 000 000 000:  GT HR Quartz Pressure
 GTTQ.degC              00 000 000 000:  GT Quartz Temperature
 GTTN.NONE              00 000 000 000:  GT Test Number
 GTET.sec               00 000 000 000:  GT Elapsed Test Time
 GTTVD.m                00 000 000 000:  GT True Vertical Depth
#Other Information
#
#WARRANTY: Halliburton will use its best efforts to furnish customers with 
#accurate information and interpretations that are part of, and incident to, the services 
#provided.  However, Halliburton cannot and does not warrant the accuracy 
#or correctness of such information and interpretations.  Under no circumstances should any 
#such information or interpretation be relied upon as the sole basis for any drilling, 
#completion, production, or financial decision or any procedure involving any risk to the 
#safety of any drilling venture, drilling rig or its crew or any other third party.  The 
#Customer has full responsibility for all drilling, completion and production operation.  
#Halliburton makes no representations or warranties, either expressed or 
#implied, including, but not limited to, the implied warranties of merchantability or fitness 
#for a particular purpose, with respect to the services rendered.  In no event will 
#Halliburton be liable for failure to obtain any particular results or for 
#any damages, including, but not limited to, indirect, special or consequential damages, 
#resulting from the use of any information or interpretation provided by Halliburton.
#
~A           TIME           GTDEPTH  GTPQH  GTTQ  GTTN   GTET   GTTVD  
# ...
   05:56:23.375.30-Jan-2021 4813.01 3148.93 83.80 17.00 271.24 2630.70
   05:56:23.575.30-Jan-2021 4813.01 3148.89 83.80 17.00 271.44 2630.70
   05:56:23.775.30-Jan-2021 4813.01 3148.90 83.80 17.00 271.64 2630.70
   05:56:23.975.30-Jan-2021 4813.01 3148.90 83.80 17.00 271.84 2630.70
   05:56:24.175.30-Jan-2021 4813.01 3148.90 83.80 17.00 272.04 2630.70
   05:56:24.375.30-Jan-2021 4813.01 3148.90 83.80 17.00 272.24 2630.70
   05:56:24.575.30-Jan-2021 4813.01 3148.89 83.80 17.00 272.44 2630.70
   05:56:24.775.30-Jan-2021 4813.01 3148.90 83.80 17.00 272.64 2630.70
   05:56:24.975.30-Jan-2021 4813.01 3148.89 83.80 17.00 272.84 2630.70
   05:56:25.175.30-Jan-2021 4813.01 3148.91 83.80 17.00 273.04 2630.70
   05:56:25.375.30-Jan-2021 4813.01 3148.91 83.80 17.00 273.24 2630.70
   05:56:25.575.30-Jan-2021 4813.01 3148.95 83.80 17.00 273.44 2630.70
   05:56:25.775.30-Jan-2021 4813.01 3148.91 83.80 17.00 273.64 2630.70
   05:56:25.975.30-Jan-2021 4813.01 3148.90 83.80 17.00 273.84 2630.70
   05:56:26.175.30-Jan-2021 4813.01 3148.90 83.80 17.00 274.04 2630.70
   05:56:26.375.30-Jan-2021 4813.01 3148.90 83.80 17.00 274.24 2630.70
   05:56:26.575.30-Jan-2021 4813.01 3148.89 83.79 17.00 274.44 2630.70
   05:56:26.776.30-Jan-2021 4813.01 3148.91 83.79 17.00 274.64 2630.70
   05:56:26.976.30-Jan-2021 4813.01 3148.90 83.79 17.00 274.84 2630.70
   05:56:27.176.30-Jan-2021 4813.01 3148.88 83.79 17.00 275.04 2630.70
   05:56:27.376.30-Jan-2021 4813.01 3148.88 83.79 17.00 275.24 2630.70
   05:56:27.576.30-Jan-2021 4813.01 3148.89 83.79 17.00 275.44 2630.70
   05:56:27.776.30-Jan-2021 4813.01 3148.90 83.79 17.00 275.64 2630.70
   05:56:27.976.30-Jan-2021 4813.01 3148.89 83.79 17.00 275.84 2630.70
   05:56:28.176.30-Jan-2021 4813.01 3148.89 83.79 17.00 276.04 2630.70
   05:56:28.376.30-Jan-2021 4813.01 3148.89 83.79 17.00 276.24 2630.70
   05:56:28.576.30-Jan-2021 4813.01 3148.85 83.79 17.00 276.44 2630.70
   05:56:28.776.30-Jan-2021 4813.01 3148.94 83.79 17.00 276.64 2630.70
   05:56:28.976.30-Jan-2021 4813.01 3148.92 83.79 17.00 276.84 2630.70
   05:56:29.176.30-Jan-2021 4813.01 3148.89 83.79 17.00 277.04 2630.70
   05:56:29.376.30-Jan-2021 4813.01 3148.89 83.79 17.00 277.24 2630.70
   05:56:29.576.30-Jan-2021 4813.01 3148.97 83.79 17.00 277.44 2630.70
   05:56:29.776.30-Jan-2021 4813.01 3148.91 83.79 17.00 277.64 2630.70
   05:56:29.976.30-Jan-2021 4813.01 3148.90 83.79 17.00 277.84 2630.70
   05:56:30.176.30-Jan-2021 4813.01 3148.84 83.79 17.00 278.04 2630.70
   05:56:30.376.30-Jan-2021 4813.01 3148.84 83.79 17.00 278.24 2630.70
   05:56:30.576.30-Jan-2021 4813.01 3148.90 83.78 17.00 278.44 2630.70
   05:56:30.776.30-Jan-2021 4813.01 3148.91 83.78 17.00 278.64 2630.70
   05:56:30.976.30-Jan-2021 4813.01 3148.90 83.78 17.00 278.84 2630.70
   05:56:31.176.30-Jan-2021 4813.01 3148.88 83.78 17.00 279.04 2630.70
   05:56:31.376.30-Jan-2021 4813.01 3148.88 83.78 17.00 279.24 2630.70
   05:56:31.576.30-Jan-2021 4813.01 3148.96 83.78 17.00 279.44 2630.70
   05:56:31.776.30-Jan-2021 4813.01 3148.90 83.78 17.00 279.64 2630.70
   05:56:31.976.30-Jan-2021 4813.01 3148.89 83.78 17.00 279.84 2630.70
   05:56:32.176.30-Jan-2021 4813.01 3148.90 83.78 17.00 280.04 2630.70
   05:56:32.376.30-Jan-2021 4813.01 3148.90 83.78 17.00 280.24 2630.70
   05:56:32.576.30-Jan-2021 4813.01 3148.92 83.78 17.00 280.44 2630.70
   05:56:32.776.30-Jan-2021 4813.01 3148.91 83.78 17.00 280.64 2630.70
   05:56:32.976.30-Jan-2021 4813.01 3148.88 83.78 17.00 280.84 2630.70
   05:56:33.176.30-Jan-2021 4813.01 3148.90 83.78 17.00 281.04 2630.70
   05:56:33.376.30-Jan-2021 4813.01 3148.90 83.78 17.00 281.24 2630.70
   05:56:33.576.30-Jan-2021 4813.01 3148.90 83.78 17.00 281.44 2630.70
   05:56:33.776.30-Jan-2021 4813.01 3148.89 83.78 17.00 281.64 2630.70
   05:56:33.976.30-Jan-2021 4813.01 3148.89 83.78 17.00 281.84 2630.70
   05:56:34.176.30-Jan-2021 4813.01 3148.88 83.78 17.00 282.04 2630.70
   05:56:34.376.30-Jan-2021 4813.01 3148.88 83.78 17.00 282.24 2630.70
   05:56:34.577.30-Jan-2021 4813.01 3148.90 83.78 17.00 282.44 2630.70
   05:56:34.777.30-Jan-2021 4813.01 3148.88 83.77 17.00 282.64 2630.70
   05:56:34.977.30-Jan-2021 4813.01 3148.89 83.77 17.00 282.84 2630.70
   05:56:35.177.30-Jan-2021 4813.01 3148.89 83.77 17.00 283.04 2630.70
   05:56:35.377.30-Jan-2021 4813.01 3148.89 83.77 17.00 283.24 2630.70
   05:56:35.577.30-Jan-2021 4813.01 3148.89 83.77 17.00 283.44 2630.70
   05:56:35.777.30-Jan-2021 4813.01 3148.88 83.77 17.00 283.64 2630.70
   05:56:35.977.30-Jan-2021 4813.01 3148.90 83.77 17.00 283.84 2630.70
   05:56:36.177.30-Jan-2021 4813.01 3148.91 83.77 17.00 284.04 2630.70
   05:56:36.377.30-Jan-2021 4813.01 3148.91 83.77 17.00 284.24 2630.70
   05:56:36.577.30-Jan-2021 4813.01 3148.87 83.77 17.00 284.44 2630.70
   05:56:36.777.30-Jan-2021 4813.01 3148.91 83.77 17.00 284.64 2630.70
   05:56:36.977.30-Jan-2021 4813.01 3148.88 83.77 17.00 284.84 2630.70
   05:56:37.177.30-Jan-2021 4813.01 3148.91 83.77 17.00 285.04 2630.70
   05:56:37.377.30-Jan-2021 4813.01 3148.91 83.77 17.00 285.24 2630.70
   05:56:37.577.30-Jan-2021 4813.01 3148.88 83.77 17.00 285.44 2630.70
   05:56:37.777.30-Jan-2021 4813.01 3148.89 83.77 17.00 285.64 2630.70
   05:56:37.977.30-Jan-2021 4813.01 3148.88 83.77 17.00 285.84 2630.70
   05:56:38.177.30-Jan-2021 4813.01 3148.88 83.77 17.00 286.04 2630.70
   05:56:38.377.30-Jan-2021 4813.01 3148.88 83.77 17.00 286.24 2630.70
   05:56:38.577.30-Jan-2021 4813.01 3148.88 83.77 17.00 286.44 2630.70
   05:56:38.777.30-Jan-2021 4813.01 3148.89 83.77 17.00 286.64 2630.70
   05:56:38.977.30-Jan-2021 4813.01 3148.87 83.76 17.00 286.84 2630.70
   05:56:39.177.30-Jan-2021 4813.01 3148.90 83.76 17.00 287.04 2630.70
   05:56:39.377.30-Jan-2021 4813.01 3148.90 83.76 17.00 287.24 2630.70
   05:56:39.577.30-Jan-2021 4813.01 3148.89 83.76 17.00 287.44 2630.70
   05:56:39.777.30-Jan-2021 4813.01 3148.82 83.76 17.00 287.64 2630.70
   05:56:39.977.30-Jan-2021 4813.01 3148.95 83.76 17.00 287.84 2630.70
   05:56:40.177.30-Jan-2021 4813.01 3148.91 83.76 17.00 288.04 2630.70
   05:56:40.377.30-Jan-2021 4813.01 3148.91 83.76 17.00 288.24 2630.70
   05:56:40.577.30-Jan-2021 4813.01 3148.84 83.76 17.00 288.44 2630.70
   05:56:40.777.30-Jan-2021 4813.01 3148.93 83.76 17.00 288.64 2630.70
   05:56:40.977.30-Jan-2021 4813.01 3148.92 83.76 17.00 288.84 2630.70
   05:56:41.177.30-Jan-2021 4813.01 3148.89 83.76 17.00 289.04 2630.70
   05:56:41.377.30-Jan-2021 4813.01 3148.89 83.76 17.00 289.24 2630.70
   05:56:41.577.30-Jan-2021 4813.01 3148.87 83.76 17.00 289.44 2630.70
   05:56:41.777.30-Jan-2021 4813.01 3148.83 83.76 17.00 289.64 2630.70
   05:56:41.977.30-Jan-2021 4813.01 3148.95 83.76 17.00 289.84 2630.70
   05:56:42.178.30-Jan-2021 4813.01 3148.91 83.76 17.00 290.04 2630.70
   05:56:42.378.30-Jan-2021 4813.01 3148.91 83.76 17.00 290.24 2630.70
   05:56:42.578.30-Jan-2021 4813.01 3148.91 83.76 17.00 290.44 2630.70
   05:56:42.778.30-Jan-2021 4813.01 3148.89 83.76 17.00 290.64 2630.70
   05:56:42.978.30-Jan-2021 4813.01 3148.90 83.76 17.00 290.84 2630.70
   05:56:43.178.30-Jan-2021 4813.01 3148.90 83.75 17.00 291.04 2630.70
   05:56:43.378.30-Jan-2021 4813.01 3148.90 83.75 17.00 291.24 2630.70
   05:56:43.578.30-Jan-2021 4813.01 3148.90 83.75 17.00 291.44 2630.70
   05:56:43.778.30-Jan-2021 4813.01 3148.89 83.75 17.00 291.64 2630.70
   05:56:43.978.30-Jan-2021 4813.01 3148.89 83.75 17.00 291.84 2630.70
   05:56:44.178.30-Jan-2021 4813.01 3148.88 83.75 17.00 292.04 2630.70
   05:56:44.378.30-Jan-2021 4813.01 3148.88 83.75 17.00 292.24 2630.70
   05:56:44.578.30-Jan-2021 4813.01 3148.87 83.75 17.00 292.44 2630.70
   05:56:44.778.30-Jan-2021 4813.01 3148.88 83.75 17.00 292.64 2630.70
   05:56:44.978.30-Jan-2021 4813.01 3148.87 83.75 17.00 292.84 2630.70
   05:56:45.178.30-Jan-2021 4813.01 3148.88 83.75 17.00 293.04 2630.70
   05:56:45.378.30-Jan-2021 4813.01 3148.88 83.75 17.00 293.24 2630.70
   05:56:45.578.30-Jan-2021 4813.01 3148.88 83.75 17.00 293.44 2630.70
   05:56:45.778.30-Jan-2021 4813.01 3148.88 83.75 17.00 293.64 2630.70
