~Version Information
 VERS.                  2.0:   CWLS log ASCII Standard -VERSION 2.0
 WRAP.                   NO:   One line per depth step
~Well Information Block
#MNEM.UNIT     VALUE/NAME     DESCRIPTION
#---------     -----------    ---------------------------
 STRT.S             10:42:31 29-Jan-21: START TIME 10:42:31 29-Jan-21
 STOP.S             10:49:01 29-Jan-21: STOP TIME  10:49:01 29-Jan-21
 STEP.S                   0.00: STEP TIME
 NULL.                 -999.25: NULL VALUE
 DFWT.                        :  DIST FWL TEXT
 DFST.                        :  DIST FSL TEXT
 DMF .             Drill Floor:  DRILL MEAS FROM
 STIM.      00.00.00 25-Sep-20:  START TIME
 DATE.      16.12.48 31-Jan-21:  END TIME
 SPUD.               20-Sep-20:  SPUD DATE
 NREF.                    Grid:  NORTH REFERENCE
 HPTY.       Minimum Curvature:  HOLE POS TYPE
 DMOD.             Drill Model:  DRILL MOD DESC
 SVYD.                  Survey:  SURVEY DESC
 ILTD.               Lithology:  INTERP LTH DESC
 FTOP.          Formation Tops:  FORM TOPS DESC
 RIG .              East Azeri:  RIG NAME
 PDAT.          Mean Sea Level:  PERMANENT DATUM
 FLD .                     ACG:  FIELD NAME
 SON .        AZ-XX-0906591820:  JOB NUMBER
 CTRY.              Azerbaijan:  COUNTRY NAME
 WELL.                     D37:  WELL NAME
 SRVC.     Turan Drilling & Engineering:  CONTRACTOR
 COMP.     BP Exploration (Caspian Sea) ltd.:  COMPANY
 WTYP.                Deviated:  WELL TYPE
 MDS .        Operator Entered:  MAG DATA SOURCE
 UWI .                     N/A:  UNIQUE WELL IDENTIFIER
 API .                     N/A:  API NUMBER
 BASE.              Azerbaijan:  LOGGING EQUIPMENT BASE LOCATION
 REGN.                   EESSA:  REGION
 PROV.                    Baku:  PROVINCE
 STAT.                    Baku:  STATE NAME
 MWDS.                    Baku:  MWD SHOP
 JOBN.        AZ-XX-0906591820:  JOB TICKET NUMB
 DOE .                     N/A:  DOE NUMBER
 DCON.         Sperry Drilling:  DIRECTNL CONTR
 UNIT.                     N/A:  LOGGING EQUIPMENT ID
 CNTY.                        :  COUNTY
 LOC .                        :  LOCATION
 LMF .             Drill Floor:  LOG MEASURED FROM
 TVDS.m                  43.60:  TVDSS CORRECTN
 LATI.deg                40.02:  LATITUDE
 LONG.deg                51.45:  LONGITUDE
 WHNS.m                  11.04:  WELL HEAD N/S
 WHEW.m                 -12.38:  WELL HEAD E/W
 UTMX.m              538763.98:  UTM X
 UTMY.m             4431880.20:  UTM Y
 DFWL.m                   0.00:  DISTANCE FWL
 DFSL.m                   0.00:  DISTANCE FSL
 SDEP.m                 300.00:  START DEPTH
 TDD .m                4900.01:  TOTAL DEPTH (DRILLER)
 VSDR.deg               185.64:  VERT SEC DIRECT
 GVFD.g                   1.00:  GRAVITY FIELD
 MFLD.nT              50301.00:  MAGNETIC FIELD
 MDIP.deg                59.46:  MAGNETIC DIP
 MDEC.deg                 6.43:  MAGNETIC DECL
 GRDC.deg                 0.29:  GRID CORRECTION
 AZTC.deg                 6.14:  AZM TOTAL CORR
 EPD .m                   0.00:  ELEVATION
 EGL .m                   0.00:  GROUND ELEVATION
 WDMS.m                 151.80:  WD ELEV
 APD .m                  43.60:  DEPTH ABOVE PD
 DEP .m                 571.69:  DEPTH
 AGAP.m                  43.60:  AIR GAP
 VSEW.m                 -12.38:  VERT SEC E/W
 VSNS.m                  11.04:  VERT SEC N/S
 EKB .m                  43.60:  KB ELEVATION
 EDF .m                  43.60:  DF ELEVATION
 TDL .m                 412.00:  TOTAL DEPTH (LOGGER)
 VSC .                       0:  VS TO CLOSURE
 MAGU.                 1849300:  MAGUTM CHECKSUM
~Parameter Information Block
#MNEM.UNIT       Value        Description
#---------     -----------    ---------------------------
 AV  .mps                 2.21:  Ann Velocity 
 AVMX.mps                 2.53:  Max Ann Veloc 
 AZIF.deg               144.83:  Azm, Final 
 BHAT.        Rotary Steerable:  BHA Type 
 BROT.°/30m              -0.52:  Build Rotating 
 BS  .in                  6.50:  Bit Size 
 BTPL.psig              209.00:  Bit Press Loss 
 CABU.                      No:  Customer Abuse 
 CGEO.        Ali Isfandiyarov:  Customer Geo 
 COMM.                     ,H:  Run Comments 1 
 TCS .hr                 61.31:  Time Ciculation Ended 
 CV  .mps                 4.66:  Crit Velocity 
 CVMX.mps                 5.02:  Max Crit Veloc 
 DD1 .          Fariz Nahmatov:  Direct Drillr 1 
 DD2 .            Musa Ahmadov:  Direct Drillr 2 
 DDSV.               Geo-Pilot:  DD Service 
 DEFF.%                 100.00:  % Det Eff 
 DLRX.°/30m               1.44:  Dogleg Rot Max 
 DLSO.°/30m               0.83:  Dogleg Oriented 
 DLSX.°/30m               1.44:  Dogleg Str Max 
 DRET.      08.30.00 30-Jan-21:  Drill End Time 
 DRST.      21.15.00 27-Jan-21:  Drill Start Tim 
 DTIM.hr                 37.28:  Time Drilling 
 EDEP.m                4867.01:  End Depth 
 ENG1.          Rasim Hashimov:  Engineer 1 
 ENG2.         Almaz Almadatov:  Engineer 2 
 ENG3.        Tamerlan Ahmadov:  Engineer 3 
 ETIM.      22.41.04 31-Jan-21:  End Time 
 FLOI.gpm               400.00:  Flow In 
 FLON.gpm               300.00:  Flow In Min 
 FLOS.cptm                0.00:  Fluid Loss 
 FLOX.gpm               400.00:  Flow In Max 
 HFLO.                      No:  High Flow 
 HPRE.                      No:  High Pressure 
 HTEM.                      No:  High Temp 
 HYDO.m                   1.80:  Hydro Offset 
 IFIN.deg                65.63:  Inc, Final 
 IMAX.deg                66.77:  Inc Max 
 IMIN.deg                65.61:  Inc Min 
 IMND.m                4612.67:  Inc Min Depth 
 IMXD.m                4811.63:  Inc Max Depth 
 JARR.                      No:  Jarring 
 LETM.      08.30.00 30-Jan-21:  Log End Time 
 LOST.hr                     0:  Lost Rig Time 
 LSTM.      21.15.00 27-Jan-21:  Log Start Time 
 MDCL.ppm             41000.00:  Mud Chlorides 
 MDES.     Inversion Oil/Synthetic:  Mud Desc 
 DFD .sg                  1.40:  Mud Density 
 MDMN.sg                  1.40:  Dens Mud Min 
 MDMX.sg                  1.40:  Dens Mud Max 
 MOIL.                      53:  Run Mud Oil % 
 MOWR.                   66:34:  Run Mud OWR 
 MSND.                     0.2:  Run Mud Sand % 
 MSOL.                    17.9:  Run Mud Solids% 
 DFV .spqt               77.00:  Mud Viscosity 
 MWOD.in                  4.75:  MWD Tool OD 
 MWSI.                      No:  Serv Intrp, MWD 
 OTIM.hr                110.38:  Time Operating 
 PCON.           Look Like New:  Pad Condition 
 PMAX.psia             5300.00:  Press Op, Max 
 PV  .cP                 57.00:  Mud PV 
 RUN .                    1200:  Run Number 
 ROPA.m/hr               13.00:  ROP Avg 
 ROPN.m/hr                9.00:  ROP Min 
 ROPX.m/hr               15.00:  ROP Max 
 RPMA.rpm               120.00:  RPM Surface Avg 
 RPMN.rpm               100.00:  RPM Surface Min 
 RPMX.rpm               135.00:  RPM Surface Max 
 RRUN.                    1200:  Rig Run Number 
 RTIM.hr                  2.65:  Time Reaming 
 SAZI.deg               145.04:  Azm, Start 
 SDEP.m                4455.01:  Start Depth 
 SIDD.                      No:  Serv Intrp, DD 
 SINC.deg                65.83:  Inc, Start 
 SPPA.psig             5037.00:  SPP Avg 
 SPPN.psig             4430.00:  SPP Min 
 SPPX.psig             5300.00:  SPP Max 
 STIM.      22.41.04 26-Jan-21:  Start Time 
 SVCS.                 DD, MWD:  Services 
 SVER.                    9.20:  Sperry Version 
 TDAT.m                 412.00:  Tot Depth Attmp 
 TDDF.                      No:  Trip for DD 
 TDLG.m                 412.00:  Tot Depth Loggd 
 TFF .                      No:  Trip for Fail 
 TQAA.f-kp               15.00:  Torque Abs Avg 
 TQAN.f-kp               12.00:  Torque Abs Min 
 TQAX.f-kp               17.00:  Torque Abs Max 
 TRRT.°/30m               1.18:  Turn Rotating 
 MRT .                     ADR:  Maximum Recorded Temperature 
 TTMX.degC               88.24:  Max Tool Temp 
 VS01.                90619458:  Virtual Str1 SN 
 VS02.                90519326:  Virtual Str2 SN 
 VS03.                90522176:  Virtual Str3 SN 
 VS04.                90512683:  Virtual Str4 SN 
 WBMN.klb                 1.00:  WOB Min 
 WITN.           Murad Giluyev:  Customer Rep 
 WITN.     Kamran Kemberlinski:  Customer Rep 2 
 WOBA.klb                 5.00:  WOB Avg 
 WOBX.klb                 9.00:  WOB Max 
 YP  .lhf2               41.00:  Yield Point 
~Curve Information Block
#MNEM.UNIT                 API CODE     Curve Description
#---------               -----------    ---------------------------
 TIME.HHMMSS            00 000 000 000:  GT Time & Date
 GTDEPTH.m              00 000 000 000:  GT Depth
 GTPQH.psia             00 000 000 000:  GT HR Quartz Pressure
 GTTQ.degC              00 000 000 000:  GT Quartz Temperature
 GTTN.NONE              00 000 000 000:  GT Test Number
 GTET.sec               00 000 000 000:  GT Elapsed Test Time
 GTTVD.m                00 000 000 000:  GT True Vertical Depth
#Other Information
#
#WARRANTY: Halliburton will use its best efforts to furnish customers with 
#accurate information and interpretations that are part of, and incident to, the services 
#provided.  However, Halliburton cannot and does not warrant the accuracy 
#or correctness of such information and interpretations.  Under no circumstances should any 
#such information or interpretation be relied upon as the sole basis for any drilling, 
#completion, production, or financial decision or any procedure involving any risk to the 
#safety of any drilling venture, drilling rig or its crew or any other third party.  The 
#Customer has full responsibility for all drilling, completion and production operation.  
#Halliburton makes no representations or warranties, either expressed or 
#implied, including, but not limited to, the implied warranties of merchantability or fitness 
#for a particular purpose, with respect to the services rendered.  In no event will 
#Halliburton be liable for failure to obtain any particular results or for 
#any damages, including, but not limited to, indirect, special or consequential damages, 
#resulting from the use of any information or interpretation provided by Halliburton.
#
~A           TIME           GTDEPTH  GTPQH  GTTQ  GTTN   GTET   GTTVD  
# ...
   10:47:24.997.29-Jan-2021 4690.01 3067.47 79.94 10.00 293.82 2581.69
   10:47:25.197.29-Jan-2021 4690.01 3067.55 79.94 10.00 294.02 2581.69
   10:47:25.397.29-Jan-2021 4690.01 3067.55 79.94 10.00 294.22 2581.69
   10:47:25.597.29-Jan-2021 4690.01 3067.50 79.94 10.00 294.42 2581.69
   10:47:25.797.29-Jan-2021 4690.01 3067.53 79.94 10.00 294.62 2581.69
   10:47:25.997.29-Jan-2021 4690.01 3067.51 79.94 10.00 294.82 2581.69
   10:47:26.197.29-Jan-2021 4690.01 3067.52 79.94 10.00 295.02 2581.69
   10:47:26.397.29-Jan-2021 4690.01 3067.52 79.94 10.00 295.22 2581.69
   10:47:26.597.29-Jan-2021 4690.01 3067.51 79.94 10.00 295.42 2581.69
   10:47:26.797.29-Jan-2021 4690.01 3067.51 79.94 10.00 295.62 2581.69
   10:47:26.997.29-Jan-2021 4690.01 3067.50 79.93 10.00 295.82 2581.69
   10:47:27.197.29-Jan-2021 4690.01 3067.50 79.93 10.00 296.02 2581.69
   10:47:27.397.29-Jan-2021 4690.01 3067.50 79.93 10.00 296.22 2581.69
   10:47:27.597.29-Jan-2021 4690.01 3067.50 79.93 10.00 296.42 2581.69
   10:47:27.797.29-Jan-2021 4690.01 3067.50 79.93 10.00 296.62 2581.69
   10:47:27.997.29-Jan-2021 4690.01 3067.49 79.93 10.00 296.82 2581.69
   10:47:28.197.29-Jan-2021 4690.01 3067.50 79.93 10.00 297.02 2581.69
   10:47:28.397.29-Jan-2021 4690.01 3067.50 79.93 10.00 297.22 2581.69
   10:47:28.597.29-Jan-2021 4690.01 3067.47 79.93 10.00 297.42 2581.69
   10:47:28.797.29-Jan-2021 4690.01 3067.55 79.93 10.00 297.62 2581.69
   10:47:28.997.29-Jan-2021 4690.01 3067.52 79.93 10.00 297.82 2581.69
   10:47:29.197.29-Jan-2021 4690.01 3067.50 79.93 10.00 298.02 2581.69
   10:47:29.397.29-Jan-2021 4690.01 3067.50 79.93 10.00 298.22 2581.69
   10:47:29.597.29-Jan-2021 4690.01 3067.50 79.93 10.00 298.42 2581.69
   10:47:29.797.29-Jan-2021 4690.01 3067.51 79.93 10.00 298.62 2581.69
   10:47:29.997.29-Jan-2021 4690.01 3067.51 79.93 10.00 298.82 2581.69
   10:47:30.197.29-Jan-2021 4690.01 3067.50 79.93 10.00 299.02 2581.69
   10:47:30.397.29-Jan-2021 4690.01 3067.50 79.93 10.00 299.22 2581.69
   10:47:30.597.29-Jan-2021 4690.01 3067.50 79.92 10.00 299.42 2581.69
   10:47:30.797.29-Jan-2021 4690.01 3067.50 79.92 10.00 299.62 2581.69
   10:47:30.997.29-Jan-2021 4690.01 3067.49 79.92 10.00 299.82 2581.69
   10:47:31.197.29-Jan-2021 4690.01 3067.50 79.92 10.00 300.02 2581.69
   10:47:31.397.29-Jan-2021 4690.01 3067.50 79.92 10.00 300.22 2581.69
   10:47:31.597.29-Jan-2021 4690.01 3067.49 79.92 10.00 300.42 2581.69
   10:47:31.797.29-Jan-2021 4690.01 3067.46 79.92 10.00 300.62 2581.69
   10:47:31.997.29-Jan-2021 4690.01 3067.54 79.92 10.00 300.82 2581.69
   10:47:32.197.29-Jan-2021 4690.01 3067.52 79.92 10.00 301.02 2581.69
   10:47:32.397.29-Jan-2021 4690.01 3067.52 79.92 10.00 301.22 2581.69
   10:47:32.597.29-Jan-2021 4690.01 3067.47 79.92 10.00 301.42 2581.69
   10:47:32.797.29-Jan-2021 4690.01 3067.55 79.92 10.00 301.62 2581.69
   10:47:32.997.29-Jan-2021 4690.01 3067.52 79.92 10.00 301.82 2581.69
   10:47:33.197.29-Jan-2021 4690.01 3067.49 79.92 10.00 302.02 2581.69
   10:47:33.397.29-Jan-2021 4690.01 3067.49 79.92 10.00 302.22 2581.69
   10:47:33.597.29-Jan-2021 4690.01 3067.51 79.92 10.00 302.42 2581.69
   10:47:33.797.29-Jan-2021 4690.01 3067.51 79.92 10.00 302.62 2581.69
   10:47:33.997.29-Jan-2021 4690.01 3067.48 79.92 10.00 302.82 2581.69
   10:47:34.197.29-Jan-2021 4690.01 3067.52 79.92 10.00 303.02 2581.69
   10:47:34.397.29-Jan-2021 4690.01 3067.52 79.92 10.00 303.22 2581.69
   10:47:34.597.29-Jan-2021 4690.01 3067.51 79.91 10.00 303.42 2581.69
   10:47:34.797.29-Jan-2021 4690.01 3067.50 79.91 10.00 303.62 2581.69
   10:47:34.997.29-Jan-2021 4690.01 3067.50 79.91 10.00 303.82 2581.69
   10:47:35.197.29-Jan-2021 4690.01 3067.51 79.91 10.00 304.02 2581.69
   10:47:35.397.29-Jan-2021 4690.01 3067.51 79.91 10.00 304.22 2581.69
   10:47:35.597.29-Jan-2021 4690.01 3067.54 79.91 10.00 304.42 2581.69
   10:47:35.797.29-Jan-2021 4690.01 3067.51 79.91 10.00 304.62 2581.69
   10:47:35.997.29-Jan-2021 4690.01 3067.49 79.91 10.00 304.82 2581.69
   10:47:36.197.29-Jan-2021 4690.01 3067.51 79.91 10.00 305.02 2581.69
   10:47:36.397.29-Jan-2021 4690.01 3067.51 79.91 10.00 305.22 2581.69
   10:47:36.597.29-Jan-2021 4690.01 3067.49 79.91 10.00 305.42 2581.69
   10:47:36.797.29-Jan-2021 4690.01 3067.51 79.91 10.00 305.62 2581.69
   10:47:36.998.29-Jan-2021 4690.01 3067.51 79.91 10.00 305.82 2581.69
   10:47:37.198.29-Jan-2021 4690.01 3067.50 79.91 10.00 306.02 2581.69
   10:47:37.398.29-Jan-2021 4690.01 3067.50 79.91 10.00 306.22 2581.69
   10:47:37.598.29-Jan-2021 4690.01 3067.51 79.91 10.00 306.42 2581.69
   10:47:37.798.29-Jan-2021 4690.01 3067.50 79.91 10.00 306.62 2581.69
   10:47:37.998.29-Jan-2021 4690.01 3067.50 79.91 10.00 306.82 2581.69
   10:47:38.198.29-Jan-2021 4690.01 3067.49 79.90 10.00 307.02 2581.69
   10:47:38.398.29-Jan-2021 4690.01 3067.49 79.90 10.00 307.22 2581.69
   10:47:38.598.29-Jan-2021 4690.01 3067.49 79.90 10.00 307.42 2581.69
   10:47:38.798.29-Jan-2021 4690.01 3067.49 79.90 10.00 307.62 2581.69
   10:47:38.998.29-Jan-2021 4690.01 3067.49 79.90 10.00 307.82 2581.69
   10:47:39.198.29-Jan-2021 4690.01 3067.49 79.90 10.00 308.02 2581.69
   10:47:39.398.29-Jan-2021 4690.01 3067.49 79.90 10.00 308.22 2581.69
   10:47:39.598.29-Jan-2021 4690.01 3067.48 79.90 10.00 308.42 2581.69
   10:47:39.798.29-Jan-2021 4690.01 3067.49 79.90 10.00 308.62 2581.69
   10:47:39.998.29-Jan-2021 4690.01 3067.48 79.90 10.00 308.82 2581.69
   10:47:40.198.29-Jan-2021 4690.01 3067.46 79.90 10.00 309.02 2581.69
   10:47:40.398.29-Jan-2021 4690.01 3067.46 79.90 10.00 309.22 2581.69
   10:47:40.598.29-Jan-2021 4690.01 3067.51 79.90 10.00 309.42 2581.69
   10:47:40.798.29-Jan-2021 4690.01 3067.49 79.90 10.00 309.62 2581.69
   10:47:40.998.29-Jan-2021 4690.01 3067.51 79.90 10.00 309.82 2581.69
   10:47:41.198.29-Jan-2021 4690.01 3067.49 79.90 10.00 310.02 2581.69
   10:47:41.398.29-Jan-2021 4690.01 3067.49 79.90 10.00 310.22 2581.69
   10:47:41.598.29-Jan-2021 4690.01 3067.49 79.90 10.00 310.42 2581.69
   10:47:41.798.29-Jan-2021 4690.01 3067.50 79.89 10.00 310.62 2581.69
   10:47:41.998.29-Jan-2021 4690.01 3067.49 79.89 10.00 310.82 2581.69
   10:47:42.198.29-Jan-2021 4690.01 3067.50 79.89 10.00 311.02 2581.69
   10:47:42.398.29-Jan-2021 4690.01 3067.50 79.89 10.00 311.22 2581.69
   10:47:42.598.29-Jan-2021 4690.01 3067.49 79.89 10.00 311.42 2581.69
   10:47:42.798.29-Jan-2021 4690.01 3067.49 79.89 10.00 311.62 2581.69
   10:47:42.998.29-Jan-2021 4690.01 3067.48 79.89 10.00 311.82 2581.69
   10:47:43.198.29-Jan-2021 4690.01 3067.48 79.89 10.00 312.02 2581.69
   10:47:43.398.29-Jan-2021 4690.01 3067.48 79.89 10.00 312.22 2581.69
   10:47:43.598.29-Jan-2021 4690.01 3067.52 79.89 10.00 312.42 2581.69
   10:47:43.798.29-Jan-2021 4690.01 3067.51 79.89 10.00 312.62 2581.69
   10:47:43.998.29-Jan-2021 4690.01 3067.49 79.89 10.00 312.82 2581.69
   10:47:44.198.29-Jan-2021 4690.01 3067.46 79.89 10.00 313.02 2581.69
   10:47:44.398.29-Jan-2021 4690.01 3067.46 79.89 10.00 313.22 2581.69
   10:47:44.598.29-Jan-2021 4690.01 3067.52 79.89 10.00 313.42 2581.69
   10:47:44.798.29-Jan-2021 4690.01 3067.48 79.89 10.00 313.62 2581.69
   10:47:44.998.29-Jan-2021 4690.01 3067.51 79.89 10.00 313.82 2581.69
   10:47:45.198.29-Jan-2021 4690.01 3067.50 79.89 10.00 314.02 2581.69
   10:47:45.398.29-Jan-2021 4690.01 3067.50 79.89 10.00 314.22 2581.69
   10:47:45.598.29-Jan-2021 4690.01 3067.45 79.88 10.00 314.42 2581.69
   10:47:45.798.29-Jan-2021 4690.01 3067.53 79.88 10.00 314.62 2581.69
   10:47:45.998.29-Jan-2021 4690.01 3067.50 79.88 10.00 314.82 2581.69
   10:47:46.198.29-Jan-2021 4690.01 3067.49 79.88 10.00 315.02 2581.69
   10:47:46.398.29-Jan-2021 4690.01 3067.49 79.88 10.00 315.22 2581.69
   10:47:46.598.29-Jan-2021 4690.01 3067.50 79.88 10.00 315.42 2581.69
   10:47:46.798.29-Jan-2021 4690.01 3067.49 79.88 10.00 315.62 2581.69
   10:47:46.998.29-Jan-2021 4690.01 3067.45 79.88 10.00 315.82 2581.69
   10:47:47.198.29-Jan-2021 4690.01 3067.52 79.88 10.00 316.02 2581.69
   10:47:47.398.29-Jan-2021 4690.01 3067.52 79.88 10.00 316.22 2581.69
