~Version Information
 VERS.                  2.0:   CWLS log ASCII Standard -VERSION 2.0
 WRAP.                   NO:   One line per depth step
~Well Information Block
#MNEM.UNIT     VALUE/NAME     DESCRIPTION
#---------     -----------    ---------------------------
 STRT.S             08:50:58 29-Jan-21: START TIME 08:50:58 29-Jan-21
 STOP.S             08:57:28 29-Jan-21: STOP TIME  08:57:28 29-Jan-21
 STEP.S                   0.00: STEP TIME
 NULL.                 -999.25: NULL VALUE
 DFWT.                        :  DIST FWL TEXT
 DFST.                        :  DIST FSL TEXT
 DMF .             Drill Floor:  DRILL MEAS FROM
 STIM.      00.00.00 25-Sep-20:  START TIME
 DATE.      16.12.48 31-Jan-21:  END TIME
 SPUD.               20-Sep-20:  SPUD DATE
 NREF.                    Grid:  NORTH REFERENCE
 HPTY.       Minimum Curvature:  HOLE POS TYPE
 DMOD.             Drill Model:  DRILL MOD DESC
 SVYD.                  Survey:  SURVEY DESC
 ILTD.               Lithology:  INTERP LTH DESC
 FTOP.          Formation Tops:  FORM TOPS DESC
 RIG .              East Azeri:  RIG NAME
 PDAT.          Mean Sea Level:  PERMANENT DATUM
 FLD .                     ACG:  FIELD NAME
 SON .        AZ-XX-0906591820:  JOB NUMBER
 CTRY.              Azerbaijan:  COUNTRY NAME
 WELL.                     D37:  WELL NAME
 SRVC.     Turan Drilling & Engineering:  CONTRACTOR
 COMP.     BP Exploration (Caspian Sea) ltd.:  COMPANY
 WTYP.                Deviated:  WELL TYPE
 MDS .        Operator Entered:  MAG DATA SOURCE
 UWI .                     N/A:  UNIQUE WELL IDENTIFIER
 API .                     N/A:  API NUMBER
 BASE.              Azerbaijan:  LOGGING EQUIPMENT BASE LOCATION
 REGN.                   EESSA:  REGION
 PROV.                    Baku:  PROVINCE
 STAT.                    Baku:  STATE NAME
 MWDS.                    Baku:  MWD SHOP
 JOBN.        AZ-XX-0906591820:  JOB TICKET NUMB
 DOE .                     N/A:  DOE NUMBER
 DCON.         Sperry Drilling:  DIRECTNL CONTR
 UNIT.                     N/A:  LOGGING EQUIPMENT ID
 CNTY.                        :  COUNTY
 LOC .                        :  LOCATION
 LMF .             Drill Floor:  LOG MEASURED FROM
 TVDS.m                  43.60:  TVDSS CORRECTN
 LATI.deg                40.02:  LATITUDE
 LONG.deg                51.45:  LONGITUDE
 WHNS.m                  11.04:  WELL HEAD N/S
 WHEW.m                 -12.38:  WELL HEAD E/W
 UTMX.m              538763.98:  UTM X
 UTMY.m             4431880.20:  UTM Y
 DFWL.m                   0.00:  DISTANCE FWL
 DFSL.m                   0.00:  DISTANCE FSL
 SDEP.m                 300.00:  START DEPTH
 TDD .m                4900.01:  TOTAL DEPTH (DRILLER)
 VSDR.deg               185.64:  VERT SEC DIRECT
 GVFD.g                   1.00:  GRAVITY FIELD
 MFLD.nT              50301.00:  MAGNETIC FIELD
 MDIP.deg                59.46:  MAGNETIC DIP
 MDEC.deg                 6.43:  MAGNETIC DECL
 GRDC.deg                 0.29:  GRID CORRECTION
 AZTC.deg                 6.14:  AZM TOTAL CORR
 EPD .m                   0.00:  ELEVATION
 EGL .m                   0.00:  GROUND ELEVATION
 WDMS.m                 151.80:  WD ELEV
 APD .m                  43.60:  DEPTH ABOVE PD
 DEP .m                 571.69:  DEPTH
 AGAP.m                  43.60:  AIR GAP
 VSEW.m                 -12.38:  VERT SEC E/W
 VSNS.m                  11.04:  VERT SEC N/S
 EKB .m                  43.60:  KB ELEVATION
 EDF .m                  43.60:  DF ELEVATION
 TDL .m                 412.00:  TOTAL DEPTH (LOGGER)
 VSC .                       0:  VS TO CLOSURE
 MAGU.                 1849300:  MAGUTM CHECKSUM
~Parameter Information Block
#MNEM.UNIT       Value        Description
#---------     -----------    ---------------------------
 AV  .mps                 2.21:  Ann Velocity 
 AVMX.mps                 2.53:  Max Ann Veloc 
 AZIF.deg               144.83:  Azm, Final 
 BHAT.        Rotary Steerable:  BHA Type 
 BROT.°/30m              -0.52:  Build Rotating 
 BS  .in                  6.50:  Bit Size 
 BTPL.psig              209.00:  Bit Press Loss 
 CABU.                      No:  Customer Abuse 
 CGEO.        Ali Isfandiyarov:  Customer Geo 
 COMM.                     Ä	‡:  Run Comments 1 
 TCS .hr                 61.31:  Time Ciculation Ended 
 CV  .mps                 4.66:  Crit Velocity 
 CVMX.mps                 5.02:  Max Crit Veloc 
 DD1 .          Fariz Nahmatov:  Direct Drillr 1 
 DD2 .            Musa Ahmadov:  Direct Drillr 2 
 DDSV.               Geo-Pilot:  DD Service 
 DEFF.%                 100.00:  % Det Eff 
 DLRX.°/30m               1.44:  Dogleg Rot Max 
 DLSO.°/30m               0.83:  Dogleg Oriented 
 DLSX.°/30m               1.44:  Dogleg Str Max 
 DRET.      08.30.00 30-Jan-21:  Drill End Time 
 DRST.      21.15.00 27-Jan-21:  Drill Start Tim 
 DTIM.hr                 37.28:  Time Drilling 
 EDEP.m                4867.01:  End Depth 
 ENG1.          Rasim Hashimov:  Engineer 1 
 ENG2.         Almaz Almadatov:  Engineer 2 
 ENG3.        Tamerlan Ahmadov:  Engineer 3 
 ETIM.      22.41.04 31-Jan-21:  End Time 
 FLOI.gpm               400.00:  Flow In 
 FLON.gpm               300.00:  Flow In Min 
 FLOS.cptm                0.00:  Fluid Loss 
 FLOX.gpm               400.00:  Flow In Max 
 HFLO.                      No:  High Flow 
 HPRE.                      No:  High Pressure 
 HTEM.                      No:  High Temp 
 HYDO.m                   1.80:  Hydro Offset 
 IFIN.deg                65.63:  Inc, Final 
 IMAX.deg                66.77:  Inc Max 
 IMIN.deg                65.61:  Inc Min 
 IMND.m                4612.67:  Inc Min Depth 
 IMXD.m                4811.63:  Inc Max Depth 
 JARR.                      No:  Jarring 
 LETM.      08.30.00 30-Jan-21:  Log End Time 
 LOST.hr                     0:  Lost Rig Time 
 LSTM.      21.15.00 27-Jan-21:  Log Start Time 
 MDCL.ppm             41000.00:  Mud Chlorides 
 MDES.     Inversion Oil/Synthetic:  Mud Desc 
 DFD .sg                  1.40:  Mud Density 
 MDMN.sg                  1.40:  Dens Mud Min 
 MDMX.sg                  1.40:  Dens Mud Max 
 MOIL.                      53:  Run Mud Oil % 
 MOWR.                   66:34:  Run Mud OWR 
 MSND.                     0.2:  Run Mud Sand % 
 MSOL.                    17.9:  Run Mud Solids% 
 DFV .spqt               77.00:  Mud Viscosity 
 MWOD.in                  4.75:  MWD Tool OD 
 MWSI.                      No:  Serv Intrp, MWD 
 OTIM.hr                110.38:  Time Operating 
 PCON.           Look Like New:  Pad Condition 
 PMAX.psia             5300.00:  Press Op, Max 
 PV  .cP                 57.00:  Mud PV 
 RUN .                    1200:  Run Number 
 ROPA.m/hr               13.00:  ROP Avg 
 ROPN.m/hr                9.00:  ROP Min 
 ROPX.m/hr               15.00:  ROP Max 
 RPMA.rpm               120.00:  RPM Surface Avg 
 RPMN.rpm               100.00:  RPM Surface Min 
 RPMX.rpm               135.00:  RPM Surface Max 
 RRUN.                    1200:  Rig Run Number 
 RTIM.hr                  2.65:  Time Reaming 
 SAZI.deg               145.04:  Azm, Start 
 SDEP.m                4455.01:  Start Depth 
 SIDD.                      No:  Serv Intrp, DD 
 SINC.deg                65.83:  Inc, Start 
 SPPA.psig             5037.00:  SPP Avg 
 SPPN.psig             4430.00:  SPP Min 
 SPPX.psig             5300.00:  SPP Max 
 STIM.      22.41.04 26-Jan-21:  Start Time 
 SVCS.                 DD, MWD:  Services 
 SVER.                    9.20:  Sperry Version 
 TDAT.m                 412.00:  Tot Depth Attmp 
 TDDF.                      No:  Trip for DD 
 TDLG.m                 412.00:  Tot Depth Loggd 
 TFF .                      No:  Trip for Fail 
 TQAA.f-kp               15.00:  Torque Abs Avg 
 TQAN.f-kp               12.00:  Torque Abs Min 
 TQAX.f-kp               17.00:  Torque Abs Max 
 TRRT.°/30m               1.18:  Turn Rotating 
 MRT .                     ADR:  Maximum Recorded Temperature 
 TTMX.degC               88.24:  Max Tool Temp 
 VS01.                90619458:  Virtual Str1 SN 
 VS02.                90519326:  Virtual Str2 SN 
 VS03.                90522176:  Virtual Str3 SN 
 VS04.                90512683:  Virtual Str4 SN 
 WBMN.klb                 1.00:  WOB Min 
 WITN.           Murad Giluyev:  Customer Rep 
 WITN.     Kamran Kemberlinski:  Customer Rep 2 
 WOBA.klb                 5.00:  WOB Avg 
 WOBX.klb                 9.00:  WOB Max 
 YP  .lhf2               41.00:  Yield Point 
~Curve Information Block
#MNEM.UNIT                 API CODE     Curve Description
#---------               -----------    ---------------------------
 TIME.HHMMSS            00 000 000 000:  GT Time & Date
 GTDEPTH.m              00 000 000 000:  GT Depth
 GTPQH.psia             00 000 000 000:  GT HR Quartz Pressure
 GTTQ.degC              00 000 000 000:  GT Quartz Temperature
 GTTN.NONE              00 000 000 000:  GT Test Number
 GTET.sec               00 000 000 000:  GT Elapsed Test Time
 GTTVD.m                00 000 000 000:  GT True Vertical Depth
#Other Information
#
#WARRANTY: Halliburton will use its best efforts to furnish customers with 
#accurate information and interpretations that are part of, and incident to, the services 
#provided.  However, Halliburton cannot and does not warrant the accuracy 
#or correctness of such information and interpretations.  Under no circumstances should any 
#such information or interpretation be relied upon as the sole basis for any drilling, 
#completion, production, or financial decision or any procedure involving any risk to the 
#safety of any drilling venture, drilling rig or its crew or any other third party.  The 
#Customer has full responsibility for all drilling, completion and production operation.  
#Halliburton makes no representations or warranties, either expressed or 
#implied, including, but not limited to, the implied warranties of merchantability or fitness 
#for a particular purpose, with respect to the services rendered.  In no event will 
#Halliburton be liable for failure to obtain any particular results or for 
#any damages, including, but not limited to, indirect, special or consequential damages, 
#resulting from the use of any information or interpretation provided by Halliburton.
#
~A           TIME           GTDEPTH  GTPQH  GTTQ  GTTN  GTET   GTTVD  
# ...
   08:55:34.733.29-Jan-2021 4683.51 3064.98 80.55 9.00 276.06 2579.09
   08:55:34.933.29-Jan-2021 4683.51 3064.98 80.55 9.00 276.26 2579.09
   08:55:35.133.29-Jan-2021 4683.51 3064.97 80.55 9.00 276.46 2579.09
   08:55:35.333.29-Jan-2021 4683.51 3064.98 80.55 9.00 276.66 2579.09
   08:55:35.533.29-Jan-2021 4683.51 3064.98 80.55 9.00 276.86 2579.09
   08:55:35.733.29-Jan-2021 4683.51 3064.99 80.55 9.00 277.06 2579.09
   08:55:35.933.29-Jan-2021 4683.51 3064.99 80.55 9.00 277.26 2579.09
   08:55:36.133.29-Jan-2021 4683.51 3064.96 80.55 9.00 277.46 2579.09
   08:55:36.334.29-Jan-2021 4683.51 3064.99 80.55 9.00 277.66 2579.09
   08:55:36.534.29-Jan-2021 4683.51 3064.99 80.55 9.00 277.86 2579.09
   08:55:36.734.29-Jan-2021 4683.51 3064.99 80.55 9.00 278.06 2579.09
   08:55:36.934.29-Jan-2021 4683.51 3064.99 80.55 9.00 278.26 2579.09
   08:55:37.134.29-Jan-2021 4683.51 3064.97 80.54 9.00 278.46 2579.09
   08:55:37.334.29-Jan-2021 4683.51 3065.00 80.54 9.00 278.66 2579.09
   08:55:37.534.29-Jan-2021 4683.51 3065.00 80.54 9.00 278.86 2579.09
   08:55:37.734.29-Jan-2021 4683.51 3064.96 80.54 9.00 279.06 2579.09
   08:55:37.934.29-Jan-2021 4683.51 3064.96 80.54 9.00 279.26 2579.09
   08:55:38.134.29-Jan-2021 4683.51 3064.99 80.54 9.00 279.46 2579.09
   08:55:38.334.29-Jan-2021 4683.51 3064.98 80.54 9.00 279.66 2579.09
   08:55:38.534.29-Jan-2021 4683.51 3064.96 80.54 9.00 279.86 2579.09
   08:55:38.734.29-Jan-2021 4683.51 3065.01 80.54 9.00 280.06 2579.09
   08:55:38.934.29-Jan-2021 4683.51 3065.01 80.54 9.00 280.26 2579.09
   08:55:39.134.29-Jan-2021 4683.51 3064.97 80.54 9.00 280.46 2579.09
   08:55:39.334.29-Jan-2021 4683.51 3064.98 80.54 9.00 280.66 2579.09
   08:55:39.534.29-Jan-2021 4683.51 3064.99 80.54 9.00 280.86 2579.09
   08:55:39.734.29-Jan-2021 4683.51 3064.97 80.54 9.00 281.06 2579.09
   08:55:39.934.29-Jan-2021 4683.51 3064.97 80.54 9.00 281.26 2579.09
   08:55:40.134.29-Jan-2021 4683.51 3064.99 80.54 9.00 281.46 2579.09
   08:55:40.334.29-Jan-2021 4683.51 3064.98 80.54 9.00 281.66 2579.09
   08:55:40.534.29-Jan-2021 4683.51 3064.99 80.53 9.00 281.86 2579.09
   08:55:40.734.29-Jan-2021 4683.51 3064.97 80.53 9.00 282.06 2579.09
   08:55:40.934.29-Jan-2021 4683.51 3064.97 80.53 9.00 282.26 2579.09
   08:55:41.135.29-Jan-2021 4683.51 3064.91 80.53 9.00 282.46 2579.09
   08:55:41.335.29-Jan-2021 4683.51 3065.03 80.53 9.00 282.66 2579.09
   08:55:41.535.29-Jan-2021 4683.51 3065.00 80.53 9.00 282.86 2579.09
   08:55:41.735.29-Jan-2021 4683.51 3064.96 80.53 9.00 283.06 2579.09
   08:55:41.935.29-Jan-2021 4683.51 3064.96 80.53 9.00 283.26 2579.09
   08:55:42.135.29-Jan-2021 4683.51 3064.99 80.53 9.00 283.46 2579.09
   08:55:42.335.29-Jan-2021 4683.51 3064.97 80.53 9.00 283.66 2579.09
   08:55:42.535.29-Jan-2021 4683.51 3064.98 80.53 9.00 283.86 2579.09
   08:55:42.735.29-Jan-2021 4683.51 3064.97 80.53 9.00 284.06 2579.09
   08:55:42.935.29-Jan-2021 4683.51 3064.97 80.53 9.00 284.26 2579.09
   08:55:43.135.29-Jan-2021 4683.51 3064.97 80.53 9.00 284.46 2579.09
   08:55:43.335.29-Jan-2021 4683.51 3064.97 80.53 9.00 284.66 2579.09
   08:55:43.535.29-Jan-2021 4683.51 3064.97 80.53 9.00 284.86 2579.09
   08:55:43.735.29-Jan-2021 4683.51 3064.96 80.52 9.00 285.06 2579.09
   08:55:43.935.29-Jan-2021 4683.51 3064.96 80.52 9.00 285.26 2579.09
   08:55:44.135.29-Jan-2021 4683.51 3064.97 80.52 9.00 285.46 2579.09
   08:55:44.335.29-Jan-2021 4683.51 3064.98 80.52 9.00 285.66 2579.09
   08:55:44.535.29-Jan-2021 4683.51 3064.96 80.52 9.00 285.86 2579.09
   08:55:44.735.29-Jan-2021 4683.51 3064.93 80.52 9.00 286.06 2579.09
   08:55:44.935.29-Jan-2021 4683.51 3064.93 80.52 9.00 286.26 2579.09
   08:55:45.135.29-Jan-2021 4683.51 3064.99 80.52 9.00 286.46 2579.09
   08:55:45.335.29-Jan-2021 4683.51 3064.96 80.52 9.00 286.66 2579.09
   08:55:45.535.29-Jan-2021 4683.51 3064.99 80.52 9.00 286.86 2579.09
   08:55:45.735.29-Jan-2021 4683.51 3064.97 80.52 9.00 287.06 2579.09
   08:55:45.936.29-Jan-2021 4683.51 3064.97 80.52 9.00 287.26 2579.09
   08:55:46.136.29-Jan-2021 4683.51 3064.96 80.52 9.00 287.46 2579.09
   08:55:46.336.29-Jan-2021 4683.51 3064.97 80.52 9.00 287.66 2579.09
   08:55:46.536.29-Jan-2021 4683.51 3064.97 80.52 9.00 287.86 2579.09
   08:55:46.736.29-Jan-2021 4683.51 3064.96 80.52 9.00 288.06 2579.09
   08:55:46.936.29-Jan-2021 4683.51 3064.96 80.52 9.00 288.26 2579.09
   08:55:47.136.29-Jan-2021 4683.51 3064.97 80.51 9.00 288.46 2579.09
   08:55:47.336.29-Jan-2021 4683.51 3064.97 80.51 9.00 288.66 2579.09
   08:55:47.536.29-Jan-2021 4683.51 3064.95 80.51 9.00 288.86 2579.09
   08:55:47.736.29-Jan-2021 4683.51 3064.96 80.51 9.00 289.06 2579.09
   08:55:47.936.29-Jan-2021 4683.51 3064.96 80.51 9.00 289.26 2579.09
   08:55:48.136.29-Jan-2021 4683.51 3065.03 80.51 9.00 289.46 2579.09
   08:55:48.336.29-Jan-2021 4683.51 3064.98 80.51 9.00 289.66 2579.09
   08:55:48.536.29-Jan-2021 4683.51 3064.95 80.51 9.00 289.86 2579.09
   08:55:48.736.29-Jan-2021 4683.51 3064.94 80.51 9.00 290.06 2579.09
   08:55:48.936.29-Jan-2021 4683.51 3064.94 80.51 9.00 290.26 2579.09
   08:55:49.136.29-Jan-2021 4683.51 3064.97 80.51 9.00 290.46 2579.09
   08:55:49.336.29-Jan-2021 4683.51 3064.96 80.51 9.00 290.66 2579.09
   08:55:49.536.29-Jan-2021 4683.51 3064.98 80.51 9.00 290.86 2579.09
   08:55:49.736.29-Jan-2021 4683.51 3064.97 80.51 9.00 291.06 2579.09
   08:55:49.936.29-Jan-2021 4683.51 3064.97 80.51 9.00 291.26 2579.09
   08:55:50.136.29-Jan-2021 4683.51 3064.92 80.51 9.00 291.46 2579.09
   08:55:50.336.29-Jan-2021 4683.51 3065.02 80.50 9.00 291.66 2579.09
   08:55:50.537.29-Jan-2021 4683.51 3064.98 80.50 9.00 291.86 2579.09
   08:55:50.737.29-Jan-2021 4683.51 3064.95 80.50 9.00 292.06 2579.09
   08:55:50.937.29-Jan-2021 4683.51 3064.95 80.50 9.00 292.26 2579.09
   08:55:51.137.29-Jan-2021 4683.51 3064.98 80.50 9.00 292.46 2579.09
   08:55:51.337.29-Jan-2021 4683.51 3064.96 80.50 9.00 292.66 2579.09
   08:55:51.537.29-Jan-2021 4683.51 3064.95 80.50 9.00 292.86 2579.09
   08:55:51.737.29-Jan-2021 4683.51 3064.98 80.50 9.00 293.06 2579.09
   08:55:51.937.29-Jan-2021 4683.51 3064.98 80.50 9.00 293.26 2579.09
   08:55:52.137.29-Jan-2021 4683.51 3064.95 80.50 9.00 293.46 2579.09
   08:55:52.337.29-Jan-2021 4683.51 3064.98 80.50 9.00 293.66 2579.09
   08:55:52.537.29-Jan-2021 4683.51 3064.96 80.50 9.00 293.86 2579.09
   08:55:52.737.29-Jan-2021 4683.51 3064.96 80.50 9.00 294.06 2579.09
   08:55:52.937.29-Jan-2021 4683.51 3064.96 80.50 9.00 294.26 2579.09
   08:55:53.137.29-Jan-2021 4683.51 3064.98 80.50 9.00 294.46 2579.09
   08:55:53.337.29-Jan-2021 4683.51 3064.98 80.50 9.00 294.66 2579.09
   08:55:53.537.29-Jan-2021 4683.51 3064.95 80.50 9.00 294.86 2579.09
   08:55:53.737.29-Jan-2021 4683.51 3064.97 80.49 9.00 295.06 2579.09
   08:55:53.937.29-Jan-2021 4683.51 3064.97 80.49 9.00 295.26 2579.09
   08:55:54.137.29-Jan-2021 4683.51 3064.97 80.49 9.00 295.46 2579.09
   08:55:54.337.29-Jan-2021 4683.51 3064.95 80.49 9.00 295.66 2579.09
   08:55:54.537.29-Jan-2021 4683.51 3064.97 80.49 9.00 295.86 2579.09
   08:55:54.737.29-Jan-2021 4683.51 3064.95 80.49 9.00 296.06 2579.09
   08:55:54.937.29-Jan-2021 4683.51 3064.95 80.49 9.00 296.26 2579.09
   08:55:55.137.29-Jan-2021 4683.51 3064.95 80.49 9.00 296.46 2579.09
   08:55:55.338.29-Jan-2021 4683.51 3064.95 80.49 9.00 296.66 2579.09
   08:55:55.538.29-Jan-2021 4683.51 3064.96 80.49 9.00 296.86 2579.09
   08:55:55.738.29-Jan-2021 4683.51 3064.95 80.49 9.00 297.06 2579.09
   08:55:55.938.29-Jan-2021 4683.51 3064.95 80.49 9.00 297.26 2579.09
   08:55:56.138.29-Jan-2021 4683.51 3064.96 80.49 9.00 297.46 2579.09
   08:55:56.338.29-Jan-2021 4683.51 3064.95 80.49 9.00 297.66 2579.09
   08:55:56.538.29-Jan-2021 4683.51 3064.91 80.49 9.00 297.86 2579.09
   08:55:56.738.29-Jan-2021 4683.51 3065.01 80.49 9.00 298.06 2579.09
   08:55:56.938.29-Jan-2021 4683.51 3065.01 80.49 9.00 298.26 2579.09
   08:55:57.138.29-Jan-2021 4683.51 3064.94 80.48 9.00 298.46 2579.09
   08:55:57.338.29-Jan-2021 4683.51 3064.98 80.48 9.00 298.66 2579.09
   08:55:57.538.29-Jan-2021 4683.51 3064.97 80.48 9.00 298.86 2579.09
