~Version Information
 VERS.                  2.0:   CWLS log ASCII Standard -VERSION 2.0
 WRAP.                   NO:   One line per depth step
~Well Information Block
#MNEM.UNIT     VALUE/NAME     DESCRIPTION
#---------     -----------    ---------------------------
 STRT.S             02:56:18 28-Jan-21: START TIME 02:56:18 28-Jan-21
 STOP.S             03:02:54 28-Jan-21: STOP TIME  03:02:54 28-Jan-21
 STEP.S                   0.00: STEP TIME
 NULL.                 -999.25: NULL VALUE
 DFWT.                        :  DIST FWL TEXT
 DFST.                        :  DIST FSL TEXT
 DMF .             Drill Floor:  DRILL MEAS FROM
 STIM.      00.00.00 25-Sep-20:  START TIME
 DATE.      16.12.48 31-Jan-21:  END TIME
 SPUD.               20-Sep-20:  SPUD DATE
 NREF.                    Grid:  NORTH REFERENCE
 HPTY.       Minimum Curvature:  HOLE POS TYPE
 DMOD.             Drill Model:  DRILL MOD DESC
 SVYD.                  Survey:  SURVEY DESC
 ILTD.               Lithology:  INTERP LTH DESC
 FTOP.          Formation Tops:  FORM TOPS DESC
 RIG .              East Azeri:  RIG NAME
 PDAT.          Mean Sea Level:  PERMANENT DATUM
 FLD .                     ACG:  FIELD NAME
 SON .        AZ-XX-0906591820:  JOB NUMBER
 CTRY.              Azerbaijan:  COUNTRY NAME
 WELL.                     D37:  WELL NAME
 SRVC.     Turan Drilling & Engineering:  CONTRACTOR
 COMP.     BP Exploration (Caspian Sea) ltd.:  COMPANY
 WTYP.                Deviated:  WELL TYPE
 MDS .        Operator Entered:  MAG DATA SOURCE
 UWI .                     N/A:  UNIQUE WELL IDENTIFIER
 API .                     N/A:  API NUMBER
 BASE.              Azerbaijan:  LOGGING EQUIPMENT BASE LOCATION
 REGN.                   EESSA:  REGION
 PROV.                    Baku:  PROVINCE
 STAT.                    Baku:  STATE NAME
 MWDS.                    Baku:  MWD SHOP
 JOBN.        AZ-XX-0906591820:  JOB TICKET NUMB
 DOE .                     N/A:  DOE NUMBER
 DCON.         Sperry Drilling:  DIRECTNL CONTR
 UNIT.                     N/A:  LOGGING EQUIPMENT ID
 CNTY.                        :  COUNTY
 LOC .                        :  LOCATION
 LMF .             Drill Floor:  LOG MEASURED FROM
 TVDS.m                  43.60:  TVDSS CORRECTN
 LATI.deg                40.02:  LATITUDE
 LONG.deg                51.45:  LONGITUDE
 WHNS.m                  11.04:  WELL HEAD N/S
 WHEW.m                 -12.38:  WELL HEAD E/W
 UTMX.m              538763.98:  UTM X
 UTMY.m             4431880.20:  UTM Y
 DFWL.m                   0.00:  DISTANCE FWL
 DFSL.m                   0.00:  DISTANCE FSL
 SDEP.m                 300.00:  START DEPTH
 TDD .m                4900.01:  TOTAL DEPTH (DRILLER)
 VSDR.deg               185.64:  VERT SEC DIRECT
 GVFD.g                   1.00:  GRAVITY FIELD
 MFLD.nT              50301.00:  MAGNETIC FIELD
 MDIP.deg                59.46:  MAGNETIC DIP
 MDEC.deg                 6.43:  MAGNETIC DECL
 GRDC.deg                 0.29:  GRID CORRECTION
 AZTC.deg                 6.14:  AZM TOTAL CORR
 EPD .m                   0.00:  ELEVATION
 EGL .m                   0.00:  GROUND ELEVATION
 WDMS.m                 151.80:  WD ELEV
 APD .m                  43.60:  DEPTH ABOVE PD
 DEP .m                 571.69:  DEPTH
 AGAP.m                  43.60:  AIR GAP
 VSEW.m                 -12.38:  VERT SEC E/W
 VSNS.m                  11.04:  VERT SEC N/S
 EKB .m                  43.60:  KB ELEVATION
 EDF .m                  43.60:  DF ELEVATION
 TDL .m                 412.00:  TOTAL DEPTH (LOGGER)
 VSC .                       0:  VS TO CLOSURE
 MAGU.                 1849300:  MAGUTM CHECKSUM
~Parameter Information Block
#MNEM.UNIT       Value        Description
#---------     -----------    ---------------------------
 AV  .mps                 2.21:  Ann Velocity 
 AVMX.mps                 2.53:  Max Ann Veloc 
 AZIF.deg               144.83:  Azm, Final 
 BHAT.        Rotary Steerable:  BHA Type 
 BROT.°/30m              -0.52:  Build Rotating 
 BS  .in                  6.50:  Bit Size 
 BTPL.psig              209.00:  Bit Press Loss 
 CABU.                      No:  Customer Abuse 
 CGEO.        Ali Isfandiyarov:  Customer Geo 
 COMM.                     ì¡€:  Run Comments 1 
 TCS .hr                 61.31:  Time Ciculation Ended 
 CV  .mps                 4.66:  Crit Velocity 
 CVMX.mps                 5.02:  Max Crit Veloc 
 DD1 .          Fariz Nahmatov:  Direct Drillr 1 
 DD2 .            Musa Ahmadov:  Direct Drillr 2 
 DDSV.               Geo-Pilot:  DD Service 
 DEFF.%                 100.00:  % Det Eff 
 DLRX.°/30m               1.44:  Dogleg Rot Max 
 DLSO.°/30m               0.83:  Dogleg Oriented 
 DLSX.°/30m               1.44:  Dogleg Str Max 
 DRET.      08.30.00 30-Jan-21:  Drill End Time 
 DRST.      21.15.00 27-Jan-21:  Drill Start Tim 
 DTIM.hr                 37.28:  Time Drilling 
 EDEP.m                4867.01:  End Depth 
 ENG1.          Rasim Hashimov:  Engineer 1 
 ENG2.         Almaz Almadatov:  Engineer 2 
 ENG3.        Tamerlan Ahmadov:  Engineer 3 
 ETIM.      22.41.04 31-Jan-21:  End Time 
 FLOI.gpm               400.00:  Flow In 
 FLON.gpm               300.00:  Flow In Min 
 FLOS.cptm                0.00:  Fluid Loss 
 FLOX.gpm               400.00:  Flow In Max 
 HFLO.                      No:  High Flow 
 HPRE.                      No:  High Pressure 
 HTEM.                      No:  High Temp 
 HYDO.m                   1.80:  Hydro Offset 
 IFIN.deg                65.63:  Inc, Final 
 IMAX.deg                66.77:  Inc Max 
 IMIN.deg                65.61:  Inc Min 
 IMND.m                4612.67:  Inc Min Depth 
 IMXD.m                4811.63:  Inc Max Depth 
 JARR.                      No:  Jarring 
 LETM.      08.30.00 30-Jan-21:  Log End Time 
 LOST.hr                     0:  Lost Rig Time 
 LSTM.      21.15.00 27-Jan-21:  Log Start Time 
 MDCL.ppm             41000.00:  Mud Chlorides 
 MDES.     Inversion Oil/Synthetic:  Mud Desc 
 DFD .sg                  1.40:  Mud Density 
 MDMN.sg                  1.40:  Dens Mud Min 
 MDMX.sg                  1.40:  Dens Mud Max 
 MOIL.                      53:  Run Mud Oil % 
 MOWR.                   66:34:  Run Mud OWR 
 MSND.                     0.2:  Run Mud Sand % 
 MSOL.                    17.9:  Run Mud Solids% 
 DFV .spqt               77.00:  Mud Viscosity 
 MWOD.in                  4.75:  MWD Tool OD 
 MWSI.                      No:  Serv Intrp, MWD 
 OTIM.hr                110.38:  Time Operating 
 PCON.           Look Like New:  Pad Condition 
 PMAX.psia             5300.00:  Press Op, Max 
 PV  .cP                 57.00:  Mud PV 
 RUN .                    1200:  Run Number 
 ROPA.m/hr               13.00:  ROP Avg 
 ROPN.m/hr                9.00:  ROP Min 
 ROPX.m/hr               15.00:  ROP Max 
 RPMA.rpm               120.00:  RPM Surface Avg 
 RPMN.rpm               100.00:  RPM Surface Min 
 RPMX.rpm               135.00:  RPM Surface Max 
 RRUN.                    1200:  Rig Run Number 
 RTIM.hr                  2.65:  Time Reaming 
 SAZI.deg               145.04:  Azm, Start 
 SDEP.m                4455.01:  Start Depth 
 SIDD.                      No:  Serv Intrp, DD 
 SINC.deg                65.83:  Inc, Start 
 SPPA.psig             5037.00:  SPP Avg 
 SPPN.psig             4430.00:  SPP Min 
 SPPX.psig             5300.00:  SPP Max 
 STIM.      22.41.04 26-Jan-21:  Start Time 
 SVCS.                 DD, MWD:  Services 
 SVER.                    9.20:  Sperry Version 
 TDAT.m                 412.00:  Tot Depth Attmp 
 TDDF.                      No:  Trip for DD 
 TDLG.m                 412.00:  Tot Depth Loggd 
 TFF .                      No:  Trip for Fail 
 TQAA.f-kp               15.00:  Torque Abs Avg 
 TQAN.f-kp               12.00:  Torque Abs Min 
 TQAX.f-kp               17.00:  Torque Abs Max 
 TRRT.°/30m               1.18:  Turn Rotating 
 MRT .                     ADR:  Maximum Recorded Temperature 
 TTMX.degC               88.24:  Max Tool Temp 
 VS01.                90619458:  Virtual Str1 SN 
 VS02.                90519326:  Virtual Str2 SN 
 VS03.                90522176:  Virtual Str3 SN 
 VS04.                90512683:  Virtual Str4 SN 
 WBMN.klb                 1.00:  WOB Min 
 WITN.           Murad Giluyev:  Customer Rep 
 WITN.     Kamran Kemberlinski:  Customer Rep 2 
 WOBA.klb                 5.00:  WOB Avg 
 WOBX.klb                 9.00:  WOB Max 
 YP  .lhf2               41.00:  Yield Point 
~Curve Information Block
#MNEM.UNIT                 API CODE     Curve Description
#---------               -----------    ---------------------------
 TIME.HHMMSS            00 000 000 000:  GT Time & Date
 GTDEPTH.m              00 000 000 000:  GT Depth
 GTPQH.psia             00 000 000 000:  GT HR Quartz Pressure
 GTTQ.degC              00 000 000 000:  GT Quartz Temperature
 GTTN.NONE              00 000 000 000:  GT Test Number
 GTET.sec               00 000 000 000:  GT Elapsed Test Time
 GTTVD.m                00 000 000 000:  GT True Vertical Depth
#Other Information
#
#WARRANTY: Halliburton will use its best efforts to furnish customers with 
#accurate information and interpretations that are part of, and incident to, the services 
#provided.  However, Halliburton cannot and does not warrant the accuracy 
#or correctness of such information and interpretations.  Under no circumstances should any 
#such information or interpretation be relied upon as the sole basis for any drilling, 
#completion, production, or financial decision or any procedure involving any risk to the 
#safety of any drilling venture, drilling rig or its crew or any other third party.  The 
#Customer has full responsibility for all drilling, completion and production operation.  
#Halliburton makes no representations or warranties, either expressed or 
#implied, including, but not limited to, the implied warranties of merchantability or fitness 
#for a particular purpose, with respect to the services rendered.  In no event will 
#Halliburton be liable for failure to obtain any particular results or for 
#any damages, including, but not limited to, indirect, special or consequential damages, 
#resulting from the use of any information or interpretation provided by Halliburton.
#
~A           TIME           GTDEPTH  GTPQH  GTTQ  GTTN  GTET   GTTVD  
# ...
   03:01:17.000.28-Jan-2021 4452.31 5406.33 59.21 2.00 299.00 2484.76
   03:01:17.200.28-Jan-2021 4452.31 5406.33 59.21 2.00 299.20 2484.76
   03:01:17.400.28-Jan-2021 4452.31 5405.27 59.21 2.00 299.40 2484.76
   03:01:17.600.28-Jan-2021 4452.31 5405.55 59.21 2.00 299.60 2484.76
   03:01:17.800.28-Jan-2021 4452.31 5404.83 59.21 2.00 299.80 2484.76
   03:01:18.000.28-Jan-2021 4452.31 5399.48 59.21 2.00 300.00 2484.76
   03:01:18.200.28-Jan-2021 4452.31 5399.48 59.21 2.00 300.20 2484.76
   03:01:18.400.28-Jan-2021 4452.31 5404.73 59.21 2.00 300.40 2484.76
   03:01:18.600.28-Jan-2021 4452.31 5407.56 59.21 2.00 300.60 2484.76
   03:01:18.800.28-Jan-2021 4452.31 5407.28 59.21 2.00 300.80 2484.76
   03:01:19.000.28-Jan-2021 4452.31 5406.05 59.21 2.00 301.00 2484.76
   03:01:19.200.28-Jan-2021 4452.31 5406.05 59.21 2.00 301.20 2484.76
   03:01:19.400.28-Jan-2021 4452.31 5404.68 59.21 2.00 301.40 2484.76
   03:01:19.600.28-Jan-2021 4452.31 5405.98 59.21 2.00 301.60 2484.76
   03:01:19.800.28-Jan-2021 4452.31 5405.47 59.21 2.00 301.80 2484.76
   03:01:20.000.28-Jan-2021 4452.31 5405.88 59.21 2.00 302.00 2484.76
   03:01:20.200.28-Jan-2021 4452.31 5405.88 59.21 2.00 302.20 2484.76
   03:01:20.400.28-Jan-2021 4452.31 5405.36 59.21 2.00 302.40 2484.76
   03:01:20.600.28-Jan-2021 4452.31 5406.55 59.21 2.00 302.60 2484.76
   03:01:20.800.28-Jan-2021 4452.31 5405.48 59.21 2.00 302.80 2484.76
   03:01:21.000.28-Jan-2021 4452.31 5405.46 59.21 2.00 303.00 2484.76
   03:01:21.200.28-Jan-2021 4452.31 5405.46 59.21 2.00 303.20 2484.76
   03:01:21.400.28-Jan-2021 4452.31 5404.09 59.21 2.00 303.40 2484.76
   03:01:21.600.28-Jan-2021 4452.31 5399.70 59.21 2.00 303.60 2484.76
   03:01:21.800.28-Jan-2021 4452.31 5405.66 59.21 2.00 303.80 2484.76
   03:01:22.000.28-Jan-2021 4452.31 5406.32 59.21 2.00 304.00 2484.76
   03:01:22.200.28-Jan-2021 4452.31 5406.32 59.21 2.00 304.20 2484.76
   03:01:22.400.28-Jan-2021 4452.31 5397.31 59.21 2.00 304.40 2484.76
   03:01:22.600.28-Jan-2021 4452.31 5406.11 59.21 2.00 304.60 2484.76
   03:01:22.800.28-Jan-2021 4452.31 5406.05 59.21 2.00 304.80 2484.76
   03:01:23.000.28-Jan-2021 4452.31 5408.39 59.21 2.00 305.00 2484.76
   03:01:23.200.28-Jan-2021 4452.31 5408.39 59.21 2.00 305.20 2484.76
   03:01:23.400.28-Jan-2021 4452.31 5405.21 59.21 2.00 305.40 2484.76
   03:01:23.600.28-Jan-2021 4452.31 5406.10 59.21 2.00 305.60 2484.76
   03:01:23.800.28-Jan-2021 4452.31 5408.87 59.21 2.00 305.80 2484.76
   03:01:24.000.28-Jan-2021 4452.31 5407.22 59.21 2.00 306.00 2484.76
   03:01:24.200.28-Jan-2021 4452.31 5407.22 59.21 2.00 306.20 2484.76
   03:01:24.400.28-Jan-2021 4452.31 5404.45 59.21 2.00 306.40 2484.76
   03:01:24.600.28-Jan-2021 4452.31 5404.34 59.21 2.00 306.60 2484.76
   03:01:24.800.28-Jan-2021 4452.31 5408.42 59.21 2.00 306.80 2484.76
   03:01:25.000.28-Jan-2021 4452.31 5407.01 59.21 2.00 307.00 2484.76
   03:01:25.200.28-Jan-2021 4452.31 5407.01 59.21 2.00 307.20 2484.76
   03:01:25.400.28-Jan-2021 4452.31 5396.01 59.21 2.00 307.40 2484.76
   03:01:25.600.28-Jan-2021 4452.31 5404.40 59.21 2.00 307.60 2484.76
   03:01:25.800.28-Jan-2021 4452.31 5405.23 59.21 2.00 307.80 2484.76
   03:01:26.000.28-Jan-2021 4452.31 5407.15 59.21 2.00 308.00 2484.76
   03:01:26.200.28-Jan-2021 4452.31 5407.15 59.21 2.00 308.20 2484.76
   03:01:26.400.28-Jan-2021 4452.31 5405.37 59.21 2.00 308.40 2484.76
   03:01:26.600.28-Jan-2021 4452.31 5405.25 59.21 2.00 308.60 2484.76
   03:01:26.800.28-Jan-2021 4452.31 5405.57 59.21 2.00 308.80 2484.76
   03:01:27.000.28-Jan-2021 4452.31 5405.20 59.21 2.00 309.00 2484.76
   03:01:27.200.28-Jan-2021 4452.31 5405.20 59.21 2.00 309.20 2484.76
   03:01:27.400.28-Jan-2021 4452.31 5405.91 59.21 2.00 309.40 2484.76
   03:01:27.600.28-Jan-2021 4452.31 5405.34 59.21 2.00 309.60 2484.76
   03:01:27.800.28-Jan-2021 4452.31 5405.90 59.21 2.00 309.80 2484.76
   03:01:28.000.28-Jan-2021 4452.31 5405.43 59.21 2.00 310.00 2484.76
   03:01:28.200.28-Jan-2021 4452.31 5405.43 59.21 2.00 310.20 2484.76
   03:01:28.400.28-Jan-2021 4452.31 5405.24 59.21 2.00 310.40 2484.76
   03:01:28.600.28-Jan-2021 4452.31 5404.82 59.21 2.00 310.60 2484.76
   03:01:28.800.28-Jan-2021 4452.31 5404.06 59.21 2.00 310.80 2484.76
   03:01:29.000.28-Jan-2021 4452.31 5397.73 59.21 2.00 311.00 2484.76
   03:01:29.200.28-Jan-2021 4452.31 5397.73 59.21 2.00 311.20 2484.76
   03:01:29.400.28-Jan-2021 4452.31 5406.30 59.21 2.00 311.40 2484.76
   03:01:29.600.28-Jan-2021 4452.31 5407.39 59.21 2.00 311.60 2484.76
   03:01:29.800.28-Jan-2021 4452.31 5406.11 59.21 2.00 311.80 2484.76
   03:01:30.000.28-Jan-2021 4452.31 5405.08 59.21 2.00 312.00 2484.76
   03:01:30.200.28-Jan-2021 4452.31 5405.08 59.21 2.00 312.20 2484.76
   03:01:30.400.28-Jan-2021 4452.31 5405.54 59.21 2.00 312.40 2484.76
   03:01:30.600.28-Jan-2021 4452.31 5405.34 59.21 2.00 312.60 2484.76
   03:01:30.800.28-Jan-2021 4452.31 5405.92 59.21 2.00 312.80 2484.76
   03:01:31.000.28-Jan-2021 4452.31 5405.95 59.21 2.00 313.00 2484.76
   03:01:31.200.28-Jan-2021 4452.31 5405.95 59.21 2.00 313.20 2484.76
   03:01:31.400.28-Jan-2021 4452.31 5406.73 59.21 2.00 313.40 2484.76
   03:01:31.600.28-Jan-2021 4452.31 5405.17 59.21 2.00 313.60 2484.76
   03:01:31.800.28-Jan-2021 4452.31 5405.38 59.21 2.00 313.80 2484.76
   03:01:32.000.28-Jan-2021 4452.31 5405.82 59.21 2.00 314.00 2484.76
   03:01:32.200.28-Jan-2021 4452.31 5405.82 59.21 2.00 314.20 2484.76
   03:01:32.400.28-Jan-2021 4452.31 5398.48 59.21 2.00 314.40 2484.76
   03:01:32.600.28-Jan-2021 4452.31 5405.33 59.21 2.00 314.60 2484.76
   03:01:32.800.28-Jan-2021 4452.31 5405.45 59.21 2.00 314.80 2484.76
   03:01:33.000.28-Jan-2021 4452.31 5408.28 59.21 2.00 315.00 2484.76
   03:01:33.200.28-Jan-2021 4452.31 5408.28 59.21 2.00 315.20 2484.76
   03:01:33.400.28-Jan-2021 4452.31 5406.41 59.21 2.00 315.40 2484.76
   03:01:33.600.28-Jan-2021 4452.31 5405.55 59.21 2.00 315.60 2484.76
   03:01:33.800.28-Jan-2021 4452.31 5408.42 59.21 2.00 315.80 2484.76
   03:01:34.000.28-Jan-2021 4452.31 5398.15 59.21 2.00 316.00 2484.76
   03:01:34.200.28-Jan-2021 4452.31 5398.15 59.21 2.00 316.20 2484.76
   03:01:34.400.28-Jan-2021 4452.31 5406.08 59.21 2.00 316.40 2484.76
   03:01:34.600.28-Jan-2021 4452.31 5408.07 59.21 2.00 316.60 2484.76
   03:01:34.800.28-Jan-2021 4452.31 5407.90 59.21 2.00 316.80 2484.76
   03:01:35.000.28-Jan-2021 4452.31 5399.60 59.21 2.00 317.00 2484.76
   03:01:35.200.28-Jan-2021 4452.31 5399.60 59.21 2.00 317.20 2484.76
   03:01:35.400.28-Jan-2021 4452.31 5404.18 59.21 2.00 317.40 2484.76
   03:01:35.600.28-Jan-2021 4452.31 5406.89 59.21 2.00 317.60 2484.76
   03:01:35.800.28-Jan-2021 4452.31 5407.36 59.21 2.00 317.80 2484.76
   03:01:36.000.28-Jan-2021 4452.31 5405.91 59.21 2.00 318.00 2484.76
   03:01:36.200.28-Jan-2021 4452.31 5405.91 59.21 2.00 318.20 2484.76
   03:01:36.400.28-Jan-2021 4452.31 5402.37 59.21 2.00 318.40 2484.76
   03:01:36.600.28-Jan-2021 4452.31 5404.79 59.21 2.00 318.60 2484.76
   03:01:36.800.28-Jan-2021 4452.31 5406.46 59.21 2.00 318.80 2484.76
   03:01:37.000.28-Jan-2021 4452.31 5407.76 59.21 2.00 319.00 2484.76
   03:01:37.200.28-Jan-2021 4452.31 5407.76 59.21 2.00 319.20 2484.76
   03:01:37.400.28-Jan-2021 4452.31 5405.13 59.21 2.00 319.40 2484.76
   03:01:37.600.28-Jan-2021 4452.31 5405.43 59.21 2.00 319.60 2484.76
   03:01:37.800.28-Jan-2021 4452.31 5404.87 59.21 2.00 319.80 2484.76
   03:01:38.000.28-Jan-2021 4452.31 5406.06 59.21 2.00 320.00 2484.76
   03:01:38.200.28-Jan-2021 4452.31 5406.06 59.21 2.00 320.20 2484.76
   03:01:38.400.28-Jan-2021 4452.31 5405.73 59.21 2.00 320.40 2484.76
   03:01:38.600.28-Jan-2021 4452.31 5405.60 59.21 2.00 320.60 2484.76
   03:01:38.800.28-Jan-2021 4452.31 5405.29 59.21 2.00 320.80 2484.76
   03:01:39.000.28-Jan-2021 4452.31 5405.16 59.21 2.00 321.00 2484.76
   03:01:39.200.28-Jan-2021 4452.31 5405.16 59.21 2.00 321.20 2484.76
   03:01:39.400.28-Jan-2021 4452.31 5404.78 59.21 2.00 321.40 2484.76
   03:01:39.600.28-Jan-2021 4452.31 5405.25 59.21 2.00 321.60 2484.76
   03:01:39.800.28-Jan-2021 4452.31 5396.53 59.21 2.00 321.80 2484.76
