~Version Information
 VERS.                  2.0:   CWLS log ASCII Standard -VERSION 2.0
 WRAP.                   NO:   One line per depth step
~Well Information Block
#MNEM.UNIT     VALUE/NAME     DESCRIPTION
#---------     -----------    ---------------------------
 STRT.S             02:56:18 28-Jan-21: START TIME 02:56:18 28-Jan-21
 STOP.S             03:02:54 28-Jan-21: STOP TIME  03:02:54 28-Jan-21
 STEP.S                   0.00: STEP TIME
 NULL.                 -999.25: NULL VALUE
 DFWT.                        :  DIST FWL TEXT
 DFST.                        :  DIST FSL TEXT
 DMF .             Drill Floor:  DRILL MEAS FROM
 STIM.      00.00.00 25-Sep-20:  START TIME
 DATE.      16.12.48 31-Jan-21:  END TIME
 SPUD.               20-Sep-20:  SPUD DATE
 NREF.                    Grid:  NORTH REFERENCE
 HPTY.       Minimum Curvature:  HOLE POS TYPE
 DMOD.             Drill Model:  DRILL MOD DESC
 SVYD.                  Survey:  SURVEY DESC
 ILTD.               Lithology:  INTERP LTH DESC
 FTOP.          Formation Tops:  FORM TOPS DESC
 RIG .              East Azeri:  RIG NAME
 PDAT.          Mean Sea Level:  PERMANENT DATUM
 FLD .                     ACG:  FIELD NAME
 SON .        AZ-XX-0906591820:  JOB NUMBER
 CTRY.              Azerbaijan:  COUNTRY NAME
 WELL.                     D37:  WELL NAME
 SRVC.     Turan Drilling & Engineering:  CONTRACTOR
 COMP.     BP Exploration (Caspian Sea) ltd.:  COMPANY
 WTYP.                Deviated:  WELL TYPE
 MDS .        Operator Entered:  MAG DATA SOURCE
 UWI .                     N/A:  UNIQUE WELL IDENTIFIER
 API .                     N/A:  API NUMBER
 BASE.              Azerbaijan:  LOGGING EQUIPMENT BASE LOCATION
 REGN.                   EESSA:  REGION
 PROV.                    Baku:  PROVINCE
 STAT.                    Baku:  STATE NAME
 MWDS.                    Baku:  MWD SHOP
 JOBN.        AZ-XX-0906591820:  JOB TICKET NUMB
 DOE .                     N/A:  DOE NUMBER
 DCON.         Sperry Drilling:  DIRECTNL CONTR
 UNIT.                     N/A:  LOGGING EQUIPMENT ID
 CNTY.                        :  COUNTY
 LOC .                        :  LOCATION
 LMF .             Drill Floor:  LOG MEASURED FROM
 TVDS.m                  43.60:  TVDSS CORRECTN
 LATI.deg                40.02:  LATITUDE
 LONG.deg                51.45:  LONGITUDE
 WHNS.m                  11.04:  WELL HEAD N/S
 WHEW.m                 -12.38:  WELL HEAD E/W
 UTMX.m              538763.98:  UTM X
 UTMY.m             4431880.20:  UTM Y
 DFWL.m                   0.00:  DISTANCE FWL
 DFSL.m                   0.00:  DISTANCE FSL
 SDEP.m                 300.00:  START DEPTH
 TDD .m                4900.01:  TOTAL DEPTH (DRILLER)
 VSDR.deg               185.64:  VERT SEC DIRECT
 GVFD.g                   1.00:  GRAVITY FIELD
 MFLD.nT              50301.00:  MAGNETIC FIELD
 MDIP.deg                59.46:  MAGNETIC DIP
 MDEC.deg                 6.43:  MAGNETIC DECL
 GRDC.deg                 0.29:  GRID CORRECTION
 AZTC.deg                 6.14:  AZM TOTAL CORR
 EPD .m                   0.00:  ELEVATION
 EGL .m                   0.00:  GROUND ELEVATION
 WDMS.m                 151.80:  WD ELEV
 APD .m                  43.60:  DEPTH ABOVE PD
 DEP .m                 571.69:  DEPTH
 AGAP.m                  43.60:  AIR GAP
 VSEW.m                 -12.38:  VERT SEC E/W
 VSNS.m                  11.04:  VERT SEC N/S
 EKB .m                  43.60:  KB ELEVATION
 EDF .m                  43.60:  DF ELEVATION
 TDL .m                 412.00:  TOTAL DEPTH (LOGGER)
 VSC .                       0:  VS TO CLOSURE
 MAGU.                 1849300:  MAGUTM CHECKSUM
~Parameter Information Block
#MNEM.UNIT       Value        Description
#---------     -----------    ---------------------------
 AV  .mps                 2.21:  Ann Velocity 
 AVMX.mps                 2.53:  Max Ann Veloc 
 AZIF.deg               144.83:  Azm, Final 
 BHAT.        Rotary Steerable:  BHA Type 
 BROT.°/30m              -0.52:  Build Rotating 
 BS  .in                  6.50:  Bit Size 
 BTPL.psig              209.00:  Bit Press Loss 
 CABU.                      No:  Customer Abuse 
 CGEO.        Ali Isfandiyarov:  Customer Geo 
 COMM.                     ì¡€:  Run Comments 1 
 TCS .hr                 61.31:  Time Ciculation Ended 
 CV  .mps                 4.66:  Crit Velocity 
 CVMX.mps                 5.02:  Max Crit Veloc 
 DD1 .          Fariz Nahmatov:  Direct Drillr 1 
 DD2 .            Musa Ahmadov:  Direct Drillr 2 
 DDSV.               Geo-Pilot:  DD Service 
 DEFF.%                 100.00:  % Det Eff 
 DLRX.°/30m               1.44:  Dogleg Rot Max 
 DLSO.°/30m               0.83:  Dogleg Oriented 
 DLSX.°/30m               1.44:  Dogleg Str Max 
 DRET.      08.30.00 30-Jan-21:  Drill End Time 
 DRST.      21.15.00 27-Jan-21:  Drill Start Tim 
 DTIM.hr                 37.28:  Time Drilling 
 EDEP.m                4867.01:  End Depth 
 ENG1.          Rasim Hashimov:  Engineer 1 
 ENG2.         Almaz Almadatov:  Engineer 2 
 ENG3.        Tamerlan Ahmadov:  Engineer 3 
 ETIM.      22.41.04 31-Jan-21:  End Time 
 FLOI.gpm               400.00:  Flow In 
 FLON.gpm               300.00:  Flow In Min 
 FLOS.cptm                0.00:  Fluid Loss 
 FLOX.gpm               400.00:  Flow In Max 
 HFLO.                      No:  High Flow 
 HPRE.                      No:  High Pressure 
 HTEM.                      No:  High Temp 
 HYDO.m                   1.80:  Hydro Offset 
 IFIN.deg                65.63:  Inc, Final 
 IMAX.deg                66.77:  Inc Max 
 IMIN.deg                65.61:  Inc Min 
 IMND.m                4612.67:  Inc Min Depth 
 IMXD.m                4811.63:  Inc Max Depth 
 JARR.                      No:  Jarring 
 LETM.      08.30.00 30-Jan-21:  Log End Time 
 LOST.hr                     0:  Lost Rig Time 
 LSTM.      21.15.00 27-Jan-21:  Log Start Time 
 MDCL.ppm             41000.00:  Mud Chlorides 
 MDES.     Inversion Oil/Synthetic:  Mud Desc 
 DFD .sg                  1.40:  Mud Density 
 MDMN.sg                  1.40:  Dens Mud Min 
 MDMX.sg                  1.40:  Dens Mud Max 
 MOIL.                      53:  Run Mud Oil % 
 MOWR.                   66:34:  Run Mud OWR 
 MSND.                     0.2:  Run Mud Sand % 
 MSOL.                    17.9:  Run Mud Solids% 
 DFV .spqt               77.00:  Mud Viscosity 
 MWOD.in                  4.75:  MWD Tool OD 
 MWSI.                      No:  Serv Intrp, MWD 
 OTIM.hr                110.38:  Time Operating 
 PCON.           Look Like New:  Pad Condition 
 PMAX.psia             5300.00:  Press Op, Max 
 PV  .cP                 57.00:  Mud PV 
 RUN .                    1200:  Run Number 
 ROPA.m/hr               13.00:  ROP Avg 
 ROPN.m/hr                9.00:  ROP Min 
 ROPX.m/hr               15.00:  ROP Max 
 RPMA.rpm               120.00:  RPM Surface Avg 
 RPMN.rpm               100.00:  RPM Surface Min 
 RPMX.rpm               135.00:  RPM Surface Max 
 RRUN.                    1200:  Rig Run Number 
 RTIM.hr                  2.65:  Time Reaming 
 SAZI.deg               145.04:  Azm, Start 
 SDEP.m                4455.01:  Start Depth 
 SIDD.                      No:  Serv Intrp, DD 
 SINC.deg                65.83:  Inc, Start 
 SPPA.psig             5037.00:  SPP Avg 
 SPPN.psig             4430.00:  SPP Min 
 SPPX.psig             5300.00:  SPP Max 
 STIM.      22.41.04 26-Jan-21:  Start Time 
 SVCS.                 DD, MWD:  Services 
 SVER.                    9.20:  Sperry Version 
 TDAT.m                 412.00:  Tot Depth Attmp 
 TDDF.                      No:  Trip for DD 
 TDLG.m                 412.00:  Tot Depth Loggd 
 TFF .                      No:  Trip for Fail 
 TQAA.f-kp               15.00:  Torque Abs Avg 
 TQAN.f-kp               12.00:  Torque Abs Min 
 TQAX.f-kp               17.00:  Torque Abs Max 
 TRRT.°/30m               1.18:  Turn Rotating 
 MRT .                     ADR:  Maximum Recorded Temperature 
 TTMX.degC               88.24:  Max Tool Temp 
 VS01.                90619458:  Virtual Str1 SN 
 VS02.                90519326:  Virtual Str2 SN 
 VS03.                90522176:  Virtual Str3 SN 
 VS04.                90512683:  Virtual Str4 SN 
 WBMN.klb                 1.00:  WOB Min 
 WITN.           Murad Giluyev:  Customer Rep 
 WITN.     Kamran Kemberlinski:  Customer Rep 2 
 WOBA.klb                 5.00:  WOB Avg 
 WOBX.klb                 9.00:  WOB Max 
 YP  .lhf2               41.00:  Yield Point 
~Curve Information Block
#MNEM.UNIT                 API CODE     Curve Description
#---------               -----------    ---------------------------
 TIME.HHMMSS            00 000 000 000:  GT Time & Date
 GTDEPTH.m              00 000 000 000:  GT Depth
 GTPQH.psia             00 000 000 000:  GT HR Quartz Pressure
 GTTQ.degC              00 000 000 000:  GT Quartz Temperature
 GTTN.NONE              00 000 000 000:  GT Test Number
 GTET.sec               00 000 000 000:  GT Elapsed Test Time
 GTTVD.m                00 000 000 000:  GT True Vertical Depth
#Other Information
#
#WARRANTY: Halliburton will use its best efforts to furnish customers with 
#accurate information and interpretations that are part of, and incident to, the services 
#provided.  However, Halliburton cannot and does not warrant the accuracy 
#or correctness of such information and interpretations.  Under no circumstances should any 
#such information or interpretation be relied upon as the sole basis for any drilling, 
#completion, production, or financial decision or any procedure involving any risk to the 
#safety of any drilling venture, drilling rig or its crew or any other third party.  The 
#Customer has full responsibility for all drilling, completion and production operation.  
#Halliburton makes no representations or warranties, either expressed or 
#implied, including, but not limited to, the implied warranties of merchantability or fitness 
#for a particular purpose, with respect to the services rendered.  In no event will 
#Halliburton be liable for failure to obtain any particular results or for 
#any damages, including, but not limited to, indirect, special or consequential damages, 
#resulting from the use of any information or interpretation provided by Halliburton.
#
~A           TIME           GTDEPTH  GTPQH  GTTQ  GTTN  GTET   GTTVD  
# ...
   02:56:41.000.28-Jan-2021 4452.31 5399.82 59.34 2.00  23.00 2484.76
   02:56:41.200.28-Jan-2021 4452.31 5399.82 59.34 2.00  23.20 2484.76
   02:56:41.400.28-Jan-2021 4452.31 5402.94 59.34 2.00  23.40 2484.76
   02:56:41.600.28-Jan-2021 4452.31 5393.98 59.34 2.00  23.60 2484.76
   02:56:41.800.28-Jan-2021 4452.31 5399.78 59.34 2.00  23.80 2484.76
   02:56:42.000.28-Jan-2021 4452.31 5398.85 59.34 2.00  24.00 2484.76
   02:56:42.200.28-Jan-2021 4452.31 5398.85 59.34 2.00  24.20 2484.76
   02:56:42.400.28-Jan-2021 4452.31 5402.60 59.34 2.00  24.40 2484.76
   02:56:42.600.28-Jan-2021 4452.31 5391.68 59.34 2.00  24.60 2484.76
   02:56:42.800.28-Jan-2021 4452.31 5400.51 59.34 2.00  24.80 2484.76
   02:56:43.000.28-Jan-2021 4452.31 5399.14 59.34 2.00  25.00 2484.76
   02:56:43.200.28-Jan-2021 4452.31 5399.14 59.34 2.00  25.20 2484.76
   02:56:43.400.28-Jan-2021 4452.31 5399.09 59.34 2.00  25.40 2484.76
   02:56:43.600.28-Jan-2021 4452.31 5399.26 59.34 2.00  25.60 2484.76
   02:56:43.800.28-Jan-2021 4452.31 5401.02 59.34 2.00  25.80 2484.76
   02:56:44.000.28-Jan-2021 4452.31 5401.40 59.34 2.00  26.00 2484.76
   02:56:44.200.28-Jan-2021 4452.31 5401.40 59.34 2.00  26.20 2484.76
   02:56:44.400.28-Jan-2021 4452.31 5404.87 59.34 2.00  26.40 2484.76
   02:56:44.600.28-Jan-2021 4452.31 5404.00 59.34 2.00  26.60 2484.76
   02:56:44.800.28-Jan-2021 4452.31 5402.97 59.34 2.00  26.80 2484.76
   02:56:45.000.28-Jan-2021 4452.31 5401.15 59.34 2.00  27.00 2484.76
   02:56:45.200.28-Jan-2021 4452.31 5401.15 59.34 2.00  27.20 2484.76
   02:56:45.400.28-Jan-2021 4452.31 5400.92 59.33 2.00  27.40 2484.76
   02:56:45.600.28-Jan-2021 4452.31 5399.77 59.33 2.00  27.60 2484.76
   02:56:45.800.28-Jan-2021 4452.31 5400.87 59.33 2.00  27.80 2484.76
   02:56:46.000.28-Jan-2021 4452.31 5394.08 59.33 2.00  28.00 2484.76
   02:56:46.200.28-Jan-2021 4452.31 5394.08 59.33 2.00  28.20 2484.76
   02:56:46.400.28-Jan-2021 4452.31 5400.70 59.33 2.00  28.40 2484.76
   02:56:46.600.28-Jan-2021 4452.31 5401.67 59.33 2.00  28.60 2484.76
   02:56:46.800.28-Jan-2021 4452.31 5402.66 59.33 2.00  28.80 2484.76
   02:56:47.000.28-Jan-2021 4452.31 5401.70 59.33 2.00  29.00 2484.76
   02:56:47.200.28-Jan-2021 4452.31 5401.70 59.33 2.00  29.20 2484.76
   02:56:47.400.28-Jan-2021 4452.31 5400.67 59.33 2.00  29.40 2484.76
   02:56:47.600.28-Jan-2021 4452.31 5400.01 59.33 2.00  29.60 2484.76
   02:56:47.800.28-Jan-2021 4452.31 5400.83 59.33 2.00  29.80 2484.76
   02:56:48.000.28-Jan-2021 4452.31 5401.55 59.33 2.00  30.00 2484.76
   02:56:48.200.28-Jan-2021 4452.31 5401.55 59.33 2.00  30.20 2484.76
   02:56:48.400.28-Jan-2021 4452.31 5401.77 59.33 2.00  30.40 2484.76
   02:56:48.600.28-Jan-2021 4452.31 5401.58 59.33 2.00  30.60 2484.76
   02:56:48.800.28-Jan-2021 4452.31 5400.92 59.33 2.00  30.80 2484.76
   02:56:49.000.28-Jan-2021 4452.31 5401.95 59.33 2.00  31.00 2484.76
   02:56:49.200.28-Jan-2021 4452.31 5401.95 59.33 2.00  31.20 2484.76
   02:56:49.400.28-Jan-2021 4452.31 5400.08 59.33 2.00  31.40 2484.76
   02:56:49.600.28-Jan-2021 4452.31 5395.56 59.33 2.00  31.60 2484.76
   02:56:49.800.28-Jan-2021 4452.31 5401.06 59.33 2.00  31.80 2484.76
   02:56:50.000.28-Jan-2021 4452.31 5395.49 59.33 2.00  32.00 2484.76
   02:56:50.200.28-Jan-2021 4452.31 5395.49 59.33 2.00  32.20 2484.76
   02:56:50.400.28-Jan-2021 4452.31 5388.87 59.33 2.00  32.40 2484.76
   02:56:50.600.28-Jan-2021 4452.31 5397.35 59.33 2.00  32.60 2484.76
   02:56:50.800.28-Jan-2021 4452.31 5397.38 59.33 2.00  32.80 2484.76
   02:56:51.000.28-Jan-2021 4452.31 5398.81 59.33 2.00  33.00 2484.76
   02:56:51.200.28-Jan-2021 4452.31 5398.81 59.33 2.00  33.20 2484.76
   02:56:51.400.28-Jan-2021 4452.31 5398.27 59.33 2.00  33.40 2484.76
   02:56:51.600.28-Jan-2021 4452.31 5400.22 59.33 2.00  33.60 2484.76
   02:56:51.800.28-Jan-2021 4452.31 5400.17 59.33 2.00  33.80 2484.76
   02:56:52.000.28-Jan-2021 4452.31 5400.04 59.33 2.00  34.00 2484.76
   02:56:52.200.28-Jan-2021 4452.31 5400.04 59.33 2.00  34.20 2484.76
   02:56:52.400.28-Jan-2021 4452.31 5397.42 59.33 2.00  34.40 2484.76
   02:56:52.600.28-Jan-2021 4452.31 5398.21 59.33 2.00  34.60 2484.76
   02:56:52.800.28-Jan-2021 4452.31 5401.02 59.33 2.00  34.80 2484.76
   02:56:53.000.28-Jan-2021 4452.31 5399.74 59.33 2.00  35.00 2484.76
   02:56:53.200.28-Jan-2021 4452.31 5399.74 59.33 2.00  35.20 2484.76
   02:56:53.400.28-Jan-2021 4452.31 5396.95 59.33 2.00  35.40 2484.76
   02:56:53.600.28-Jan-2021 4452.31 5399.04 59.32 2.00  35.60 2484.76
   02:56:53.800.28-Jan-2021 4452.31 5400.75 59.32 2.00  35.80 2484.76
   02:56:54.000.28-Jan-2021 4452.31 5400.17 59.32 2.00  36.00 2484.76
   02:56:54.200.28-Jan-2021 4452.31 5400.17 59.32 2.00  36.20 2484.76
   02:56:54.400.28-Jan-2021 4452.31 5398.09 59.32 2.00  36.40 2484.76
   02:56:54.600.28-Jan-2021 4452.31 5399.70 59.32 2.00  36.60 2484.76
   02:56:54.800.28-Jan-2021 4452.31 5398.55 59.32 2.00  36.80 2484.76
   02:56:55.000.28-Jan-2021 4452.31 5399.49 59.32 2.00  37.00 2484.76
   02:56:55.200.28-Jan-2021 4452.31 5399.49 59.32 2.00  37.20 2484.76
   02:56:55.400.28-Jan-2021 4452.31 5398.60 59.32 2.00  37.40 2484.76
   02:56:55.600.28-Jan-2021 4452.31 5400.77 59.32 2.00  37.60 2484.76
   02:56:55.800.28-Jan-2021 4452.31 5399.00 59.32 2.00  37.80 2484.76
   02:56:56.000.28-Jan-2021 4452.31 5399.11 59.32 2.00  38.00 2484.76
   02:56:56.200.28-Jan-2021 4452.31 5399.11 59.32 2.00  38.20 2484.76
   02:56:56.400.28-Jan-2021 4452.31 5398.57 59.32 2.00  38.40 2484.76
   02:56:56.600.28-Jan-2021 4452.31 5397.94 59.32 2.00  38.60 2484.76
   02:56:56.800.28-Jan-2021 4452.31 5392.99 59.32 2.00  38.80 2484.76
   02:56:57.000.28-Jan-2021 4452.31 5398.96 59.32 2.00  39.00 2484.76
   02:56:57.200.28-Jan-2021 4452.31 5398.96 59.32 2.00  39.20 2484.76
   02:56:57.400.28-Jan-2021 4452.31 5401.63 59.32 2.00  39.40 2484.76
   02:56:57.600.28-Jan-2021 4452.31 5400.77 59.32 2.00  39.60 2484.76
   02:56:57.800.28-Jan-2021 4452.31 5399.64 59.32 2.00  39.80 2484.76
   02:56:58.000.28-Jan-2021 4452.31 5398.72 59.32 2.00  40.00 2484.76
   02:56:58.200.28-Jan-2021 4452.31 5398.72 59.32 2.00  40.20 2484.76
   02:56:58.400.28-Jan-2021 4452.31 5399.33 59.32 2.00  40.40 2484.76
   02:56:58.600.28-Jan-2021 4452.31 5400.52 59.32 2.00  40.60 2484.76
   02:56:58.800.28-Jan-2021 4452.31 5400.58 59.32 2.00  40.80 2484.76
   02:56:59.000.28-Jan-2021 4452.31 5399.55 59.32 2.00  41.00 2484.76
   02:56:59.200.28-Jan-2021 4452.31 5399.55 59.32 2.00  41.20 2484.76
   02:56:59.400.28-Jan-2021 4452.31 5399.81 59.32 2.00  41.40 2484.76
   02:56:59.600.28-Jan-2021 4452.31 5399.98 59.32 2.00  41.60 2484.76
   02:56:59.800.28-Jan-2021 4452.31 5400.31 59.32 2.00  41.80 2484.76
   02:57:00.000.28-Jan-2021 4452.31 5400.94 59.32 2.00  42.00 2484.76
   02:57:00.200.28-Jan-2021 4452.31 5400.94 59.32 2.00  42.20 2484.76
   02:57:00.400.28-Jan-2021 4452.31 5395.77 59.32 2.00  42.40 2484.76
   02:57:00.600.28-Jan-2021 4452.31 5401.02 59.32 2.00  42.60 2484.76
   02:57:00.800.28-Jan-2021 4452.31 5402.46 59.32 2.00  42.80 2484.76
   02:57:01.000.28-Jan-2021 4452.31 5404.01 59.32 2.00  43.00 2484.76
   02:57:01.200.28-Jan-2021 4452.31 5404.01 59.32 2.00  43.20 2484.76
   02:57:01.400.28-Jan-2021 4452.31 5401.30 59.32 2.00  43.40 2484.76
   02:57:01.600.28-Jan-2021 4452.31 5396.46 59.32 2.00  43.60 2484.76
   02:57:01.800.28-Jan-2021 4452.31 5402.88 59.32 2.00  43.80 2484.76
   02:57:02.000.28-Jan-2021 4452.31 5403.41 59.32 2.00  44.00 2484.76
   02:57:02.200.28-Jan-2021 4452.31 5403.41 59.32 2.00  44.20 2484.76
   02:57:02.400.28-Jan-2021 4452.31 5395.49 59.32 2.00  44.40 2484.76
   02:57:02.600.28-Jan-2021 4452.31 5402.45 59.32 2.00  44.60 2484.76
   02:57:02.800.28-Jan-2021 4452.31 5403.44 59.31 2.00  44.80 2484.76
   02:57:03.000.28-Jan-2021 4452.31 5397.53 59.31 2.00  45.00 2484.76
   02:57:03.200.28-Jan-2021 4452.31 5397.53 59.31 2.00  45.20 2484.76
   02:57:03.400.28-Jan-2021 4452.31 5402.71 59.31 2.00  45.40 2484.76
   02:57:03.600.28-Jan-2021 4452.31 5403.84 59.31 2.00  45.60 2484.76
   02:57:03.800.28-Jan-2021 4452.31 5395.82 59.31 2.00  45.80 2484.76
