~Version Information
 VERS.                  2.0:   CWLS log ASCII Standard -VERSION 2.0
 WRAP.                   NO:   One line per depth step
~Well Information Block
#MNEM.UNIT     VALUE/NAME     DESCRIPTION
#---------     -----------    ---------------------------
 STRT.S             05:51:52 30-Jan-21: START TIME 05:51:52 30-Jan-21
 STOP.S             05:58:20 30-Jan-21: STOP TIME  05:58:20 30-Jan-21
 STEP.S                   0.00: STEP TIME
 NULL.                 -999.25: NULL VALUE
 DFWT.                        :  DIST FWL TEXT
 DFST.                        :  DIST FSL TEXT
 DMF .             Drill Floor:  DRILL MEAS FROM
 STIM.      00.00.00 25-Sep-20:  START TIME
 DATE.      16.12.48 31-Jan-21:  END TIME
 SPUD.               20-Sep-20:  SPUD DATE
 NREF.                    Grid:  NORTH REFERENCE
 HPTY.       Minimum Curvature:  HOLE POS TYPE
 DMOD.             Drill Model:  DRILL MOD DESC
 SVYD.                  Survey:  SURVEY DESC
 ILTD.               Lithology:  INTERP LTH DESC
 FTOP.          Formation Tops:  FORM TOPS DESC
 RIG .              East Azeri:  RIG NAME
 PDAT.          Mean Sea Level:  PERMANENT DATUM
 FLD .                     ACG:  FIELD NAME
 SON .        AZ-XX-0906591820:  JOB NUMBER
 CTRY.              Azerbaijan:  COUNTRY NAME
 WELL.                     D37:  WELL NAME
 SRVC.     Turan Drilling & Engineering:  CONTRACTOR
 COMP.     BP Exploration (Caspian Sea) ltd.:  COMPANY
 WTYP.                Deviated:  WELL TYPE
 MDS .        Operator Entered:  MAG DATA SOURCE
 UWI .                     N/A:  UNIQUE WELL IDENTIFIER
 API .                     N/A:  API NUMBER
 BASE.              Azerbaijan:  LOGGING EQUIPMENT BASE LOCATION
 REGN.                   EESSA:  REGION
 PROV.                    Baku:  PROVINCE
 STAT.                    Baku:  STATE NAME
 MWDS.                    Baku:  MWD SHOP
 JOBN.        AZ-XX-0906591820:  JOB TICKET NUMB
 DOE .                     N/A:  DOE NUMBER
 DCON.         Sperry Drilling:  DIRECTNL CONTR
 UNIT.                     N/A:  LOGGING EQUIPMENT ID
 CNTY.                        :  COUNTY
 LOC .                        :  LOCATION
 LMF .             Drill Floor:  LOG MEASURED FROM
 TVDS.m                  43.60:  TVDSS CORRECTN
 LATI.deg                40.02:  LATITUDE
 LONG.deg                51.45:  LONGITUDE
 WHNS.m                  11.04:  WELL HEAD N/S
 WHEW.m                 -12.38:  WELL HEAD E/W
 UTMX.m              538763.98:  UTM X
 UTMY.m             4431880.20:  UTM Y
 DFWL.m                   0.00:  DISTANCE FWL
 DFSL.m                   0.00:  DISTANCE FSL
 SDEP.m                 300.00:  START DEPTH
 TDD .m                4900.01:  TOTAL DEPTH (DRILLER)
 VSDR.deg               185.64:  VERT SEC DIRECT
 GVFD.g                   1.00:  GRAVITY FIELD
 MFLD.nT              50301.00:  MAGNETIC FIELD
 MDIP.deg                59.46:  MAGNETIC DIP
 MDEC.deg                 6.43:  MAGNETIC DECL
 GRDC.deg                 0.29:  GRID CORRECTION
 AZTC.deg                 6.14:  AZM TOTAL CORR
 EPD .m                   0.00:  ELEVATION
 EGL .m                   0.00:  GROUND ELEVATION
 WDMS.m                 151.80:  WD ELEV
 APD .m                  43.60:  DEPTH ABOVE PD
 DEP .m                 571.69:  DEPTH
 AGAP.m                  43.60:  AIR GAP
 VSEW.m                 -12.38:  VERT SEC E/W
 VSNS.m                  11.04:  VERT SEC N/S
 EKB .m                  43.60:  KB ELEVATION
 EDF .m                  43.60:  DF ELEVATION
 TDL .m                 412.00:  TOTAL DEPTH (LOGGER)
 VSC .                       0:  VS TO CLOSURE
 MAGU.                 1849300:  MAGUTM CHECKSUM
~Parameter Information Block
#MNEM.UNIT       Value        Description
#---------     -----------    ---------------------------
 AV  .mps                 2.21:  Ann Velocity 
 AVMX.mps                 2.53:  Max Ann Veloc 
 AZIF.deg               144.83:  Azm, Final 
 BHAT.        Rotary Steerable:  BHA Type 
 BROT.°/30m              -0.52:  Build Rotating 
 BS  .in                  6.50:  Bit Size 
 BTPL.psig              209.00:  Bit Press Loss 
 CABU.                      No:  Customer Abuse 
 CGEO.        Ali Isfandiyarov:  Customer Geo 
 COMM.                     ü:x:  Run Comments 1 
 TCS .hr                 61.31:  Time Ciculation Ended 
 CV  .mps                 4.66:  Crit Velocity 
 CVMX.mps                 5.02:  Max Crit Veloc 
 DD1 .          Fariz Nahmatov:  Direct Drillr 1 
 DD2 .            Musa Ahmadov:  Direct Drillr 2 
 DDSV.               Geo-Pilot:  DD Service 
 DEFF.%                 100.00:  % Det Eff 
 DLRX.°/30m               1.44:  Dogleg Rot Max 
 DLSO.°/30m               0.83:  Dogleg Oriented 
 DLSX.°/30m               1.44:  Dogleg Str Max 
 DRET.      08.30.00 30-Jan-21:  Drill End Time 
 DRST.      21.15.00 27-Jan-21:  Drill Start Tim 
 DTIM.hr                 37.28:  Time Drilling 
 EDEP.m                4867.01:  End Depth 
 ENG1.          Rasim Hashimov:  Engineer 1 
 ENG2.         Almaz Almadatov:  Engineer 2 
 ENG3.        Tamerlan Ahmadov:  Engineer 3 
 ETIM.      22.41.04 31-Jan-21:  End Time 
 FLOI.gpm               400.00:  Flow In 
 FLON.gpm               300.00:  Flow In Min 
 FLOS.cptm                0.00:  Fluid Loss 
 FLOX.gpm               400.00:  Flow In Max 
 HFLO.                      No:  High Flow 
 HPRE.                      No:  High Pressure 
 HTEM.                      No:  High Temp 
 HYDO.m                   1.80:  Hydro Offset 
 IFIN.deg                65.63:  Inc, Final 
 IMAX.deg                66.77:  Inc Max 
 IMIN.deg                65.61:  Inc Min 
 IMND.m                4612.67:  Inc Min Depth 
 IMXD.m                4811.63:  Inc Max Depth 
 JARR.                      No:  Jarring 
 LETM.      08.30.00 30-Jan-21:  Log End Time 
 LOST.hr                     0:  Lost Rig Time 
 LSTM.      21.15.00 27-Jan-21:  Log Start Time 
 MDCL.ppm             41000.00:  Mud Chlorides 
 MDES.     Inversion Oil/Synthetic:  Mud Desc 
 DFD .sg                  1.40:  Mud Density 
 MDMN.sg                  1.40:  Dens Mud Min 
 MDMX.sg                  1.40:  Dens Mud Max 
 MOIL.                      53:  Run Mud Oil % 
 MOWR.                   66:34:  Run Mud OWR 
 MSND.                     0.2:  Run Mud Sand % 
 MSOL.                    17.9:  Run Mud Solids% 
 DFV .spqt               77.00:  Mud Viscosity 
 MWOD.in                  4.75:  MWD Tool OD 
 MWSI.                      No:  Serv Intrp, MWD 
 OTIM.hr                110.38:  Time Operating 
 PCON.           Look Like New:  Pad Condition 
 PMAX.psia             5300.00:  Press Op, Max 
 PV  .cP                 57.00:  Mud PV 
 RUN .                    1200:  Run Number 
 ROPA.m/hr               13.00:  ROP Avg 
 ROPN.m/hr                9.00:  ROP Min 
 ROPX.m/hr               15.00:  ROP Max 
 RPMA.rpm               120.00:  RPM Surface Avg 
 RPMN.rpm               100.00:  RPM Surface Min 
 RPMX.rpm               135.00:  RPM Surface Max 
 RRUN.                    1200:  Rig Run Number 
 RTIM.hr                  2.65:  Time Reaming 
 SAZI.deg               145.04:  Azm, Start 
 SDEP.m                4455.01:  Start Depth 
 SIDD.                      No:  Serv Intrp, DD 
 SINC.deg                65.83:  Inc, Start 
 SPPA.psig             5037.00:  SPP Avg 
 SPPN.psig             4430.00:  SPP Min 
 SPPX.psig             5300.00:  SPP Max 
 STIM.      22.41.04 26-Jan-21:  Start Time 
 SVCS.                 DD, MWD:  Services 
 SVER.                    9.20:  Sperry Version 
 TDAT.m                 412.00:  Tot Depth Attmp 
 TDDF.                      No:  Trip for DD 
 TDLG.m                 412.00:  Tot Depth Loggd 
 TFF .                      No:  Trip for Fail 
 TQAA.f-kp               15.00:  Torque Abs Avg 
 TQAN.f-kp               12.00:  Torque Abs Min 
 TQAX.f-kp               17.00:  Torque Abs Max 
 TRRT.°/30m               1.18:  Turn Rotating 
 MRT .                     ADR:  Maximum Recorded Temperature 
 TTMX.degC               88.24:  Max Tool Temp 
 VS01.                90619458:  Virtual Str1 SN 
 VS02.                90519326:  Virtual Str2 SN 
 VS03.                90522176:  Virtual Str3 SN 
 VS04.                90512683:  Virtual Str4 SN 
 WBMN.klb                 1.00:  WOB Min 
 WITN.           Murad Giluyev:  Customer Rep 
 WITN.     Kamran Kemberlinski:  Customer Rep 2 
 WOBA.klb                 5.00:  WOB Avg 
 WOBX.klb                 9.00:  WOB Max 
 YP  .lhf2               41.00:  Yield Point 
~Curve Information Block
#MNEM.UNIT                 API CODE     Curve Description
#---------               -----------    ---------------------------
 TIME.HHMMSS            00 000 000 000:  GT Time & Date
 GTDEPTH.m              00 000 000 000:  GT Depth
 GTPQH.psia             00 000 000 000:  GT HR Quartz Pressure
 GTTQ.degC              00 000 000 000:  GT Quartz Temperature
 GTTN.NONE              00 000 000 000:  GT Test Number
 GTET.sec               00 000 000 000:  GT Elapsed Test Time
 GTTVD.m                00 000 000 000:  GT True Vertical Depth
#Other Information
#
#WARRANTY: Halliburton will use its best efforts to furnish customers with 
#accurate information and interpretations that are part of, and incident to, the services 
#provided.  However, Halliburton cannot and does not warrant the accuracy 
#or correctness of such information and interpretations.  Under no circumstances should any 
#such information or interpretation be relied upon as the sole basis for any drilling, 
#completion, production, or financial decision or any procedure involving any risk to the 
#safety of any drilling venture, drilling rig or its crew or any other third party.  The 
#Customer has full responsibility for all drilling, completion and production operation.  
#Halliburton makes no representations or warranties, either expressed or 
#implied, including, but not limited to, the implied warranties of merchantability or fitness 
#for a particular purpose, with respect to the services rendered.  In no event will 
#Halliburton be liable for failure to obtain any particular results or for 
#any damages, including, but not limited to, indirect, special or consequential damages, 
#resulting from the use of any information or interpretation provided by Halliburton.
#
~A           TIME           GTDEPTH  GTPQH  GTTQ  GTTN   GTET   GTTVD  
# ...
   05:53:45.154.30-Jan-2021 4813.01 3149.33 84.23 17.00 113.01 2630.70
   05:53:45.354.30-Jan-2021 4813.01 3149.33 84.23 17.00 113.21 2630.70
   05:53:45.554.30-Jan-2021 4813.01 3149.33 84.23 17.00 113.41 2630.70
   05:53:45.754.30-Jan-2021 4813.01 3149.32 84.23 17.00 113.61 2630.70
   05:53:45.954.30-Jan-2021 4813.01 3149.33 84.23 17.00 113.81 2630.70
   05:53:46.154.30-Jan-2021 4813.01 3149.31 84.23 17.00 114.01 2630.70
   05:53:46.354.30-Jan-2021 4813.01 3149.31 84.23 17.00 114.21 2630.70
   05:53:46.554.30-Jan-2021 4813.01 3149.31 84.23 17.00 114.42 2630.70
   05:53:46.754.30-Jan-2021 4813.01 3149.32 84.23 17.00 114.62 2630.70
   05:53:46.955.30-Jan-2021 4813.01 3149.31 84.23 17.00 114.82 2630.70
   05:53:47.155.30-Jan-2021 4813.01 3149.31 84.23 17.00 115.02 2630.70
   05:53:47.355.30-Jan-2021 4813.01 3149.31 84.23 17.00 115.22 2630.70
   05:53:47.555.30-Jan-2021 4813.01 3149.27 84.23 17.00 115.42 2630.70
   05:53:47.755.30-Jan-2021 4813.01 3149.35 84.23 17.00 115.62 2630.70
   05:53:47.955.30-Jan-2021 4813.01 3149.31 84.22 17.00 115.82 2630.70
   05:53:48.155.30-Jan-2021 4813.01 3149.31 84.22 17.00 116.02 2630.70
   05:53:48.355.30-Jan-2021 4813.01 3149.31 84.22 17.00 116.22 2630.70
   05:53:48.555.30-Jan-2021 4813.01 3149.29 84.22 17.00 116.42 2630.70
   05:53:48.755.30-Jan-2021 4813.01 3149.31 84.22 17.00 116.62 2630.70
   05:53:48.955.30-Jan-2021 4813.01 3149.31 84.22 17.00 116.82 2630.70
   05:53:49.155.30-Jan-2021 4813.01 3149.30 84.22 17.00 117.02 2630.70
   05:53:49.355.30-Jan-2021 4813.01 3149.30 84.22 17.00 117.22 2630.70
   05:53:49.555.30-Jan-2021 4813.01 3149.29 84.22 17.00 117.42 2630.70
   05:53:49.755.30-Jan-2021 4813.01 3149.30 84.22 17.00 117.62 2630.70
   05:53:49.955.30-Jan-2021 4813.01 3149.29 84.22 17.00 117.82 2630.70
   05:53:50.155.30-Jan-2021 4813.01 3149.30 84.22 17.00 118.02 2630.70
   05:53:50.355.30-Jan-2021 4813.01 3149.30 84.22 17.00 118.22 2630.70
   05:53:50.555.30-Jan-2021 4813.01 3149.30 84.22 17.00 118.42 2630.70
   05:53:50.755.30-Jan-2021 4813.01 3149.24 84.22 17.00 118.62 2630.70
   05:53:50.955.30-Jan-2021 4813.01 3149.34 84.22 17.00 118.82 2630.70
   05:53:51.155.30-Jan-2021 4813.01 3149.29 84.22 17.00 119.02 2630.70
   05:53:51.355.30-Jan-2021 4813.01 3149.29 84.22 17.00 119.22 2630.70
   05:53:51.555.30-Jan-2021 4813.01 3149.28 84.21 17.00 119.42 2630.70
   05:53:51.755.30-Jan-2021 4813.01 3149.28 84.21 17.00 119.62 2630.70
   05:53:51.955.30-Jan-2021 4813.01 3149.29 84.21 17.00 119.82 2630.70
   05:53:52.155.30-Jan-2021 4813.01 3149.29 84.21 17.00 120.02 2630.70
   05:53:52.355.30-Jan-2021 4813.01 3149.29 84.21 17.00 120.22 2630.70
   05:53:52.555.30-Jan-2021 4813.01 3149.26 84.21 17.00 120.42 2630.70
   05:53:52.755.30-Jan-2021 4813.01 3149.29 84.21 17.00 120.62 2630.70
   05:53:52.955.30-Jan-2021 4813.01 3149.29 84.21 17.00 120.82 2630.70
   05:53:53.155.30-Jan-2021 4813.01 3149.29 84.21 17.00 121.02 2630.70
   05:53:53.355.30-Jan-2021 4813.01 3149.29 84.21 17.00 121.22 2630.70
   05:53:53.555.30-Jan-2021 4813.01 3149.29 84.21 17.00 121.42 2630.70
   05:53:53.755.30-Jan-2021 4813.01 3149.25 84.21 17.00 121.62 2630.70
   05:53:53.955.30-Jan-2021 4813.01 3149.30 84.21 17.00 121.82 2630.70
   05:53:54.155.30-Jan-2021 4813.01 3149.28 84.21 17.00 122.02 2630.70
   05:53:54.355.30-Jan-2021 4813.01 3149.28 84.21 17.00 122.22 2630.70
   05:53:54.556.30-Jan-2021 4813.01 3149.24 84.20 17.00 122.42 2630.70
   05:53:54.756.30-Jan-2021 4813.01 3149.29 84.20 17.00 122.62 2630.70
   05:53:54.956.30-Jan-2021 4813.01 3149.29 84.20 17.00 122.82 2630.70
   05:53:55.156.30-Jan-2021 4813.01 3149.27 84.20 17.00 123.02 2630.70
   05:53:55.356.30-Jan-2021 4813.01 3149.27 84.20 17.00 123.22 2630.70
   05:53:55.556.30-Jan-2021 4813.01 3149.26 84.20 17.00 123.42 2630.70
   05:53:55.756.30-Jan-2021 4813.01 3149.27 84.20 17.00 123.62 2630.70
   05:53:55.956.30-Jan-2021 4813.01 3149.27 84.20 17.00 123.82 2630.70
   05:53:56.156.30-Jan-2021 4813.01 3149.27 84.20 17.00 124.02 2630.70
   05:53:56.356.30-Jan-2021 4813.01 3149.27 84.20 17.00 124.22 2630.70
   05:53:56.556.30-Jan-2021 4813.01 3149.26 84.20 17.00 124.42 2630.70
   05:53:56.756.30-Jan-2021 4813.01 3149.25 84.20 17.00 124.62 2630.70
   05:53:56.956.30-Jan-2021 4813.01 3149.26 84.20 17.00 124.82 2630.70
   05:53:57.156.30-Jan-2021 4813.01 3149.26 84.20 17.00 125.02 2630.70
   05:53:57.356.30-Jan-2021 4813.01 3149.26 84.20 17.00 125.22 2630.70
   05:53:57.556.30-Jan-2021 4813.01 3149.25 84.20 17.00 125.42 2630.70
   05:53:57.756.30-Jan-2021 4813.01 3149.25 84.20 17.00 125.62 2630.70
   05:53:57.956.30-Jan-2021 4813.01 3149.25 84.19 17.00 125.82 2630.70
   05:53:58.156.30-Jan-2021 4813.01 3149.23 84.19 17.00 126.02 2630.70
   05:53:58.356.30-Jan-2021 4813.01 3149.23 84.19 17.00 126.22 2630.70
   05:53:58.556.30-Jan-2021 4813.01 3149.26 84.19 17.00 126.42 2630.70
   05:53:58.756.30-Jan-2021 4813.01 3149.25 84.19 17.00 126.62 2630.70
   05:53:58.956.30-Jan-2021 4813.01 3149.23 84.19 17.00 126.82 2630.70
   05:53:59.156.30-Jan-2021 4813.01 3149.25 84.19 17.00 127.02 2630.70
   05:53:59.356.30-Jan-2021 4813.01 3149.25 84.19 17.00 127.22 2630.70
   05:53:59.556.30-Jan-2021 4813.01 3149.25 84.19 17.00 127.42 2630.70
   05:53:59.756.30-Jan-2021 4813.01 3149.23 84.19 17.00 127.62 2630.70
   05:53:59.956.30-Jan-2021 4813.01 3149.24 84.19 17.00 127.82 2630.70
   05:54:00.156.30-Jan-2021 4813.01 3149.23 84.19 17.00 128.02 2630.70
   05:54:00.356.30-Jan-2021 4813.01 3149.23 84.19 17.00 128.22 2630.70
   05:54:00.556.30-Jan-2021 4813.01 3149.23 84.19 17.00 128.42 2630.70
   05:54:00.756.30-Jan-2021 4813.01 3149.23 84.19 17.00 128.62 2630.70
   05:54:00.956.30-Jan-2021 4813.01 3149.23 84.19 17.00 128.82 2630.70
   05:54:01.156.30-Jan-2021 4813.01 3149.22 84.18 17.00 129.02 2630.70
   05:54:01.356.30-Jan-2021 4813.01 3149.22 84.18 17.00 129.22 2630.70
   05:54:01.556.30-Jan-2021 4813.01 3149.24 84.18 17.00 129.42 2630.70
   05:54:01.756.30-Jan-2021 4813.01 3149.24 84.18 17.00 129.62 2630.70
   05:54:01.956.30-Jan-2021 4813.01 3149.22 84.18 17.00 129.82 2630.70
   05:54:02.157.30-Jan-2021 4813.01 3149.16 84.18 17.00 130.02 2630.70
   05:54:02.357.30-Jan-2021 4813.01 3149.16 84.18 17.00 130.22 2630.70
   05:54:02.557.30-Jan-2021 4813.01 3149.25 84.18 17.00 130.42 2630.70
   05:54:02.757.30-Jan-2021 4813.01 3149.22 84.18 17.00 130.62 2630.70
   05:54:02.957.30-Jan-2021 4813.01 3149.16 84.18 17.00 130.82 2630.70
   05:54:03.157.30-Jan-2021 4813.01 3149.26 84.18 17.00 131.02 2630.70
   05:54:03.357.30-Jan-2021 4813.01 3149.26 84.18 17.00 131.22 2630.70
   05:54:03.557.30-Jan-2021 4813.01 3149.22 84.18 17.00 131.42 2630.70
   05:54:03.757.30-Jan-2021 4813.01 3149.23 84.18 17.00 131.62 2630.70
   05:54:03.957.30-Jan-2021 4813.01 3149.20 84.18 17.00 131.82 2630.70
   05:54:04.157.30-Jan-2021 4813.01 3149.16 84.18 17.00 132.02 2630.70
   05:54:04.357.30-Jan-2021 4813.01 3149.16 84.18 17.00 132.22 2630.70
   05:54:04.557.30-Jan-2021 4813.01 3134.54 84.17 17.00 132.42 2630.70
   05:54:04.757.30-Jan-2021 4813.01 3134.48 84.17 17.00 132.62 2630.70
   05:54:04.957.30-Jan-2021 4813.01 3134.27 84.17 17.00 132.82 2630.70
   05:54:05.157.30-Jan-2021 4813.01 3134.56 84.17 17.00 133.02 2630.70
   05:54:05.357.30-Jan-2021 4813.01 3134.56 84.17 17.00 133.22 2630.70
   05:54:05.557.30-Jan-2021 4813.01 3134.57 84.17 17.00 133.42 2630.70
   05:54:05.757.30-Jan-2021 4813.01 3134.41 84.17 17.00 133.62 2630.70
   05:54:05.957.30-Jan-2021 4813.01 3134.32 84.17 17.00 133.82 2630.70
   05:54:06.157.30-Jan-2021 4813.01 3134.27 84.17 17.00 134.02 2630.70
   05:54:06.357.30-Jan-2021 4813.01 3134.27 84.17 17.00 134.22 2630.70
   05:54:06.557.30-Jan-2021 4813.01 3134.29 84.17 17.00 134.42 2630.70
   05:54:06.757.30-Jan-2021 4813.01 3134.44 84.17 17.00 134.62 2630.70
   05:54:06.957.30-Jan-2021 4813.01 3134.23 84.17 17.00 134.82 2630.70
   05:54:07.157.30-Jan-2021 4813.01 3134.41 84.17 17.00 135.02 2630.70
   05:54:07.357.30-Jan-2021 4813.01 3134.41 84.17 17.00 135.22 2630.70
   05:54:07.557.30-Jan-2021 4813.01 3134.31 84.17 17.00 135.42 2630.70
