~Version Information
 VERS.                  2.0:   CWLS log ASCII Standard -VERSION 2.0
 WRAP.                   NO:   One line per depth step
~Well Information Block
#MNEM.UNIT     VALUE/NAME     DESCRIPTION
#---------     -----------    ---------------------------
 STRT.S             05:51:52 30-Jan-21: START TIME 05:51:52 30-Jan-21
 STOP.S             05:58:20 30-Jan-21: STOP TIME  05:58:20 30-Jan-21
 STEP.S                   0.00: STEP TIME
 NULL.                 -999.25: NULL VALUE
 DFWT.                        :  DIST FWL TEXT
 DFST.                        :  DIST FSL TEXT
 DMF .             Drill Floor:  DRILL MEAS FROM
 STIM.      00.00.00 25-Sep-20:  START TIME
 DATE.      16.12.48 31-Jan-21:  END TIME
 SPUD.               20-Sep-20:  SPUD DATE
 NREF.                    Grid:  NORTH REFERENCE
 HPTY.       Minimum Curvature:  HOLE POS TYPE
 DMOD.             Drill Model:  DRILL MOD DESC
 SVYD.                  Survey:  SURVEY DESC
 ILTD.               Lithology:  INTERP LTH DESC
 FTOP.          Formation Tops:  FORM TOPS DESC
 RIG .              East Azeri:  RIG NAME
 PDAT.          Mean Sea Level:  PERMANENT DATUM
 FLD .                     ACG:  FIELD NAME
 SON .        AZ-XX-0906591820:  JOB NUMBER
 CTRY.              Azerbaijan:  COUNTRY NAME
 WELL.                     D37:  WELL NAME
 SRVC.     Turan Drilling & Engineering:  CONTRACTOR
 COMP.     BP Exploration (Caspian Sea) ltd.:  COMPANY
 WTYP.                Deviated:  WELL TYPE
 MDS .        Operator Entered:  MAG DATA SOURCE
 UWI .                     N/A:  UNIQUE WELL IDENTIFIER
 API .                     N/A:  API NUMBER
 BASE.              Azerbaijan:  LOGGING EQUIPMENT BASE LOCATION
 REGN.                   EESSA:  REGION
 PROV.                    Baku:  PROVINCE
 STAT.                    Baku:  STATE NAME
 MWDS.                    Baku:  MWD SHOP
 JOBN.        AZ-XX-0906591820:  JOB TICKET NUMB
 DOE .                     N/A:  DOE NUMBER
 DCON.         Sperry Drilling:  DIRECTNL CONTR
 UNIT.                     N/A:  LOGGING EQUIPMENT ID
 CNTY.                        :  COUNTY
 LOC .                        :  LOCATION
 LMF .             Drill Floor:  LOG MEASURED FROM
 TVDS.m                  43.60:  TVDSS CORRECTN
 LATI.deg                40.02:  LATITUDE
 LONG.deg                51.45:  LONGITUDE
 WHNS.m                  11.04:  WELL HEAD N/S
 WHEW.m                 -12.38:  WELL HEAD E/W
 UTMX.m              538763.98:  UTM X
 UTMY.m             4431880.20:  UTM Y
 DFWL.m                   0.00:  DISTANCE FWL
 DFSL.m                   0.00:  DISTANCE FSL
 SDEP.m                 300.00:  START DEPTH
 TDD .m                4900.01:  TOTAL DEPTH (DRILLER)
 VSDR.deg               185.64:  VERT SEC DIRECT
 GVFD.g                   1.00:  GRAVITY FIELD
 MFLD.nT              50301.00:  MAGNETIC FIELD
 MDIP.deg                59.46:  MAGNETIC DIP
 MDEC.deg                 6.43:  MAGNETIC DECL
 GRDC.deg                 0.29:  GRID CORRECTION
 AZTC.deg                 6.14:  AZM TOTAL CORR
 EPD .m                   0.00:  ELEVATION
 EGL .m                   0.00:  GROUND ELEVATION
 WDMS.m                 151.80:  WD ELEV
 APD .m                  43.60:  DEPTH ABOVE PD
 DEP .m                 571.69:  DEPTH
 AGAP.m                  43.60:  AIR GAP
 VSEW.m                 -12.38:  VERT SEC E/W
 VSNS.m                  11.04:  VERT SEC N/S
 EKB .m                  43.60:  KB ELEVATION
 EDF .m                  43.60:  DF ELEVATION
 TDL .m                 412.00:  TOTAL DEPTH (LOGGER)
 VSC .                       0:  VS TO CLOSURE
 MAGU.                 1849300:  MAGUTM CHECKSUM
~Parameter Information Block
#MNEM.UNIT       Value        Description
#---------     -----------    ---------------------------
 AV  .mps                 2.21:  Ann Velocity 
 AVMX.mps                 2.53:  Max Ann Veloc 
 AZIF.deg               144.83:  Azm, Final 
 BHAT.        Rotary Steerable:  BHA Type 
 BROT.°/30m              -0.52:  Build Rotating 
 BS  .in                  6.50:  Bit Size 
 BTPL.psig              209.00:  Bit Press Loss 
 CABU.                      No:  Customer Abuse 
 CGEO.        Ali Isfandiyarov:  Customer Geo 
 COMM.                     ü:x:  Run Comments 1 
 TCS .hr                 61.31:  Time Ciculation Ended 
 CV  .mps                 4.66:  Crit Velocity 
 CVMX.mps                 5.02:  Max Crit Veloc 
 DD1 .          Fariz Nahmatov:  Direct Drillr 1 
 DD2 .            Musa Ahmadov:  Direct Drillr 2 
 DDSV.               Geo-Pilot:  DD Service 
 DEFF.%                 100.00:  % Det Eff 
 DLRX.°/30m               1.44:  Dogleg Rot Max 
 DLSO.°/30m               0.83:  Dogleg Oriented 
 DLSX.°/30m               1.44:  Dogleg Str Max 
 DRET.      08.30.00 30-Jan-21:  Drill End Time 
 DRST.      21.15.00 27-Jan-21:  Drill Start Tim 
 DTIM.hr                 37.28:  Time Drilling 
 EDEP.m                4867.01:  End Depth 
 ENG1.          Rasim Hashimov:  Engineer 1 
 ENG2.         Almaz Almadatov:  Engineer 2 
 ENG3.        Tamerlan Ahmadov:  Engineer 3 
 ETIM.      22.41.04 31-Jan-21:  End Time 
 FLOI.gpm               400.00:  Flow In 
 FLON.gpm               300.00:  Flow In Min 
 FLOS.cptm                0.00:  Fluid Loss 
 FLOX.gpm               400.00:  Flow In Max 
 HFLO.                      No:  High Flow 
 HPRE.                      No:  High Pressure 
 HTEM.                      No:  High Temp 
 HYDO.m                   1.80:  Hydro Offset 
 IFIN.deg                65.63:  Inc, Final 
 IMAX.deg                66.77:  Inc Max 
 IMIN.deg                65.61:  Inc Min 
 IMND.m                4612.67:  Inc Min Depth 
 IMXD.m                4811.63:  Inc Max Depth 
 JARR.                      No:  Jarring 
 LETM.      08.30.00 30-Jan-21:  Log End Time 
 LOST.hr                     0:  Lost Rig Time 
 LSTM.      21.15.00 27-Jan-21:  Log Start Time 
 MDCL.ppm             41000.00:  Mud Chlorides 
 MDES.     Inversion Oil/Synthetic:  Mud Desc 
 DFD .sg                  1.40:  Mud Density 
 MDMN.sg                  1.40:  Dens Mud Min 
 MDMX.sg                  1.40:  Dens Mud Max 
 MOIL.                      53:  Run Mud Oil % 
 MOWR.                   66:34:  Run Mud OWR 
 MSND.                     0.2:  Run Mud Sand % 
 MSOL.                    17.9:  Run Mud Solids% 
 DFV .spqt               77.00:  Mud Viscosity 
 MWOD.in                  4.75:  MWD Tool OD 
 MWSI.                      No:  Serv Intrp, MWD 
 OTIM.hr                110.38:  Time Operating 
 PCON.           Look Like New:  Pad Condition 
 PMAX.psia             5300.00:  Press Op, Max 
 PV  .cP                 57.00:  Mud PV 
 RUN .                    1200:  Run Number 
 ROPA.m/hr               13.00:  ROP Avg 
 ROPN.m/hr                9.00:  ROP Min 
 ROPX.m/hr               15.00:  ROP Max 
 RPMA.rpm               120.00:  RPM Surface Avg 
 RPMN.rpm               100.00:  RPM Surface Min 
 RPMX.rpm               135.00:  RPM Surface Max 
 RRUN.                    1200:  Rig Run Number 
 RTIM.hr                  2.65:  Time Reaming 
 SAZI.deg               145.04:  Azm, Start 
 SDEP.m                4455.01:  Start Depth 
 SIDD.                      No:  Serv Intrp, DD 
 SINC.deg                65.83:  Inc, Start 
 SPPA.psig             5037.00:  SPP Avg 
 SPPN.psig             4430.00:  SPP Min 
 SPPX.psig             5300.00:  SPP Max 
 STIM.      22.41.04 26-Jan-21:  Start Time 
 SVCS.                 DD, MWD:  Services 
 SVER.                    9.20:  Sperry Version 
 TDAT.m                 412.00:  Tot Depth Attmp 
 TDDF.                      No:  Trip for DD 
 TDLG.m                 412.00:  Tot Depth Loggd 
 TFF .                      No:  Trip for Fail 
 TQAA.f-kp               15.00:  Torque Abs Avg 
 TQAN.f-kp               12.00:  Torque Abs Min 
 TQAX.f-kp               17.00:  Torque Abs Max 
 TRRT.°/30m               1.18:  Turn Rotating 
 MRT .                     ADR:  Maximum Recorded Temperature 
 TTMX.degC               88.24:  Max Tool Temp 
 VS01.                90619458:  Virtual Str1 SN 
 VS02.                90519326:  Virtual Str2 SN 
 VS03.                90522176:  Virtual Str3 SN 
 VS04.                90512683:  Virtual Str4 SN 
 WBMN.klb                 1.00:  WOB Min 
 WITN.           Murad Giluyev:  Customer Rep 
 WITN.     Kamran Kemberlinski:  Customer Rep 2 
 WOBA.klb                 5.00:  WOB Avg 
 WOBX.klb                 9.00:  WOB Max 
 YP  .lhf2               41.00:  Yield Point 
~Curve Information Block
#MNEM.UNIT                 API CODE     Curve Description
#---------               -----------    ---------------------------
 TIME.HHMMSS            00 000 000 000:  GT Time & Date
 GTDEPTH.m              00 000 000 000:  GT Depth
 GTPQH.psia             00 000 000 000:  GT HR Quartz Pressure
 GTTQ.degC              00 000 000 000:  GT Quartz Temperature
 GTTN.NONE              00 000 000 000:  GT Test Number
 GTET.sec               00 000 000 000:  GT Elapsed Test Time
 GTTVD.m                00 000 000 000:  GT True Vertical Depth
#Other Information
#
#WARRANTY: Halliburton will use its best efforts to furnish customers with 
#accurate information and interpretations that are part of, and incident to, the services 
#provided.  However, Halliburton cannot and does not warrant the accuracy 
#or correctness of such information and interpretations.  Under no circumstances should any 
#such information or interpretation be relied upon as the sole basis for any drilling, 
#completion, production, or financial decision or any procedure involving any risk to the 
#safety of any drilling venture, drilling rig or its crew or any other third party.  The 
#Customer has full responsibility for all drilling, completion and production operation.  
#Halliburton makes no representations or warranties, either expressed or 
#implied, including, but not limited to, the implied warranties of merchantability or fitness 
#for a particular purpose, with respect to the services rendered.  In no event will 
#Halliburton be liable for failure to obtain any particular results or for 
#any damages, including, but not limited to, indirect, special or consequential damages, 
#resulting from the use of any information or interpretation provided by Halliburton.
#
~A           TIME           GTDEPTH  GTPQH  GTTQ  GTTN   GTET   GTTVD  
# ...
   05:57:53.787.30-Jan-2021 4813.01 5764.72 83.62 17.00 361.65 2630.70
   05:57:53.987.30-Jan-2021 4813.01 5765.58 83.62 17.00 361.85 2630.70
   05:57:54.187.30-Jan-2021 4813.01 5764.21 83.62 17.00 362.05 2630.70
   05:57:54.387.30-Jan-2021 4813.01 5764.21 83.62 17.00 362.25 2630.70
   05:57:54.587.30-Jan-2021 4813.01 5763.18 83.61 17.00 362.45 2630.70
   05:57:54.787.30-Jan-2021 4813.01 5758.51 83.61 17.00 362.65 2630.70
   05:57:54.987.30-Jan-2021 4813.01 5767.99 83.61 17.00 362.85 2630.70
   05:57:55.187.30-Jan-2021 4813.01 5763.81 83.61 17.00 363.05 2630.70
   05:57:55.387.30-Jan-2021 4813.01 5763.81 83.61 17.00 363.25 2630.70
   05:57:55.587.30-Jan-2021 4813.01 5764.39 83.61 17.00 363.45 2630.70
   05:57:55.787.30-Jan-2021 4813.01 5760.75 83.61 17.00 363.65 2630.70
   05:57:55.987.30-Jan-2021 4813.01 5761.24 83.61 17.00 363.85 2630.70
   05:57:56.187.30-Jan-2021 4813.01 5762.04 83.61 17.00 364.05 2630.70
   05:57:56.387.30-Jan-2021 4813.01 5762.04 83.61 17.00 364.25 2630.70
   05:57:56.587.30-Jan-2021 4813.01 5763.12 83.61 17.00 364.45 2630.70
   05:57:56.787.30-Jan-2021 4813.01 5764.14 83.61 17.00 364.65 2630.70
   05:57:56.987.30-Jan-2021 4813.01 5759.99 83.61 17.00 364.85 2630.70
   05:57:57.187.30-Jan-2021 4813.01 5763.48 83.61 17.00 365.05 2630.70
   05:57:57.387.30-Jan-2021 4813.01 5763.48 83.61 17.00 365.25 2630.70
   05:57:57.587.30-Jan-2021 4813.01 5764.26 83.61 17.00 365.45 2630.70
   05:57:57.787.30-Jan-2021 4813.01 5763.85 83.61 17.00 365.65 2630.70
   05:57:57.987.30-Jan-2021 4813.01 5762.31 83.61 17.00 365.85 2630.70
   05:57:58.188.30-Jan-2021 4813.01 5764.36 83.61 17.00 366.05 2630.70
   05:57:58.388.30-Jan-2021 4813.01 5764.36 83.61 17.00 366.25 2630.70
   05:57:58.588.30-Jan-2021 4813.01 5764.66 83.61 17.00 366.45 2630.70
   05:57:58.788.30-Jan-2021 4813.01 5763.16 83.61 17.00 366.65 2630.70
   05:57:58.988.30-Jan-2021 4813.01 5763.43 83.61 17.00 366.85 2630.70
   05:57:59.188.30-Jan-2021 4813.01 5763.06 83.61 17.00 367.05 2630.70
   05:57:59.388.30-Jan-2021 4813.01 5763.06 83.61 17.00 367.25 2630.70
   05:57:59.588.30-Jan-2021 4813.01 5755.95 83.61 17.00 367.45 2630.70
   05:57:59.788.30-Jan-2021 4813.01 5765.43 83.61 17.00 367.65 2630.70
   05:57:59.988.30-Jan-2021 4813.01 5763.84 83.61 17.00 367.85 2630.70
   05:58:00.188.30-Jan-2021 4813.01 5763.33 83.61 17.00 368.05 2630.70
   05:58:00.388.30-Jan-2021 4813.01 5763.33 83.61 17.00 368.25 2630.70
   05:58:00.588.30-Jan-2021 4813.01 5760.07 83.61 17.00 368.45 2630.70
   05:58:00.788.30-Jan-2021 4813.01 5763.83 83.61 17.00 368.65 2630.70
   05:58:00.988.30-Jan-2021 4813.01 5764.10 83.61 17.00 368.85 2630.70
   05:58:01.188.30-Jan-2021 4813.01 5765.15 83.61 17.00 369.05 2630.70
   05:58:01.388.30-Jan-2021 4813.01 5765.15 83.61 17.00 369.25 2630.70
   05:58:01.588.30-Jan-2021 4813.01 5763.61 83.60 17.00 369.45 2630.70
   05:58:01.788.30-Jan-2021 4813.01 5762.93 83.60 17.00 369.65 2630.70
   05:58:01.988.30-Jan-2021 4813.01 5764.28 83.60 17.00 369.85 2630.70
   05:58:02.188.30-Jan-2021 4813.01 5763.58 83.60 17.00 370.05 2630.70
   05:58:02.388.30-Jan-2021 4813.01 5763.58 83.60 17.00 370.25 2630.70
   05:58:02.588.30-Jan-2021 4813.01 5762.56 83.60 17.00 370.45 2630.70
   05:58:02.788.30-Jan-2021 4813.01 5763.08 83.60 17.00 370.65 2630.70
   05:58:02.988.30-Jan-2021 4813.01 5755.61 83.60 17.00 370.85 2630.70
   05:58:03.188.30-Jan-2021 4813.01 5765.48 83.60 17.00 371.05 2630.70
   05:58:03.388.30-Jan-2021 4813.01 5765.48 83.60 17.00 371.25 2630.70
   05:58:03.588.30-Jan-2021 4813.01 5762.56 83.60 17.00 371.45 2630.70
   05:58:03.788.30-Jan-2021 4813.01 5760.48 83.60 17.00 371.65 2630.70
   05:58:03.988.30-Jan-2021 4813.01 5758.68 83.60 17.00 371.85 2630.70
   05:58:04.188.30-Jan-2021 4813.01 5762.78 83.60 17.00 372.05 2630.70
   05:58:04.388.30-Jan-2021 4813.01 5762.78 83.60 17.00 372.25 2630.70
   05:58:04.588.30-Jan-2021 4813.01 5765.51 83.60 17.00 372.45 2630.70
   05:58:04.788.30-Jan-2021 4813.01 5758.79 83.60 17.00 372.65 2630.70
   05:58:04.988.30-Jan-2021 4813.01 5756.24 83.60 17.00 372.85 2630.70
   05:58:05.188.30-Jan-2021 4813.01 5765.66 83.60 17.00 373.05 2630.70
   05:58:05.388.30-Jan-2021 4813.01 5765.66 83.60 17.00 373.25 2630.70
   05:58:05.588.30-Jan-2021 4813.01 5762.69 83.60 17.00 373.45 2630.70
   05:58:05.788.30-Jan-2021 4813.01 5757.47 83.60 17.00 373.65 2630.70
   05:58:05.989.30-Jan-2021 4813.01 5759.41 83.60 17.00 373.85 2630.70
   05:58:06.189.30-Jan-2021 4813.01 5765.01 83.60 17.00 374.05 2630.70
   05:58:06.389.30-Jan-2021 4813.01 5765.01 83.60 17.00 374.25 2630.70
   05:58:06.589.30-Jan-2021 4813.01 5761.78 83.60 17.00 374.45 2630.70
   05:58:06.789.30-Jan-2021 4813.01 5759.30 83.60 17.00 374.65 2630.70
   05:58:06.989.30-Jan-2021 4813.01 5761.12 83.60 17.00 374.85 2630.70
   05:58:07.189.30-Jan-2021 4813.01 5764.68 83.59 17.00 375.05 2630.70
   05:58:07.389.30-Jan-2021 4813.01 5764.68 83.59 17.00 375.25 2630.70
   05:58:07.589.30-Jan-2021 4813.01 5764.05 83.59 17.00 375.45 2630.70
   05:58:07.789.30-Jan-2021 4813.01 5758.71 83.59 17.00 375.65 2630.70
   05:58:07.989.30-Jan-2021 4813.01 5763.24 83.59 17.00 375.85 2630.70
   05:58:08.189.30-Jan-2021 4813.01 5763.68 83.59 17.00 376.05 2630.70
   05:58:08.389.30-Jan-2021 4813.01 5763.68 83.59 17.00 376.25 2630.70
   05:58:08.589.30-Jan-2021 4813.01 5762.65 83.59 17.00 376.45 2630.70
   05:58:08.789.30-Jan-2021 4813.01 5762.41 83.59 17.00 376.65 2630.70
   05:58:08.989.30-Jan-2021 4813.01 5763.16 83.59 17.00 376.85 2630.70
   05:58:09.189.30-Jan-2021 4813.01 5764.44 83.59 17.00 377.05 2630.70
   05:58:09.389.30-Jan-2021 4813.01 5764.44 83.59 17.00 377.25 2630.70
   05:58:09.589.30-Jan-2021 4813.01 5763.33 83.59 17.00 377.45 2630.70
   05:58:09.789.30-Jan-2021 4813.01 5762.58 83.59 17.00 377.65 2630.70
   05:58:09.989.30-Jan-2021 4813.01 5762.92 83.59 17.00 377.85 2630.70
   05:58:10.189.30-Jan-2021 4813.01 5763.74 83.59 17.00 378.05 2630.70
   05:58:10.389.30-Jan-2021 4813.01 5763.74 83.59 17.00 378.25 2630.70
   05:58:10.589.30-Jan-2021 4813.01 5765.42 83.59 17.00 378.45 2630.70
   05:58:10.789.30-Jan-2021 4813.01 5762.25 83.59 17.00 378.65 2630.70
   05:58:10.989.30-Jan-2021 4813.01 5762.79 83.59 17.00 378.85 2630.70
   05:58:11.189.30-Jan-2021 4813.01 5763.25 83.59 17.00 379.05 2630.70
   05:58:11.389.30-Jan-2021 4813.01 5763.25 83.59 17.00 379.25 2630.70
   05:58:11.589.30-Jan-2021 4813.01 5762.32 83.59 17.00 379.45 2630.70
   05:58:11.789.30-Jan-2021 4813.01 5764.04 83.59 17.00 379.65 2630.70
   05:58:11.989.30-Jan-2021 4813.01 5763.27 83.59 17.00 379.85 2630.70
   05:58:12.189.30-Jan-2021 4813.01 5763.00 83.59 17.00 380.05 2630.70
   05:58:12.389.30-Jan-2021 4813.01 5763.00 83.59 17.00 380.25 2630.70
   05:58:12.589.30-Jan-2021 4813.01 5763.50 83.58 17.00 380.45 2630.70
   05:58:12.789.30-Jan-2021 4813.01 5763.57 83.58 17.00 380.65 2630.70
   05:58:12.989.30-Jan-2021 4813.01 5764.13 83.58 17.00 380.85 2630.70
   05:58:13.189.30-Jan-2021 4813.01 5763.48 83.58 17.00 381.05 2630.70
   05:58:13.389.30-Jan-2021 4813.01 5763.48 83.58 17.00 381.25 2630.70
   05:58:13.590.30-Jan-2021 4813.01 5763.69 83.58 17.00 381.45 2630.70
   05:58:13.790.30-Jan-2021 4813.01 5755.89 83.58 17.00 381.65 2630.70
   05:58:13.990.30-Jan-2021 4813.01 5766.15 83.58 17.00 381.85 2630.70
   05:58:14.190.30-Jan-2021 4813.01 5763.13 83.58 17.00 382.05 2630.70
   05:58:14.390.30-Jan-2021 4813.01 5763.13 83.58 17.00 382.25 2630.70
   05:58:14.590.30-Jan-2021 4813.01 5759.33 83.58 17.00 382.45 2630.70
   05:58:14.790.30-Jan-2021 4813.01 5758.94 83.58 17.00 382.65 2630.70
   05:58:14.990.30-Jan-2021 4813.01 5761.47 83.58 17.00 382.85 2630.70
   05:58:15.190.30-Jan-2021 4813.01 5764.71 83.58 17.00 383.05 2630.70
   05:58:15.390.30-Jan-2021 4813.01 5764.71 83.58 17.00 383.25 2630.70
   05:58:15.590.30-Jan-2021 4813.01 5759.39 83.58 17.00 383.45 2630.70
   05:58:15.790.30-Jan-2021 4813.01 5755.41 83.58 17.00 383.65 2630.70
   05:58:15.990.30-Jan-2021 4813.01 5766.63 83.58 17.00 383.85 2630.70
   05:58:16.190.30-Jan-2021 4813.01 5765.64 83.58 17.00 384.05 2630.70
