~Version Information
 VERS.                  2.0:   CWLS log ASCII Standard -VERSION 2.0
 WRAP.                   NO:   One line per depth step
~Well Information Block
#MNEM.UNIT     VALUE/NAME     DESCRIPTION
#---------     -----------    ---------------------------
 STRT.S             18:28:03 29-Jan-21: START TIME 18:28:03 29-Jan-21
 STOP.S             18:34:33 29-Jan-21: STOP TIME  18:34:33 29-Jan-21
 STEP.S                   0.00: STEP TIME
 NULL.                 -999.25: NULL VALUE
 DFWT.                        :  DIST FWL TEXT
 DFST.                        :  DIST FSL TEXT
 DMF .             Drill Floor:  DRILL MEAS FROM
 STIM.      00.00.00 25-Sep-20:  START TIME
 DATE.      16.12.48 31-Jan-21:  END TIME
 SPUD.               20-Sep-20:  SPUD DATE
 NREF.                    Grid:  NORTH REFERENCE
 HPTY.       Minimum Curvature:  HOLE POS TYPE
 DMOD.             Drill Model:  DRILL MOD DESC
 SVYD.                  Survey:  SURVEY DESC
 ILTD.               Lithology:  INTERP LTH DESC
 FTOP.          Formation Tops:  FORM TOPS DESC
 RIG .              East Azeri:  RIG NAME
 PDAT.          Mean Sea Level:  PERMANENT DATUM
 FLD .                     ACG:  FIELD NAME
 SON .        AZ-XX-0906591820:  JOB NUMBER
 CTRY.              Azerbaijan:  COUNTRY NAME
 WELL.                     D37:  WELL NAME
 SRVC.     Turan Drilling & Engineering:  CONTRACTOR
 COMP.     BP Exploration (Caspian Sea) ltd.:  COMPANY
 WTYP.                Deviated:  WELL TYPE
 MDS .        Operator Entered:  MAG DATA SOURCE
 UWI .                     N/A:  UNIQUE WELL IDENTIFIER
 API .                     N/A:  API NUMBER
 BASE.              Azerbaijan:  LOGGING EQUIPMENT BASE LOCATION
 REGN.                   EESSA:  REGION
 PROV.                    Baku:  PROVINCE
 STAT.                    Baku:  STATE NAME
 MWDS.                    Baku:  MWD SHOP
 JOBN.        AZ-XX-0906591820:  JOB TICKET NUMB
 DOE .                     N/A:  DOE NUMBER
 DCON.         Sperry Drilling:  DIRECTNL CONTR
 UNIT.                     N/A:  LOGGING EQUIPMENT ID
 CNTY.                        :  COUNTY
 LOC .                        :  LOCATION
 LMF .             Drill Floor:  LOG MEASURED FROM
 TVDS.m                  43.60:  TVDSS CORRECTN
 LATI.deg                40.02:  LATITUDE
 LONG.deg                51.45:  LONGITUDE
 WHNS.m                  11.04:  WELL HEAD N/S
 WHEW.m                 -12.38:  WELL HEAD E/W
 UTMX.m              538763.98:  UTM X
 UTMY.m             4431880.20:  UTM Y
 DFWL.m                   0.00:  DISTANCE FWL
 DFSL.m                   0.00:  DISTANCE FSL
 SDEP.m                 300.00:  START DEPTH
 TDD .m                4900.01:  TOTAL DEPTH (DRILLER)
 VSDR.deg               185.64:  VERT SEC DIRECT
 GVFD.g                   1.00:  GRAVITY FIELD
 MFLD.nT              50301.00:  MAGNETIC FIELD
 MDIP.deg                59.46:  MAGNETIC DIP
 MDEC.deg                 6.43:  MAGNETIC DECL
 GRDC.deg                 0.29:  GRID CORRECTION
 AZTC.deg                 6.14:  AZM TOTAL CORR
 EPD .m                   0.00:  ELEVATION
 EGL .m                   0.00:  GROUND ELEVATION
 WDMS.m                 151.80:  WD ELEV
 APD .m                  43.60:  DEPTH ABOVE PD
 DEP .m                 571.69:  DEPTH
 AGAP.m                  43.60:  AIR GAP
 VSEW.m                 -12.38:  VERT SEC E/W
 VSNS.m                  11.04:  VERT SEC N/S
 EKB .m                  43.60:  KB ELEVATION
 EDF .m                  43.60:  DF ELEVATION
 TDL .m                 412.00:  TOTAL DEPTH (LOGGER)
 VSC .                       0:  VS TO CLOSURE
 MAGU.                 1849300:  MAGUTM CHECKSUM
~Parameter Information Block
#MNEM.UNIT       Value        Description
#---------     -----------    ---------------------------
 AV  .mps                 2.21:  Ann Velocity 
 AVMX.mps                 2.53:  Max Ann Veloc 
 AZIF.deg               144.83:  Azm, Final 
 BHAT.        Rotary Steerable:  BHA Type 
 BROT.°/30m              -0.52:  Build Rotating 
 BS  .in                  6.50:  Bit Size 
 BTPL.psig              209.00:  Bit Press Loss 
 CABU.                      No:  Customer Abuse 
 CGEO.        Ali Isfandiyarov:  Customer Geo 
 COMM.                     tðz:  Run Comments 1 
 TCS .hr                 61.31:  Time Ciculation Ended 
 CV  .mps                 4.66:  Crit Velocity 
 CVMX.mps                 5.02:  Max Crit Veloc 
 DD1 .          Fariz Nahmatov:  Direct Drillr 1 
 DD2 .            Musa Ahmadov:  Direct Drillr 2 
 DDSV.               Geo-Pilot:  DD Service 
 DEFF.%                 100.00:  % Det Eff 
 DLRX.°/30m               1.44:  Dogleg Rot Max 
 DLSO.°/30m               0.83:  Dogleg Oriented 
 DLSX.°/30m               1.44:  Dogleg Str Max 
 DRET.      08.30.00 30-Jan-21:  Drill End Time 
 DRST.      21.15.00 27-Jan-21:  Drill Start Tim 
 DTIM.hr                 37.28:  Time Drilling 
 EDEP.m                4867.01:  End Depth 
 ENG1.          Rasim Hashimov:  Engineer 1 
 ENG2.         Almaz Almadatov:  Engineer 2 
 ENG3.        Tamerlan Ahmadov:  Engineer 3 
 ETIM.      22.41.04 31-Jan-21:  End Time 
 FLOI.gpm               400.00:  Flow In 
 FLON.gpm               300.00:  Flow In Min 
 FLOS.cptm                0.00:  Fluid Loss 
 FLOX.gpm               400.00:  Flow In Max 
 HFLO.                      No:  High Flow 
 HPRE.                      No:  High Pressure 
 HTEM.                      No:  High Temp 
 HYDO.m                   1.80:  Hydro Offset 
 IFIN.deg                65.63:  Inc, Final 
 IMAX.deg                66.77:  Inc Max 
 IMIN.deg                65.61:  Inc Min 
 IMND.m                4612.67:  Inc Min Depth 
 IMXD.m                4811.63:  Inc Max Depth 
 JARR.                      No:  Jarring 
 LETM.      08.30.00 30-Jan-21:  Log End Time 
 LOST.hr                     0:  Lost Rig Time 
 LSTM.      21.15.00 27-Jan-21:  Log Start Time 
 MDCL.ppm             41000.00:  Mud Chlorides 
 MDES.     Inversion Oil/Synthetic:  Mud Desc 
 DFD .sg                  1.40:  Mud Density 
 MDMN.sg                  1.40:  Dens Mud Min 
 MDMX.sg                  1.40:  Dens Mud Max 
 MOIL.                      53:  Run Mud Oil % 
 MOWR.                   66:34:  Run Mud OWR 
 MSND.                     0.2:  Run Mud Sand % 
 MSOL.                    17.9:  Run Mud Solids% 
 DFV .spqt               77.00:  Mud Viscosity 
 MWOD.in                  4.75:  MWD Tool OD 
 MWSI.                      No:  Serv Intrp, MWD 
 OTIM.hr                110.38:  Time Operating 
 PCON.           Look Like New:  Pad Condition 
 PMAX.psia             5300.00:  Press Op, Max 
 PV  .cP                 57.00:  Mud PV 
 RUN .                    1200:  Run Number 
 ROPA.m/hr               13.00:  ROP Avg 
 ROPN.m/hr                9.00:  ROP Min 
 ROPX.m/hr               15.00:  ROP Max 
 RPMA.rpm               120.00:  RPM Surface Avg 
 RPMN.rpm               100.00:  RPM Surface Min 
 RPMX.rpm               135.00:  RPM Surface Max 
 RRUN.                    1200:  Rig Run Number 
 RTIM.hr                  2.65:  Time Reaming 
 SAZI.deg               145.04:  Azm, Start 
 SDEP.m                4455.01:  Start Depth 
 SIDD.                      No:  Serv Intrp, DD 
 SINC.deg                65.83:  Inc, Start 
 SPPA.psig             5037.00:  SPP Avg 
 SPPN.psig             4430.00:  SPP Min 
 SPPX.psig             5300.00:  SPP Max 
 STIM.      22.41.04 26-Jan-21:  Start Time 
 SVCS.                 DD, MWD:  Services 
 SVER.                    9.20:  Sperry Version 
 TDAT.m                 412.00:  Tot Depth Attmp 
 TDDF.                      No:  Trip for DD 
 TDLG.m                 412.00:  Tot Depth Loggd 
 TFF .                      No:  Trip for Fail 
 TQAA.f-kp               15.00:  Torque Abs Avg 
 TQAN.f-kp               12.00:  Torque Abs Min 
 TQAX.f-kp               17.00:  Torque Abs Max 
 TRRT.°/30m               1.18:  Turn Rotating 
 MRT .                     ADR:  Maximum Recorded Temperature 
 TTMX.degC               88.24:  Max Tool Temp 
 VS01.                90619458:  Virtual Str1 SN 
 VS02.                90519326:  Virtual Str2 SN 
 VS03.                90522176:  Virtual Str3 SN 
 VS04.                90512683:  Virtual Str4 SN 
 WBMN.klb                 1.00:  WOB Min 
 WITN.           Murad Giluyev:  Customer Rep 
 WITN.     Kamran Kemberlinski:  Customer Rep 2 
 WOBA.klb                 5.00:  WOB Avg 
 WOBX.klb                 9.00:  WOB Max 
 YP  .lhf2               41.00:  Yield Point 
~Curve Information Block
#MNEM.UNIT                 API CODE     Curve Description
#---------               -----------    ---------------------------
 TIME.HHMMSS            00 000 000 000:  GT Time & Date
 GTDEPTH.m              00 000 000 000:  GT Depth
 GTPQH.psia             00 000 000 000:  GT HR Quartz Pressure
 GTTQ.degC              00 000 000 000:  GT Quartz Temperature
 GTTN.NONE              00 000 000 000:  GT Test Number
 GTET.sec               00 000 000 000:  GT Elapsed Test Time
 GTTVD.m                00 000 000 000:  GT True Vertical Depth
#Other Information
#
#WARRANTY: Halliburton will use its best efforts to furnish customers with 
#accurate information and interpretations that are part of, and incident to, the services 
#provided.  However, Halliburton cannot and does not warrant the accuracy 
#or correctness of such information and interpretations.  Under no circumstances should any 
#such information or interpretation be relied upon as the sole basis for any drilling, 
#completion, production, or financial decision or any procedure involving any risk to the 
#safety of any drilling venture, drilling rig or its crew or any other third party.  The 
#Customer has full responsibility for all drilling, completion and production operation.  
#Halliburton makes no representations or warranties, either expressed or 
#implied, including, but not limited to, the implied warranties of merchantability or fitness 
#for a particular purpose, with respect to the services rendered.  In no event will 
#Halliburton be liable for failure to obtain any particular results or for 
#any damages, including, but not limited to, indirect, special or consequential damages, 
#resulting from the use of any information or interpretation provided by Halliburton.
#
~A           TIME           GTDEPTH  GTPQH  GTTQ  GTTN   GTET   GTTVD  
# ...
   18:34:05.276.29-Jan-2021 4752.01 5714.81 82.17 12.00 361.64 2606.49
   18:34:05.476.29-Jan-2021 4752.01 5713.38 82.17 12.00 361.84 2606.49
   18:34:05.676.29-Jan-2021 4752.01 5714.38 82.17 12.00 362.04 2606.49
   18:34:05.876.29-Jan-2021 4752.01 5714.38 82.17 12.00 362.24 2606.49
   18:34:06.076.29-Jan-2021 4752.01 5712.97 82.17 12.00 362.44 2606.49
   18:34:06.276.29-Jan-2021 4752.01 5712.66 82.17 12.00 362.64 2606.49
   18:34:06.476.29-Jan-2021 4752.01 5714.27 82.17 12.00 362.84 2606.49
   18:34:06.676.29-Jan-2021 4752.01 5710.70 82.17 12.00 363.04 2606.49
   18:34:06.876.29-Jan-2021 4752.01 5710.70 82.17 12.00 363.24 2606.49
   18:34:07.076.29-Jan-2021 4752.01 5711.75 82.17 12.00 363.44 2606.49
   18:34:07.276.29-Jan-2021 4752.01 5712.70 82.17 12.00 363.64 2606.49
   18:34:07.476.29-Jan-2021 4752.01 5710.89 82.17 12.00 363.84 2606.49
   18:34:07.676.29-Jan-2021 4752.01 5711.94 82.17 12.00 364.04 2606.49
   18:34:07.876.29-Jan-2021 4752.01 5711.94 82.17 12.00 364.24 2606.49
   18:34:08.076.29-Jan-2021 4752.01 5711.70 82.17 12.00 364.44 2606.49
   18:34:08.276.29-Jan-2021 4752.01 5711.57 82.17 12.00 364.64 2606.49
   18:34:08.476.29-Jan-2021 4752.01 5711.70 82.17 12.00 364.84 2606.49
   18:34:08.676.29-Jan-2021 4752.01 5705.79 82.17 12.00 365.04 2606.49
   18:34:08.877.29-Jan-2021 4752.01 5705.79 82.17 12.00 365.24 2606.49
   18:34:09.077.29-Jan-2021 4752.01 5712.53 82.17 12.00 365.44 2606.49
   18:34:09.277.29-Jan-2021 4752.01 5711.04 82.17 12.00 365.64 2606.49
   18:34:09.477.29-Jan-2021 4752.01 5710.26 82.17 12.00 365.84 2606.49
   18:34:09.677.29-Jan-2021 4752.01 5711.89 82.17 12.00 366.04 2606.49
   18:34:09.877.29-Jan-2021 4752.01 5711.89 82.17 12.00 366.24 2606.49
   18:34:10.077.29-Jan-2021 4752.01 5712.34 82.16 12.00 366.44 2606.49
   18:34:10.277.29-Jan-2021 4752.01 5712.02 82.16 12.00 366.64 2606.49
   18:34:10.477.29-Jan-2021 4752.01 5711.93 82.16 12.00 366.84 2606.49
   18:34:10.677.29-Jan-2021 4752.01 5713.44 82.16 12.00 367.04 2606.49
   18:34:10.877.29-Jan-2021 4752.01 5713.44 82.16 12.00 367.24 2606.49
   18:34:11.077.29-Jan-2021 4752.01 5712.00 82.16 12.00 367.44 2606.49
   18:34:11.277.29-Jan-2021 4752.01 5711.72 82.16 12.00 367.64 2606.49
   18:34:11.477.29-Jan-2021 4752.01 5712.14 82.16 12.00 367.84 2606.49
   18:34:11.677.29-Jan-2021 4752.01 5711.60 82.16 12.00 368.04 2606.49
   18:34:11.877.29-Jan-2021 4752.01 5711.60 82.16 12.00 368.24 2606.49
   18:34:12.077.29-Jan-2021 4752.01 5705.70 82.16 12.00 368.44 2606.49
   18:34:12.277.29-Jan-2021 4752.01 5713.22 82.16 12.00 368.64 2606.49
   18:34:12.477.29-Jan-2021 4752.01 5712.18 82.16 12.00 368.84 2606.49
   18:34:12.677.29-Jan-2021 4752.01 5710.86 82.16 12.00 369.04 2606.49
   18:34:12.877.29-Jan-2021 4752.01 5710.86 82.16 12.00 369.24 2606.49
   18:34:13.077.29-Jan-2021 4752.01 5713.14 82.16 12.00 369.44 2606.49
   18:34:13.277.29-Jan-2021 4752.01 5713.85 82.16 12.00 369.64 2606.49
   18:34:13.477.29-Jan-2021 4752.01 5710.38 82.16 12.00 369.84 2606.49
   18:34:13.677.29-Jan-2021 4752.01 5705.51 82.16 12.00 370.04 2606.49
   18:34:13.877.29-Jan-2021 4752.01 5705.51 82.16 12.00 370.24 2606.49
   18:34:14.077.29-Jan-2021 4752.01 5714.22 82.15 12.00 370.44 2606.49
   18:34:14.277.29-Jan-2021 4752.01 5710.22 82.15 12.00 370.64 2606.49
   18:34:14.477.29-Jan-2021 4752.01 5711.04 82.15 12.00 370.84 2606.49
   18:34:14.677.29-Jan-2021 4752.01 5711.89 82.15 12.00 371.04 2606.49
   18:34:14.877.29-Jan-2021 4752.01 5711.89 82.15 12.00 371.24 2606.49
   18:34:15.077.29-Jan-2021 4752.01 5712.86 82.15 12.00 371.44 2606.49
   18:34:15.277.29-Jan-2021 4752.01 5711.22 82.15 12.00 371.64 2606.49
   18:34:15.477.29-Jan-2021 4752.01 5712.26 82.15 12.00 371.84 2606.49
   18:34:15.677.29-Jan-2021 4752.01 5708.45 82.15 12.00 372.04 2606.49
   18:34:15.877.29-Jan-2021 4752.01 5708.45 82.15 12.00 372.24 2606.49
   18:34:16.077.29-Jan-2021 4752.01 5712.22 82.15 12.00 372.44 2606.49
   18:34:16.277.29-Jan-2021 4752.01 5712.81 82.15 12.00 372.64 2606.49
   18:34:16.477.29-Jan-2021 4752.01 5710.63 82.15 12.00 372.84 2606.49
   18:34:16.677.29-Jan-2021 4752.01 5707.95 82.15 12.00 373.04 2606.49
   18:34:16.877.29-Jan-2021 4752.01 5707.95 82.15 12.00 373.24 2606.49
   18:34:17.077.29-Jan-2021 4752.01 5713.14 82.15 12.00 373.44 2606.49
   18:34:17.277.29-Jan-2021 4752.01 5712.36 82.15 12.00 373.64 2606.49
   18:34:17.478.29-Jan-2021 4752.01 5711.59 82.15 12.00 373.84 2606.49
   18:34:17.678.29-Jan-2021 4752.01 5712.14 82.15 12.00 374.04 2606.49
   18:34:17.878.29-Jan-2021 4752.01 5712.14 82.15 12.00 374.24 2606.49
   18:34:18.078.29-Jan-2021 4752.01 5712.25 82.14 12.00 374.44 2606.49
   18:34:18.278.29-Jan-2021 4752.01 5711.47 82.14 12.00 374.64 2606.49
   18:34:18.478.29-Jan-2021 4752.01 5712.13 82.14 12.00 374.84 2606.49
   18:34:18.678.29-Jan-2021 4752.01 5711.80 82.14 12.00 375.04 2606.49
   18:34:18.878.29-Jan-2021 4752.01 5711.80 82.14 12.00 375.24 2606.49
   18:34:19.078.29-Jan-2021 4752.01 5711.08 82.14 12.00 375.44 2606.49
   18:34:19.278.29-Jan-2021 4752.01 5711.58 82.14 12.00 375.64 2606.49
   18:34:19.478.29-Jan-2021 4752.01 5705.02 82.14 12.00 375.84 2606.49
   18:34:19.678.29-Jan-2021 4752.01 5712.45 82.14 12.00 376.04 2606.49
   18:34:19.878.29-Jan-2021 4752.01 5712.45 82.14 12.00 376.24 2606.49
   18:34:20.078.29-Jan-2021 4752.01 5710.67 82.14 12.00 376.44 2606.49
   18:34:20.278.29-Jan-2021 4752.01 5708.88 82.14 12.00 376.64 2606.49
   18:34:20.478.29-Jan-2021 4752.01 5712.08 82.14 12.00 376.84 2606.49
   18:34:20.678.29-Jan-2021 4752.01 5712.13 82.14 12.00 377.04 2606.49
   18:34:20.878.29-Jan-2021 4752.01 5712.13 82.14 12.00 377.24 2606.49
   18:34:21.078.29-Jan-2021 4752.01 5710.97 82.14 12.00 377.44 2606.49
   18:34:21.278.29-Jan-2021 4752.01 5712.29 82.14 12.00 377.64 2606.49
   18:34:21.478.29-Jan-2021 4752.01 5712.50 82.14 12.00 377.84 2606.49
   18:34:21.678.29-Jan-2021 4752.01 5712.06 82.14 12.00 378.04 2606.49
   18:34:21.878.29-Jan-2021 4752.01 5712.06 82.14 12.00 378.24 2606.49
   18:34:22.078.29-Jan-2021 4752.01 5712.27 82.13 12.00 378.44 2606.49
   18:34:22.278.29-Jan-2021 4752.01 5712.09 82.13 12.00 378.64 2606.49
   18:34:22.478.29-Jan-2021 4752.01 5711.82 82.13 12.00 378.84 2606.49
   18:34:22.678.29-Jan-2021 4752.01 5712.30 82.13 12.00 379.04 2606.49
   18:34:22.878.29-Jan-2021 4752.01 5712.30 82.13 12.00 379.24 2606.49
   18:34:23.078.29-Jan-2021 4752.01 5713.16 82.13 12.00 379.44 2606.49
   18:34:23.278.29-Jan-2021 4752.01 5711.65 82.13 12.00 379.64 2606.49
   18:34:23.478.29-Jan-2021 4752.01 5711.36 82.13 12.00 379.84 2606.49
   18:34:23.678.29-Jan-2021 4752.01 5702.72 82.13 12.00 380.04 2606.49
   18:34:23.878.29-Jan-2021 4752.01 5702.72 82.13 12.00 380.24 2606.49
   18:34:24.078.29-Jan-2021 4752.01 5712.73 82.13 12.00 380.44 2606.49
   18:34:24.278.29-Jan-2021 4752.01 5713.21 82.13 12.00 380.64 2606.49
   18:34:24.478.29-Jan-2021 4752.01 5701.39 82.13 12.00 380.84 2606.49
   18:34:24.678.29-Jan-2021 4752.01 5713.52 82.13 12.00 381.05 2606.49
   18:34:24.878.29-Jan-2021 4752.01 5713.52 82.13 12.00 381.25 2606.49
   18:34:25.078.29-Jan-2021 4752.01 5714.63 82.13 12.00 381.45 2606.49
   18:34:25.278.29-Jan-2021 4752.01 5707.51 82.13 12.00 381.65 2606.49
   18:34:25.478.29-Jan-2021 4752.01 5712.53 82.12 12.00 381.85 2606.49
   18:34:25.678.29-Jan-2021 4752.01 5711.07 82.12 12.00 382.05 2606.49
   18:34:25.879.29-Jan-2021 4752.01 5711.07 82.12 12.00 382.25 2606.49
   18:34:26.079.29-Jan-2021 4752.01 5711.49 82.12 12.00 382.45 2606.49
   18:34:26.279.29-Jan-2021 4752.01 5712.61 82.12 12.00 382.65 2606.49
   18:34:26.479.29-Jan-2021 4752.01 5710.04 82.12 12.00 382.85 2606.49
   18:34:26.679.29-Jan-2021 4752.01 5705.28 82.12 12.00 383.05 2606.49
   18:34:26.879.29-Jan-2021 4752.01 5705.28 82.12 12.00 383.25 2606.49
   18:34:27.079.29-Jan-2021 4752.01 5713.63 82.12 12.00 383.45 2606.49
   18:34:27.279.29-Jan-2021 4752.01 5712.19 82.12 12.00 383.65 2606.49
   18:34:27.479.29-Jan-2021 4752.01 5707.66 82.12 12.00 383.85 2606.49
   18:34:27.679.29-Jan-2021 4752.01 5711.94 82.12 12.00 384.05 2606.49
