~Version Information
 VERS.                  2.0:   CWLS log ASCII Standard -VERSION 2.0
 WRAP.                   NO:   One line per depth step
~Well Information Block
#MNEM.UNIT     VALUE/NAME     DESCRIPTION
#---------     -----------    ---------------------------
 STRT.S             11:33:05 30-Jan-21: START TIME 11:33:05 30-Jan-21
 STOP.S             11:39:34 30-Jan-21: STOP TIME  11:39:34 30-Jan-21
 STEP.S                   0.00: STEP TIME
 NULL.                 -999.25: NULL VALUE
 DFWT.                        :  DIST FWL TEXT
 DFST.                        :  DIST FSL TEXT
 DMF .             Drill Floor:  DRILL MEAS FROM
 STIM.      00.00.00 25-Sep-20:  START TIME
 DATE.      16.12.48 31-Jan-21:  END TIME
 SPUD.               20-Sep-20:  SPUD DATE
 NREF.                    Grid:  NORTH REFERENCE
 HPTY.       Minimum Curvature:  HOLE POS TYPE
 DMOD.             Drill Model:  DRILL MOD DESC
 SVYD.                  Survey:  SURVEY DESC
 ILTD.               Lithology:  INTERP LTH DESC
 FTOP.          Formation Tops:  FORM TOPS DESC
 RIG .              East Azeri:  RIG NAME
 PDAT.          Mean Sea Level:  PERMANENT DATUM
 FLD .                     ACG:  FIELD NAME
 SON .        AZ-XX-0906591820:  JOB NUMBER
 CTRY.              Azerbaijan:  COUNTRY NAME
 WELL.                     D37:  WELL NAME
 SRVC.     Turan Drilling & Engineering:  CONTRACTOR
 COMP.     BP Exploration (Caspian Sea) ltd.:  COMPANY
 WTYP.                Deviated:  WELL TYPE
 MDS .        Operator Entered:  MAG DATA SOURCE
 UWI .                     N/A:  UNIQUE WELL IDENTIFIER
 API .                     N/A:  API NUMBER
 BASE.              Azerbaijan:  LOGGING EQUIPMENT BASE LOCATION
 REGN.                   EESSA:  REGION
 PROV.                    Baku:  PROVINCE
 STAT.                    Baku:  STATE NAME
 MWDS.                    Baku:  MWD SHOP
 JOBN.        AZ-XX-0906591820:  JOB TICKET NUMB
 DOE .                     N/A:  DOE NUMBER
 DCON.         Sperry Drilling:  DIRECTNL CONTR
 UNIT.                     N/A:  LOGGING EQUIPMENT ID
 CNTY.                        :  COUNTY
 LOC .                        :  LOCATION
 LMF .             Drill Floor:  LOG MEASURED FROM
 TVDS.m                  43.60:  TVDSS CORRECTN
 LATI.deg                40.02:  LATITUDE
 LONG.deg                51.45:  LONGITUDE
 WHNS.m                  11.04:  WELL HEAD N/S
 WHEW.m                 -12.38:  WELL HEAD E/W
 UTMX.m              538763.98:  UTM X
 UTMY.m             4431880.20:  UTM Y
 DFWL.m                   0.00:  DISTANCE FWL
 DFSL.m                   0.00:  DISTANCE FSL
 SDEP.m                 300.00:  START DEPTH
 TDD .m                4900.01:  TOTAL DEPTH (DRILLER)
 VSDR.deg               185.64:  VERT SEC DIRECT
 GVFD.g                   1.00:  GRAVITY FIELD
 MFLD.nT              50301.00:  MAGNETIC FIELD
 MDIP.deg                59.46:  MAGNETIC DIP
 MDEC.deg                 6.43:  MAGNETIC DECL
 GRDC.deg                 0.29:  GRID CORRECTION
 AZTC.deg                 6.14:  AZM TOTAL CORR
 EPD .m                   0.00:  ELEVATION
 EGL .m                   0.00:  GROUND ELEVATION
 WDMS.m                 151.80:  WD ELEV
 APD .m                  43.60:  DEPTH ABOVE PD
 DEP .m                 571.69:  DEPTH
 AGAP.m                  43.60:  AIR GAP
 VSEW.m                 -12.38:  VERT SEC E/W
 VSNS.m                  11.04:  VERT SEC N/S
 EKB .m                  43.60:  KB ELEVATION
 EDF .m                  43.60:  DF ELEVATION
 TDL .m                 412.00:  TOTAL DEPTH (LOGGER)
 VSC .                       0:  VS TO CLOSURE
 MAGU.                 1849300:  MAGUTM CHECKSUM
~Parameter Information Block
#MNEM.UNIT       Value        Description
#---------     -----------    ---------------------------
 AV  .mps                 2.21:  Ann Velocity 
 AVMX.mps                 2.53:  Max Ann Veloc 
 AZIF.deg               144.83:  Azm, Final 
 BHAT.        Rotary Steerable:  BHA Type 
 BROT.°/30m              -0.52:  Build Rotating 
 BS  .in                  6.50:  Bit Size 
 BTPL.psig              209.00:  Bit Press Loss 
 CABU.                      No:  Customer Abuse 
 CGEO.        Ali Isfandiyarov:  Customer Geo 
 COMM.                     <»c:  Run Comments 1 
 TCS .hr                 61.31:  Time Ciculation Ended 
 CV  .mps                 4.66:  Crit Velocity 
 CVMX.mps                 5.02:  Max Crit Veloc 
 DD1 .          Fariz Nahmatov:  Direct Drillr 1 
 DD2 .            Musa Ahmadov:  Direct Drillr 2 
 DDSV.               Geo-Pilot:  DD Service 
 DEFF.%                 100.00:  % Det Eff 
 DLRX.°/30m               1.44:  Dogleg Rot Max 
 DLSO.°/30m               0.83:  Dogleg Oriented 
 DLSX.°/30m               1.44:  Dogleg Str Max 
 DRET.      08.30.00 30-Jan-21:  Drill End Time 
 DRST.      21.15.00 27-Jan-21:  Drill Start Tim 
 DTIM.hr                 37.28:  Time Drilling 
 EDEP.m                4867.01:  End Depth 
 ENG1.          Rasim Hashimov:  Engineer 1 
 ENG2.         Almaz Almadatov:  Engineer 2 
 ENG3.        Tamerlan Ahmadov:  Engineer 3 
 ETIM.      22.41.04 31-Jan-21:  End Time 
 FLOI.gpm               400.00:  Flow In 
 FLON.gpm               300.00:  Flow In Min 
 FLOS.cptm                0.00:  Fluid Loss 
 FLOX.gpm               400.00:  Flow In Max 
 HFLO.                      No:  High Flow 
 HPRE.                      No:  High Pressure 
 HTEM.                      No:  High Temp 
 HYDO.m                   1.80:  Hydro Offset 
 IFIN.deg                65.63:  Inc, Final 
 IMAX.deg                66.77:  Inc Max 
 IMIN.deg                65.61:  Inc Min 
 IMND.m                4612.67:  Inc Min Depth 
 IMXD.m                4811.63:  Inc Max Depth 
 JARR.                      No:  Jarring 
 LETM.      08.30.00 30-Jan-21:  Log End Time 
 LOST.hr                     0:  Lost Rig Time 
 LSTM.      21.15.00 27-Jan-21:  Log Start Time 
 MDCL.ppm             41000.00:  Mud Chlorides 
 MDES.     Inversion Oil/Synthetic:  Mud Desc 
 DFD .sg                  1.40:  Mud Density 
 MDMN.sg                  1.40:  Dens Mud Min 
 MDMX.sg                  1.40:  Dens Mud Max 
 MOIL.                      53:  Run Mud Oil % 
 MOWR.                   66:34:  Run Mud OWR 
 MSND.                     0.2:  Run Mud Sand % 
 MSOL.                    17.9:  Run Mud Solids% 
 DFV .spqt               77.00:  Mud Viscosity 
 MWOD.in                  4.75:  MWD Tool OD 
 MWSI.                      No:  Serv Intrp, MWD 
 OTIM.hr                110.38:  Time Operating 
 PCON.           Look Like New:  Pad Condition 
 PMAX.psia             5300.00:  Press Op, Max 
 PV  .cP                 57.00:  Mud PV 
 RUN .                    1200:  Run Number 
 ROPA.m/hr               13.00:  ROP Avg 
 ROPN.m/hr                9.00:  ROP Min 
 ROPX.m/hr               15.00:  ROP Max 
 RPMA.rpm               120.00:  RPM Surface Avg 
 RPMN.rpm               100.00:  RPM Surface Min 
 RPMX.rpm               135.00:  RPM Surface Max 
 RRUN.                    1200:  Rig Run Number 
 RTIM.hr                  2.65:  Time Reaming 
 SAZI.deg               145.04:  Azm, Start 
 SDEP.m                4455.01:  Start Depth 
 SIDD.                      No:  Serv Intrp, DD 
 SINC.deg                65.83:  Inc, Start 
 SPPA.psig             5037.00:  SPP Avg 
 SPPN.psig             4430.00:  SPP Min 
 SPPX.psig             5300.00:  SPP Max 
 STIM.      22.41.04 26-Jan-21:  Start Time 
 SVCS.                 DD, MWD:  Services 
 SVER.                    9.20:  Sperry Version 
 TDAT.m                 412.00:  Tot Depth Attmp 
 TDDF.                      No:  Trip for DD 
 TDLG.m                 412.00:  Tot Depth Loggd 
 TFF .                      No:  Trip for Fail 
 TQAA.f-kp               15.00:  Torque Abs Avg 
 TQAN.f-kp               12.00:  Torque Abs Min 
 TQAX.f-kp               17.00:  Torque Abs Max 
 TRRT.°/30m               1.18:  Turn Rotating 
 MRT .                     ADR:  Maximum Recorded Temperature 
 TTMX.degC               88.24:  Max Tool Temp 
 VS01.                90619458:  Virtual Str1 SN 
 VS02.                90519326:  Virtual Str2 SN 
 VS03.                90522176:  Virtual Str3 SN 
 VS04.                90512683:  Virtual Str4 SN 
 WBMN.klb                 1.00:  WOB Min 
 WITN.           Murad Giluyev:  Customer Rep 
 WITN.     Kamran Kemberlinski:  Customer Rep 2 
 WOBA.klb                 5.00:  WOB Avg 
 WOBX.klb                 9.00:  WOB Max 
 YP  .lhf2               41.00:  Yield Point 
~Curve Information Block
#MNEM.UNIT                 API CODE     Curve Description
#---------               -----------    ---------------------------
 TIME.HHMMSS            00 000 000 000:  GT Time & Date
 GTDEPTH.m              00 000 000 000:  GT Depth
 GTPQH.psia             00 000 000 000:  GT HR Quartz Pressure
 GTTQ.degC              00 000 000 000:  GT Quartz Temperature
 GTTN.NONE              00 000 000 000:  GT Test Number
 GTET.sec               00 000 000 000:  GT Elapsed Test Time
 GTTVD.m                00 000 000 000:  GT True Vertical Depth
#Other Information
#
#WARRANTY: Halliburton will use its best efforts to furnish customers with 
#accurate information and interpretations that are part of, and incident to, the services 
#provided.  However, Halliburton cannot and does not warrant the accuracy 
#or correctness of such information and interpretations.  Under no circumstances should any 
#such information or interpretation be relied upon as the sole basis for any drilling, 
#completion, production, or financial decision or any procedure involving any risk to the 
#safety of any drilling venture, drilling rig or its crew or any other third party.  The 
#Customer has full responsibility for all drilling, completion and production operation.  
#Halliburton makes no representations or warranties, either expressed or 
#implied, including, but not limited to, the implied warranties of merchantability or fitness 
#for a particular purpose, with respect to the services rendered.  In no event will 
#Halliburton be liable for failure to obtain any particular results or for 
#any damages, including, but not limited to, indirect, special or consequential damages, 
#resulting from the use of any information or interpretation provided by Halliburton.
#
~A           TIME           GTDEPTH  GTPQH  GTTQ  GTTN   GTET   GTTVD  
# ...
   11:37:36.429.30-Jan-2021 4826.01 3154.23 84.28 18.00 271.25 2635.88
   11:37:36.629.30-Jan-2021 4826.01 3154.21 84.28 18.00 271.45 2635.88
   11:37:36.829.30-Jan-2021 4826.01 3154.20 84.28 18.00 271.65 2635.88
   11:37:37.029.30-Jan-2021 4826.01 3154.22 84.28 18.00 271.85 2635.88
   11:37:37.229.30-Jan-2021 4826.01 3154.19 84.28 18.00 272.05 2635.88
   11:37:37.429.30-Jan-2021 4826.01 3154.19 84.28 18.00 272.25 2635.88
   11:37:37.629.30-Jan-2021 4826.01 3154.18 84.28 18.00 272.45 2635.88
   11:37:37.829.30-Jan-2021 4826.01 3154.14 84.28 18.00 272.65 2635.88
   11:37:38.029.30-Jan-2021 4826.01 3154.27 84.28 18.00 272.85 2635.88
   11:37:38.229.30-Jan-2021 4826.01 3154.20 84.28 18.00 273.05 2635.88
   11:37:38.429.30-Jan-2021 4826.01 3154.20 84.28 18.00 273.25 2635.88
   11:37:38.629.30-Jan-2021 4826.01 3154.20 84.28 18.00 273.45 2635.88
   11:37:38.829.30-Jan-2021 4826.01 3154.23 84.28 18.00 273.65 2635.88
   11:37:39.029.30-Jan-2021 4826.01 3154.21 84.28 18.00 273.85 2635.88
   11:37:39.229.30-Jan-2021 4826.01 3154.20 84.28 18.00 274.05 2635.88
   11:37:39.429.30-Jan-2021 4826.01 3154.20 84.28 18.00 274.25 2635.88
   11:37:39.629.30-Jan-2021 4826.01 3154.18 84.28 18.00 274.45 2635.88
   11:37:39.829.30-Jan-2021 4826.01 3154.18 84.27 18.00 274.65 2635.88
   11:37:40.030.30-Jan-2021 4826.01 3154.27 84.27 18.00 274.85 2635.88
   11:37:40.230.30-Jan-2021 4826.01 3154.21 84.27 18.00 275.05 2635.88
   11:37:40.430.30-Jan-2021 4826.01 3154.21 84.27 18.00 275.25 2635.88
   11:37:40.630.30-Jan-2021 4826.01 3154.18 84.27 18.00 275.45 2635.88
   11:37:40.830.30-Jan-2021 4826.01 3154.18 84.27 18.00 275.65 2635.88
   11:37:41.030.30-Jan-2021 4826.01 3154.18 84.27 18.00 275.85 2635.88
   11:37:41.230.30-Jan-2021 4826.01 3154.25 84.27 18.00 276.05 2635.88
   11:37:41.430.30-Jan-2021 4826.01 3154.25 84.27 18.00 276.25 2635.88
   11:37:41.630.30-Jan-2021 4826.01 3154.17 84.27 18.00 276.45 2635.88
   11:37:41.830.30-Jan-2021 4826.01 3154.19 84.27 18.00 276.65 2635.88
   11:37:42.030.30-Jan-2021 4826.01 3154.15 84.27 18.00 276.85 2635.88
   11:37:42.230.30-Jan-2021 4826.01 3154.19 84.27 18.00 277.05 2635.88
   11:37:42.430.30-Jan-2021 4826.01 3154.19 84.27 18.00 277.25 2635.88
   11:37:42.630.30-Jan-2021 4826.01 3154.20 84.27 18.00 277.45 2635.88
   11:37:42.830.30-Jan-2021 4826.01 3154.19 84.27 18.00 277.65 2635.88
   11:37:43.030.30-Jan-2021 4826.01 3154.17 84.27 18.00 277.85 2635.88
   11:37:43.230.30-Jan-2021 4826.01 3154.19 84.27 18.00 278.05 2635.88
   11:37:43.430.30-Jan-2021 4826.01 3154.19 84.27 18.00 278.25 2635.88
   11:37:43.630.30-Jan-2021 4826.01 3154.19 84.26 18.00 278.45 2635.88
   11:37:43.830.30-Jan-2021 4826.01 3154.26 84.26 18.00 278.65 2635.88
   11:37:44.030.30-Jan-2021 4826.01 3154.17 84.26 18.00 278.85 2635.88
   11:37:44.230.30-Jan-2021 4826.01 3154.19 84.26 18.00 279.05 2635.88
   11:37:44.430.30-Jan-2021 4826.01 3154.19 84.26 18.00 279.25 2635.88
   11:37:44.630.30-Jan-2021 4826.01 3154.18 84.26 18.00 279.45 2635.88
   11:37:44.830.30-Jan-2021 4826.01 3154.17 84.26 18.00 279.65 2635.88
   11:37:45.030.30-Jan-2021 4826.01 3154.17 84.26 18.00 279.85 2635.88
   11:37:45.230.30-Jan-2021 4826.01 3154.15 84.26 18.00 280.05 2635.88
   11:37:45.430.30-Jan-2021 4826.01 3154.15 84.26 18.00 280.25 2635.88
   11:37:45.631.30-Jan-2021 4826.01 3154.33 84.26 18.00 280.45 2635.88
   11:37:45.831.30-Jan-2021 4826.01 3154.21 84.26 18.00 280.65 2635.88
   11:37:46.031.30-Jan-2021 4826.01 3154.18 84.26 18.00 280.85 2635.88
   11:37:46.231.30-Jan-2021 4826.01 3154.15 84.26 18.00 281.05 2635.88
   11:37:46.431.30-Jan-2021 4826.01 3154.15 84.26 18.00 281.25 2635.88
   11:37:46.631.30-Jan-2021 4826.01 3154.21 84.26 18.00 281.45 2635.88
   11:37:46.831.30-Jan-2021 4826.01 3154.17 84.26 18.00 281.65 2635.88
   11:37:47.031.30-Jan-2021 4826.01 3154.19 84.26 18.00 281.85 2635.88
   11:37:47.231.30-Jan-2021 4826.01 3154.19 84.26 18.00 282.05 2635.88
   11:37:47.431.30-Jan-2021 4826.01 3154.19 84.26 18.00 282.25 2635.88
   11:37:47.631.30-Jan-2021 4826.01 3154.22 84.25 18.00 282.45 2635.88
   11:37:47.831.30-Jan-2021 4826.01 3154.18 84.25 18.00 282.65 2635.88
   11:37:48.031.30-Jan-2021 4826.01 3154.18 84.25 18.00 282.85 2635.88
   11:37:48.231.30-Jan-2021 4826.01 3154.13 84.25 18.00 283.05 2635.88
   11:37:48.431.30-Jan-2021 4826.01 3154.13 84.25 18.00 283.25 2635.88
   11:37:48.631.30-Jan-2021 4826.01 3154.20 84.25 18.00 283.45 2635.88
   11:37:48.831.30-Jan-2021 4826.01 3154.16 84.25 18.00 283.65 2635.88
   11:37:49.031.30-Jan-2021 4826.01 3154.20 84.25 18.00 283.85 2635.88
   11:37:49.231.30-Jan-2021 4826.01 3154.19 84.25 18.00 284.05 2635.88
   11:37:49.431.30-Jan-2021 4826.01 3154.19 84.25 18.00 284.25 2635.88
   11:37:49.631.30-Jan-2021 4826.01 3154.18 84.25 18.00 284.45 2635.88
   11:37:49.831.30-Jan-2021 4826.01 3154.18 84.25 18.00 284.65 2635.88
   11:37:50.031.30-Jan-2021 4826.01 3154.17 84.25 18.00 284.85 2635.88
   11:37:50.231.30-Jan-2021 4826.01 3154.19 84.25 18.00 285.05 2635.88
   11:37:50.431.30-Jan-2021 4826.01 3154.19 84.25 18.00 285.25 2635.88
   11:37:50.631.30-Jan-2021 4826.01 3154.26 84.25 18.00 285.45 2635.88
   11:37:50.831.30-Jan-2021 4826.01 3154.19 84.25 18.00 285.65 2635.88
   11:37:51.031.30-Jan-2021 4826.01 3154.18 84.25 18.00 285.85 2635.88
   11:37:51.232.30-Jan-2021 4826.01 3154.17 84.25 18.00 286.05 2635.88
   11:37:51.432.30-Jan-2021 4826.01 3154.17 84.25 18.00 286.25 2635.88
   11:37:51.632.30-Jan-2021 4826.01 3154.18 84.24 18.00 286.45 2635.88
   11:37:51.832.30-Jan-2021 4826.01 3154.16 84.24 18.00 286.65 2635.88
   11:37:52.032.30-Jan-2021 4826.01 3154.17 84.24 18.00 286.85 2635.88
   11:37:52.232.30-Jan-2021 4826.01 3154.17 84.24 18.00 287.05 2635.88
   11:37:52.432.30-Jan-2021 4826.01 3154.17 84.24 18.00 287.25 2635.88
   11:37:52.632.30-Jan-2021 4826.01 3154.25 84.24 18.00 287.45 2635.88
   11:37:52.832.30-Jan-2021 4826.01 3154.24 84.24 18.00 287.65 2635.88
   11:37:53.032.30-Jan-2021 4826.01 3154.19 84.24 18.00 287.85 2635.88
   11:37:53.232.30-Jan-2021 4826.01 3154.18 84.24 18.00 288.05 2635.88
   11:37:53.432.30-Jan-2021 4826.01 3154.18 84.24 18.00 288.25 2635.88
   11:37:53.632.30-Jan-2021 4826.01 3154.18 84.24 18.00 288.45 2635.88
   11:37:53.832.30-Jan-2021 4826.01 3154.17 84.24 18.00 288.65 2635.88
   11:37:54.032.30-Jan-2021 4826.01 3154.18 84.24 18.00 288.85 2635.88
   11:37:54.232.30-Jan-2021 4826.01 3154.17 84.24 18.00 289.05 2635.88
   11:37:54.432.30-Jan-2021 4826.01 3154.17 84.24 18.00 289.25 2635.88
   11:37:54.632.30-Jan-2021 4826.01 3154.16 84.24 18.00 289.45 2635.88
   11:37:54.832.30-Jan-2021 4826.01 3154.17 84.24 18.00 289.65 2635.88
   11:37:55.032.30-Jan-2021 4826.01 3154.22 84.24 18.00 289.85 2635.88
   11:37:55.232.30-Jan-2021 4826.01 3154.19 84.24 18.00 290.05 2635.88
   11:37:55.432.30-Jan-2021 4826.01 3154.19 84.24 18.00 290.25 2635.88
   11:37:55.632.30-Jan-2021 4826.01 3154.13 84.23 18.00 290.45 2635.88
   11:37:55.832.30-Jan-2021 4826.01 3154.19 84.23 18.00 290.65 2635.88
   11:37:56.032.30-Jan-2021 4826.01 3154.20 84.23 18.00 290.85 2635.88
   11:37:56.232.30-Jan-2021 4826.01 3154.19 84.23 18.00 291.05 2635.88
   11:37:56.432.30-Jan-2021 4826.01 3154.19 84.23 18.00 291.25 2635.88
   11:37:56.632.30-Jan-2021 4826.01 3154.14 84.23 18.00 291.45 2635.88
   11:37:56.833.30-Jan-2021 4826.01 3154.21 84.23 18.00 291.65 2635.88
   11:37:57.033.30-Jan-2021 4826.01 3154.30 84.23 18.00 291.85 2635.88
   11:37:57.233.30-Jan-2021 4826.01 3154.16 84.23 18.00 292.05 2635.88
   11:37:57.433.30-Jan-2021 4826.01 3154.16 84.23 18.00 292.25 2635.88
   11:37:57.633.30-Jan-2021 4826.01 3154.18 84.23 18.00 292.45 2635.88
   11:37:57.833.30-Jan-2021 4826.01 3154.20 84.23 18.00 292.65 2635.88
   11:37:58.033.30-Jan-2021 4826.01 3154.18 84.23 18.00 292.85 2635.88
   11:37:58.233.30-Jan-2021 4826.01 3154.18 84.23 18.00 293.05 2635.88
   11:37:58.433.30-Jan-2021 4826.01 3154.18 84.23 18.00 293.25 2635.88
   11:37:58.633.30-Jan-2021 4826.01 3154.12 84.23 18.00 293.45 2635.88
   11:37:58.833.30-Jan-2021 4826.01 3154.34 84.23 18.00 293.65 2635.88
