~Version Information
 VERS.                  2.0:   CWLS log ASCII Standard -VERSION 2.0
 WRAP.                   NO:   One line per depth step
~Well Information Block
#MNEM.UNIT     VALUE/NAME     DESCRIPTION
#---------     -----------    ---------------------------
 STRT.S             11:33:05 30-Jan-21: START TIME 11:33:05 30-Jan-21
 STOP.S             11:39:34 30-Jan-21: STOP TIME  11:39:34 30-Jan-21
 STEP.S                   0.00: STEP TIME
 NULL.                 -999.25: NULL VALUE
 DFWT.                        :  DIST FWL TEXT
 DFST.                        :  DIST FSL TEXT
 DMF .             Drill Floor:  DRILL MEAS FROM
 STIM.      00.00.00 25-Sep-20:  START TIME
 DATE.      16.12.48 31-Jan-21:  END TIME
 SPUD.               20-Sep-20:  SPUD DATE
 NREF.                    Grid:  NORTH REFERENCE
 HPTY.       Minimum Curvature:  HOLE POS TYPE
 DMOD.             Drill Model:  DRILL MOD DESC
 SVYD.                  Survey:  SURVEY DESC
 ILTD.               Lithology:  INTERP LTH DESC
 FTOP.          Formation Tops:  FORM TOPS DESC
 RIG .              East Azeri:  RIG NAME
 PDAT.          Mean Sea Level:  PERMANENT DATUM
 FLD .                     ACG:  FIELD NAME
 SON .        AZ-XX-0906591820:  JOB NUMBER
 CTRY.              Azerbaijan:  COUNTRY NAME
 WELL.                     D37:  WELL NAME
 SRVC.     Turan Drilling & Engineering:  CONTRACTOR
 COMP.     BP Exploration (Caspian Sea) ltd.:  COMPANY
 WTYP.                Deviated:  WELL TYPE
 MDS .        Operator Entered:  MAG DATA SOURCE
 UWI .                     N/A:  UNIQUE WELL IDENTIFIER
 API .                     N/A:  API NUMBER
 BASE.              Azerbaijan:  LOGGING EQUIPMENT BASE LOCATION
 REGN.                   EESSA:  REGION
 PROV.                    Baku:  PROVINCE
 STAT.                    Baku:  STATE NAME
 MWDS.                    Baku:  MWD SHOP
 JOBN.        AZ-XX-0906591820:  JOB TICKET NUMB
 DOE .                     N/A:  DOE NUMBER
 DCON.         Sperry Drilling:  DIRECTNL CONTR
 UNIT.                     N/A:  LOGGING EQUIPMENT ID
 CNTY.                        :  COUNTY
 LOC .                        :  LOCATION
 LMF .             Drill Floor:  LOG MEASURED FROM
 TVDS.m                  43.60:  TVDSS CORRECTN
 LATI.deg                40.02:  LATITUDE
 LONG.deg                51.45:  LONGITUDE
 WHNS.m                  11.04:  WELL HEAD N/S
 WHEW.m                 -12.38:  WELL HEAD E/W
 UTMX.m              538763.98:  UTM X
 UTMY.m             4431880.20:  UTM Y
 DFWL.m                   0.00:  DISTANCE FWL
 DFSL.m                   0.00:  DISTANCE FSL
 SDEP.m                 300.00:  START DEPTH
 TDD .m                4900.01:  TOTAL DEPTH (DRILLER)
 VSDR.deg               185.64:  VERT SEC DIRECT
 GVFD.g                   1.00:  GRAVITY FIELD
 MFLD.nT              50301.00:  MAGNETIC FIELD
 MDIP.deg                59.46:  MAGNETIC DIP
 MDEC.deg                 6.43:  MAGNETIC DECL
 GRDC.deg                 0.29:  GRID CORRECTION
 AZTC.deg                 6.14:  AZM TOTAL CORR
 EPD .m                   0.00:  ELEVATION
 EGL .m                   0.00:  GROUND ELEVATION
 WDMS.m                 151.80:  WD ELEV
 APD .m                  43.60:  DEPTH ABOVE PD
 DEP .m                 571.69:  DEPTH
 AGAP.m                  43.60:  AIR GAP
 VSEW.m                 -12.38:  VERT SEC E/W
 VSNS.m                  11.04:  VERT SEC N/S
 EKB .m                  43.60:  KB ELEVATION
 EDF .m                  43.60:  DF ELEVATION
 TDL .m                 412.00:  TOTAL DEPTH (LOGGER)
 VSC .                       0:  VS TO CLOSURE
 MAGU.                 1849300:  MAGUTM CHECKSUM
~Parameter Information Block
#MNEM.UNIT       Value        Description
#---------     -----------    ---------------------------
 AV  .mps                 2.21:  Ann Velocity 
 AVMX.mps                 2.53:  Max Ann Veloc 
 AZIF.deg               144.83:  Azm, Final 
 BHAT.        Rotary Steerable:  BHA Type 
 BROT.°/30m              -0.52:  Build Rotating 
 BS  .in                  6.50:  Bit Size 
 BTPL.psig              209.00:  Bit Press Loss 
 CABU.                      No:  Customer Abuse 
 CGEO.        Ali Isfandiyarov:  Customer Geo 
 COMM.                     <»c:  Run Comments 1 
 TCS .hr                 61.31:  Time Ciculation Ended 
 CV  .mps                 4.66:  Crit Velocity 
 CVMX.mps                 5.02:  Max Crit Veloc 
 DD1 .          Fariz Nahmatov:  Direct Drillr 1 
 DD2 .            Musa Ahmadov:  Direct Drillr 2 
 DDSV.               Geo-Pilot:  DD Service 
 DEFF.%                 100.00:  % Det Eff 
 DLRX.°/30m               1.44:  Dogleg Rot Max 
 DLSO.°/30m               0.83:  Dogleg Oriented 
 DLSX.°/30m               1.44:  Dogleg Str Max 
 DRET.      08.30.00 30-Jan-21:  Drill End Time 
 DRST.      21.15.00 27-Jan-21:  Drill Start Tim 
 DTIM.hr                 37.28:  Time Drilling 
 EDEP.m                4867.01:  End Depth 
 ENG1.          Rasim Hashimov:  Engineer 1 
 ENG2.         Almaz Almadatov:  Engineer 2 
 ENG3.        Tamerlan Ahmadov:  Engineer 3 
 ETIM.      22.41.04 31-Jan-21:  End Time 
 FLOI.gpm               400.00:  Flow In 
 FLON.gpm               300.00:  Flow In Min 
 FLOS.cptm                0.00:  Fluid Loss 
 FLOX.gpm               400.00:  Flow In Max 
 HFLO.                      No:  High Flow 
 HPRE.                      No:  High Pressure 
 HTEM.                      No:  High Temp 
 HYDO.m                   1.80:  Hydro Offset 
 IFIN.deg                65.63:  Inc, Final 
 IMAX.deg                66.77:  Inc Max 
 IMIN.deg                65.61:  Inc Min 
 IMND.m                4612.67:  Inc Min Depth 
 IMXD.m                4811.63:  Inc Max Depth 
 JARR.                      No:  Jarring 
 LETM.      08.30.00 30-Jan-21:  Log End Time 
 LOST.hr                     0:  Lost Rig Time 
 LSTM.      21.15.00 27-Jan-21:  Log Start Time 
 MDCL.ppm             41000.00:  Mud Chlorides 
 MDES.     Inversion Oil/Synthetic:  Mud Desc 
 DFD .sg                  1.40:  Mud Density 
 MDMN.sg                  1.40:  Dens Mud Min 
 MDMX.sg                  1.40:  Dens Mud Max 
 MOIL.                      53:  Run Mud Oil % 
 MOWR.                   66:34:  Run Mud OWR 
 MSND.                     0.2:  Run Mud Sand % 
 MSOL.                    17.9:  Run Mud Solids% 
 DFV .spqt               77.00:  Mud Viscosity 
 MWOD.in                  4.75:  MWD Tool OD 
 MWSI.                      No:  Serv Intrp, MWD 
 OTIM.hr                110.38:  Time Operating 
 PCON.           Look Like New:  Pad Condition 
 PMAX.psia             5300.00:  Press Op, Max 
 PV  .cP                 57.00:  Mud PV 
 RUN .                    1200:  Run Number 
 ROPA.m/hr               13.00:  ROP Avg 
 ROPN.m/hr                9.00:  ROP Min 
 ROPX.m/hr               15.00:  ROP Max 
 RPMA.rpm               120.00:  RPM Surface Avg 
 RPMN.rpm               100.00:  RPM Surface Min 
 RPMX.rpm               135.00:  RPM Surface Max 
 RRUN.                    1200:  Rig Run Number 
 RTIM.hr                  2.65:  Time Reaming 
 SAZI.deg               145.04:  Azm, Start 
 SDEP.m                4455.01:  Start Depth 
 SIDD.                      No:  Serv Intrp, DD 
 SINC.deg                65.83:  Inc, Start 
 SPPA.psig             5037.00:  SPP Avg 
 SPPN.psig             4430.00:  SPP Min 
 SPPX.psig             5300.00:  SPP Max 
 STIM.      22.41.04 26-Jan-21:  Start Time 
 SVCS.                 DD, MWD:  Services 
 SVER.                    9.20:  Sperry Version 
 TDAT.m                 412.00:  Tot Depth Attmp 
 TDDF.                      No:  Trip for DD 
 TDLG.m                 412.00:  Tot Depth Loggd 
 TFF .                      No:  Trip for Fail 
 TQAA.f-kp               15.00:  Torque Abs Avg 
 TQAN.f-kp               12.00:  Torque Abs Min 
 TQAX.f-kp               17.00:  Torque Abs Max 
 TRRT.°/30m               1.18:  Turn Rotating 
 MRT .                     ADR:  Maximum Recorded Temperature 
 TTMX.degC               88.24:  Max Tool Temp 
 VS01.                90619458:  Virtual Str1 SN 
 VS02.                90519326:  Virtual Str2 SN 
 VS03.                90522176:  Virtual Str3 SN 
 VS04.                90512683:  Virtual Str4 SN 
 WBMN.klb                 1.00:  WOB Min 
 WITN.           Murad Giluyev:  Customer Rep 
 WITN.     Kamran Kemberlinski:  Customer Rep 2 
 WOBA.klb                 5.00:  WOB Avg 
 WOBX.klb                 9.00:  WOB Max 
 YP  .lhf2               41.00:  Yield Point 
~Curve Information Block
#MNEM.UNIT                 API CODE     Curve Description
#---------               -----------    ---------------------------
 TIME.HHMMSS            00 000 000 000:  GT Time & Date
 GTDEPTH.m              00 000 000 000:  GT Depth
 GTPQH.psia             00 000 000 000:  GT HR Quartz Pressure
 GTTQ.degC              00 000 000 000:  GT Quartz Temperature
 GTTN.NONE              00 000 000 000:  GT Test Number
 GTET.sec               00 000 000 000:  GT Elapsed Test Time
 GTTVD.m                00 000 000 000:  GT True Vertical Depth
#Other Information
#
#WARRANTY: Halliburton will use its best efforts to furnish customers with 
#accurate information and interpretations that are part of, and incident to, the services 
#provided.  However, Halliburton cannot and does not warrant the accuracy 
#or correctness of such information and interpretations.  Under no circumstances should any 
#such information or interpretation be relied upon as the sole basis for any drilling, 
#completion, production, or financial decision or any procedure involving any risk to the 
#safety of any drilling venture, drilling rig or its crew or any other third party.  The 
#Customer has full responsibility for all drilling, completion and production operation.  
#Halliburton makes no representations or warranties, either expressed or 
#implied, including, but not limited to, the implied warranties of merchantability or fitness 
#for a particular purpose, with respect to the services rendered.  In no event will 
#Halliburton be liable for failure to obtain any particular results or for 
#any damages, including, but not limited to, indirect, special or consequential damages, 
#resulting from the use of any information or interpretation provided by Halliburton.
#
~A           TIME           GTDEPTH  GTPQH  GTTQ  GTTN   GTET   GTTVD  
# ...
   11:38:44.241.30-Jan-2021 4826.01 3154.13 84.11 18.00 339.06 2635.88
   11:38:44.441.30-Jan-2021 4826.01 3154.13 84.11 18.00 339.26 2635.88
   11:38:44.641.30-Jan-2021 4826.01 3154.16 84.11 18.00 339.46 2635.88
   11:38:44.841.30-Jan-2021 4826.01 3154.25 84.11 18.00 339.66 2635.88
   11:38:45.041.30-Jan-2021 4826.01 3154.16 84.11 18.00 339.86 2635.88
   11:38:45.241.30-Jan-2021 4826.01 3154.15 84.11 18.00 340.06 2635.88
   11:38:45.441.30-Jan-2021 4826.01 3154.15 84.11 18.00 340.26 2635.88
   11:38:45.641.30-Jan-2021 4826.01 3154.15 84.11 18.00 340.46 2635.88
   11:38:45.841.30-Jan-2021 4826.01 3154.15 84.11 18.00 340.66 2635.88
   11:38:46.041.30-Jan-2021 4826.01 3154.15 84.11 18.00 340.86 2635.88
   11:38:46.241.30-Jan-2021 4826.01 3154.12 84.11 18.00 341.06 2635.88
   11:38:46.441.30-Jan-2021 4826.01 3154.12 84.11 18.00 341.26 2635.88
   11:38:46.641.30-Jan-2021 4826.01 3154.13 84.11 18.00 341.46 2635.88
   11:38:46.841.30-Jan-2021 4826.01 3154.14 84.11 18.00 341.66 2635.88
   11:38:47.041.30-Jan-2021 4826.01 3154.13 84.11 18.00 341.86 2635.88
   11:38:47.241.30-Jan-2021 4826.01 3154.14 84.11 18.00 342.06 2635.88
   11:38:47.442.30-Jan-2021 4826.01 3154.14 84.11 18.00 342.26 2635.88
   11:38:47.642.30-Jan-2021 4826.01 3154.10 84.11 18.00 342.46 2635.88
   11:38:47.842.30-Jan-2021 4826.01 3154.15 84.11 18.00 342.66 2635.88
   11:38:48.042.30-Jan-2021 4826.01 3154.18 84.10 18.00 342.86 2635.88
   11:38:48.242.30-Jan-2021 4826.01 3154.19 84.10 18.00 343.06 2635.88
   11:38:48.442.30-Jan-2021 4826.01 3154.19 84.10 18.00 343.26 2635.88
   11:38:48.642.30-Jan-2021 4826.01 3154.11 84.10 18.00 343.46 2635.88
   11:38:48.842.30-Jan-2021 4826.01 3154.17 84.10 18.00 343.66 2635.88
   11:38:49.042.30-Jan-2021 4826.01 3154.17 84.10 18.00 343.86 2635.88
   11:38:49.242.30-Jan-2021 4826.01 3154.12 84.10 18.00 344.06 2635.88
   11:38:49.442.30-Jan-2021 4826.01 3154.12 84.10 18.00 344.26 2635.88
   11:38:49.642.30-Jan-2021 4826.01 3154.14 84.10 18.00 344.46 2635.88
   11:38:49.842.30-Jan-2021 4826.01 3154.18 84.10 18.00 344.66 2635.88
   11:38:50.042.30-Jan-2021 4826.01 3154.14 84.10 18.00 344.86 2635.88
   11:38:50.242.30-Jan-2021 4826.01 3154.20 84.10 18.00 345.06 2635.88
   11:38:50.442.30-Jan-2021 4826.01 3154.20 84.10 18.00 345.26 2635.88
   11:38:50.642.30-Jan-2021 4826.01 3156.36 84.10 18.00 345.46 2635.88
   11:38:50.842.30-Jan-2021 4826.01 3169.92 84.10 18.00 345.66 2635.88
   11:38:51.042.30-Jan-2021 4826.01 4741.19 84.10 18.00 345.86 2635.88
   11:38:51.242.30-Jan-2021 4826.01 5738.79 84.10 18.00 346.06 2635.88
   11:38:51.442.30-Jan-2021 4826.01 5738.79 84.10 18.00 346.26 2635.88
   11:38:51.642.30-Jan-2021 4826.01 5734.61 84.10 18.00 346.46 2635.88
   11:38:51.842.30-Jan-2021 4826.01 5734.40 84.10 18.00 346.66 2635.88
   11:38:52.042.30-Jan-2021 4826.01 5736.41 84.10 18.00 346.86 2635.88
   11:38:52.242.30-Jan-2021 4826.01 5738.13 84.09 18.00 347.06 2635.88
   11:38:52.442.30-Jan-2021 4826.01 5738.13 84.09 18.00 347.26 2635.88
   11:38:52.642.30-Jan-2021 4826.01 5737.50 84.09 18.00 347.46 2635.88
   11:38:52.842.30-Jan-2021 4826.01 5738.43 84.09 18.00 347.66 2635.88
   11:38:53.043.30-Jan-2021 4826.01 5740.49 84.09 18.00 347.86 2635.88
   11:38:53.243.30-Jan-2021 4826.01 5740.29 84.09 18.00 348.06 2635.88
   11:38:53.443.30-Jan-2021 4826.01 5740.29 84.09 18.00 348.26 2635.88
   11:38:53.643.30-Jan-2021 4826.01 5739.49 84.09 18.00 348.46 2635.88
   11:38:53.843.30-Jan-2021 4826.01 5740.67 84.09 18.00 348.66 2635.88
   11:38:54.043.30-Jan-2021 4826.01 5742.06 84.09 18.00 348.86 2635.88
   11:38:54.243.30-Jan-2021 4826.01 5742.41 84.09 18.00 349.06 2635.88
   11:38:54.443.30-Jan-2021 4826.01 5742.41 84.09 18.00 349.26 2635.88
   11:38:54.643.30-Jan-2021 4826.01 5742.51 84.09 18.00 349.46 2635.88
   11:38:54.843.30-Jan-2021 4826.01 5742.05 84.09 18.00 349.66 2635.88
   11:38:55.043.30-Jan-2021 4826.01 5736.98 84.09 18.00 349.86 2635.88
   11:38:55.243.30-Jan-2021 4826.01 5744.58 84.09 18.00 350.06 2635.88
   11:38:55.443.30-Jan-2021 4826.01 5744.58 84.09 18.00 350.26 2635.88
   11:38:55.643.30-Jan-2021 4826.01 5742.88 84.09 18.00 350.46 2635.88
   11:38:55.843.30-Jan-2021 4826.01 5742.16 84.09 18.00 350.66 2635.88
   11:38:56.043.30-Jan-2021 4826.01 5739.97 84.09 18.00 350.86 2635.88
   11:38:56.243.30-Jan-2021 4826.01 5742.79 84.09 18.00 351.06 2635.88
   11:38:56.443.30-Jan-2021 4826.01 5742.79 84.09 18.00 351.26 2635.88
   11:38:56.643.30-Jan-2021 4826.01 5743.52 84.09 18.00 351.46 2635.88
   11:38:56.843.30-Jan-2021 4826.01 5742.39 84.09 18.00 351.66 2635.88
   11:38:57.043.30-Jan-2021 4826.01 5741.52 84.09 18.00 351.86 2635.88
   11:38:57.243.30-Jan-2021 4826.01 5743.14 84.09 18.00 352.06 2635.88
   11:38:57.443.30-Jan-2021 4826.01 5743.14 84.09 18.00 352.26 2635.88
   11:38:57.643.30-Jan-2021 4826.01 5743.98 84.09 18.00 352.46 2635.88
   11:38:57.843.30-Jan-2021 4826.01 5742.48 84.09 18.00 352.66 2635.88
   11:38:58.043.30-Jan-2021 4826.01 5742.78 84.09 18.00 352.86 2635.88
   11:38:58.243.30-Jan-2021 4826.01 5736.42 84.09 18.00 353.06 2635.88
   11:38:58.443.30-Jan-2021 4826.01 5736.42 84.09 18.00 353.26 2635.88
   11:38:58.644.30-Jan-2021 4826.01 5743.76 84.09 18.00 353.46 2635.88
   11:38:58.844.30-Jan-2021 4826.01 5742.84 84.09 18.00 353.66 2635.88
   11:38:59.044.30-Jan-2021 4826.01 5735.93 84.09 18.00 353.86 2635.88
   11:38:59.244.30-Jan-2021 4826.01 5741.45 84.09 18.00 354.06 2635.88
   11:38:59.444.30-Jan-2021 4826.01 5741.45 84.09 18.00 354.26 2635.88
   11:38:59.644.30-Jan-2021 4826.01 5743.29 84.09 18.00 354.46 2635.88
   11:38:59.844.30-Jan-2021 4826.01 5737.96 84.09 18.00 354.66 2635.88
   11:39:00.044.30-Jan-2021 4826.01 5740.32 84.09 18.00 354.86 2635.88
   11:39:00.244.30-Jan-2021 4826.01 5742.38 84.09 18.00 355.06 2635.88
   11:39:00.444.30-Jan-2021 4826.01 5742.38 84.09 18.00 355.26 2635.88
   11:39:00.644.30-Jan-2021 4826.01 5744.41 84.09 18.00 355.46 2635.88
   11:39:00.844.30-Jan-2021 4826.01 5740.50 84.09 18.00 355.66 2635.88
   11:39:01.044.30-Jan-2021 4826.01 5737.55 84.09 18.00 355.86 2635.88
   11:39:01.244.30-Jan-2021 4826.01 5743.12 84.09 18.00 356.06 2635.88
   11:39:01.444.30-Jan-2021 4826.01 5743.12 84.09 18.00 356.26 2635.88
   11:39:01.644.30-Jan-2021 4826.01 5744.84 84.09 18.00 356.46 2635.88
   11:39:01.844.30-Jan-2021 4826.01 5737.74 84.09 18.00 356.66 2635.88
   11:39:02.044.30-Jan-2021 4826.01 5742.14 84.09 18.00 356.86 2635.88
   11:39:02.244.30-Jan-2021 4826.01 5743.07 84.09 18.00 357.06 2635.88
   11:39:02.444.30-Jan-2021 4826.01 5743.07 84.09 18.00 357.26 2635.88
   11:39:02.644.30-Jan-2021 4826.01 5745.18 84.09 18.00 357.46 2635.88
   11:39:02.844.30-Jan-2021 4826.01 5741.13 84.09 18.00 357.66 2635.88
   11:39:03.044.30-Jan-2021 4826.01 5742.52 84.09 18.00 357.86 2635.88
   11:39:03.244.30-Jan-2021 4826.01 5743.66 84.09 18.00 358.06 2635.88
   11:39:03.444.30-Jan-2021 4826.01 5743.66 84.09 18.00 358.26 2635.88
   11:39:03.644.30-Jan-2021 4826.01 5744.57 84.09 18.00 358.46 2635.88
   11:39:03.844.30-Jan-2021 4826.01 5742.60 84.09 18.00 358.66 2635.88
   11:39:04.044.30-Jan-2021 4826.01 5742.85 84.09 18.00 358.86 2635.88
   11:39:04.245.30-Jan-2021 4826.01 5741.95 84.08 18.00 359.06 2635.88
   11:39:04.445.30-Jan-2021 4826.01 5741.95 84.08 18.00 359.26 2635.88
   11:39:04.645.30-Jan-2021 4826.01 5742.78 84.08 18.00 359.46 2635.88
   11:39:04.845.30-Jan-2021 4826.01 5742.73 84.08 18.00 359.66 2635.88
   11:39:05.045.30-Jan-2021 4826.01 5742.23 84.08 18.00 359.86 2635.88
   11:39:05.245.30-Jan-2021 4826.01 5740.85 84.08 18.00 360.06 2635.88
   11:39:05.445.30-Jan-2021 4826.01 5740.85 84.08 18.00 360.26 2635.88
   11:39:05.645.30-Jan-2021 4826.01 5743.45 84.08 18.00 360.46 2635.88
   11:39:05.845.30-Jan-2021 4826.01 5743.44 84.08 18.00 360.66 2635.88
   11:39:06.045.30-Jan-2021 4826.01 5742.48 84.08 18.00 360.86 2635.88
   11:39:06.245.30-Jan-2021 4826.01 5741.72 84.08 18.00 361.06 2635.88
   11:39:06.445.30-Jan-2021 4826.01 5741.72 84.08 18.00 361.26 2635.88
   11:39:06.645.30-Jan-2021 4826.01 5743.48 84.08 18.00 361.46 2635.88
