~Version Information
 VERS.                  2.0:   CWLS log ASCII Standard -VERSION 2.0
 WRAP.                   NO:   One line per depth step
~Well Information Block
#MNEM.UNIT     VALUE/NAME     DESCRIPTION
#---------     -----------    ---------------------------
 STRT.S             02:56:18 28-Jan-21: START TIME 02:56:18 28-Jan-21
 STOP.S             03:02:54 28-Jan-21: STOP TIME  03:02:54 28-Jan-21
 STEP.S                   0.00: STEP TIME
 NULL.                 -999.25: NULL VALUE
 DFWT.                        :  DIST FWL TEXT
 DFST.                        :  DIST FSL TEXT
 DMF .             Drill Floor:  DRILL MEAS FROM
 STIM.      00.00.00 25-Sep-20:  START TIME
 DATE.      16.12.48 31-Jan-21:  END TIME
 SPUD.               20-Sep-20:  SPUD DATE
 NREF.                    Grid:  NORTH REFERENCE
 HPTY.       Minimum Curvature:  HOLE POS TYPE
 DMOD.             Drill Model:  DRILL MOD DESC
 SVYD.                  Survey:  SURVEY DESC
 ILTD.               Lithology:  INTERP LTH DESC
 FTOP.          Formation Tops:  FORM TOPS DESC
 RIG .              East Azeri:  RIG NAME
 PDAT.          Mean Sea Level:  PERMANENT DATUM
 FLD .                     ACG:  FIELD NAME
 SON .        AZ-XX-0906591820:  JOB NUMBER
 CTRY.              Azerbaijan:  COUNTRY NAME
 WELL.                     D37:  WELL NAME
 SRVC.     Turan Drilling & Engineering:  CONTRACTOR
 COMP.     BP Exploration (Caspian Sea) ltd.:  COMPANY
 WTYP.                Deviated:  WELL TYPE
 MDS .        Operator Entered:  MAG DATA SOURCE
 UWI .                     N/A:  UNIQUE WELL IDENTIFIER
 API .                     N/A:  API NUMBER
 BASE.              Azerbaijan:  LOGGING EQUIPMENT BASE LOCATION
 REGN.                   EESSA:  REGION
 PROV.                    Baku:  PROVINCE
 STAT.                    Baku:  STATE NAME
 MWDS.                    Baku:  MWD SHOP
 JOBN.        AZ-XX-0906591820:  JOB TICKET NUMB
 DOE .                     N/A:  DOE NUMBER
 DCON.         Sperry Drilling:  DIRECTNL CONTR
 UNIT.                     N/A:  LOGGING EQUIPMENT ID
 CNTY.                        :  COUNTY
 LOC .                        :  LOCATION
 LMF .             Drill Floor:  LOG MEASURED FROM
 TVDS.m                  43.60:  TVDSS CORRECTN
 LATI.deg                40.02:  LATITUDE
 LONG.deg                51.45:  LONGITUDE
 WHNS.m                  11.04:  WELL HEAD N/S
 WHEW.m                 -12.38:  WELL HEAD E/W
 UTMX.m              538763.98:  UTM X
 UTMY.m             4431880.20:  UTM Y
 DFWL.m                   0.00:  DISTANCE FWL
 DFSL.m                   0.00:  DISTANCE FSL
 SDEP.m                 300.00:  START DEPTH
 TDD .m                4900.01:  TOTAL DEPTH (DRILLER)
 VSDR.deg               185.64:  VERT SEC DIRECT
 GVFD.g                   1.00:  GRAVITY FIELD
 MFLD.nT              50301.00:  MAGNETIC FIELD
 MDIP.deg                59.46:  MAGNETIC DIP
 MDEC.deg                 6.43:  MAGNETIC DECL
 GRDC.deg                 0.29:  GRID CORRECTION
 AZTC.deg                 6.14:  AZM TOTAL CORR
 EPD .m                   0.00:  ELEVATION
 EGL .m                   0.00:  GROUND ELEVATION
 WDMS.m                 151.80:  WD ELEV
 APD .m                  43.60:  DEPTH ABOVE PD
 DEP .m                 571.69:  DEPTH
 AGAP.m                  43.60:  AIR GAP
 VSEW.m                 -12.38:  VERT SEC E/W
 VSNS.m                  11.04:  VERT SEC N/S
 EKB .m                  43.60:  KB ELEVATION
 EDF .m                  43.60:  DF ELEVATION
 TDL .m                 412.00:  TOTAL DEPTH (LOGGER)
 VSC .                       0:  VS TO CLOSURE
 MAGU.                 1849300:  MAGUTM CHECKSUM
~Parameter Information Block
#MNEM.UNIT       Value        Description
#---------     -----------    ---------------------------
 AV  .mps                 2.21:  Ann Velocity 
 AVMX.mps                 2.53:  Max Ann Veloc 
 AZIF.deg               144.83:  Azm, Final 
 BHAT.        Rotary Steerable:  BHA Type 
 BROT.°/30m              -0.52:  Build Rotating 
 BS  .in                  6.50:  Bit Size 
 BTPL.psig              209.00:  Bit Press Loss 
 CABU.                      No:  Customer Abuse 
 CGEO.        Ali Isfandiyarov:  Customer Geo 
 COMM.                     ì¡€:  Run Comments 1 
 TCS .hr                 61.31:  Time Ciculation Ended 
 CV  .mps                 4.66:  Crit Velocity 
 CVMX.mps                 5.02:  Max Crit Veloc 
 DD1 .          Fariz Nahmatov:  Direct Drillr 1 
 DD2 .            Musa Ahmadov:  Direct Drillr 2 
 DDSV.               Geo-Pilot:  DD Service 
 DEFF.%                 100.00:  % Det Eff 
 DLRX.°/30m               1.44:  Dogleg Rot Max 
 DLSO.°/30m               0.83:  Dogleg Oriented 
 DLSX.°/30m               1.44:  Dogleg Str Max 
 DRET.      08.30.00 30-Jan-21:  Drill End Time 
 DRST.      21.15.00 27-Jan-21:  Drill Start Tim 
 DTIM.hr                 37.28:  Time Drilling 
 EDEP.m                4867.01:  End Depth 
 ENG1.          Rasim Hashimov:  Engineer 1 
 ENG2.         Almaz Almadatov:  Engineer 2 
 ENG3.        Tamerlan Ahmadov:  Engineer 3 
 ETIM.      22.41.04 31-Jan-21:  End Time 
 FLOI.gpm               400.00:  Flow In 
 FLON.gpm               300.00:  Flow In Min 
 FLOS.cptm                0.00:  Fluid Loss 
 FLOX.gpm               400.00:  Flow In Max 
 HFLO.                      No:  High Flow 
 HPRE.                      No:  High Pressure 
 HTEM.                      No:  High Temp 
 HYDO.m                   1.80:  Hydro Offset 
 IFIN.deg                65.63:  Inc, Final 
 IMAX.deg                66.77:  Inc Max 
 IMIN.deg                65.61:  Inc Min 
 IMND.m                4612.67:  Inc Min Depth 
 IMXD.m                4811.63:  Inc Max Depth 
 JARR.                      No:  Jarring 
 LETM.      08.30.00 30-Jan-21:  Log End Time 
 LOST.hr                     0:  Lost Rig Time 
 LSTM.      21.15.00 27-Jan-21:  Log Start Time 
 MDCL.ppm             41000.00:  Mud Chlorides 
 MDES.     Inversion Oil/Synthetic:  Mud Desc 
 DFD .sg                  1.40:  Mud Density 
 MDMN.sg                  1.40:  Dens Mud Min 
 MDMX.sg                  1.40:  Dens Mud Max 
 MOIL.                      53:  Run Mud Oil % 
 MOWR.                   66:34:  Run Mud OWR 
 MSND.                     0.2:  Run Mud Sand % 
 MSOL.                    17.9:  Run Mud Solids% 
 DFV .spqt               77.00:  Mud Viscosity 
 MWOD.in                  4.75:  MWD Tool OD 
 MWSI.                      No:  Serv Intrp, MWD 
 OTIM.hr                110.38:  Time Operating 
 PCON.           Look Like New:  Pad Condition 
 PMAX.psia             5300.00:  Press Op, Max 
 PV  .cP                 57.00:  Mud PV 
 RUN .                    1200:  Run Number 
 ROPA.m/hr               13.00:  ROP Avg 
 ROPN.m/hr                9.00:  ROP Min 
 ROPX.m/hr               15.00:  ROP Max 
 RPMA.rpm               120.00:  RPM Surface Avg 
 RPMN.rpm               100.00:  RPM Surface Min 
 RPMX.rpm               135.00:  RPM Surface Max 
 RRUN.                    1200:  Rig Run Number 
 RTIM.hr                  2.65:  Time Reaming 
 SAZI.deg               145.04:  Azm, Start 
 SDEP.m                4455.01:  Start Depth 
 SIDD.                      No:  Serv Intrp, DD 
 SINC.deg                65.83:  Inc, Start 
 SPPA.psig             5037.00:  SPP Avg 
 SPPN.psig             4430.00:  SPP Min 
 SPPX.psig             5300.00:  SPP Max 
 STIM.      22.41.04 26-Jan-21:  Start Time 
 SVCS.                 DD, MWD:  Services 
 SVER.                    9.20:  Sperry Version 
 TDAT.m                 412.00:  Tot Depth Attmp 
 TDDF.                      No:  Trip for DD 
 TDLG.m                 412.00:  Tot Depth Loggd 
 TFF .                      No:  Trip for Fail 
 TQAA.f-kp               15.00:  Torque Abs Avg 
 TQAN.f-kp               12.00:  Torque Abs Min 
 TQAX.f-kp               17.00:  Torque Abs Max 
 TRRT.°/30m               1.18:  Turn Rotating 
 MRT .                     ADR:  Maximum Recorded Temperature 
 TTMX.degC               88.24:  Max Tool Temp 
 VS01.                90619458:  Virtual Str1 SN 
 VS02.                90519326:  Virtual Str2 SN 
 VS03.                90522176:  Virtual Str3 SN 
 VS04.                90512683:  Virtual Str4 SN 
 WBMN.klb                 1.00:  WOB Min 
 WITN.           Murad Giluyev:  Customer Rep 
 WITN.     Kamran Kemberlinski:  Customer Rep 2 
 WOBA.klb                 5.00:  WOB Avg 
 WOBX.klb                 9.00:  WOB Max 
 YP  .lhf2               41.00:  Yield Point 
~Curve Information Block
#MNEM.UNIT                 API CODE     Curve Description
#---------               -----------    ---------------------------
 TIME.HHMMSS            00 000 000 000:  GT Time & Date
 GTDEPTH.m              00 000 000 000:  GT Depth
 GTPQH.psia             00 000 000 000:  GT HR Quartz Pressure
 GTTQ.degC              00 000 000 000:  GT Quartz Temperature
 GTTN.NONE              00 000 000 000:  GT Test Number
 GTET.sec               00 000 000 000:  GT Elapsed Test Time
 GTTVD.m                00 000 000 000:  GT True Vertical Depth
#Other Information
#
#WARRANTY: Halliburton will use its best efforts to furnish customers with 
#accurate information and interpretations that are part of, and incident to, the services 
#provided.  However, Halliburton cannot and does not warrant the accuracy 
#or correctness of such information and interpretations.  Under no circumstances should any 
#such information or interpretation be relied upon as the sole basis for any drilling, 
#completion, production, or financial decision or any procedure involving any risk to the 
#safety of any drilling venture, drilling rig or its crew or any other third party.  The 
#Customer has full responsibility for all drilling, completion and production operation.  
#Halliburton makes no representations or warranties, either expressed or 
#implied, including, but not limited to, the implied warranties of merchantability or fitness 
#for a particular purpose, with respect to the services rendered.  In no event will 
#Halliburton be liable for failure to obtain any particular results or for 
#any damages, including, but not limited to, indirect, special or consequential damages, 
#resulting from the use of any information or interpretation provided by Halliburton.
#
~A           TIME           GTDEPTH  GTPQH  GTTQ  GTTN  GTET   GTTVD  
# ...
   03:02:03.000.28-Jan-2021 4452.31 5405.16 59.21 2.00 345.00 2484.76
   03:02:03.200.28-Jan-2021 4452.31 5405.16 59.21 2.00 345.20 2484.76
   03:02:03.400.28-Jan-2021 4452.31 5405.31 59.21 2.00 345.40 2484.76
   03:02:03.600.28-Jan-2021 4452.31 5405.79 59.21 2.00 345.60 2484.76
   03:02:03.800.28-Jan-2021 4452.31 5405.50 59.21 2.00 345.80 2484.76
   03:02:04.000.28-Jan-2021 4452.31 5405.84 59.21 2.00 346.00 2484.76
   03:02:04.200.28-Jan-2021 4452.31 5405.84 59.21 2.00 346.20 2484.76
   03:02:04.400.28-Jan-2021 4452.31 5405.40 59.21 2.00 346.40 2484.76
   03:02:04.600.28-Jan-2021 4452.31 5405.82 59.21 2.00 346.60 2484.76
   03:02:04.800.28-Jan-2021 4452.31 5404.58 59.21 2.00 346.80 2484.76
   03:02:05.000.28-Jan-2021 4452.31 5398.90 59.21 2.00 347.00 2484.76
   03:02:05.200.28-Jan-2021 4452.31 5398.90 59.21 2.00 347.20 2484.76
   03:02:05.400.28-Jan-2021 4452.31 5405.82 59.21 2.00 347.40 2484.76
   03:02:05.600.28-Jan-2021 4452.31 5407.88 59.21 2.00 347.60 2484.76
   03:02:05.800.28-Jan-2021 4452.31 5397.81 59.21 2.00 347.80 2484.76
   03:02:06.000.28-Jan-2021 4452.31 5405.42 59.21 2.00 348.00 2484.76
   03:02:06.200.28-Jan-2021 4452.31 5405.42 59.21 2.00 348.20 2484.76
   03:02:06.400.28-Jan-2021 4452.31 5408.55 59.21 2.00 348.40 2484.76
   03:02:06.600.28-Jan-2021 4452.31 5397.34 59.21 2.00 348.60 2484.76
   03:02:06.800.28-Jan-2021 4452.31 5405.76 59.21 2.00 348.80 2484.76
   03:02:07.000.28-Jan-2021 4452.31 5405.64 59.21 2.00 349.00 2484.76
   03:02:07.200.28-Jan-2021 4452.31 5405.64 59.21 2.00 349.20 2484.76
   03:02:07.400.28-Jan-2021 4452.31 5407.45 59.21 2.00 349.40 2484.76
   03:02:07.600.28-Jan-2021 4452.31 5396.99 59.21 2.00 349.60 2484.76
   03:02:07.800.28-Jan-2021 4452.31 5404.86 59.21 2.00 349.80 2484.76
   03:02:08.000.28-Jan-2021 4452.31 5403.75 59.21 2.00 350.00 2484.76
   03:02:08.200.28-Jan-2021 4452.31 5403.75 59.21 2.00 350.20 2484.76
   03:02:08.400.28-Jan-2021 4452.31 5406.90 59.21 2.00 350.40 2484.76
   03:02:08.600.28-Jan-2021 4452.31 5405.22 59.22 2.00 350.60 2484.76
   03:02:08.800.28-Jan-2021 4452.31 5396.04 59.22 2.00 350.80 2484.76
   03:02:09.000.28-Jan-2021 4452.31 5403.66 59.21 2.00 351.00 2484.76
   03:02:09.200.28-Jan-2021 4452.31 5403.66 59.21 2.00 351.20 2484.76
   03:02:09.400.28-Jan-2021 4452.31 5407.68 59.22 2.00 351.40 2484.76
   03:02:09.600.28-Jan-2021 4452.31 5406.78 59.21 2.00 351.60 2484.76
   03:02:09.800.28-Jan-2021 4452.31 5405.44 59.22 2.00 351.80 2484.76
   03:02:10.000.28-Jan-2021 4452.31 5404.96 59.22 2.00 352.00 2484.76
   03:02:10.200.28-Jan-2021 4452.31 5404.96 59.22 2.00 352.20 2484.76
   03:02:10.400.28-Jan-2021 4452.31 5405.21 59.22 2.00 352.40 2484.76
   03:02:10.600.28-Jan-2021 4452.31 5405.39 59.22 2.00 352.60 2484.76
   03:02:10.800.28-Jan-2021 4452.31 5405.86 59.22 2.00 352.80 2484.76
   03:02:11.000.28-Jan-2021 4452.31 5405.43 59.22 2.00 353.00 2484.76
   03:02:11.200.28-Jan-2021 4452.31 5405.43 59.22 2.00 353.20 2484.76
   03:02:11.400.28-Jan-2021 4452.31 5405.07 59.22 2.00 353.40 2484.76
   03:02:11.600.28-Jan-2021 4452.31 5404.91 59.22 2.00 353.60 2484.76
   03:02:11.800.28-Jan-2021 4452.31 5405.51 59.22 2.00 353.80 2484.76
   03:02:12.000.28-Jan-2021 4452.31 5404.99 59.22 2.00 354.00 2484.76
   03:02:12.200.28-Jan-2021 4452.31 5404.99 59.22 2.00 354.20 2484.76
   03:02:12.400.28-Jan-2021 4452.31 5398.72 59.22 2.00 354.40 2484.76
   03:02:12.600.28-Jan-2021 4452.31 5405.13 59.22 2.00 354.60 2484.76
   03:02:12.800.28-Jan-2021 4452.31 5406.65 59.22 2.00 354.80 2484.76
   03:02:13.000.28-Jan-2021 4452.31 5407.88 59.22 2.00 355.00 2484.76
   03:02:13.200.28-Jan-2021 4452.31 5407.88 59.22 2.00 355.20 2484.76
   03:02:13.400.28-Jan-2021 4452.31 5405.55 59.22 2.00 355.40 2484.76
   03:02:13.600.28-Jan-2021 4452.31 5405.05 59.22 2.00 355.60 2484.76
   03:02:13.800.28-Jan-2021 4452.31 5405.48 59.22 2.00 355.80 2484.76
   03:02:14.000.28-Jan-2021 4452.31 5406.00 59.22 2.00 356.00 2484.76
   03:02:14.200.28-Jan-2021 4452.31 5406.00 59.22 2.00 356.20 2484.76
   03:02:14.400.28-Jan-2021 4452.31 5406.45 59.22 2.00 356.40 2484.76
   03:02:14.600.28-Jan-2021 4452.31 5405.65 59.22 2.00 356.60 2484.76
   03:02:14.800.28-Jan-2021 4452.31 5406.70 59.22 2.00 356.80 2484.76
   03:02:15.000.28-Jan-2021 4452.31 5405.94 59.22 2.00 357.00 2484.76
   03:02:15.200.28-Jan-2021 4452.31 5405.94 59.22 2.00 357.20 2484.76
   03:02:15.400.28-Jan-2021 4452.31 5406.46 59.22 2.00 357.40 2484.76
   03:02:15.600.28-Jan-2021 4452.31 5406.21 59.22 2.00 357.60 2484.76
   03:02:15.800.28-Jan-2021 4452.31 5398.14 59.22 2.00 357.80 2484.76
   03:02:16.000.28-Jan-2021 4452.31 5406.08 59.22 2.00 358.00 2484.76
   03:02:16.200.28-Jan-2021 4452.31 5406.08 59.22 2.00 358.20 2484.76
   03:02:16.400.28-Jan-2021 4452.31 5405.38 59.22 2.00 358.40 2484.76
   03:02:16.600.28-Jan-2021 4452.31 5397.99 59.22 2.00 358.60 2484.76
   03:02:16.800.28-Jan-2021 4452.31 5405.84 59.22 2.00 358.80 2484.76
   03:02:17.000.28-Jan-2021 4452.31 5406.12 59.22 2.00 359.00 2484.76
   03:02:17.200.28-Jan-2021 4452.31 5406.12 59.22 2.00 359.20 2484.76
   03:02:17.400.28-Jan-2021 4452.31 5398.22 59.22 2.00 359.40 2484.76
   03:02:17.600.28-Jan-2021 4452.31 5405.67 59.22 2.00 359.60 2484.76
   03:02:17.800.28-Jan-2021 4452.31 5405.42 59.22 2.00 359.80 2484.76
   03:02:18.000.28-Jan-2021 4452.31 5408.56 59.22 2.00 360.00 2484.76
   03:02:18.200.28-Jan-2021 4452.31 5408.56 59.22 2.00 360.20 2484.76
   03:02:18.400.28-Jan-2021 4452.31 5407.83 59.22 2.00 360.40 2484.76
   03:02:18.600.28-Jan-2021 4452.31 5403.35 59.22 2.00 360.60 2484.76
   03:02:18.800.28-Jan-2021 4452.31 5403.48 59.22 2.00 360.80 2484.76
   03:02:19.000.28-Jan-2021 4452.31 5407.25 59.22 2.00 361.00 2484.76
   03:02:19.200.28-Jan-2021 4452.31 5407.25 59.22 2.00 361.20 2484.76
   03:02:19.400.28-Jan-2021 4452.31 5405.45 59.22 2.00 361.40 2484.76
   03:02:19.600.28-Jan-2021 4452.31 5397.86 59.22 2.00 361.60 2484.76
   03:02:19.800.28-Jan-2021 4452.31 5402.02 59.22 2.00 361.80 2484.76
   03:02:20.000.28-Jan-2021 4452.31 5404.91 59.22 2.00 362.00 2484.76
   03:02:20.200.28-Jan-2021 4452.31 5404.91 59.22 2.00 362.20 2484.76
   03:02:20.400.28-Jan-2021 4452.31 5407.05 59.22 2.00 362.40 2484.76
   03:02:20.600.28-Jan-2021 4452.31 5406.16 59.22 2.00 362.60 2484.76
   03:02:20.800.28-Jan-2021 4452.31 5405.07 59.22 2.00 362.80 2484.76
   03:02:21.000.28-Jan-2021 4452.31 5405.48 59.22 2.00 363.00 2484.76
   03:02:21.200.28-Jan-2021 4452.31 5405.48 59.22 2.00 363.20 2484.76
   03:02:21.400.28-Jan-2021 4452.31 5405.45 59.22 2.00 363.40 2484.76
   03:02:21.600.28-Jan-2021 4452.31 5406.13 59.22 2.00 363.60 2484.76
   03:02:21.800.28-Jan-2021 4452.31 5405.67 59.22 2.00 363.80 2484.76
   03:02:22.000.28-Jan-2021 4452.31 5405.61 59.22 2.00 364.00 2484.76
   03:02:22.200.28-Jan-2021 4452.31 5405.61 59.22 2.00 364.20 2484.76
   03:02:22.400.28-Jan-2021 4452.31 5404.50 59.22 2.00 364.40 2484.76
   03:02:22.600.28-Jan-2021 4452.31 5405.36 59.22 2.00 364.60 2484.76
   03:02:22.800.28-Jan-2021 4452.31 5404.88 59.22 2.00 364.80 2484.76
   03:02:23.000.28-Jan-2021 4452.31 5405.29 59.22 2.00 365.00 2484.76
   03:02:23.200.28-Jan-2021 4452.31 5405.29 59.22 2.00 365.20 2484.76
   03:02:23.400.28-Jan-2021 4452.31 5404.82 59.22 2.00 365.40 2484.76
   03:02:23.600.28-Jan-2021 4452.31 5405.96 59.22 2.00 365.60 2484.76
   03:02:23.800.28-Jan-2021 4452.31 5408.26 59.22 2.00 365.80 2484.76
   03:02:24.000.28-Jan-2021 4452.31 5405.95 59.22 2.00 366.00 2484.76
   03:02:24.200.28-Jan-2021 4452.31 5405.95 59.22 2.00 366.20 2484.76
   03:02:24.400.28-Jan-2021 4452.31 5404.77 59.22 2.00 366.40 2484.76
   03:02:24.600.28-Jan-2021 4452.31 5405.26 59.22 2.00 366.60 2484.76
   03:02:24.800.28-Jan-2021 4452.31 5405.64 59.22 2.00 366.80 2484.76
   03:02:25.000.28-Jan-2021 4452.31 5405.48 59.22 2.00 367.00 2484.76
   03:02:25.200.28-Jan-2021 4452.31 5405.48 59.22 2.00 367.20 2484.76
   03:02:25.400.28-Jan-2021 4452.31 5405.29 59.22 2.00 367.40 2484.76
   03:02:25.600.28-Jan-2021 4452.31 5406.23 59.22 2.00 367.60 2484.76
   03:02:25.800.28-Jan-2021 4452.31 5405.78 59.22 2.00 367.80 2484.76
