~Version Information
 VERS.                  2.0:   CWLS log ASCII Standard -VERSION 2.0
 WRAP.                   NO:   One line per depth step
~Well Information Block
#MNEM.UNIT     VALUE/NAME     DESCRIPTION
#---------     -----------    ---------------------------
 STRT.S             18:28:03 29-Jan-21: START TIME 18:28:03 29-Jan-21
 STOP.S             18:34:33 29-Jan-21: STOP TIME  18:34:33 29-Jan-21
 STEP.S                   0.00: STEP TIME
 NULL.                 -999.25: NULL VALUE
 DFWT.                        :  DIST FWL TEXT
 DFST.                        :  DIST FSL TEXT
 DMF .             Drill Floor:  DRILL MEAS FROM
 STIM.      00.00.00 25-Sep-20:  START TIME
 DATE.      16.12.48 31-Jan-21:  END TIME
 SPUD.               20-Sep-20:  SPUD DATE
 NREF.                    Grid:  NORTH REFERENCE
 HPTY.       Minimum Curvature:  HOLE POS TYPE
 DMOD.             Drill Model:  DRILL MOD DESC
 SVYD.                  Survey:  SURVEY DESC
 ILTD.               Lithology:  INTERP LTH DESC
 FTOP.          Formation Tops:  FORM TOPS DESC
 RIG .              East Azeri:  RIG NAME
 PDAT.          Mean Sea Level:  PERMANENT DATUM
 FLD .                     ACG:  FIELD NAME
 SON .        AZ-XX-0906591820:  JOB NUMBER
 CTRY.              Azerbaijan:  COUNTRY NAME
 WELL.                     D37:  WELL NAME
 SRVC.     Turan Drilling & Engineering:  CONTRACTOR
 COMP.     BP Exploration (Caspian Sea) ltd.:  COMPANY
 WTYP.                Deviated:  WELL TYPE
 MDS .        Operator Entered:  MAG DATA SOURCE
 UWI .                     N/A:  UNIQUE WELL IDENTIFIER
 API .                     N/A:  API NUMBER
 BASE.              Azerbaijan:  LOGGING EQUIPMENT BASE LOCATION
 REGN.                   EESSA:  REGION
 PROV.                    Baku:  PROVINCE
 STAT.                    Baku:  STATE NAME
 MWDS.                    Baku:  MWD SHOP
 JOBN.        AZ-XX-0906591820:  JOB TICKET NUMB
 DOE .                     N/A:  DOE NUMBER
 DCON.         Sperry Drilling:  DIRECTNL CONTR
 UNIT.                     N/A:  LOGGING EQUIPMENT ID
 CNTY.                        :  COUNTY
 LOC .                        :  LOCATION
 LMF .             Drill Floor:  LOG MEASURED FROM
 TVDS.m                  43.60:  TVDSS CORRECTN
 LATI.deg                40.02:  LATITUDE
 LONG.deg                51.45:  LONGITUDE
 WHNS.m                  11.04:  WELL HEAD N/S
 WHEW.m                 -12.38:  WELL HEAD E/W
 UTMX.m              538763.98:  UTM X
 UTMY.m             4431880.20:  UTM Y
 DFWL.m                   0.00:  DISTANCE FWL
 DFSL.m                   0.00:  DISTANCE FSL
 SDEP.m                 300.00:  START DEPTH
 TDD .m                4900.01:  TOTAL DEPTH (DRILLER)
 VSDR.deg               185.64:  VERT SEC DIRECT
 GVFD.g                   1.00:  GRAVITY FIELD
 MFLD.nT              50301.00:  MAGNETIC FIELD
 MDIP.deg                59.46:  MAGNETIC DIP
 MDEC.deg                 6.43:  MAGNETIC DECL
 GRDC.deg                 0.29:  GRID CORRECTION
 AZTC.deg                 6.14:  AZM TOTAL CORR
 EPD .m                   0.00:  ELEVATION
 EGL .m                   0.00:  GROUND ELEVATION
 WDMS.m                 151.80:  WD ELEV
 APD .m                  43.60:  DEPTH ABOVE PD
 DEP .m                 571.69:  DEPTH
 AGAP.m                  43.60:  AIR GAP
 VSEW.m                 -12.38:  VERT SEC E/W
 VSNS.m                  11.04:  VERT SEC N/S
 EKB .m                  43.60:  KB ELEVATION
 EDF .m                  43.60:  DF ELEVATION
 TDL .m                 412.00:  TOTAL DEPTH (LOGGER)
 VSC .                       0:  VS TO CLOSURE
 MAGU.                 1849300:  MAGUTM CHECKSUM
~Parameter Information Block
#MNEM.UNIT       Value        Description
#---------     -----------    ---------------------------
 AV  .mps                 2.21:  Ann Velocity 
 AVMX.mps                 2.53:  Max Ann Veloc 
 AZIF.deg               144.83:  Azm, Final 
 BHAT.        Rotary Steerable:  BHA Type 
 BROT.°/30m              -0.52:  Build Rotating 
 BS  .in                  6.50:  Bit Size 
 BTPL.psig              209.00:  Bit Press Loss 
 CABU.                      No:  Customer Abuse 
 CGEO.        Ali Isfandiyarov:  Customer Geo 
 COMM.                     tðz:  Run Comments 1 
 TCS .hr                 61.31:  Time Ciculation Ended 
 CV  .mps                 4.66:  Crit Velocity 
 CVMX.mps                 5.02:  Max Crit Veloc 
 DD1 .          Fariz Nahmatov:  Direct Drillr 1 
 DD2 .            Musa Ahmadov:  Direct Drillr 2 
 DDSV.               Geo-Pilot:  DD Service 
 DEFF.%                 100.00:  % Det Eff 
 DLRX.°/30m               1.44:  Dogleg Rot Max 
 DLSO.°/30m               0.83:  Dogleg Oriented 
 DLSX.°/30m               1.44:  Dogleg Str Max 
 DRET.      08.30.00 30-Jan-21:  Drill End Time 
 DRST.      21.15.00 27-Jan-21:  Drill Start Tim 
 DTIM.hr                 37.28:  Time Drilling 
 EDEP.m                4867.01:  End Depth 
 ENG1.          Rasim Hashimov:  Engineer 1 
 ENG2.         Almaz Almadatov:  Engineer 2 
 ENG3.        Tamerlan Ahmadov:  Engineer 3 
 ETIM.      22.41.04 31-Jan-21:  End Time 
 FLOI.gpm               400.00:  Flow In 
 FLON.gpm               300.00:  Flow In Min 
 FLOS.cptm                0.00:  Fluid Loss 
 FLOX.gpm               400.00:  Flow In Max 
 HFLO.                      No:  High Flow 
 HPRE.                      No:  High Pressure 
 HTEM.                      No:  High Temp 
 HYDO.m                   1.80:  Hydro Offset 
 IFIN.deg                65.63:  Inc, Final 
 IMAX.deg                66.77:  Inc Max 
 IMIN.deg                65.61:  Inc Min 
 IMND.m                4612.67:  Inc Min Depth 
 IMXD.m                4811.63:  Inc Max Depth 
 JARR.                      No:  Jarring 
 LETM.      08.30.00 30-Jan-21:  Log End Time 
 LOST.hr                     0:  Lost Rig Time 
 LSTM.      21.15.00 27-Jan-21:  Log Start Time 
 MDCL.ppm             41000.00:  Mud Chlorides 
 MDES.     Inversion Oil/Synthetic:  Mud Desc 
 DFD .sg                  1.40:  Mud Density 
 MDMN.sg                  1.40:  Dens Mud Min 
 MDMX.sg                  1.40:  Dens Mud Max 
 MOIL.                      53:  Run Mud Oil % 
 MOWR.                   66:34:  Run Mud OWR 
 MSND.                     0.2:  Run Mud Sand % 
 MSOL.                    17.9:  Run Mud Solids% 
 DFV .spqt               77.00:  Mud Viscosity 
 MWOD.in                  4.75:  MWD Tool OD 
 MWSI.                      No:  Serv Intrp, MWD 
 OTIM.hr                110.38:  Time Operating 
 PCON.           Look Like New:  Pad Condition 
 PMAX.psia             5300.00:  Press Op, Max 
 PV  .cP                 57.00:  Mud PV 
 RUN .                    1200:  Run Number 
 ROPA.m/hr               13.00:  ROP Avg 
 ROPN.m/hr                9.00:  ROP Min 
 ROPX.m/hr               15.00:  ROP Max 
 RPMA.rpm               120.00:  RPM Surface Avg 
 RPMN.rpm               100.00:  RPM Surface Min 
 RPMX.rpm               135.00:  RPM Surface Max 
 RRUN.                    1200:  Rig Run Number 
 RTIM.hr                  2.65:  Time Reaming 
 SAZI.deg               145.04:  Azm, Start 
 SDEP.m                4455.01:  Start Depth 
 SIDD.                      No:  Serv Intrp, DD 
 SINC.deg                65.83:  Inc, Start 
 SPPA.psig             5037.00:  SPP Avg 
 SPPN.psig             4430.00:  SPP Min 
 SPPX.psig             5300.00:  SPP Max 
 STIM.      22.41.04 26-Jan-21:  Start Time 
 SVCS.                 DD, MWD:  Services 
 SVER.                    9.20:  Sperry Version 
 TDAT.m                 412.00:  Tot Depth Attmp 
 TDDF.                      No:  Trip for DD 
 TDLG.m                 412.00:  Tot Depth Loggd 
 TFF .                      No:  Trip for Fail 
 TQAA.f-kp               15.00:  Torque Abs Avg 
 TQAN.f-kp               12.00:  Torque Abs Min 
 TQAX.f-kp               17.00:  Torque Abs Max 
 TRRT.°/30m               1.18:  Turn Rotating 
 MRT .                     ADR:  Maximum Recorded Temperature 
 TTMX.degC               88.24:  Max Tool Temp 
 VS01.                90619458:  Virtual Str1 SN 
 VS02.                90519326:  Virtual Str2 SN 
 VS03.                90522176:  Virtual Str3 SN 
 VS04.                90512683:  Virtual Str4 SN 
 WBMN.klb                 1.00:  WOB Min 
 WITN.           Murad Giluyev:  Customer Rep 
 WITN.     Kamran Kemberlinski:  Customer Rep 2 
 WOBA.klb                 5.00:  WOB Avg 
 WOBX.klb                 9.00:  WOB Max 
 YP  .lhf2               41.00:  Yield Point 
~Curve Information Block
#MNEM.UNIT                 API CODE     Curve Description
#---------               -----------    ---------------------------
 TIME.HHMMSS            00 000 000 000:  GT Time & Date
 GTDEPTH.m              00 000 000 000:  GT Depth
 GTPQH.psia             00 000 000 000:  GT HR Quartz Pressure
 GTTQ.degC              00 000 000 000:  GT Quartz Temperature
 GTTN.NONE              00 000 000 000:  GT Test Number
 GTET.sec               00 000 000 000:  GT Elapsed Test Time
 GTTVD.m                00 000 000 000:  GT True Vertical Depth
#Other Information
#
#WARRANTY: Halliburton will use its best efforts to furnish customers with 
#accurate information and interpretations that are part of, and incident to, the services 
#provided.  However, Halliburton cannot and does not warrant the accuracy 
#or correctness of such information and interpretations.  Under no circumstances should any 
#such information or interpretation be relied upon as the sole basis for any drilling, 
#completion, production, or financial decision or any procedure involving any risk to the 
#safety of any drilling venture, drilling rig or its crew or any other third party.  The 
#Customer has full responsibility for all drilling, completion and production operation.  
#Halliburton makes no representations or warranties, either expressed or 
#implied, including, but not limited to, the implied warranties of merchantability or fitness 
#for a particular purpose, with respect to the services rendered.  In no event will 
#Halliburton be liable for failure to obtain any particular results or for 
#any damages, including, but not limited to, indirect, special or consequential damages, 
#resulting from the use of any information or interpretation provided by Halliburton.
#
~A           TIME           GTDEPTH  GTPQH  GTTQ  GTTN   GTET   GTTVD  
# ...
   18:28:26.236.29-Jan-2021 4752.01 5791.33 83.39 12.00  22.60 2606.49
   18:28:26.436.29-Jan-2021 4752.01 5791.53 83.39 12.00  22.80 2606.49
   18:28:26.636.29-Jan-2021 4752.01 5793.06 83.39 12.00  23.00 2606.49
   18:28:26.836.29-Jan-2021 4752.01 5793.06 83.39 12.00  23.20 2606.49
   18:28:27.036.29-Jan-2021 4752.01 5791.59 83.39 12.00  23.40 2606.49
   18:28:27.236.29-Jan-2021 4752.01 5791.50 83.38 12.00  23.60 2606.49
   18:28:27.436.29-Jan-2021 4752.01 5791.88 83.38 12.00  23.80 2606.49
   18:28:27.636.29-Jan-2021 4752.01 5792.53 83.38 12.00  24.00 2606.49
   18:28:27.836.29-Jan-2021 4752.01 5792.53 83.38 12.00  24.20 2606.49
   18:28:28.036.29-Jan-2021 4752.01 5792.91 83.38 12.00  24.40 2606.49
   18:28:28.236.29-Jan-2021 4752.01 5793.00 83.38 12.00  24.60 2606.49
   18:28:28.436.29-Jan-2021 4752.01 5793.34 83.38 12.00  24.80 2606.49
   18:28:28.636.29-Jan-2021 4752.01 5793.24 83.38 12.00  25.00 2606.49
   18:28:28.836.29-Jan-2021 4752.01 5793.24 83.38 12.00  25.20 2606.49
   18:28:29.036.29-Jan-2021 4752.01 5794.01 83.38 12.00  25.40 2606.49
   18:28:29.236.29-Jan-2021 4752.01 5793.87 83.38 12.00  25.60 2606.49
   18:28:29.436.29-Jan-2021 4752.01 5798.13 83.38 12.00  25.80 2606.49
   18:28:29.636.29-Jan-2021 4752.01 5665.48 83.37 12.00  26.00 2606.49
   18:28:29.836.29-Jan-2021 4752.01 5665.48 83.37 12.00  26.20 2606.49
   18:28:30.036.29-Jan-2021 4752.01 5083.68 83.37 12.00  26.40 2606.49
   18:28:30.237.29-Jan-2021 4752.01 4395.99 83.37 12.00  26.60 2606.49
   18:28:30.437.29-Jan-2021 4752.01 3564.74 83.37 12.00  26.80 2606.49
   18:28:30.637.29-Jan-2021 4752.01 3106.88 83.37 12.00  27.00 2606.49
   18:28:30.837.29-Jan-2021 4752.01 3106.88 83.37 12.00  27.20 2606.49
   18:28:31.037.29-Jan-2021 4752.01 3106.55 83.37 12.00  27.40 2606.49
   18:28:31.237.29-Jan-2021 4752.01 3106.32 83.37 12.00  27.60 2606.49
   18:28:31.437.29-Jan-2021 4752.01 3106.06 83.37 12.00  27.80 2606.49
   18:28:31.637.29-Jan-2021 4752.01 3105.71 83.37 12.00  28.00 2606.49
   18:28:31.837.29-Jan-2021 4752.01 3105.71 83.37 12.00  28.20 2606.49
   18:28:32.037.29-Jan-2021 4752.01 3105.08 83.36 12.00  28.40 2606.49
   18:28:32.237.29-Jan-2021 4752.01 3104.63 83.36 12.00  28.60 2606.49
   18:28:32.437.29-Jan-2021 4752.01 3104.38 83.36 12.00  28.80 2606.49
   18:28:32.637.29-Jan-2021 4752.01 3104.23 83.36 12.00  29.00 2606.49
   18:28:32.837.29-Jan-2021 4752.01 3104.23 83.36 12.00  29.20 2606.49
   18:28:33.037.29-Jan-2021 4752.01 3105.08 83.36 12.00  29.40 2606.49
   18:28:33.237.29-Jan-2021 4752.01 3105.72 83.36 12.00  29.60 2606.49
   18:28:33.437.29-Jan-2021 4752.01 3106.93 83.36 12.00  29.80 2606.49
   18:28:33.637.29-Jan-2021 4752.01 3108.95 83.35 12.00  30.00 2606.49
   18:28:33.837.29-Jan-2021 4752.01 3108.95 83.35 12.00  30.20 2606.49
   18:28:34.037.29-Jan-2021 4752.01 3109.79 83.35 12.00  30.40 2606.49
   18:28:34.237.29-Jan-2021 4752.01 3110.00 83.35 12.00  30.60 2606.49
   18:28:34.437.29-Jan-2021 4752.01 3110.61 83.35 12.00  30.80 2606.49
   18:28:34.637.29-Jan-2021 4752.01 3112.75 83.35 12.00  31.00 2606.49
   18:28:34.837.29-Jan-2021 4752.01 3112.75 83.35 12.00  31.20 2606.49
   18:28:35.037.29-Jan-2021 4752.01 3111.30 83.35 12.00  31.40 2606.49
   18:28:35.237.29-Jan-2021 4752.01 3111.22 83.35 12.00  31.60 2606.49
   18:28:35.437.29-Jan-2021 4752.01 3111.11 83.34 12.00  31.80 2606.49
   18:28:35.637.29-Jan-2021 4752.01 3111.03 83.34 12.00  32.00 2606.49
   18:28:35.837.29-Jan-2021 4752.01 3111.03 83.34 12.00  32.20 2606.49
   18:28:36.037.29-Jan-2021 4752.01 3110.97 83.34 12.00  32.40 2606.49
   18:28:36.237.29-Jan-2021 4752.01 3111.31 83.34 12.00  32.60 2606.49
   18:28:36.437.29-Jan-2021 4752.01 3111.15 83.34 12.00  32.80 2606.49
   18:28:36.637.29-Jan-2021 4752.01 3111.13 83.34 12.00  33.00 2606.49
   18:28:36.837.29-Jan-2021 4752.01 3111.13 83.34 12.00  33.20 2606.49
   18:28:37.037.29-Jan-2021 4752.01 3111.09 83.33 12.00  33.40 2606.49
   18:28:37.237.29-Jan-2021 4752.01 3111.06 83.33 12.00  33.60 2606.49
   18:28:37.437.29-Jan-2021 4752.01 3110.97 83.33 12.00  33.80 2606.49
   18:28:37.637.29-Jan-2021 4752.01 3111.00 83.33 12.00  34.00 2606.49
   18:28:37.837.29-Jan-2021 4752.01 3111.00 83.33 12.00  34.20 2606.49
   18:28:38.037.29-Jan-2021 4752.01 3111.05 83.33 12.00  34.40 2606.49
   18:28:38.237.29-Jan-2021 4752.01 3110.97 83.33 12.00  34.60 2606.49
   18:28:38.437.29-Jan-2021 4752.01 3110.98 83.33 12.00  34.80 2606.49
   18:28:38.638.29-Jan-2021 4752.01 3111.01 83.32 12.00  35.00 2606.49
   18:28:38.838.29-Jan-2021 4752.01 3111.01 83.32 12.00  35.20 2606.49
   18:28:39.038.29-Jan-2021 4752.01 3110.95 83.32 12.00  35.40 2606.49
   18:28:39.238.29-Jan-2021 4752.01 3110.80 83.32 12.00  35.60 2606.49
   18:28:39.438.29-Jan-2021 4752.01 3111.18 83.32 12.00  35.80 2606.49
   18:28:39.638.29-Jan-2021 4752.01 3120.36 83.32 12.00  36.00 2606.49
   18:28:39.838.29-Jan-2021 4752.01 3120.36 83.32 12.00  36.20 2606.49
   18:28:40.038.29-Jan-2021 4752.01 3125.16 83.32 12.00  36.40 2606.49
   18:28:40.238.29-Jan-2021 4752.01 3125.23 83.32 12.00  36.60 2606.49
   18:28:40.438.29-Jan-2021 4752.01 3125.25 83.31 12.00  36.80 2606.49
   18:28:40.638.29-Jan-2021 4752.01 3125.31 83.31 12.00  37.00 2606.49
   18:28:40.838.29-Jan-2021 4752.01 3125.31 83.31 12.00  37.20 2606.49
   18:28:41.038.29-Jan-2021 4752.01 3125.34 83.31 12.00  37.40 2606.49
   18:28:41.238.29-Jan-2021 4752.01 3125.37 83.31 12.00  37.60 2606.49
   18:28:41.438.29-Jan-2021 4752.01 3125.38 83.31 12.00  37.80 2606.49
   18:28:41.638.29-Jan-2021 4752.01 3125.40 83.31 12.00  38.00 2606.49
   18:28:41.838.29-Jan-2021 4752.01 3125.40 83.31 12.00  38.20 2606.49
   18:28:42.038.29-Jan-2021 4752.01 3125.43 83.30 12.00  38.40 2606.49
   18:28:42.238.29-Jan-2021 4752.01 3125.45 83.30 12.00  38.60 2606.49
   18:28:42.438.29-Jan-2021 4752.01 3125.47 83.30 12.00  38.80 2606.49
   18:28:42.638.29-Jan-2021 4752.01 3125.47 83.30 12.00  39.00 2606.49
   18:28:42.838.29-Jan-2021 4752.01 3125.47 83.30 12.00  39.20 2606.49
   18:28:43.038.29-Jan-2021 4752.01 3125.51 83.30 12.00  39.40 2606.49
   18:28:43.238.29-Jan-2021 4752.01 3125.52 83.30 12.00  39.60 2606.49
   18:28:43.438.29-Jan-2021 4752.01 3125.53 83.30 12.00  39.80 2606.49
   18:28:43.638.29-Jan-2021 4752.01 3125.54 83.30 12.00  40.00 2606.49
   18:28:43.838.29-Jan-2021 4752.01 3125.54 83.30 12.00  40.20 2606.49
   18:28:44.038.29-Jan-2021 4752.01 3125.55 83.29 12.00  40.40 2606.49
   18:28:44.238.29-Jan-2021 4752.01 3125.57 83.29 12.00  40.60 2606.49
   18:28:44.438.29-Jan-2021 4752.01 3125.58 83.29 12.00  40.80 2606.49
   18:28:44.638.29-Jan-2021 4752.01 3125.59 83.29 12.00  41.00 2606.49
   18:28:44.838.29-Jan-2021 4752.01 3125.59 83.29 12.00  41.20 2606.49
   18:28:45.038.29-Jan-2021 4752.01 3125.62 83.29 12.00  41.40 2606.49
   18:28:45.238.29-Jan-2021 4752.01 3125.63 83.29 12.00  41.60 2606.49
   18:28:45.438.29-Jan-2021 4752.01 3125.63 83.29 12.00  41.80 2606.49
   18:28:45.638.29-Jan-2021 4752.01 3125.65 83.28 12.00  42.00 2606.49
   18:28:45.838.29-Jan-2021 4752.01 3125.65 83.28 12.00  42.20 2606.49
   18:28:46.038.29-Jan-2021 4752.01 3125.66 83.28 12.00  42.41 2606.49
   18:28:46.238.29-Jan-2021 4752.01 3125.66 83.28 12.00  42.61 2606.49
   18:28:46.438.29-Jan-2021 4752.01 3125.69 83.28 12.00  42.81 2606.49
   18:28:46.638.29-Jan-2021 4752.01 3125.68 83.28 12.00  43.01 2606.49
   18:28:46.838.29-Jan-2021 4752.01 3125.68 83.28 12.00  43.21 2606.49
   18:28:47.038.29-Jan-2021 4752.01 3125.69 83.28 12.00  43.41 2606.49
   18:28:47.239.29-Jan-2021 4752.01 3125.71 83.28 12.00  43.61 2606.49
   18:28:47.439.29-Jan-2021 4752.01 3125.71 83.28 12.00  43.81 2606.49
   18:28:47.639.29-Jan-2021 4752.01 3125.70 83.27 12.00  44.01 2606.49
   18:28:47.839.29-Jan-2021 4752.01 3125.70 83.27 12.00  44.21 2606.49
   18:28:48.039.29-Jan-2021 4752.01 3125.72 83.27 12.00  44.41 2606.49
   18:28:48.239.29-Jan-2021 4752.01 3125.74 83.27 12.00  44.61 2606.49
   18:28:48.439.29-Jan-2021 4752.01 3125.72 83.27 12.00  44.81 2606.49
   18:28:48.639.29-Jan-2021 4752.01 3125.76 83.27 12.00  45.01 2606.49
