~Version Information
 VERS.                  2.0:   CWLS log ASCII Standard -VERSION 2.0
 WRAP.                   NO:   One line per depth step
~Well Information Block
#MNEM.UNIT     VALUE/NAME     DESCRIPTION
#---------     -----------    ---------------------------
 STRT.S             02:23:02 28-Jan-21: START TIME 02:23:02 28-Jan-21
 STOP.S             02:29:37 28-Jan-21: STOP TIME  02:29:37 28-Jan-21
 STEP.S                   0.00: STEP TIME
 NULL.                 -999.25: NULL VALUE
 DFWT.                        :  DIST FWL TEXT
 DFST.                        :  DIST FSL TEXT
 DMF .             Drill Floor:  DRILL MEAS FROM
 STIM.      00.00.00 25-Sep-20:  START TIME
 DATE.      16.12.48 31-Jan-21:  END TIME
 SPUD.               20-Sep-20:  SPUD DATE
 NREF.                    Grid:  NORTH REFERENCE
 HPTY.       Minimum Curvature:  HOLE POS TYPE
 DMOD.             Drill Model:  DRILL MOD DESC
 SVYD.                  Survey:  SURVEY DESC
 ILTD.               Lithology:  INTERP LTH DESC
 FTOP.          Formation Tops:  FORM TOPS DESC
 RIG .              East Azeri:  RIG NAME
 PDAT.          Mean Sea Level:  PERMANENT DATUM
 FLD .                     ACG:  FIELD NAME
 SON .        AZ-XX-0906591820:  JOB NUMBER
 CTRY.              Azerbaijan:  COUNTRY NAME
 WELL.                     D37:  WELL NAME
 SRVC.     Turan Drilling & Engineering:  CONTRACTOR
 COMP.     BP Exploration (Caspian Sea) ltd.:  COMPANY
 WTYP.                Deviated:  WELL TYPE
 MDS .        Operator Entered:  MAG DATA SOURCE
 UWI .                     N/A:  UNIQUE WELL IDENTIFIER
 API .                     N/A:  API NUMBER
 BASE.              Azerbaijan:  LOGGING EQUIPMENT BASE LOCATION
 REGN.                   EESSA:  REGION
 PROV.                    Baku:  PROVINCE
 STAT.                    Baku:  STATE NAME
 MWDS.                    Baku:  MWD SHOP
 JOBN.        AZ-XX-0906591820:  JOB TICKET NUMB
 DOE .                     N/A:  DOE NUMBER
 DCON.         Sperry Drilling:  DIRECTNL CONTR
 UNIT.                     N/A:  LOGGING EQUIPMENT ID
 CNTY.                        :  COUNTY
 LOC .                        :  LOCATION
 LMF .             Drill Floor:  LOG MEASURED FROM
 TVDS.m                  43.60:  TVDSS CORRECTN
 LATI.deg                40.02:  LATITUDE
 LONG.deg                51.45:  LONGITUDE
 WHNS.m                  11.04:  WELL HEAD N/S
 WHEW.m                 -12.38:  WELL HEAD E/W
 UTMX.m              538763.98:  UTM X
 UTMY.m             4431880.20:  UTM Y
 DFWL.m                   0.00:  DISTANCE FWL
 DFSL.m                   0.00:  DISTANCE FSL
 SDEP.m                 300.00:  START DEPTH
 TDD .m                4900.01:  TOTAL DEPTH (DRILLER)
 VSDR.deg               185.64:  VERT SEC DIRECT
 GVFD.g                   1.00:  GRAVITY FIELD
 MFLD.nT              50301.00:  MAGNETIC FIELD
 MDIP.deg                59.46:  MAGNETIC DIP
 MDEC.deg                 6.43:  MAGNETIC DECL
 GRDC.deg                 0.29:  GRID CORRECTION
 AZTC.deg                 6.14:  AZM TOTAL CORR
 EPD .m                   0.00:  ELEVATION
 EGL .m                   0.00:  GROUND ELEVATION
 WDMS.m                 151.80:  WD ELEV
 APD .m                  43.60:  DEPTH ABOVE PD
 DEP .m                 571.69:  DEPTH
 AGAP.m                  43.60:  AIR GAP
 VSEW.m                 -12.38:  VERT SEC E/W
 VSNS.m                  11.04:  VERT SEC N/S
 EKB .m                  43.60:  KB ELEVATION
 EDF .m                  43.60:  DF ELEVATION
 TDL .m                 412.00:  TOTAL DEPTH (LOGGER)
 VSC .                       0:  VS TO CLOSURE
 MAGU.                 1849300:  MAGUTM CHECKSUM
~Parameter Information Block
#MNEM.UNIT       Value        Description
#---------     -----------    ---------------------------
 AV  .mps                 2.21:  Ann Velocity 
 AVMX.mps                 2.53:  Max Ann Veloc 
 AZIF.deg               144.83:  Azm, Final 
 BHAT.        Rotary Steerable:  BHA Type 
 BROT.°/30m              -0.52:  Build Rotating 
 BS  .in                  6.50:  Bit Size 
 BTPL.psig              209.00:  Bit Press Loss 
 CABU.                      No:  Customer Abuse 
 CGEO.        Ali Isfandiyarov:  Customer Geo 
 TCS .hr                 61.31:  Time Ciculation Ended 
 CV  .mps                 4.66:  Crit Velocity 
 CVMX.mps                 5.02:  Max Crit Veloc 
 DD1 .          Fariz Nahmatov:  Direct Drillr 1 
 DD2 .            Musa Ahmadov:  Direct Drillr 2 
 DDSV.               Geo-Pilot:  DD Service 
 DEFF.%                 100.00:  % Det Eff 
 DLRX.°/30m               1.44:  Dogleg Rot Max 
 DLSO.°/30m               0.83:  Dogleg Oriented 
 DLSX.°/30m               1.44:  Dogleg Str Max 
 DRET.      08.30.00 30-Jan-21:  Drill End Time 
 DRST.      21.15.00 27-Jan-21:  Drill Start Tim 
 DTIM.hr                 37.28:  Time Drilling 
 EDEP.m                4867.01:  End Depth 
 ENG1.          Rasim Hashimov:  Engineer 1 
 ENG2.         Almaz Almadatov:  Engineer 2 
 ENG3.        Tamerlan Ahmadov:  Engineer 3 
 ETIM.      22.41.04 31-Jan-21:  End Time 
 FLOI.gpm               400.00:  Flow In 
 FLON.gpm               300.00:  Flow In Min 
 FLOS.cptm                0.00:  Fluid Loss 
 FLOX.gpm               400.00:  Flow In Max 
 HFLO.                      No:  High Flow 
 HPRE.                      No:  High Pressure 
 HTEM.                      No:  High Temp 
 HYDO.m                   1.80:  Hydro Offset 
 IFIN.deg                65.63:  Inc, Final 
 IMAX.deg                66.77:  Inc Max 
 IMIN.deg                65.61:  Inc Min 
 IMND.m                4612.67:  Inc Min Depth 
 IMXD.m                4811.63:  Inc Max Depth 
 JARR.                      No:  Jarring 
 LETM.      08.30.00 30-Jan-21:  Log End Time 
 LOST.hr                     0:  Lost Rig Time 
 LSTM.      21.15.00 27-Jan-21:  Log Start Time 
 MDCL.ppm             41000.00:  Mud Chlorides 
 MDES.     Inversion Oil/Synthetic:  Mud Desc 
 DFD .sg                  1.40:  Mud Density 
 MDMN.sg                  1.40:  Dens Mud Min 
 MDMX.sg                  1.40:  Dens Mud Max 
 MOIL.                      53:  Run Mud Oil % 
 MOWR.                   66:34:  Run Mud OWR 
 MSND.                     0.2:  Run Mud Sand % 
 MSOL.                    17.9:  Run Mud Solids% 
 DFV .spqt               77.00:  Mud Viscosity 
 MWOD.in                  4.75:  MWD Tool OD 
 MWSI.                      No:  Serv Intrp, MWD 
 OTIM.hr                110.38:  Time Operating 
 PCON.           Look Like New:  Pad Condition 
 PMAX.psia             5300.00:  Press Op, Max 
 PV  .cP                 57.00:  Mud PV 
 RUN .                    1200:  Run Number 
 ROPA.m/hr               13.00:  ROP Avg 
 ROPN.m/hr                9.00:  ROP Min 
 ROPX.m/hr               15.00:  ROP Max 
 RPMA.rpm               120.00:  RPM Surface Avg 
 RPMN.rpm               100.00:  RPM Surface Min 
 RPMX.rpm               135.00:  RPM Surface Max 
 RRUN.                    1200:  Rig Run Number 
 RTIM.hr                  2.65:  Time Reaming 
 SAZI.deg               145.04:  Azm, Start 
 SDEP.m                4455.01:  Start Depth 
 SIDD.                      No:  Serv Intrp, DD 
 SINC.deg                65.83:  Inc, Start 
 SPPA.psig             5037.00:  SPP Avg 
 SPPN.psig             4430.00:  SPP Min 
 SPPX.psig             5300.00:  SPP Max 
 STIM.      22.41.04 26-Jan-21:  Start Time 
 SVCS.                 DD, MWD:  Services 
 SVER.                    9.20:  Sperry Version 
 TDAT.m                 412.00:  Tot Depth Attmp 
 TDDF.                      No:  Trip for DD 
 TDLG.m                 412.00:  Tot Depth Loggd 
 TFF .                      No:  Trip for Fail 
 TQAA.f-kp               15.00:  Torque Abs Avg 
 TQAN.f-kp               12.00:  Torque Abs Min 
 TQAX.f-kp               17.00:  Torque Abs Max 
 TRRT.°/30m               1.18:  Turn Rotating 
 MRT .                     ADR:  Maximum Recorded Temperature 
 TTMX.degC               88.24:  Max Tool Temp 
 VS01.                90619458:  Virtual Str1 SN 
 VS02.                90519326:  Virtual Str2 SN 
 VS03.                90522176:  Virtual Str3 SN 
 VS04.                90512683:  Virtual Str4 SN 
 WBMN.klb                 1.00:  WOB Min 
 WITN.           Murad Giluyev:  Customer Rep 
 WITN.     Kamran Kemberlinski:  Customer Rep 2 
 WOBA.klb                 5.00:  WOB Avg 
 WOBX.klb                 9.00:  WOB Max 
 YP  .lhf2               41.00:  Yield Point 
~Curve Information Block
#MNEM.UNIT                 API CODE     Curve Description
#---------               -----------    ---------------------------
 TIME.HHMMSS            00 000 000 000:  GT Time & Date
 GTDEPTH.m              00 000 000 000:  GT Depth
 GTPQH.psia             00 000 000 000:  GT HR Quartz Pressure
 GTTQ.degC              00 000 000 000:  GT Quartz Temperature
 GTTN.NONE              00 000 000 000:  GT Test Number
 GTET.sec               00 000 000 000:  GT Elapsed Test Time
 GTTVD.m                00 000 000 000:  GT True Vertical Depth
#Other Information
#
#WARRANTY: Halliburton will use its best efforts to furnish customers with 
#accurate information and interpretations that are part of, and incident to, the services 
#provided.  However, Halliburton cannot and does not warrant the accuracy 
#or correctness of such information and interpretations.  Under no circumstances should any 
#such information or interpretation be relied upon as the sole basis for any drilling, 
#completion, production, or financial decision or any procedure involving any risk to the 
#safety of any drilling venture, drilling rig or its crew or any other third party.  The 
#Customer has full responsibility for all drilling, completion and production operation.  
#Halliburton makes no representations or warranties, either expressed or 
#implied, including, but not limited to, the implied warranties of merchantability or fitness 
#for a particular purpose, with respect to the services rendered.  In no event will 
#Halliburton be liable for failure to obtain any particular results or for 
#any damages, including, but not limited to, indirect, special or consequential damages, 
#resulting from the use of any information or interpretation provided by Halliburton.
#
~A           TIME           GTDEPTH  GTPQH  GTTQ  GTTN  GTET   GTTVD  
# ...
   02:26:52.000.28-Jan-2021 4453.81 5411.73 60.75 1.00 230.00 2485.38
   02:26:52.200.28-Jan-2021 4453.81 5411.73 60.75 1.00 230.20 2485.38
   02:26:52.400.28-Jan-2021 4453.81 5412.59 60.75 1.00 230.40 2485.38
   02:26:52.600.28-Jan-2021 4453.81 5411.22 60.75 1.00 230.60 2485.38
   02:26:52.800.28-Jan-2021 4453.81 5413.91 60.75 1.00 230.80 2485.38
   02:26:53.000.28-Jan-2021 4453.81 5411.57 60.75 1.00 231.00 2485.38
   02:26:53.200.28-Jan-2021 4453.81 5411.57 60.75 1.00 231.20 2485.38
   02:26:53.400.28-Jan-2021 4453.81 5412.90 60.75 1.00 231.40 2485.38
   02:26:53.600.28-Jan-2021 4453.81 5409.11 60.75 1.00 231.60 2485.38
   02:26:53.800.28-Jan-2021 4453.81 5407.93 60.75 1.00 231.80 2485.38
   02:26:54.000.28-Jan-2021 4453.81 5412.31 60.75 1.00 232.00 2485.38
   02:26:54.200.28-Jan-2021 4453.81 5412.31 60.75 1.00 232.20 2485.38
   02:26:54.400.28-Jan-2021 4453.81 5412.78 60.75 1.00 232.40 2485.38
   02:26:54.600.28-Jan-2021 4453.81 5404.04 60.75 1.00 232.60 2485.38
   02:26:54.800.28-Jan-2021 4453.81 5413.38 60.75 1.00 232.80 2485.38
   02:26:55.000.28-Jan-2021 4453.81 5413.09 60.75 1.00 233.00 2485.38
   02:26:55.200.28-Jan-2021 4453.81 5413.09 60.75 1.00 233.20 2485.38
   02:26:55.400.28-Jan-2021 4453.81 5411.61 60.75 1.00 233.40 2485.38
   02:26:55.600.28-Jan-2021 4453.81 5406.18 60.75 1.00 233.60 2485.38
   02:26:55.800.28-Jan-2021 4453.81 5412.53 60.75 1.00 233.80 2485.38
   02:26:56.000.28-Jan-2021 4453.81 5413.90 60.74 1.00 234.00 2485.38
   02:26:56.200.28-Jan-2021 4453.81 5413.90 60.74 1.00 234.20 2485.38
   02:26:56.400.28-Jan-2021 4453.81 5406.12 60.74 1.00 234.40 2485.38
   02:26:56.600.28-Jan-2021 4453.81 5411.30 60.74 1.00 234.60 2485.38
   02:26:56.800.28-Jan-2021 4453.81 5413.53 60.74 1.00 234.80 2485.38
   02:26:57.000.28-Jan-2021 4453.81 5414.99 60.74 1.00 235.00 2485.38
   02:26:57.200.28-Jan-2021 4453.81 5414.99 60.74 1.00 235.20 2485.38
   02:26:57.400.28-Jan-2021 4453.81 5410.34 60.74 1.00 235.40 2485.38
   02:26:57.600.28-Jan-2021 4453.81 5405.03 60.74 1.00 235.60 2485.38
   02:26:57.800.28-Jan-2021 4453.81 5410.77 60.74 1.00 235.80 2485.38
   02:26:58.000.28-Jan-2021 4453.81 5414.56 60.74 1.00 236.00 2485.38
   02:26:58.200.28-Jan-2021 4453.81 5414.56 60.74 1.00 236.20 2485.38
   02:26:58.400.28-Jan-2021 4453.81 5413.53 60.74 1.00 236.40 2485.38
   02:26:58.600.28-Jan-2021 4453.81 5411.96 60.74 1.00 236.60 2485.38
   02:26:58.800.28-Jan-2021 4453.81 5411.01 60.74 1.00 236.80 2485.38
   02:26:59.000.28-Jan-2021 4453.81 5412.66 60.74 1.00 237.00 2485.38
   02:26:59.200.28-Jan-2021 4453.81 5412.66 60.74 1.00 237.20 2485.38
   02:26:59.400.28-Jan-2021 4453.81 5413.17 60.74 1.00 237.40 2485.38
   02:26:59.600.28-Jan-2021 4453.81 5413.14 60.74 1.00 237.60 2485.38
   02:26:59.800.28-Jan-2021 4453.81 5411.57 60.74 1.00 237.80 2485.38
   02:27:00.000.28-Jan-2021 4453.81 5413.76 60.74 1.00 238.00 2485.38
   02:27:00.200.28-Jan-2021 4453.81 5413.76 60.74 1.00 238.20 2485.38
   02:27:00.400.28-Jan-2021 4453.81 5411.84 60.74 1.00 238.40 2485.38
   02:27:00.600.28-Jan-2021 4453.81 5412.41 60.74 1.00 238.60 2485.38
   02:27:00.800.28-Jan-2021 4453.81 5410.86 60.74 1.00 238.80 2485.38
   02:27:01.000.28-Jan-2021 4453.81 5405.10 60.74 1.00 239.00 2485.38
   02:27:01.200.28-Jan-2021 4453.81 5405.10 60.74 1.00 239.20 2485.38
   02:27:01.400.28-Jan-2021 4453.81 5411.58 60.74 1.00 239.40 2485.38
   02:27:01.600.28-Jan-2021 4453.81 5415.41 60.74 1.00 239.60 2485.38
   02:27:01.800.28-Jan-2021 4453.81 5412.34 60.74 1.00 239.80 2485.38
   02:27:02.000.28-Jan-2021 4453.81 5412.87 60.74 1.00 240.00 2485.38
   02:27:02.200.28-Jan-2021 4453.81 5412.87 60.74 1.00 240.20 2485.38
   02:27:02.400.28-Jan-2021 4453.81 5411.63 60.74 1.00 240.40 2485.38
   02:27:02.600.28-Jan-2021 4453.81 5413.33 60.74 1.00 240.60 2485.38
   02:27:02.800.28-Jan-2021 4453.81 5411.60 60.74 1.00 240.80 2485.38
   02:27:03.000.28-Jan-2021 4453.81 5412.82 60.74 1.00 241.00 2485.38
   02:27:03.200.28-Jan-2021 4453.81 5412.82 60.74 1.00 241.20 2485.38
   02:27:03.400.28-Jan-2021 4453.81 5411.96 60.74 1.00 241.40 2485.38
   02:27:03.600.28-Jan-2021 4453.81 5413.53 60.74 1.00 241.60 2485.38
   02:27:03.800.28-Jan-2021 4453.81 5411.25 60.74 1.00 241.80 2485.38
   02:27:04.000.28-Jan-2021 4453.81 5412.61 60.73 1.00 242.00 2485.38
   02:27:04.200.28-Jan-2021 4453.81 5412.61 60.73 1.00 242.20 2485.38
   02:27:04.400.28-Jan-2021 4453.81 5404.47 60.73 1.00 242.40 2485.38
   02:27:04.600.28-Jan-2021 4453.81 5413.15 60.73 1.00 242.60 2485.38
   02:27:04.800.28-Jan-2021 4453.81 5411.53 60.73 1.00 242.80 2485.38
   02:27:05.000.28-Jan-2021 4453.81 5414.11 60.73 1.00 243.00 2485.38
   02:27:05.200.28-Jan-2021 4453.81 5414.11 60.73 1.00 243.20 2485.38
   02:27:05.400.28-Jan-2021 4453.81 5406.39 60.73 1.00 243.40 2485.38
   02:27:05.600.28-Jan-2021 4453.81 5413.27 60.73 1.00 243.60 2485.38
   02:27:05.800.28-Jan-2021 4453.81 5413.40 60.73 1.00 243.80 2485.38
   02:27:06.000.28-Jan-2021 4453.81 5414.59 60.73 1.00 244.00 2485.38
   02:27:06.200.28-Jan-2021 4453.81 5414.59 60.73 1.00 244.20 2485.38
   02:27:06.400.28-Jan-2021 4453.81 5405.77 60.73 1.00 244.40 2485.38
   02:27:06.600.28-Jan-2021 4453.81 5412.67 60.73 1.00 244.60 2485.38
   02:27:06.800.28-Jan-2021 4453.81 5414.83 60.73 1.00 244.80 2485.38
   02:27:07.000.28-Jan-2021 4453.81 5405.41 60.73 1.00 245.00 2485.38
   02:27:07.200.28-Jan-2021 4453.81 5405.41 60.73 1.00 245.20 2485.38
   02:27:07.400.28-Jan-2021 4453.81 5410.99 60.73 1.00 245.40 2485.38
   02:27:07.600.28-Jan-2021 4453.81 5414.60 60.73 1.00 245.60 2485.38
   02:27:07.800.28-Jan-2021 4453.81 5414.07 60.73 1.00 245.80 2485.38
   02:27:08.000.28-Jan-2021 4453.81 5410.15 60.73 1.00 246.00 2485.38
   02:27:08.200.28-Jan-2021 4453.81 5410.15 60.73 1.00 246.20 2485.38
   02:27:08.400.28-Jan-2021 4453.81 5408.20 60.73 1.00 246.40 2485.38
   02:27:08.600.28-Jan-2021 4453.81 5409.81 60.73 1.00 246.60 2485.38
   02:27:08.800.28-Jan-2021 4453.81 5413.60 60.73 1.00 246.80 2485.38
   02:27:09.000.28-Jan-2021 4453.81 5411.34 60.73 1.00 247.00 2485.38
   02:27:09.200.28-Jan-2021 4453.81 5411.34 60.73 1.00 247.20 2485.38
   02:27:09.400.28-Jan-2021 4453.81 5410.34 60.73 1.00 247.40 2485.38
   02:27:09.600.28-Jan-2021 4453.81 5410.17 60.73 1.00 247.60 2485.38
   02:27:09.800.28-Jan-2021 4453.81 5411.54 60.73 1.00 247.80 2485.38
   02:27:10.000.28-Jan-2021 4453.81 5410.33 60.73 1.00 248.00 2485.38
   02:27:10.200.28-Jan-2021 4453.81 5410.33 60.73 1.00 248.20 2485.38
   02:27:10.400.28-Jan-2021 4453.81 5411.13 60.73 1.00 248.40 2485.38
   02:27:10.600.28-Jan-2021 4453.81 5410.72 60.73 1.00 248.60 2485.38
   02:27:10.800.28-Jan-2021 4453.81 5412.37 60.73 1.00 248.80 2485.38
   02:27:11.000.28-Jan-2021 4453.81 5409.63 60.73 1.00 249.00 2485.38
   02:27:11.200.28-Jan-2021 4453.81 5409.63 60.73 1.00 249.20 2485.38
   02:27:11.400.28-Jan-2021 4453.81 5410.90 60.73 1.00 249.40 2485.38
   02:27:11.600.28-Jan-2021 4453.81 5409.97 60.72 1.00 249.60 2485.38
   02:27:11.800.28-Jan-2021 4453.81 5404.05 60.73 1.00 249.80 2485.38
   02:27:12.000.28-Jan-2021 4453.81 5409.58 60.72 1.00 250.00 2485.38
   02:27:12.200.28-Jan-2021 4453.81 5409.58 60.72 1.00 250.20 2485.38
   02:27:12.400.28-Jan-2021 4453.81 5414.49 60.72 1.00 250.40 2485.38
   02:27:12.600.28-Jan-2021 4453.81 5410.81 60.72 1.00 250.60 2485.38
   02:27:12.800.28-Jan-2021 4453.81 5412.05 60.72 1.00 250.80 2485.38
   02:27:13.000.28-Jan-2021 4453.81 5410.10 60.72 1.00 251.00 2485.38
   02:27:13.200.28-Jan-2021 4453.81 5410.10 60.72 1.00 251.20 2485.38
   02:27:13.400.28-Jan-2021 4453.81 5412.01 60.72 1.00 251.40 2485.38
   02:27:13.600.28-Jan-2021 4453.81 5410.03 60.72 1.00 251.60 2485.38
   02:27:13.800.28-Jan-2021 4453.81 5412.30 60.72 1.00 251.80 2485.38
   02:27:14.000.28-Jan-2021 4453.81 5410.69 60.72 1.00 252.00 2485.38
   02:27:14.200.28-Jan-2021 4453.81 5410.69 60.72 1.00 252.20 2485.38
   02:27:14.400.28-Jan-2021 4453.81 5412.07 60.72 1.00 252.40 2485.38
   02:27:14.600.28-Jan-2021 4453.81 5409.79 60.72 1.00 252.60 2485.38
   02:27:14.800.28-Jan-2021 4453.81 5411.88 60.72 1.00 252.80 2485.38
