~Version Information
 VERS.                  2.0:   CWLS log ASCII Standard -VERSION 2.0
 WRAP.                   NO:   One line per depth step
~Well Information Block
#MNEM.UNIT     VALUE/NAME     DESCRIPTION
#---------     -----------    ---------------------------
 STRT.S             01:29:12 30-Jan-21: START TIME 01:29:12 30-Jan-21
 STOP.S             01:35:33 30-Jan-21: STOP TIME  01:35:33 30-Jan-21
 STEP.S                   0.00: STEP TIME
 NULL.                 -999.25: NULL VALUE
 DFWT.                        :  DIST FWL TEXT
 DFST.                        :  DIST FSL TEXT
 DMF .             Drill Floor:  DRILL MEAS FROM
 STIM.      00.00.00 25-Sep-20:  START TIME
 DATE.      16.12.48 31-Jan-21:  END TIME
 SPUD.               20-Sep-20:  SPUD DATE
 NREF.                    Grid:  NORTH REFERENCE
 HPTY.       Minimum Curvature:  HOLE POS TYPE
 DMOD.             Drill Model:  DRILL MOD DESC
 SVYD.                  Survey:  SURVEY DESC
 ILTD.               Lithology:  INTERP LTH DESC
 FTOP.          Formation Tops:  FORM TOPS DESC
 RIG .              East Azeri:  RIG NAME
 PDAT.          Mean Sea Level:  PERMANENT DATUM
 FLD .                     ACG:  FIELD NAME
 SON .        AZ-XX-0906591820:  JOB NUMBER
 CTRY.              Azerbaijan:  COUNTRY NAME
 WELL.                     D37:  WELL NAME
 SRVC.     Turan Drilling & Engineering:  CONTRACTOR
 COMP.     BP Exploration (Caspian Sea) ltd.:  COMPANY
 WTYP.                Deviated:  WELL TYPE
 MDS .        Operator Entered:  MAG DATA SOURCE
 UWI .                     N/A:  UNIQUE WELL IDENTIFIER
 API .                     N/A:  API NUMBER
 BASE.              Azerbaijan:  LOGGING EQUIPMENT BASE LOCATION
 REGN.                   EESSA:  REGION
 PROV.                    Baku:  PROVINCE
 STAT.                    Baku:  STATE NAME
 MWDS.                    Baku:  MWD SHOP
 JOBN.        AZ-XX-0906591820:  JOB TICKET NUMB
 DOE .                     N/A:  DOE NUMBER
 DCON.         Sperry Drilling:  DIRECTNL CONTR
 UNIT.                     N/A:  LOGGING EQUIPMENT ID
 CNTY.                        :  COUNTY
 LOC .                        :  LOCATION
 LMF .             Drill Floor:  LOG MEASURED FROM
 TVDS.m                  43.60:  TVDSS CORRECTN
 LATI.deg                40.02:  LATITUDE
 LONG.deg                51.45:  LONGITUDE
 WHNS.m                  11.04:  WELL HEAD N/S
 WHEW.m                 -12.38:  WELL HEAD E/W
 UTMX.m              538763.98:  UTM X
 UTMY.m             4431880.20:  UTM Y
 DFWL.m                   0.00:  DISTANCE FWL
 DFSL.m                   0.00:  DISTANCE FSL
 SDEP.m                 300.00:  START DEPTH
 TDD .m                4900.01:  TOTAL DEPTH (DRILLER)
 VSDR.deg               185.64:  VERT SEC DIRECT
 GVFD.g                   1.00:  GRAVITY FIELD
 MFLD.nT              50301.00:  MAGNETIC FIELD
 MDIP.deg                59.46:  MAGNETIC DIP
 MDEC.deg                 6.43:  MAGNETIC DECL
 GRDC.deg                 0.29:  GRID CORRECTION
 AZTC.deg                 6.14:  AZM TOTAL CORR
 EPD .m                   0.00:  ELEVATION
 EGL .m                   0.00:  GROUND ELEVATION
 WDMS.m                 151.80:  WD ELEV
 APD .m                  43.60:  DEPTH ABOVE PD
 DEP .m                 571.69:  DEPTH
 AGAP.m                  43.60:  AIR GAP
 VSEW.m                 -12.38:  VERT SEC E/W
 VSNS.m                  11.04:  VERT SEC N/S
 EKB .m                  43.60:  KB ELEVATION
 EDF .m                  43.60:  DF ELEVATION
 TDL .m                 412.00:  TOTAL DEPTH (LOGGER)
 VSC .                       0:  VS TO CLOSURE
 MAGU.                 1849300:  MAGUTM CHECKSUM
~Parameter Information Block
#MNEM.UNIT       Value        Description
#---------     -----------    ---------------------------
 AV  .mps                 2.21:  Ann Velocity 
 AVMX.mps                 2.53:  Max Ann Veloc 
 AZIF.deg               144.83:  Azm, Final 
 BHAT.        Rotary Steerable:  BHA Type 
 BROT.°/30m              -0.52:  Build Rotating 
 BS  .in                  6.50:  Bit Size 
 BTPL.psig              209.00:  Bit Press Loss 
 CABU.                      No:  Customer Abuse 
 CGEO.        Ali Isfandiyarov:  Customer Geo 
 COMM.                     5j:  Run Comments 1 
 TCS .hr                 61.31:  Time Ciculation Ended 
 CV  .mps                 4.66:  Crit Velocity 
 CVMX.mps                 5.02:  Max Crit Veloc 
 DD1 .          Fariz Nahmatov:  Direct Drillr 1 
 DD2 .            Musa Ahmadov:  Direct Drillr 2 
 DDSV.               Geo-Pilot:  DD Service 
 DEFF.%                 100.00:  % Det Eff 
 DLRX.°/30m               1.44:  Dogleg Rot Max 
 DLSO.°/30m               0.83:  Dogleg Oriented 
 DLSX.°/30m               1.44:  Dogleg Str Max 
 DRET.      08.30.00 30-Jan-21:  Drill End Time 
 DRST.      21.15.00 27-Jan-21:  Drill Start Tim 
 DTIM.hr                 37.28:  Time Drilling 
 EDEP.m                4867.01:  End Depth 
 ENG1.          Rasim Hashimov:  Engineer 1 
 ENG2.         Almaz Almadatov:  Engineer 2 
 ENG3.        Tamerlan Ahmadov:  Engineer 3 
 ETIM.      22.41.04 31-Jan-21:  End Time 
 FLOI.gpm               400.00:  Flow In 
 FLON.gpm               300.00:  Flow In Min 
 FLOS.cptm                0.00:  Fluid Loss 
 FLOX.gpm               400.00:  Flow In Max 
 HFLO.                      No:  High Flow 
 HPRE.                      No:  High Pressure 
 HTEM.                      No:  High Temp 
 HYDO.m                   1.80:  Hydro Offset 
 IFIN.deg                65.63:  Inc, Final 
 IMAX.deg                66.77:  Inc Max 
 IMIN.deg                65.61:  Inc Min 
 IMND.m                4612.67:  Inc Min Depth 
 IMXD.m                4811.63:  Inc Max Depth 
 JARR.                      No:  Jarring 
 LETM.      08.30.00 30-Jan-21:  Log End Time 
 LOST.hr                     0:  Lost Rig Time 
 LSTM.      21.15.00 27-Jan-21:  Log Start Time 
 MDCL.ppm             41000.00:  Mud Chlorides 
 MDES.     Inversion Oil/Synthetic:  Mud Desc 
 DFD .sg                  1.40:  Mud Density 
 MDMN.sg                  1.40:  Dens Mud Min 
 MDMX.sg                  1.40:  Dens Mud Max 
 MOIL.                      53:  Run Mud Oil % 
 MOWR.                   66:34:  Run Mud OWR 
 MSND.                     0.2:  Run Mud Sand % 
 MSOL.                    17.9:  Run Mud Solids% 
 DFV .spqt               77.00:  Mud Viscosity 
 MWOD.in                  4.75:  MWD Tool OD 
 MWSI.                      No:  Serv Intrp, MWD 
 OTIM.hr                110.38:  Time Operating 
 PCON.           Look Like New:  Pad Condition 
 PMAX.psia             5300.00:  Press Op, Max 
 PV  .cP                 57.00:  Mud PV 
 RUN .                    1200:  Run Number 
 ROPA.m/hr               13.00:  ROP Avg 
 ROPN.m/hr                9.00:  ROP Min 
 ROPX.m/hr               15.00:  ROP Max 
 RPMA.rpm               120.00:  RPM Surface Avg 
 RPMN.rpm               100.00:  RPM Surface Min 
 RPMX.rpm               135.00:  RPM Surface Max 
 RRUN.                    1200:  Rig Run Number 
 RTIM.hr                  2.65:  Time Reaming 
 SAZI.deg               145.04:  Azm, Start 
 SDEP.m                4455.01:  Start Depth 
 SIDD.                      No:  Serv Intrp, DD 
 SINC.deg                65.83:  Inc, Start 
 SPPA.psig             5037.00:  SPP Avg 
 SPPN.psig             4430.00:  SPP Min 
 SPPX.psig             5300.00:  SPP Max 
 STIM.      22.41.04 26-Jan-21:  Start Time 
 SVCS.                 DD, MWD:  Services 
 SVER.                    9.20:  Sperry Version 
 TDAT.m                 412.00:  Tot Depth Attmp 
 TDDF.                      No:  Trip for DD 
 TDLG.m                 412.00:  Tot Depth Loggd 
 TFF .                      No:  Trip for Fail 
 TQAA.f-kp               15.00:  Torque Abs Avg 
 TQAN.f-kp               12.00:  Torque Abs Min 
 TQAX.f-kp               17.00:  Torque Abs Max 
 TRRT.°/30m               1.18:  Turn Rotating 
 MRT .                     ADR:  Maximum Recorded Temperature 
 TTMX.degC               88.24:  Max Tool Temp 
 VS01.                90619458:  Virtual Str1 SN 
 VS02.                90519326:  Virtual Str2 SN 
 VS03.                90522176:  Virtual Str3 SN 
 VS04.                90512683:  Virtual Str4 SN 
 WBMN.klb                 1.00:  WOB Min 
 WITN.           Murad Giluyev:  Customer Rep 
 WITN.     Kamran Kemberlinski:  Customer Rep 2 
 WOBA.klb                 5.00:  WOB Avg 
 WOBX.klb                 9.00:  WOB Max 
 YP  .lhf2               41.00:  Yield Point 
~Curve Information Block
#MNEM.UNIT                 API CODE     Curve Description
#---------               -----------    ---------------------------
 TIME.HHMMSS            00 000 000 000:  GT Time & Date
 GTDEPTH.m              00 000 000 000:  GT Depth
 GTPQH.psia             00 000 000 000:  GT HR Quartz Pressure
 GTTQ.degC              00 000 000 000:  GT Quartz Temperature
 GTTN.NONE              00 000 000 000:  GT Test Number
 GTET.sec               00 000 000 000:  GT Elapsed Test Time
 GTTVD.m                00 000 000 000:  GT True Vertical Depth
#Other Information
#
#WARRANTY: Halliburton will use its best efforts to furnish customers with 
#accurate information and interpretations that are part of, and incident to, the services 
#provided.  However, Halliburton cannot and does not warrant the accuracy 
#or correctness of such information and interpretations.  Under no circumstances should any 
#such information or interpretation be relied upon as the sole basis for any drilling, 
#completion, production, or financial decision or any procedure involving any risk to the 
#safety of any drilling venture, drilling rig or its crew or any other third party.  The 
#Customer has full responsibility for all drilling, completion and production operation.  
#Halliburton makes no representations or warranties, either expressed or 
#implied, including, but not limited to, the implied warranties of merchantability or fitness 
#for a particular purpose, with respect to the services rendered.  In no event will 
#Halliburton be liable for failure to obtain any particular results or for 
#any damages, including, but not limited to, indirect, special or consequential damages, 
#resulting from the use of any information or interpretation provided by Halliburton.
#
~A           TIME           GTDEPTH  GTPQH  GTTQ  GTTN   GTET   GTTVD  
# ...
   01:31:05.659.30-Jan-2021 4789.01   69.42 82.10 15.00 113.02 2621.19
   01:31:05.859.30-Jan-2021 4789.01   69.42 82.10 15.00 113.22 2621.19
   01:31:06.059.30-Jan-2021 4789.01   69.51 82.09 15.00 113.42 2621.19
   01:31:06.259.30-Jan-2021 4789.01   69.56 82.09 15.00 113.62 2621.19
   01:31:06.459.30-Jan-2021 4789.01   69.60 82.09 15.00 113.82 2621.19
   01:31:06.659.30-Jan-2021 4789.01   69.64 82.09 15.00 114.02 2621.19
   01:31:06.859.30-Jan-2021 4789.01   69.64 82.09 15.00 114.22 2621.19
   01:31:07.059.30-Jan-2021 4789.01   69.73 82.09 15.00 114.42 2621.19
   01:31:07.259.30-Jan-2021 4789.01   69.78 82.09 15.00 114.62 2621.19
   01:31:07.460.30-Jan-2021 4789.01   69.82 82.09 15.00 114.82 2621.19
   01:31:07.660.30-Jan-2021 4789.01   69.87 82.09 15.00 115.02 2621.19
   01:31:07.860.30-Jan-2021 4789.01   69.87 82.09 15.00 115.22 2621.19
   01:31:08.060.30-Jan-2021 4789.01   69.95 82.09 15.00 115.42 2621.19
   01:31:08.260.30-Jan-2021 4789.01   69.99 82.09 15.00 115.62 2621.19
   01:31:08.460.30-Jan-2021 4789.01   70.04 82.09 15.00 115.82 2621.19
   01:31:08.660.30-Jan-2021 4789.01   70.08 82.09 15.00 116.02 2621.19
   01:31:08.860.30-Jan-2021 4789.01   70.08 82.09 15.00 116.22 2621.19
   01:31:09.060.30-Jan-2021 4789.01   70.17 82.09 15.00 116.42 2621.19
   01:31:09.260.30-Jan-2021 4789.01   70.21 82.09 15.00 116.62 2621.19
   01:31:09.460.30-Jan-2021 4789.01   70.26 82.09 15.00 116.82 2621.19
   01:31:09.660.30-Jan-2021 4789.01   70.30 82.09 15.00 117.02 2621.19
   01:31:09.860.30-Jan-2021 4789.01   70.30 82.09 15.00 117.22 2621.19
   01:31:10.060.30-Jan-2021 4789.01   70.39 82.09 15.00 117.42 2621.19
   01:31:10.260.30-Jan-2021 4789.01   70.43 82.08 15.00 117.62 2621.19
   01:31:10.460.30-Jan-2021 4789.01   70.48 82.08 15.00 117.82 2621.19
   01:31:10.660.30-Jan-2021 4789.01   70.52 82.08 15.00 118.02 2621.19
   01:31:10.860.30-Jan-2021 4789.01   70.52 82.08 15.00 118.22 2621.19
   01:31:11.060.30-Jan-2021 4789.01   70.61 82.08 15.00 118.42 2621.19
   01:31:11.260.30-Jan-2021 4789.01   70.65 82.08 15.00 118.62 2621.19
   01:31:11.460.30-Jan-2021 4789.01   70.69 82.08 15.00 118.82 2621.19
   01:31:11.660.30-Jan-2021 4789.01   70.74 82.08 15.00 119.02 2621.19
   01:31:11.860.30-Jan-2021 4789.01   70.74 82.08 15.00 119.22 2621.19
   01:31:12.060.30-Jan-2021 4789.01   70.82 82.08 15.00 119.42 2621.19
   01:31:12.260.30-Jan-2021 4789.01   70.87 82.08 15.00 119.62 2621.19
   01:31:12.460.30-Jan-2021 4789.01   70.91 82.08 15.00 119.82 2621.19
   01:31:12.661.30-Jan-2021 4789.01   70.95 82.08 15.00 120.02 2621.19
   01:31:12.861.30-Jan-2021 4789.01   70.95 82.08 15.00 120.22 2621.19
   01:31:13.061.30-Jan-2021 4789.01   71.04 82.08 15.00 120.42 2621.19
   01:31:13.261.30-Jan-2021 4789.01   71.07 82.08 15.00 120.62 2621.19
   01:31:13.461.30-Jan-2021 4789.01   71.12 82.08 15.00 120.82 2621.19
   01:31:13.661.30-Jan-2021 4789.01   71.16 82.08 15.00 121.02 2621.19
   01:31:13.861.30-Jan-2021 4789.01   71.16 82.08 15.00 121.22 2621.19
   01:31:14.061.30-Jan-2021 4789.01   71.16 82.08 15.00 121.42 2621.19
   01:31:14.261.30-Jan-2021 4789.01   71.16 82.08 15.00 121.62 2621.19
   01:31:14.461.30-Jan-2021 4789.01   71.33 82.07 15.00 121.82 2621.19
   01:31:14.661.30-Jan-2021 4789.01   71.37 82.07 15.00 122.02 2621.19
   01:31:14.861.30-Jan-2021 4789.01   71.41 82.07 15.00 122.22 2621.19
   01:31:15.061.30-Jan-2021 4789.01   71.46 82.07 15.00 122.42 2621.19
   01:31:15.261.30-Jan-2021 4789.01   71.49 82.07 15.00 122.62 2621.19
   01:31:15.461.30-Jan-2021 4789.01   71.54 82.07 15.00 122.82 2621.19
   01:31:15.661.30-Jan-2021 4789.01   71.58 82.07 15.00 123.02 2621.19
   01:31:15.861.30-Jan-2021 4789.01   71.58 82.07 15.00 123.22 2621.19
   01:31:16.061.30-Jan-2021 4789.01   71.67 82.07 15.00 123.42 2621.19
   01:31:16.261.30-Jan-2021 4789.01   71.71 82.07 15.00 123.62 2621.19
   01:31:16.461.30-Jan-2021 4789.01   71.75 82.07 15.00 123.82 2621.19
   01:31:16.661.30-Jan-2021 4789.01   71.79 82.07 15.00 124.02 2621.19
   01:31:16.861.30-Jan-2021 4789.01   71.79 82.07 15.00 124.22 2621.19
   01:31:17.061.30-Jan-2021 4789.01   71.88 82.07 15.00 124.42 2621.19
   01:31:17.261.30-Jan-2021 4789.01   71.92 82.07 15.00 124.62 2621.19
   01:31:17.461.30-Jan-2021 4789.01   71.96 82.07 15.00 124.82 2621.19
   01:31:17.661.30-Jan-2021 4789.01   72.01 82.07 15.00 125.02 2621.19
   01:31:17.862.30-Jan-2021 4789.01   72.01 82.07 15.00 125.22 2621.19
   01:31:18.062.30-Jan-2021 4789.01   72.09 82.07 15.00 125.42 2621.19
   01:31:18.262.30-Jan-2021 4789.01   72.13 82.06 15.00 125.62 2621.19
   01:31:18.462.30-Jan-2021 4789.01   72.17 82.06 15.00 125.82 2621.19
   01:31:18.662.30-Jan-2021 4789.01   72.22 82.06 15.00 126.02 2621.19
   01:31:18.862.30-Jan-2021 4789.01   72.22 82.06 15.00 126.22 2621.19
   01:31:19.062.30-Jan-2021 4789.01   72.30 82.06 15.00 126.42 2621.19
   01:31:19.262.30-Jan-2021 4789.01   72.35 82.06 15.00 126.62 2621.19
   01:31:19.462.30-Jan-2021 4789.01   72.38 82.06 15.00 126.82 2621.19
   01:31:19.662.30-Jan-2021 4789.01   72.43 82.06 15.00 127.02 2621.19
   01:31:19.862.30-Jan-2021 4789.01   72.43 82.06 15.00 127.22 2621.19
   01:31:20.062.30-Jan-2021 4789.01   72.51 82.06 15.00 127.42 2621.19
   01:31:20.262.30-Jan-2021 4789.01   72.55 82.06 15.00 127.62 2621.19
   01:31:20.462.30-Jan-2021 4789.01   72.60 82.06 15.00 127.82 2621.19
   01:31:20.662.30-Jan-2021 4789.01   72.63 82.06 15.00 128.02 2621.19
   01:31:20.862.30-Jan-2021 4789.01   72.63 82.06 15.00 128.22 2621.19
   01:31:21.062.30-Jan-2021 4789.01   72.71 82.06 15.00 128.42 2621.19
   01:31:21.262.30-Jan-2021 4789.01   72.76 82.06 15.00 128.62 2621.19
   01:31:21.462.30-Jan-2021 4789.01   72.80 82.06 15.00 128.82 2621.19
   01:31:21.662.30-Jan-2021 4789.01   72.84 82.06 15.00 129.02 2621.19
   01:31:21.862.30-Jan-2021 4789.01   72.84 82.06 15.00 129.22 2621.19
   01:31:22.062.30-Jan-2021 4789.01   72.93 82.06 15.00 129.42 2621.19
   01:31:22.262.30-Jan-2021 4789.01   72.97 82.06 15.00 129.62 2621.19
   01:31:22.462.30-Jan-2021 4789.01   73.00 82.05 15.00 129.82 2621.19
   01:31:22.662.30-Jan-2021 4789.01   73.05 82.05 15.00 130.03 2621.19
   01:31:22.862.30-Jan-2021 4789.01   73.05 82.05 15.00 130.23 2621.19
   01:31:23.063.30-Jan-2021 4789.01   73.13 82.05 15.00 130.43 2621.19
   01:31:23.263.30-Jan-2021 4789.01   73.17 82.05 15.00 130.63 2621.19
   01:31:23.463.30-Jan-2021 4789.01   73.21 82.05 15.00 130.83 2621.19
   01:31:23.663.30-Jan-2021 4789.01   73.26 82.05 15.00 131.03 2621.19
   01:31:23.863.30-Jan-2021 4789.01   73.26 82.05 15.00 131.23 2621.19
   01:31:24.063.30-Jan-2021 4789.01   73.34 82.05 15.00 131.43 2621.19
   01:31:24.263.30-Jan-2021 4789.01   73.38 82.05 15.00 131.63 2621.19
   01:31:24.463.30-Jan-2021 4789.01   73.42 82.05 15.00 131.83 2621.19
   01:31:24.663.30-Jan-2021 4789.01   73.46 82.05 15.00 132.03 2621.19
   01:31:24.863.30-Jan-2021 4789.01   73.46 82.05 15.00 132.23 2621.19
   01:31:25.063.30-Jan-2021 4789.01   73.54 82.05 15.00 132.43 2621.19
   01:31:25.263.30-Jan-2021 4789.01   73.58 82.05 15.00 132.63 2621.19
   01:31:25.463.30-Jan-2021 4789.01   73.63 82.05 15.00 132.83 2621.19
   01:31:25.663.30-Jan-2021 4789.01   73.67 82.05 15.00 133.03 2621.19
   01:31:25.863.30-Jan-2021 4789.01   73.67 82.05 15.00 133.23 2621.19
   01:31:26.063.30-Jan-2021 4789.01   71.39 82.05 15.00 133.43 2621.19
   01:31:26.263.30-Jan-2021 4789.01   68.88 82.05 15.00 133.63 2621.19
   01:31:26.463.30-Jan-2021 4789.01   66.68 82.05 15.00 133.83 2621.19
   01:31:26.663.30-Jan-2021 4789.01   64.70 82.04 15.00 134.03 2621.19
   01:31:26.863.30-Jan-2021 4789.01   64.70 82.04 15.00 134.23 2621.19
   01:31:27.063.30-Jan-2021 4789.01   61.18 82.04 15.00 134.43 2621.19
   01:31:27.263.30-Jan-2021 4789.01   59.64 82.04 15.00 134.63 2621.19
   01:31:27.463.30-Jan-2021 4789.01   58.17 82.04 15.00 134.83 2621.19
   01:31:27.663.30-Jan-2021 4789.01   56.81 82.04 15.00 135.03 2621.19
   01:31:27.863.30-Jan-2021 4789.01   56.81 82.04 15.00 135.23 2621.19
   01:31:28.063.30-Jan-2021 4789.01   54.35 82.04 15.00 135.43 2621.19
