~Version Information
 VERS.                  2.0:   CWLS log ASCII Standard -VERSION 2.0
 WRAP.                   NO:   One line per depth step
~Well Information Block
#MNEM.UNIT     VALUE/NAME     DESCRIPTION
#---------     -----------    ---------------------------
 STRT.S             07:03:45 29-Jan-21: START TIME 07:03:45 29-Jan-21
 STOP.S             07:10:14 29-Jan-21: STOP TIME  07:10:14 29-Jan-21
 STEP.S                   0.00: STEP TIME
 NULL.                 -999.25: NULL VALUE
 DFWT.                        :  DIST FWL TEXT
 DFST.                        :  DIST FSL TEXT
 DMF .             Drill Floor:  DRILL MEAS FROM
 STIM.      00.00.00 25-Sep-20:  START TIME
 DATE.      16.12.48 31-Jan-21:  END TIME
 SPUD.               20-Sep-20:  SPUD DATE
 NREF.                    Grid:  NORTH REFERENCE
 HPTY.       Minimum Curvature:  HOLE POS TYPE
 DMOD.             Drill Model:  DRILL MOD DESC
 SVYD.                  Survey:  SURVEY DESC
 ILTD.               Lithology:  INTERP LTH DESC
 FTOP.          Formation Tops:  FORM TOPS DESC
 RIG .              East Azeri:  RIG NAME
 PDAT.          Mean Sea Level:  PERMANENT DATUM
 FLD .                     ACG:  FIELD NAME
 SON .        AZ-XX-0906591820:  JOB NUMBER
 CTRY.              Azerbaijan:  COUNTRY NAME
 WELL.                     D37:  WELL NAME
 SRVC.     Turan Drilling & Engineering:  CONTRACTOR
 COMP.     BP Exploration (Caspian Sea) ltd.:  COMPANY
 WTYP.                Deviated:  WELL TYPE
 MDS .        Operator Entered:  MAG DATA SOURCE
 UWI .                     N/A:  UNIQUE WELL IDENTIFIER
 API .                     N/A:  API NUMBER
 BASE.              Azerbaijan:  LOGGING EQUIPMENT BASE LOCATION
 REGN.                   EESSA:  REGION
 PROV.                    Baku:  PROVINCE
 STAT.                    Baku:  STATE NAME
 MWDS.                    Baku:  MWD SHOP
 JOBN.        AZ-XX-0906591820:  JOB TICKET NUMB
 DOE .                     N/A:  DOE NUMBER
 DCON.         Sperry Drilling:  DIRECTNL CONTR
 UNIT.                     N/A:  LOGGING EQUIPMENT ID
 CNTY.                        :  COUNTY
 LOC .                        :  LOCATION
 LMF .             Drill Floor:  LOG MEASURED FROM
 TVDS.m                  43.60:  TVDSS CORRECTN
 LATI.deg                40.02:  LATITUDE
 LONG.deg                51.45:  LONGITUDE
 WHNS.m                  11.04:  WELL HEAD N/S
 WHEW.m                 -12.38:  WELL HEAD E/W
 UTMX.m              538763.98:  UTM X
 UTMY.m             4431880.20:  UTM Y
 DFWL.m                   0.00:  DISTANCE FWL
 DFSL.m                   0.00:  DISTANCE FSL
 SDEP.m                 300.00:  START DEPTH
 TDD .m                4900.01:  TOTAL DEPTH (DRILLER)
 VSDR.deg               185.64:  VERT SEC DIRECT
 GVFD.g                   1.00:  GRAVITY FIELD
 MFLD.nT              50301.00:  MAGNETIC FIELD
 MDIP.deg                59.46:  MAGNETIC DIP
 MDEC.deg                 6.43:  MAGNETIC DECL
 GRDC.deg                 0.29:  GRID CORRECTION
 AZTC.deg                 6.14:  AZM TOTAL CORR
 EPD .m                   0.00:  ELEVATION
 EGL .m                   0.00:  GROUND ELEVATION
 WDMS.m                 151.80:  WD ELEV
 APD .m                  43.60:  DEPTH ABOVE PD
 DEP .m                 571.69:  DEPTH
 AGAP.m                  43.60:  AIR GAP
 VSEW.m                 -12.38:  VERT SEC E/W
 VSNS.m                  11.04:  VERT SEC N/S
 EKB .m                  43.60:  KB ELEVATION
 EDF .m                  43.60:  DF ELEVATION
 TDL .m                 412.00:  TOTAL DEPTH (LOGGER)
 VSC .                       0:  VS TO CLOSURE
 MAGU.                 1849300:  MAGUTM CHECKSUM
~Parameter Information Block
#MNEM.UNIT       Value        Description
#---------     -----------    ---------------------------
 AV  .mps                 2.21:  Ann Velocity 
 AVMX.mps                 2.53:  Max Ann Veloc 
 AZIF.deg               144.83:  Azm, Final 
 BHAT.        Rotary Steerable:  BHA Type 
 BROT.°/30m              -0.52:  Build Rotating 
 BS  .in                  6.50:  Bit Size 
 BTPL.psig              209.00:  Bit Press Loss 
 CABU.                      No:  Customer Abuse 
 CGEO.        Ali Isfandiyarov:  Customer Geo 
 COMM.                     ü®q:  Run Comments 1 
 TCS .hr                 61.31:  Time Ciculation Ended 
 CV  .mps                 4.66:  Crit Velocity 
 CVMX.mps                 5.02:  Max Crit Veloc 
 DD1 .          Fariz Nahmatov:  Direct Drillr 1 
 DD2 .            Musa Ahmadov:  Direct Drillr 2 
 DDSV.               Geo-Pilot:  DD Service 
 DEFF.%                 100.00:  % Det Eff 
 DLRX.°/30m               1.44:  Dogleg Rot Max 
 DLSO.°/30m               0.83:  Dogleg Oriented 
 DLSX.°/30m               1.44:  Dogleg Str Max 
 DRET.      08.30.00 30-Jan-21:  Drill End Time 
 DRST.      21.15.00 27-Jan-21:  Drill Start Tim 
 DTIM.hr                 37.28:  Time Drilling 
 EDEP.m                4867.01:  End Depth 
 ENG1.          Rasim Hashimov:  Engineer 1 
 ENG2.         Almaz Almadatov:  Engineer 2 
 ENG3.        Tamerlan Ahmadov:  Engineer 3 
 ETIM.      22.41.04 31-Jan-21:  End Time 
 FLOI.gpm               400.00:  Flow In 
 FLON.gpm               300.00:  Flow In Min 
 FLOS.cptm                0.00:  Fluid Loss 
 FLOX.gpm               400.00:  Flow In Max 
 HFLO.                      No:  High Flow 
 HPRE.                      No:  High Pressure 
 HTEM.                      No:  High Temp 
 HYDO.m                   1.80:  Hydro Offset 
 IFIN.deg                65.63:  Inc, Final 
 IMAX.deg                66.77:  Inc Max 
 IMIN.deg                65.61:  Inc Min 
 IMND.m                4612.67:  Inc Min Depth 
 IMXD.m                4811.63:  Inc Max Depth 
 JARR.                      No:  Jarring 
 LETM.      08.30.00 30-Jan-21:  Log End Time 
 LOST.hr                     0:  Lost Rig Time 
 LSTM.      21.15.00 27-Jan-21:  Log Start Time 
 MDCL.ppm             41000.00:  Mud Chlorides 
 MDES.     Inversion Oil/Synthetic:  Mud Desc 
 DFD .sg                  1.40:  Mud Density 
 MDMN.sg                  1.40:  Dens Mud Min 
 MDMX.sg                  1.40:  Dens Mud Max 
 MOIL.                      53:  Run Mud Oil % 
 MOWR.                   66:34:  Run Mud OWR 
 MSND.                     0.2:  Run Mud Sand % 
 MSOL.                    17.9:  Run Mud Solids% 
 DFV .spqt               77.00:  Mud Viscosity 
 MWOD.in                  4.75:  MWD Tool OD 
 MWSI.                      No:  Serv Intrp, MWD 
 OTIM.hr                110.38:  Time Operating 
 PCON.           Look Like New:  Pad Condition 
 PMAX.psia             5300.00:  Press Op, Max 
 PV  .cP                 57.00:  Mud PV 
 RUN .                    1200:  Run Number 
 ROPA.m/hr               13.00:  ROP Avg 
 ROPN.m/hr                9.00:  ROP Min 
 ROPX.m/hr               15.00:  ROP Max 
 RPMA.rpm               120.00:  RPM Surface Avg 
 RPMN.rpm               100.00:  RPM Surface Min 
 RPMX.rpm               135.00:  RPM Surface Max 
 RRUN.                    1200:  Rig Run Number 
 RTIM.hr                  2.65:  Time Reaming 
 SAZI.deg               145.04:  Azm, Start 
 SDEP.m                4455.01:  Start Depth 
 SIDD.                      No:  Serv Intrp, DD 
 SINC.deg                65.83:  Inc, Start 
 SPPA.psig             5037.00:  SPP Avg 
 SPPN.psig             4430.00:  SPP Min 
 SPPX.psig             5300.00:  SPP Max 
 STIM.      22.41.04 26-Jan-21:  Start Time 
 SVCS.                 DD, MWD:  Services 
 SVER.                    9.20:  Sperry Version 
 TDAT.m                 412.00:  Tot Depth Attmp 
 TDDF.                      No:  Trip for DD 
 TDLG.m                 412.00:  Tot Depth Loggd 
 TFF .                      No:  Trip for Fail 
 TQAA.f-kp               15.00:  Torque Abs Avg 
 TQAN.f-kp               12.00:  Torque Abs Min 
 TQAX.f-kp               17.00:  Torque Abs Max 
 TRRT.°/30m               1.18:  Turn Rotating 
 MRT .                     ADR:  Maximum Recorded Temperature 
 TTMX.degC               88.24:  Max Tool Temp 
 VS01.                90619458:  Virtual Str1 SN 
 VS02.                90519326:  Virtual Str2 SN 
 VS03.                90522176:  Virtual Str3 SN 
 VS04.                90512683:  Virtual Str4 SN 
 WBMN.klb                 1.00:  WOB Min 
 WITN.           Murad Giluyev:  Customer Rep 
 WITN.     Kamran Kemberlinski:  Customer Rep 2 
 WOBA.klb                 5.00:  WOB Avg 
 WOBX.klb                 9.00:  WOB Max 
 YP  .lhf2               41.00:  Yield Point 
~Curve Information Block
#MNEM.UNIT                 API CODE     Curve Description
#---------               -----------    ---------------------------
 TIME.HHMMSS            00 000 000 000:  GT Time & Date
 GTDEPTH.m              00 000 000 000:  GT Depth
 GTPQH.psia             00 000 000 000:  GT HR Quartz Pressure
 GTTQ.degC              00 000 000 000:  GT Quartz Temperature
 GTTN.NONE              00 000 000 000:  GT Test Number
 GTET.sec               00 000 000 000:  GT Elapsed Test Time
 GTTVD.m                00 000 000 000:  GT True Vertical Depth
#Other Information
#
#WARRANTY: Halliburton will use its best efforts to furnish customers with 
#accurate information and interpretations that are part of, and incident to, the services 
#provided.  However, Halliburton cannot and does not warrant the accuracy 
#or correctness of such information and interpretations.  Under no circumstances should any 
#such information or interpretation be relied upon as the sole basis for any drilling, 
#completion, production, or financial decision or any procedure involving any risk to the 
#safety of any drilling venture, drilling rig or its crew or any other third party.  The 
#Customer has full responsibility for all drilling, completion and production operation.  
#Halliburton makes no representations or warranties, either expressed or 
#implied, including, but not limited to, the implied warranties of merchantability or fitness 
#for a particular purpose, with respect to the services rendered.  In no event will 
#Halliburton be liable for failure to obtain any particular results or for 
#any damages, including, but not limited to, indirect, special or consequential damages, 
#resulting from the use of any information or interpretation provided by Halliburton.
#
~A           TIME           GTDEPTH  GTPQH  GTTQ  GTTN  GTET   GTTVD  
# ...
   07:07:58.372.29-Jan-2021 4666.01 3051.39 79.40 8.00 253.05 2572.07
   07:07:58.572.29-Jan-2021 4666.01 3051.39 79.40 8.00 253.25 2572.07
   07:07:58.772.29-Jan-2021 4666.01 3051.38 79.40 8.00 253.45 2572.07
   07:07:58.972.29-Jan-2021 4666.01 3051.41 79.40 8.00 253.65 2572.07
   07:07:59.172.29-Jan-2021 4666.01 3051.39 79.40 8.00 253.85 2572.07
   07:07:59.372.29-Jan-2021 4666.01 3051.41 79.40 8.00 254.05 2572.07
   07:07:59.572.29-Jan-2021 4666.01 3051.41 79.40 8.00 254.25 2572.07
   07:07:59.772.29-Jan-2021 4666.01 3051.40 79.40 8.00 254.45 2572.07
   07:07:59.972.29-Jan-2021 4666.01 3051.50 79.40 8.00 254.65 2572.07
   07:08:00.172.29-Jan-2021 4666.01 3051.48 79.40 8.00 254.85 2572.07
   07:08:00.372.29-Jan-2021 4666.01 3051.42 79.40 8.00 255.05 2572.07
   07:08:00.572.29-Jan-2021 4666.01 3051.42 79.40 8.00 255.25 2572.07
   07:08:00.773.29-Jan-2021 4666.01 3051.48 79.39 8.00 255.45 2572.07
   07:08:00.973.29-Jan-2021 4666.01 3051.49 79.39 8.00 255.65 2572.07
   07:08:01.173.29-Jan-2021 4666.01 3051.46 79.39 8.00 255.85 2572.07
   07:08:01.373.29-Jan-2021 4666.01 3051.51 79.39 8.00 256.05 2572.07
   07:08:01.573.29-Jan-2021 4666.01 3051.51 79.39 8.00 256.25 2572.07
   07:08:01.773.29-Jan-2021 4666.01 3051.49 79.39 8.00 256.45 2572.07
   07:08:01.973.29-Jan-2021 4666.01 3051.42 79.39 8.00 256.65 2572.07
   07:08:02.173.29-Jan-2021 4666.01 3051.54 79.39 8.00 256.85 2572.07
   07:08:02.373.29-Jan-2021 4666.01 3051.52 79.39 8.00 257.05 2572.07
   07:08:02.573.29-Jan-2021 4666.01 3051.52 79.39 8.00 257.25 2572.07
   07:08:02.773.29-Jan-2021 4666.01 3051.52 79.39 8.00 257.45 2572.07
   07:08:02.973.29-Jan-2021 4666.01 3051.44 79.39 8.00 257.65 2572.07
   07:08:03.173.29-Jan-2021 4666.01 3051.57 79.39 8.00 257.85 2572.07
   07:08:03.373.29-Jan-2021 4666.01 3051.52 79.39 8.00 258.05 2572.07
   07:08:03.573.29-Jan-2021 4666.01 3051.52 79.39 8.00 258.25 2572.07
   07:08:03.773.29-Jan-2021 4666.01 3051.40 79.39 8.00 258.45 2572.07
   07:08:03.973.29-Jan-2021 4666.01 3051.64 79.39 8.00 258.65 2572.07
   07:08:04.173.29-Jan-2021 4666.01 3051.52 79.39 8.00 258.85 2572.07
   07:08:04.373.29-Jan-2021 4666.01 3051.50 79.38 8.00 259.05 2572.07
   07:08:04.573.29-Jan-2021 4666.01 3051.50 79.38 8.00 259.25 2572.07
   07:08:04.773.29-Jan-2021 4666.01 3051.51 79.38 8.00 259.45 2572.07
   07:08:04.973.29-Jan-2021 4666.01 3051.51 79.38 8.00 259.65 2572.07
   07:08:05.173.29-Jan-2021 4666.01 3051.50 79.38 8.00 259.85 2572.07
   07:08:05.374.29-Jan-2021 4666.01 3051.51 79.38 8.00 260.05 2572.07
   07:08:05.574.29-Jan-2021 4666.01 3051.51 79.38 8.00 260.25 2572.07
   07:08:05.774.29-Jan-2021 4666.01 3051.49 79.38 8.00 260.45 2572.07
   07:08:05.974.29-Jan-2021 4666.01 3051.49 79.38 8.00 260.65 2572.07
   07:08:06.174.29-Jan-2021 4666.01 3051.50 79.38 8.00 260.85 2572.07
   07:08:06.374.29-Jan-2021 4666.01 3051.49 79.38 8.00 261.06 2572.07
   07:08:06.574.29-Jan-2021 4666.01 3051.49 79.38 8.00 261.26 2572.07
   07:08:06.774.29-Jan-2021 4666.01 3051.48 79.38 8.00 261.46 2572.07
   07:08:06.974.29-Jan-2021 4666.01 3051.50 79.38 8.00 261.66 2572.07
   07:08:07.174.29-Jan-2021 4666.01 3051.48 79.38 8.00 261.86 2572.07
   07:08:07.374.29-Jan-2021 4666.01 3051.46 79.38 8.00 262.06 2572.07
   07:08:07.574.29-Jan-2021 4666.01 3051.46 79.38 8.00 262.26 2572.07
   07:08:07.774.29-Jan-2021 4666.01 3051.56 79.38 8.00 262.46 2572.07
   07:08:07.974.29-Jan-2021 4666.01 3051.50 79.38 8.00 262.66 2572.07
   07:08:08.174.29-Jan-2021 4666.01 3051.56 79.37 8.00 262.86 2572.07
   07:08:08.374.29-Jan-2021 4666.01 3051.53 79.37 8.00 263.06 2572.07
   07:08:08.574.29-Jan-2021 4666.01 3051.53 79.37 8.00 263.26 2572.07
   07:08:08.774.29-Jan-2021 4666.01 3051.52 79.37 8.00 263.46 2572.07
   07:08:08.974.29-Jan-2021 4666.01 3051.53 79.37 8.00 263.66 2572.07
   07:08:09.174.29-Jan-2021 4666.01 3051.51 79.37 8.00 263.86 2572.07
   07:08:09.374.29-Jan-2021 4666.01 3051.50 79.37 8.00 264.06 2572.07
   07:08:09.574.29-Jan-2021 4666.01 3051.50 79.37 8.00 264.26 2572.07
   07:08:09.774.29-Jan-2021 4666.01 3051.50 79.37 8.00 264.46 2572.07
   07:08:09.974.29-Jan-2021 4666.01 3051.51 79.37 8.00 264.66 2572.07
   07:08:10.175.29-Jan-2021 4666.01 3051.50 79.37 8.00 264.86 2572.07
   07:08:10.375.29-Jan-2021 4666.01 3051.52 79.37 8.00 265.06 2572.07
   07:08:10.575.29-Jan-2021 4666.01 3051.52 79.37 8.00 265.26 2572.07
   07:08:10.775.29-Jan-2021 4666.01 3051.64 79.37 8.00 265.46 2572.07
   07:08:10.975.29-Jan-2021 4666.01 3051.56 79.37 8.00 265.66 2572.07
   07:08:11.175.29-Jan-2021 4666.01 3051.50 79.37 8.00 265.86 2572.07
   07:08:11.375.29-Jan-2021 4666.01 3051.51 79.37 8.00 266.06 2572.07
   07:08:11.575.29-Jan-2021 4666.01 3051.51 79.37 8.00 266.26 2572.07
   07:08:11.775.29-Jan-2021 4666.01 3051.55 79.37 8.00 266.46 2572.07
   07:08:11.975.29-Jan-2021 4666.01 3051.51 79.36 8.00 266.66 2572.07
   07:08:12.175.29-Jan-2021 4666.01 3051.57 79.36 8.00 266.86 2572.07
   07:08:12.375.29-Jan-2021 4666.01 3051.55 79.36 8.00 267.06 2572.07
   07:08:12.575.29-Jan-2021 4666.01 3051.55 79.36 8.00 267.26 2572.07
   07:08:12.775.29-Jan-2021 4666.01 3051.52 79.36 8.00 267.46 2572.07
   07:08:12.975.29-Jan-2021 4666.01 3051.54 79.36 8.00 267.66 2572.07
   07:08:13.175.29-Jan-2021 4666.01 3051.55 79.36 8.00 267.86 2572.07
   07:08:13.375.29-Jan-2021 4666.01 3051.52 79.36 8.00 268.06 2572.07
   07:08:13.575.29-Jan-2021 4666.01 3051.52 79.36 8.00 268.26 2572.07
   07:08:13.775.29-Jan-2021 4666.01 3051.56 79.36 8.00 268.46 2572.07
   07:08:13.975.29-Jan-2021 4666.01 3051.49 79.36 8.00 268.66 2572.07
   07:08:14.175.29-Jan-2021 4666.01 3051.59 79.36 8.00 268.86 2572.07
   07:08:14.375.29-Jan-2021 4666.01 3051.56 79.36 8.00 269.06 2572.07
   07:08:14.575.29-Jan-2021 4666.01 3051.56 79.36 8.00 269.26 2572.07
   07:08:14.775.29-Jan-2021 4666.01 3051.50 79.36 8.00 269.46 2572.07
   07:08:14.976.29-Jan-2021 4666.01 3051.61 79.36 8.00 269.66 2572.07
   07:08:15.176.29-Jan-2021 4666.01 3051.56 79.36 8.00 269.86 2572.07
   07:08:15.376.29-Jan-2021 4666.01 3051.55 79.36 8.00 270.06 2572.07
   07:08:15.576.29-Jan-2021 4666.01 3051.55 79.36 8.00 270.26 2572.07
   07:08:15.776.29-Jan-2021 4666.01 3051.55 79.36 8.00 270.46 2572.07
   07:08:15.976.29-Jan-2021 4666.01 3051.53 79.35 8.00 270.66 2572.07
   07:08:16.176.29-Jan-2021 4666.01 3051.54 79.35 8.00 270.86 2572.07
   07:08:16.376.29-Jan-2021 4666.01 3051.54 79.35 8.00 271.06 2572.07
   07:08:16.576.29-Jan-2021 4666.01 3051.54 79.35 8.00 271.26 2572.07
   07:08:16.776.29-Jan-2021 4666.01 3051.53 79.35 8.00 271.46 2572.07
   07:08:16.976.29-Jan-2021 4666.01 3051.50 79.35 8.00 271.66 2572.07
   07:08:17.176.29-Jan-2021 4666.01 3051.53 79.35 8.00 271.86 2572.07
   07:08:17.376.29-Jan-2021 4666.01 3051.50 79.35 8.00 272.06 2572.07
   07:08:17.576.29-Jan-2021 4666.01 3051.50 79.35 8.00 272.26 2572.07
   07:08:17.776.29-Jan-2021 4666.01 3051.51 79.35 8.00 272.46 2572.07
   07:08:17.976.29-Jan-2021 4666.01 3051.52 79.35 8.00 272.66 2572.07
   07:08:18.176.29-Jan-2021 4666.01 3051.51 79.35 8.00 272.86 2572.07
   07:08:18.376.29-Jan-2021 4666.01 3051.41 79.35 8.00 273.06 2572.07
   07:08:18.576.29-Jan-2021 4666.01 3051.41 79.35 8.00 273.26 2572.07
   07:08:18.776.29-Jan-2021 4666.01 3051.58 79.35 8.00 273.46 2572.07
   07:08:18.976.29-Jan-2021 4666.01 3051.52 79.35 8.00 273.66 2572.07
   07:08:19.176.29-Jan-2021 4666.01 3051.56 79.35 8.00 273.86 2572.07
   07:08:19.376.29-Jan-2021 4666.01 3051.56 79.35 8.00 274.06 2572.07
   07:08:19.577.29-Jan-2021 4666.01 3051.56 79.35 8.00 274.26 2572.07
   07:08:19.777.29-Jan-2021 4666.01 3051.54 79.34 8.00 274.46 2572.07
   07:08:19.977.29-Jan-2021 4666.01 3051.54 79.34 8.00 274.66 2572.07
   07:08:20.177.29-Jan-2021 4666.01 3051.54 79.34 8.00 274.86 2572.07
   07:08:20.377.29-Jan-2021 4666.01 3051.50 79.34 8.00 275.06 2572.07
   07:08:20.577.29-Jan-2021 4666.01 3051.50 79.34 8.00 275.26 2572.07
   07:08:20.777.29-Jan-2021 4666.01 3051.51 79.34 8.00 275.46 2572.07
   07:08:20.977.29-Jan-2021 4666.01 3051.52 79.34 8.00 275.66 2572.07
   07:08:21.177.29-Jan-2021 4666.01 3051.52 79.34 8.00 275.86 2572.07
