~Version Information
 VERS.                  2.0:   CWLS log ASCII Standard -VERSION 2.0
 WRAP.                   NO:   One line per depth step
~Well Information Block
#MNEM.UNIT     VALUE/NAME     DESCRIPTION
#---------     -----------    ---------------------------
 STRT.S             07:03:45 29-Jan-21: START TIME 07:03:45 29-Jan-21
 STOP.S             07:10:14 29-Jan-21: STOP TIME  07:10:14 29-Jan-21
 STEP.S                   0.00: STEP TIME
 NULL.                 -999.25: NULL VALUE
 DFWT.                        :  DIST FWL TEXT
 DFST.                        :  DIST FSL TEXT
 DMF .             Drill Floor:  DRILL MEAS FROM
 STIM.      00.00.00 25-Sep-20:  START TIME
 DATE.      16.12.48 31-Jan-21:  END TIME
 SPUD.               20-Sep-20:  SPUD DATE
 NREF.                    Grid:  NORTH REFERENCE
 HPTY.       Minimum Curvature:  HOLE POS TYPE
 DMOD.             Drill Model:  DRILL MOD DESC
 SVYD.                  Survey:  SURVEY DESC
 ILTD.               Lithology:  INTERP LTH DESC
 FTOP.          Formation Tops:  FORM TOPS DESC
 RIG .              East Azeri:  RIG NAME
 PDAT.          Mean Sea Level:  PERMANENT DATUM
 FLD .                     ACG:  FIELD NAME
 SON .        AZ-XX-0906591820:  JOB NUMBER
 CTRY.              Azerbaijan:  COUNTRY NAME
 WELL.                     D37:  WELL NAME
 SRVC.     Turan Drilling & Engineering:  CONTRACTOR
 COMP.     BP Exploration (Caspian Sea) ltd.:  COMPANY
 WTYP.                Deviated:  WELL TYPE
 MDS .        Operator Entered:  MAG DATA SOURCE
 UWI .                     N/A:  UNIQUE WELL IDENTIFIER
 API .                     N/A:  API NUMBER
 BASE.              Azerbaijan:  LOGGING EQUIPMENT BASE LOCATION
 REGN.                   EESSA:  REGION
 PROV.                    Baku:  PROVINCE
 STAT.                    Baku:  STATE NAME
 MWDS.                    Baku:  MWD SHOP
 JOBN.        AZ-XX-0906591820:  JOB TICKET NUMB
 DOE .                     N/A:  DOE NUMBER
 DCON.         Sperry Drilling:  DIRECTNL CONTR
 UNIT.                     N/A:  LOGGING EQUIPMENT ID
 CNTY.                        :  COUNTY
 LOC .                        :  LOCATION
 LMF .             Drill Floor:  LOG MEASURED FROM
 TVDS.m                  43.60:  TVDSS CORRECTN
 LATI.deg                40.02:  LATITUDE
 LONG.deg                51.45:  LONGITUDE
 WHNS.m                  11.04:  WELL HEAD N/S
 WHEW.m                 -12.38:  WELL HEAD E/W
 UTMX.m              538763.98:  UTM X
 UTMY.m             4431880.20:  UTM Y
 DFWL.m                   0.00:  DISTANCE FWL
 DFSL.m                   0.00:  DISTANCE FSL
 SDEP.m                 300.00:  START DEPTH
 TDD .m                4900.01:  TOTAL DEPTH (DRILLER)
 VSDR.deg               185.64:  VERT SEC DIRECT
 GVFD.g                   1.00:  GRAVITY FIELD
 MFLD.nT              50301.00:  MAGNETIC FIELD
 MDIP.deg                59.46:  MAGNETIC DIP
 MDEC.deg                 6.43:  MAGNETIC DECL
 GRDC.deg                 0.29:  GRID CORRECTION
 AZTC.deg                 6.14:  AZM TOTAL CORR
 EPD .m                   0.00:  ELEVATION
 EGL .m                   0.00:  GROUND ELEVATION
 WDMS.m                 151.80:  WD ELEV
 APD .m                  43.60:  DEPTH ABOVE PD
 DEP .m                 571.69:  DEPTH
 AGAP.m                  43.60:  AIR GAP
 VSEW.m                 -12.38:  VERT SEC E/W
 VSNS.m                  11.04:  VERT SEC N/S
 EKB .m                  43.60:  KB ELEVATION
 EDF .m                  43.60:  DF ELEVATION
 TDL .m                 412.00:  TOTAL DEPTH (LOGGER)
 VSC .                       0:  VS TO CLOSURE
 MAGU.                 1849300:  MAGUTM CHECKSUM
~Parameter Information Block
#MNEM.UNIT       Value        Description
#---------     -----------    ---------------------------
 AV  .mps                 2.21:  Ann Velocity 
 AVMX.mps                 2.53:  Max Ann Veloc 
 AZIF.deg               144.83:  Azm, Final 
 BHAT.        Rotary Steerable:  BHA Type 
 BROT.°/30m              -0.52:  Build Rotating 
 BS  .in                  6.50:  Bit Size 
 BTPL.psig              209.00:  Bit Press Loss 
 CABU.                      No:  Customer Abuse 
 CGEO.        Ali Isfandiyarov:  Customer Geo 
 COMM.                     ü®q:  Run Comments 1 
 TCS .hr                 61.31:  Time Ciculation Ended 
 CV  .mps                 4.66:  Crit Velocity 
 CVMX.mps                 5.02:  Max Crit Veloc 
 DD1 .          Fariz Nahmatov:  Direct Drillr 1 
 DD2 .            Musa Ahmadov:  Direct Drillr 2 
 DDSV.               Geo-Pilot:  DD Service 
 DEFF.%                 100.00:  % Det Eff 
 DLRX.°/30m               1.44:  Dogleg Rot Max 
 DLSO.°/30m               0.83:  Dogleg Oriented 
 DLSX.°/30m               1.44:  Dogleg Str Max 
 DRET.      08.30.00 30-Jan-21:  Drill End Time 
 DRST.      21.15.00 27-Jan-21:  Drill Start Tim 
 DTIM.hr                 37.28:  Time Drilling 
 EDEP.m                4867.01:  End Depth 
 ENG1.          Rasim Hashimov:  Engineer 1 
 ENG2.         Almaz Almadatov:  Engineer 2 
 ENG3.        Tamerlan Ahmadov:  Engineer 3 
 ETIM.      22.41.04 31-Jan-21:  End Time 
 FLOI.gpm               400.00:  Flow In 
 FLON.gpm               300.00:  Flow In Min 
 FLOS.cptm                0.00:  Fluid Loss 
 FLOX.gpm               400.00:  Flow In Max 
 HFLO.                      No:  High Flow 
 HPRE.                      No:  High Pressure 
 HTEM.                      No:  High Temp 
 HYDO.m                   1.80:  Hydro Offset 
 IFIN.deg                65.63:  Inc, Final 
 IMAX.deg                66.77:  Inc Max 
 IMIN.deg                65.61:  Inc Min 
 IMND.m                4612.67:  Inc Min Depth 
 IMXD.m                4811.63:  Inc Max Depth 
 JARR.                      No:  Jarring 
 LETM.      08.30.00 30-Jan-21:  Log End Time 
 LOST.hr                     0:  Lost Rig Time 
 LSTM.      21.15.00 27-Jan-21:  Log Start Time 
 MDCL.ppm             41000.00:  Mud Chlorides 
 MDES.     Inversion Oil/Synthetic:  Mud Desc 
 DFD .sg                  1.40:  Mud Density 
 MDMN.sg                  1.40:  Dens Mud Min 
 MDMX.sg                  1.40:  Dens Mud Max 
 MOIL.                      53:  Run Mud Oil % 
 MOWR.                   66:34:  Run Mud OWR 
 MSND.                     0.2:  Run Mud Sand % 
 MSOL.                    17.9:  Run Mud Solids% 
 DFV .spqt               77.00:  Mud Viscosity 
 MWOD.in                  4.75:  MWD Tool OD 
 MWSI.                      No:  Serv Intrp, MWD 
 OTIM.hr                110.38:  Time Operating 
 PCON.           Look Like New:  Pad Condition 
 PMAX.psia             5300.00:  Press Op, Max 
 PV  .cP                 57.00:  Mud PV 
 RUN .                    1200:  Run Number 
 ROPA.m/hr               13.00:  ROP Avg 
 ROPN.m/hr                9.00:  ROP Min 
 ROPX.m/hr               15.00:  ROP Max 
 RPMA.rpm               120.00:  RPM Surface Avg 
 RPMN.rpm               100.00:  RPM Surface Min 
 RPMX.rpm               135.00:  RPM Surface Max 
 RRUN.                    1200:  Rig Run Number 
 RTIM.hr                  2.65:  Time Reaming 
 SAZI.deg               145.04:  Azm, Start 
 SDEP.m                4455.01:  Start Depth 
 SIDD.                      No:  Serv Intrp, DD 
 SINC.deg                65.83:  Inc, Start 
 SPPA.psig             5037.00:  SPP Avg 
 SPPN.psig             4430.00:  SPP Min 
 SPPX.psig             5300.00:  SPP Max 
 STIM.      22.41.04 26-Jan-21:  Start Time 
 SVCS.                 DD, MWD:  Services 
 SVER.                    9.20:  Sperry Version 
 TDAT.m                 412.00:  Tot Depth Attmp 
 TDDF.                      No:  Trip for DD 
 TDLG.m                 412.00:  Tot Depth Loggd 
 TFF .                      No:  Trip for Fail 
 TQAA.f-kp               15.00:  Torque Abs Avg 
 TQAN.f-kp               12.00:  Torque Abs Min 
 TQAX.f-kp               17.00:  Torque Abs Max 
 TRRT.°/30m               1.18:  Turn Rotating 
 MRT .                     ADR:  Maximum Recorded Temperature 
 TTMX.degC               88.24:  Max Tool Temp 
 VS01.                90619458:  Virtual Str1 SN 
 VS02.                90519326:  Virtual Str2 SN 
 VS03.                90522176:  Virtual Str3 SN 
 VS04.                90512683:  Virtual Str4 SN 
 WBMN.klb                 1.00:  WOB Min 
 WITN.           Murad Giluyev:  Customer Rep 
 WITN.     Kamran Kemberlinski:  Customer Rep 2 
 WOBA.klb                 5.00:  WOB Avg 
 WOBX.klb                 9.00:  WOB Max 
 YP  .lhf2               41.00:  Yield Point 
~Curve Information Block
#MNEM.UNIT                 API CODE     Curve Description
#---------               -----------    ---------------------------
 TIME.HHMMSS            00 000 000 000:  GT Time & Date
 GTDEPTH.m              00 000 000 000:  GT Depth
 GTPQH.psia             00 000 000 000:  GT HR Quartz Pressure
 GTTQ.degC              00 000 000 000:  GT Quartz Temperature
 GTTN.NONE              00 000 000 000:  GT Test Number
 GTET.sec               00 000 000 000:  GT Elapsed Test Time
 GTTVD.m                00 000 000 000:  GT True Vertical Depth
#Other Information
#
#WARRANTY: Halliburton will use its best efforts to furnish customers with 
#accurate information and interpretations that are part of, and incident to, the services 
#provided.  However, Halliburton cannot and does not warrant the accuracy 
#or correctness of such information and interpretations.  Under no circumstances should any 
#such information or interpretation be relied upon as the sole basis for any drilling, 
#completion, production, or financial decision or any procedure involving any risk to the 
#safety of any drilling venture, drilling rig or its crew or any other third party.  The 
#Customer has full responsibility for all drilling, completion and production operation.  
#Halliburton makes no representations or warranties, either expressed or 
#implied, including, but not limited to, the implied warranties of merchantability or fitness 
#for a particular purpose, with respect to the services rendered.  In no event will 
#Halliburton be liable for failure to obtain any particular results or for 
#any damages, including, but not limited to, indirect, special or consequential damages, 
#resulting from the use of any information or interpretation provided by Halliburton.
#
~A           TIME           GTDEPTH  GTPQH  GTTQ  GTTN  GTET   GTTVD  
# ...
   07:04:08.324.29-Jan-2021 4666.01 6113.10 80.15 8.00  23.00 2572.07
   07:04:08.524.29-Jan-2021 4666.01 6113.10 80.15 8.00  23.20 2572.07
   07:04:08.724.29-Jan-2021 4666.01 6111.53 80.15 8.00  23.40 2572.07
   07:04:08.924.29-Jan-2021 4666.01 6111.79 80.14 8.00  23.60 2572.07
   07:04:09.124.29-Jan-2021 4666.01 6111.52 80.14 8.00  23.81 2572.07
   07:04:09.324.29-Jan-2021 4666.01 6111.70 80.14 8.00  24.01 2572.07
   07:04:09.524.29-Jan-2021 4666.01 6111.70 80.14 8.00  24.21 2572.07
   07:04:09.724.29-Jan-2021 4666.01 6110.98 80.14 8.00  24.41 2572.07
   07:04:09.924.29-Jan-2021 4666.01 6110.09 80.14 8.00  24.61 2572.07
   07:04:10.124.29-Jan-2021 4666.01 6110.35 80.14 8.00  24.81 2572.07
   07:04:10.324.29-Jan-2021 4666.01 6110.61 80.14 8.00  25.01 2572.07
   07:04:10.524.29-Jan-2021 4666.01 6110.61 80.14 8.00  25.21 2572.07
   07:04:10.724.29-Jan-2021 4666.01 5240.31 80.14 8.00  25.41 2572.07
   07:04:10.924.29-Jan-2021 4666.01 4654.84 80.14 8.00  25.61 2572.07
   07:04:11.124.29-Jan-2021 4666.01 3811.96 80.14 8.00  25.81 2572.07
   07:04:11.324.29-Jan-2021 4666.01 3060.98 80.14 8.00  26.01 2572.07
   07:04:11.524.29-Jan-2021 4666.01 3060.98 80.14 8.00  26.21 2572.07
   07:04:11.724.29-Jan-2021 4666.01 2945.93 80.14 8.00  26.41 2572.07
   07:04:11.924.29-Jan-2021 4666.01 2958.22 80.13 8.00  26.61 2572.07
   07:04:12.124.29-Jan-2021 4666.01 2967.15 80.13 8.00  26.81 2572.07
   07:04:12.324.29-Jan-2021 4666.01 2973.14 80.13 8.00  27.01 2572.07
   07:04:12.524.29-Jan-2021 4666.01 2973.14 80.13 8.00  27.21 2572.07
   07:04:12.724.29-Jan-2021 4666.01 2974.27 80.13 8.00  27.41 2572.07
   07:04:12.925.29-Jan-2021 4666.01 2975.21 80.13 8.00  27.61 2572.07
   07:04:13.125.29-Jan-2021 4666.01 2976.26 80.13 8.00  27.81 2572.07
   07:04:13.325.29-Jan-2021 4666.01 2976.92 80.13 8.00  28.01 2572.07
   07:04:13.525.29-Jan-2021 4666.01 2976.92 80.13 8.00  28.21 2572.07
   07:04:13.725.29-Jan-2021 4666.01 2982.33 80.13 8.00  28.41 2572.07
   07:04:13.925.29-Jan-2021 4666.01 2984.88 80.13 8.00  28.61 2572.07
   07:04:14.125.29-Jan-2021 4666.01 2987.48 80.12 8.00  28.81 2572.07
   07:04:14.325.29-Jan-2021 4666.01 2988.65 80.12 8.00  29.01 2572.07
   07:04:14.525.29-Jan-2021 4666.01 2988.65 80.12 8.00  29.21 2572.07
   07:04:14.725.29-Jan-2021 4666.01 2990.10 80.12 8.00  29.41 2572.07
   07:04:14.925.29-Jan-2021 4666.01 2994.26 80.12 8.00  29.61 2572.07
   07:04:15.125.29-Jan-2021 4666.01 2999.47 80.12 8.00  29.81 2572.07
   07:04:15.325.29-Jan-2021 4666.01 2993.56 80.12 8.00  30.01 2572.07
   07:04:15.525.29-Jan-2021 4666.01 2993.56 80.12 8.00  30.21 2572.07
   07:04:15.725.29-Jan-2021 4666.01 2993.36 80.12 8.00  30.41 2572.07
   07:04:15.925.29-Jan-2021 4666.01 2993.11 80.12 8.00  30.61 2572.07
   07:04:16.125.29-Jan-2021 4666.01 2992.85 80.11 8.00  30.81 2572.07
   07:04:16.325.29-Jan-2021 4666.01 2992.97 80.11 8.00  31.01 2572.07
   07:04:16.525.29-Jan-2021 4666.01 2992.97 80.11 8.00  31.21 2572.07
   07:04:16.725.29-Jan-2021 4666.01 2992.70 80.11 8.00  31.41 2572.07
   07:04:16.925.29-Jan-2021 4666.01 2992.44 80.11 8.00  31.61 2572.07
   07:04:17.125.29-Jan-2021 4666.01 2992.66 80.11 8.00  31.81 2572.07
   07:04:17.325.29-Jan-2021 4666.01 2992.76 80.11 8.00  32.01 2572.07
   07:04:17.525.29-Jan-2021 4666.01 2992.76 80.11 8.00  32.21 2572.07
   07:04:17.726.29-Jan-2021 4666.01 2992.48 80.11 8.00  32.41 2572.07
   07:04:17.926.29-Jan-2021 4666.01 2992.21 80.10 8.00  32.61 2572.07
   07:04:18.126.29-Jan-2021 4666.01 2993.07 80.10 8.00  32.81 2572.07
   07:04:18.326.29-Jan-2021 4666.01 2993.39 80.10 8.00  33.01 2572.07
   07:04:18.526.29-Jan-2021 4666.01 2993.39 80.10 8.00  33.21 2572.07
   07:04:18.726.29-Jan-2021 4666.01 2993.06 80.10 8.00  33.41 2572.07
   07:04:18.926.29-Jan-2021 4666.01 2993.13 80.10 8.00  33.61 2572.07
   07:04:19.126.29-Jan-2021 4666.01 2993.06 80.10 8.00  33.81 2572.07
   07:04:19.326.29-Jan-2021 4666.01 2993.34 80.10 8.00  34.01 2572.07
   07:04:19.526.29-Jan-2021 4666.01 2993.34 80.10 8.00  34.21 2572.07
   07:04:19.726.29-Jan-2021 4666.01 2993.63 80.09 8.00  34.41 2572.07
   07:04:19.926.29-Jan-2021 4666.01 2993.48 80.09 8.00  34.61 2572.07
   07:04:20.126.29-Jan-2021 4666.01 2994.69 80.09 8.00  34.81 2572.07
   07:04:20.326.29-Jan-2021 4666.01 2993.97 80.09 8.00  35.01 2572.07
   07:04:20.526.29-Jan-2021 4666.01 2993.97 80.09 8.00  35.21 2572.07
   07:04:20.726.29-Jan-2021 4666.01 3050.54 80.09 8.00  35.41 2572.07
   07:04:20.926.29-Jan-2021 4666.01 3051.08 80.09 8.00  35.61 2572.07
   07:04:21.126.29-Jan-2021 4666.01 3051.13 80.09 8.00  35.81 2572.07
   07:04:21.326.29-Jan-2021 4666.01 3051.21 80.09 8.00  36.01 2572.07
   07:04:21.526.29-Jan-2021 4666.01 3051.21 80.09 8.00  36.21 2572.07
   07:04:21.726.29-Jan-2021 4666.01 3051.29 80.08 8.00  36.41 2572.07
   07:04:21.926.29-Jan-2021 4666.01 3051.37 80.08 8.00  36.61 2572.07
   07:04:22.126.29-Jan-2021 4666.01 3051.41 80.08 8.00  36.81 2572.07
   07:04:22.326.29-Jan-2021 4666.01 3051.42 80.08 8.00  37.01 2572.07
   07:04:22.527.29-Jan-2021 4666.01 3051.42 80.08 8.00  37.21 2572.07
   07:04:22.727.29-Jan-2021 4666.01 3051.44 80.08 8.00  37.41 2572.07
   07:04:22.927.29-Jan-2021 4666.01 3051.54 80.08 8.00  37.61 2572.07
   07:04:23.127.29-Jan-2021 4666.01 3051.51 80.08 8.00  37.81 2572.07
   07:04:23.327.29-Jan-2021 4666.01 3051.56 80.07 8.00  38.01 2572.07
   07:04:23.527.29-Jan-2021 4666.01 3051.56 80.07 8.00  38.21 2572.07
   07:04:23.727.29-Jan-2021 4666.01 3051.59 80.07 8.00  38.41 2572.07
   07:04:23.927.29-Jan-2021 4666.01 3051.61 80.07 8.00  38.61 2572.07
   07:04:24.127.29-Jan-2021 4666.01 3051.63 80.07 8.00  38.81 2572.07
   07:04:24.327.29-Jan-2021 4666.01 3051.64 80.07 8.00  39.01 2572.07
   07:04:24.527.29-Jan-2021 4666.01 3051.64 80.07 8.00  39.21 2572.07
   07:04:24.727.29-Jan-2021 4666.01 3051.68 80.07 8.00  39.41 2572.07
   07:04:24.927.29-Jan-2021 4666.01 3051.70 80.07 8.00  39.61 2572.07
   07:04:25.127.29-Jan-2021 4666.01 3051.70 80.07 8.00  39.81 2572.07
   07:04:25.327.29-Jan-2021 4666.01 3051.72 80.06 8.00  40.01 2572.07
   07:04:25.527.29-Jan-2021 4666.01 3051.72 80.06 8.00  40.21 2572.07
   07:04:25.727.29-Jan-2021 4666.01 3051.74 80.06 8.00  40.41 2572.07
   07:04:25.927.29-Jan-2021 4666.01 3051.76 80.06 8.00  40.61 2572.07
   07:04:26.127.29-Jan-2021 4666.01 3051.76 80.06 8.00  40.81 2572.07
   07:04:26.327.29-Jan-2021 4666.01 3051.79 80.06 8.00  41.01 2572.07
   07:04:26.527.29-Jan-2021 4666.01 3051.79 80.06 8.00  41.21 2572.07
   07:04:26.727.29-Jan-2021 4666.01 3051.81 80.06 8.00  41.41 2572.07
   07:04:26.927.29-Jan-2021 4666.01 3051.80 80.06 8.00  41.61 2572.07
   07:04:27.127.29-Jan-2021 4666.01 3051.83 80.06 8.00  41.81 2572.07
   07:04:27.328.29-Jan-2021 4666.01 3051.82 80.06 8.00  42.01 2572.07
   07:04:27.528.29-Jan-2021 4666.01 3051.82 80.06 8.00  42.21 2572.07
   07:04:27.728.29-Jan-2021 4666.01 3051.82 80.05 8.00  42.41 2572.07
   07:04:27.928.29-Jan-2021 4666.01 3051.86 80.05 8.00  42.61 2572.07
   07:04:28.128.29-Jan-2021 4666.01 3051.89 80.05 8.00  42.81 2572.07
   07:04:28.328.29-Jan-2021 4666.01 3051.88 80.05 8.00  43.01 2572.07
   07:04:28.528.29-Jan-2021 4666.01 3051.88 80.05 8.00  43.21 2572.07
   07:04:28.728.29-Jan-2021 4666.01 3051.90 80.05 8.00  43.41 2572.07
   07:04:28.928.29-Jan-2021 4666.01 3051.93 80.05 8.00  43.61 2572.07
   07:04:29.128.29-Jan-2021 4666.01 3051.90 80.05 8.00  43.81 2572.07
   07:04:29.328.29-Jan-2021 4666.01 3051.93 80.05 8.00  44.01 2572.07
   07:04:29.528.29-Jan-2021 4666.01 3051.93 80.05 8.00  44.21 2572.07
   07:04:29.728.29-Jan-2021 4666.01 3051.94 80.04 8.00  44.41 2572.07
   07:04:29.928.29-Jan-2021 4666.01 3051.95 80.04 8.00  44.61 2572.07
   07:04:30.128.29-Jan-2021 4666.01 3051.94 80.04 8.00  44.81 2572.07
   07:04:30.328.29-Jan-2021 4666.01 3051.97 80.04 8.00  45.01 2572.07
   07:04:30.528.29-Jan-2021 4666.01 3051.97 80.04 8.00  45.21 2572.07
   07:04:30.728.29-Jan-2021 4666.01 3051.98 80.04 8.00  45.41 2572.07
   07:04:30.928.29-Jan-2021 4666.01 3051.96 80.04 8.00  45.61 2572.07
   07:04:31.128.29-Jan-2021 4666.01 3051.99 80.04 8.00  45.81 2572.07
