~Version Information
 VERS.                  2.0:   CWLS log ASCII Standard -VERSION 2.0
 WRAP.                   NO:   One line per depth step
~Well Information Block
#MNEM.UNIT     VALUE/NAME     DESCRIPTION
#---------     -----------    ---------------------------
 STRT.S             02:56:18 28-Jan-21: START TIME 02:56:18 28-Jan-21
 STOP.S             03:02:54 28-Jan-21: STOP TIME  03:02:54 28-Jan-21
 STEP.S                   0.00: STEP TIME
 NULL.                 -999.25: NULL VALUE
 DFWT.                        :  DIST FWL TEXT
 DFST.                        :  DIST FSL TEXT
 DMF .             Drill Floor:  DRILL MEAS FROM
 STIM.      00.00.00 25-Sep-20:  START TIME
 DATE.      16.12.48 31-Jan-21:  END TIME
 SPUD.               20-Sep-20:  SPUD DATE
 NREF.                    Grid:  NORTH REFERENCE
 HPTY.       Minimum Curvature:  HOLE POS TYPE
 DMOD.             Drill Model:  DRILL MOD DESC
 SVYD.                  Survey:  SURVEY DESC
 ILTD.               Lithology:  INTERP LTH DESC
 FTOP.          Formation Tops:  FORM TOPS DESC
 RIG .              East Azeri:  RIG NAME
 PDAT.          Mean Sea Level:  PERMANENT DATUM
 FLD .                     ACG:  FIELD NAME
 SON .        AZ-XX-0906591820:  JOB NUMBER
 CTRY.              Azerbaijan:  COUNTRY NAME
 WELL.                     D37:  WELL NAME
 SRVC.     Turan Drilling & Engineering:  CONTRACTOR
 COMP.     BP Exploration (Caspian Sea) ltd.:  COMPANY
 WTYP.                Deviated:  WELL TYPE
 MDS .        Operator Entered:  MAG DATA SOURCE
 UWI .                     N/A:  UNIQUE WELL IDENTIFIER
 API .                     N/A:  API NUMBER
 BASE.              Azerbaijan:  LOGGING EQUIPMENT BASE LOCATION
 REGN.                   EESSA:  REGION
 PROV.                    Baku:  PROVINCE
 STAT.                    Baku:  STATE NAME
 MWDS.                    Baku:  MWD SHOP
 JOBN.        AZ-XX-0906591820:  JOB TICKET NUMB
 DOE .                     N/A:  DOE NUMBER
 DCON.         Sperry Drilling:  DIRECTNL CONTR
 UNIT.                     N/A:  LOGGING EQUIPMENT ID
 CNTY.                        :  COUNTY
 LOC .                        :  LOCATION
 LMF .             Drill Floor:  LOG MEASURED FROM
 TVDS.m                  43.60:  TVDSS CORRECTN
 LATI.deg                40.02:  LATITUDE
 LONG.deg                51.45:  LONGITUDE
 WHNS.m                  11.04:  WELL HEAD N/S
 WHEW.m                 -12.38:  WELL HEAD E/W
 UTMX.m              538763.98:  UTM X
 UTMY.m             4431880.20:  UTM Y
 DFWL.m                   0.00:  DISTANCE FWL
 DFSL.m                   0.00:  DISTANCE FSL
 SDEP.m                 300.00:  START DEPTH
 TDD .m                4900.01:  TOTAL DEPTH (DRILLER)
 VSDR.deg               185.64:  VERT SEC DIRECT
 GVFD.g                   1.00:  GRAVITY FIELD
 MFLD.nT              50301.00:  MAGNETIC FIELD
 MDIP.deg                59.46:  MAGNETIC DIP
 MDEC.deg                 6.43:  MAGNETIC DECL
 GRDC.deg                 0.29:  GRID CORRECTION
 AZTC.deg                 6.14:  AZM TOTAL CORR
 EPD .m                   0.00:  ELEVATION
 EGL .m                   0.00:  GROUND ELEVATION
 WDMS.m                 151.80:  WD ELEV
 APD .m                  43.60:  DEPTH ABOVE PD
 DEP .m                 571.69:  DEPTH
 AGAP.m                  43.60:  AIR GAP
 VSEW.m                 -12.38:  VERT SEC E/W
 VSNS.m                  11.04:  VERT SEC N/S
 EKB .m                  43.60:  KB ELEVATION
 EDF .m                  43.60:  DF ELEVATION
 TDL .m                 412.00:  TOTAL DEPTH (LOGGER)
 VSC .                       0:  VS TO CLOSURE
 MAGU.                 1849300:  MAGUTM CHECKSUM
~Parameter Information Block
#MNEM.UNIT       Value        Description
#---------     -----------    ---------------------------
 AV  .mps                 2.21:  Ann Velocity 
 AVMX.mps                 2.53:  Max Ann Veloc 
 AZIF.deg               144.83:  Azm, Final 
 BHAT.        Rotary Steerable:  BHA Type 
 BROT.°/30m              -0.52:  Build Rotating 
 BS  .in                  6.50:  Bit Size 
 BTPL.psig              209.00:  Bit Press Loss 
 CABU.                      No:  Customer Abuse 
 CGEO.        Ali Isfandiyarov:  Customer Geo 
 COMM.                     ì¡€:  Run Comments 1 
 TCS .hr                 61.31:  Time Ciculation Ended 
 CV  .mps                 4.66:  Crit Velocity 
 CVMX.mps                 5.02:  Max Crit Veloc 
 DD1 .          Fariz Nahmatov:  Direct Drillr 1 
 DD2 .            Musa Ahmadov:  Direct Drillr 2 
 DDSV.               Geo-Pilot:  DD Service 
 DEFF.%                 100.00:  % Det Eff 
 DLRX.°/30m               1.44:  Dogleg Rot Max 
 DLSO.°/30m               0.83:  Dogleg Oriented 
 DLSX.°/30m               1.44:  Dogleg Str Max 
 DRET.      08.30.00 30-Jan-21:  Drill End Time 
 DRST.      21.15.00 27-Jan-21:  Drill Start Tim 
 DTIM.hr                 37.28:  Time Drilling 
 EDEP.m                4867.01:  End Depth 
 ENG1.          Rasim Hashimov:  Engineer 1 
 ENG2.         Almaz Almadatov:  Engineer 2 
 ENG3.        Tamerlan Ahmadov:  Engineer 3 
 ETIM.      22.41.04 31-Jan-21:  End Time 
 FLOI.gpm               400.00:  Flow In 
 FLON.gpm               300.00:  Flow In Min 
 FLOS.cptm                0.00:  Fluid Loss 
 FLOX.gpm               400.00:  Flow In Max 
 HFLO.                      No:  High Flow 
 HPRE.                      No:  High Pressure 
 HTEM.                      No:  High Temp 
 HYDO.m                   1.80:  Hydro Offset 
 IFIN.deg                65.63:  Inc, Final 
 IMAX.deg                66.77:  Inc Max 
 IMIN.deg                65.61:  Inc Min 
 IMND.m                4612.67:  Inc Min Depth 
 IMXD.m                4811.63:  Inc Max Depth 
 JARR.                      No:  Jarring 
 LETM.      08.30.00 30-Jan-21:  Log End Time 
 LOST.hr                     0:  Lost Rig Time 
 LSTM.      21.15.00 27-Jan-21:  Log Start Time 
 MDCL.ppm             41000.00:  Mud Chlorides 
 MDES.     Inversion Oil/Synthetic:  Mud Desc 
 DFD .sg                  1.40:  Mud Density 
 MDMN.sg                  1.40:  Dens Mud Min 
 MDMX.sg                  1.40:  Dens Mud Max 
 MOIL.                      53:  Run Mud Oil % 
 MOWR.                   66:34:  Run Mud OWR 
 MSND.                     0.2:  Run Mud Sand % 
 MSOL.                    17.9:  Run Mud Solids% 
 DFV .spqt               77.00:  Mud Viscosity 
 MWOD.in                  4.75:  MWD Tool OD 
 MWSI.                      No:  Serv Intrp, MWD 
 OTIM.hr                110.38:  Time Operating 
 PCON.           Look Like New:  Pad Condition 
 PMAX.psia             5300.00:  Press Op, Max 
 PV  .cP                 57.00:  Mud PV 
 RUN .                    1200:  Run Number 
 ROPA.m/hr               13.00:  ROP Avg 
 ROPN.m/hr                9.00:  ROP Min 
 ROPX.m/hr               15.00:  ROP Max 
 RPMA.rpm               120.00:  RPM Surface Avg 
 RPMN.rpm               100.00:  RPM Surface Min 
 RPMX.rpm               135.00:  RPM Surface Max 
 RRUN.                    1200:  Rig Run Number 
 RTIM.hr                  2.65:  Time Reaming 
 SAZI.deg               145.04:  Azm, Start 
 SDEP.m                4455.01:  Start Depth 
 SIDD.                      No:  Serv Intrp, DD 
 SINC.deg                65.83:  Inc, Start 
 SPPA.psig             5037.00:  SPP Avg 
 SPPN.psig             4430.00:  SPP Min 
 SPPX.psig             5300.00:  SPP Max 
 STIM.      22.41.04 26-Jan-21:  Start Time 
 SVCS.                 DD, MWD:  Services 
 SVER.                    9.20:  Sperry Version 
 TDAT.m                 412.00:  Tot Depth Attmp 
 TDDF.                      No:  Trip for DD 
 TDLG.m                 412.00:  Tot Depth Loggd 
 TFF .                      No:  Trip for Fail 
 TQAA.f-kp               15.00:  Torque Abs Avg 
 TQAN.f-kp               12.00:  Torque Abs Min 
 TQAX.f-kp               17.00:  Torque Abs Max 
 TRRT.°/30m               1.18:  Turn Rotating 
 MRT .                     ADR:  Maximum Recorded Temperature 
 TTMX.degC               88.24:  Max Tool Temp 
 VS01.                90619458:  Virtual Str1 SN 
 VS02.                90519326:  Virtual Str2 SN 
 VS03.                90522176:  Virtual Str3 SN 
 VS04.                90512683:  Virtual Str4 SN 
 WBMN.klb                 1.00:  WOB Min 
 WITN.           Murad Giluyev:  Customer Rep 
 WITN.     Kamran Kemberlinski:  Customer Rep 2 
 WOBA.klb                 5.00:  WOB Avg 
 WOBX.klb                 9.00:  WOB Max 
 YP  .lhf2               41.00:  Yield Point 
~Curve Information Block
#MNEM.UNIT                 API CODE     Curve Description
#---------               -----------    ---------------------------
 TIME.HHMMSS            00 000 000 000:  GT Time & Date
 GTDEPTH.m              00 000 000 000:  GT Depth
 GTPQH.psia             00 000 000 000:  GT HR Quartz Pressure
 GTTQ.degC              00 000 000 000:  GT Quartz Temperature
 GTTN.NONE              00 000 000 000:  GT Test Number
 GTET.sec               00 000 000 000:  GT Elapsed Test Time
 GTTVD.m                00 000 000 000:  GT True Vertical Depth
#Other Information
#
#WARRANTY: Halliburton will use its best efforts to furnish customers with 
#accurate information and interpretations that are part of, and incident to, the services 
#provided.  However, Halliburton cannot and does not warrant the accuracy 
#or correctness of such information and interpretations.  Under no circumstances should any 
#such information or interpretation be relied upon as the sole basis for any drilling, 
#completion, production, or financial decision or any procedure involving any risk to the 
#safety of any drilling venture, drilling rig or its crew or any other third party.  The 
#Customer has full responsibility for all drilling, completion and production operation.  
#Halliburton makes no representations or warranties, either expressed or 
#implied, including, but not limited to, the implied warranties of merchantability or fitness 
#for a particular purpose, with respect to the services rendered.  In no event will 
#Halliburton be liable for failure to obtain any particular results or for 
#any damages, including, but not limited to, indirect, special or consequential damages, 
#resulting from the use of any information or interpretation provided by Halliburton.
#
~A           TIME           GTDEPTH  GTPQH  GTTQ  GTTN  GTET   GTTVD  
# ...
   02:58:36.000.28-Jan-2021 4452.31 5406.12 59.24 2.00 138.00 2484.76
   02:58:36.200.28-Jan-2021 4452.31 5406.12 59.24 2.00 138.20 2484.76
   02:58:36.400.28-Jan-2021 4452.31 5405.64 59.24 2.00 138.40 2484.76
   02:58:36.600.28-Jan-2021 4452.31 5406.48 59.24 2.00 138.60 2484.76
   02:58:36.800.28-Jan-2021 4452.31 5405.75 59.24 2.00 138.80 2484.76
   02:58:37.000.28-Jan-2021 4452.31 5403.01 59.24 2.00 139.00 2484.76
   02:58:37.200.28-Jan-2021 4452.31 5403.01 59.24 2.00 139.20 2484.76
   02:58:37.400.28-Jan-2021 4452.31 5402.72 59.24 2.00 139.40 2484.76
   02:58:37.600.28-Jan-2021 4452.31 5403.60 59.24 2.00 139.60 2484.76
   02:58:37.800.28-Jan-2021 4452.31 5403.30 59.24 2.00 139.80 2484.76
   02:58:38.000.28-Jan-2021 4452.31 5403.52 59.24 2.00 140.00 2484.76
   02:58:38.200.28-Jan-2021 4452.31 5403.52 59.24 2.00 140.20 2484.76
   02:58:38.400.28-Jan-2021 4452.31 5402.48 59.24 2.00 140.40 2484.76
   02:58:38.600.28-Jan-2021 4452.31 5403.81 59.24 2.00 140.60 2484.76
   02:58:38.800.28-Jan-2021 4452.31 5405.79 59.24 2.00 140.80 2484.76
   02:58:39.000.28-Jan-2021 4452.31 5397.05 59.24 2.00 141.00 2484.76
   02:58:39.200.28-Jan-2021 4452.31 5397.05 59.24 2.00 141.20 2484.76
   02:58:39.400.28-Jan-2021 4452.31 5403.25 59.24 2.00 141.40 2484.76
   02:58:39.600.28-Jan-2021 4452.31 5406.38 59.24 2.00 141.60 2484.76
   02:58:39.800.28-Jan-2021 4452.31 5402.68 59.24 2.00 141.80 2484.76
   02:58:40.000.28-Jan-2021 4452.31 5397.69 59.24 2.00 142.00 2484.76
   02:58:40.200.28-Jan-2021 4452.31 5397.69 59.24 2.00 142.20 2484.76
   02:58:40.400.28-Jan-2021 4452.31 5404.40 59.24 2.00 142.40 2484.76
   02:58:40.600.28-Jan-2021 4452.31 5407.29 59.24 2.00 142.60 2484.76
   02:58:40.800.28-Jan-2021 4452.31 5402.04 59.24 2.00 142.80 2484.76
   02:58:41.000.28-Jan-2021 4452.31 5396.93 59.24 2.00 143.00 2484.76
   02:58:41.200.28-Jan-2021 4452.31 5396.93 59.24 2.00 143.20 2484.76
   02:58:41.400.28-Jan-2021 4452.31 5403.83 59.24 2.00 143.40 2484.76
   02:58:41.600.28-Jan-2021 4452.31 5406.40 59.24 2.00 143.60 2484.76
   02:58:41.800.28-Jan-2021 4452.31 5404.12 59.24 2.00 143.80 2484.76
   02:58:42.000.28-Jan-2021 4452.31 5402.71 59.24 2.00 144.00 2484.76
   02:58:42.200.28-Jan-2021 4452.31 5402.71 59.24 2.00 144.20 2484.76
   02:58:42.400.28-Jan-2021 4452.31 5402.57 59.24 2.00 144.40 2484.76
   02:58:42.600.28-Jan-2021 4452.31 5403.26 59.24 2.00 144.60 2484.76
   02:58:42.800.28-Jan-2021 4452.31 5406.71 59.24 2.00 144.80 2484.76
   02:58:43.000.28-Jan-2021 4452.31 5404.47 59.24 2.00 145.00 2484.76
   02:58:43.200.28-Jan-2021 4452.31 5404.47 59.24 2.00 145.20 2484.76
   02:58:43.400.28-Jan-2021 4452.31 5403.70 59.24 2.00 145.40 2484.76
   02:58:43.600.28-Jan-2021 4452.31 5402.87 59.24 2.00 145.60 2484.76
   02:58:43.800.28-Jan-2021 4452.31 5404.50 59.24 2.00 145.80 2484.76
   02:58:44.000.28-Jan-2021 4452.31 5403.48 59.24 2.00 146.00 2484.76
   02:58:44.200.28-Jan-2021 4452.31 5403.48 59.24 2.00 146.20 2484.76
   02:58:44.400.28-Jan-2021 4452.31 5403.45 59.24 2.00 146.40 2484.76
   02:58:44.600.28-Jan-2021 4452.31 5403.17 59.24 2.00 146.60 2484.76
   02:58:44.800.28-Jan-2021 4452.31 5403.97 59.24 2.00 146.80 2484.76
   02:58:45.000.28-Jan-2021 4452.31 5402.57 59.24 2.00 147.00 2484.76
   02:58:45.200.28-Jan-2021 4452.31 5402.57 59.24 2.00 147.20 2484.76
   02:58:45.400.28-Jan-2021 4452.31 5403.20 59.24 2.00 147.40 2484.76
   02:58:45.600.28-Jan-2021 4452.31 5400.10 59.24 2.00 147.60 2484.76
   02:58:45.800.28-Jan-2021 4452.31 5397.63 59.24 2.00 147.80 2484.76
   02:58:46.000.28-Jan-2021 4452.31 5402.97 59.24 2.00 148.00 2484.76
   02:58:46.200.28-Jan-2021 4452.31 5402.97 59.24 2.00 148.20 2484.76
   02:58:46.400.28-Jan-2021 4452.31 5405.97 59.24 2.00 148.40 2484.76
   02:58:46.600.28-Jan-2021 4452.31 5403.20 59.24 2.00 148.60 2484.76
   02:58:46.800.28-Jan-2021 4452.31 5404.13 59.24 2.00 148.80 2484.76
   02:58:47.000.28-Jan-2021 4452.31 5403.32 59.24 2.00 149.00 2484.76
   02:58:47.200.28-Jan-2021 4452.31 5403.32 59.24 2.00 149.20 2484.76
   02:58:47.400.28-Jan-2021 4452.31 5406.19 59.24 2.00 149.40 2484.76
   02:58:47.600.28-Jan-2021 4452.31 5405.41 59.24 2.00 149.60 2484.76
   02:58:47.800.28-Jan-2021 4452.31 5406.58 59.24 2.00 149.80 2484.76
   02:58:48.000.28-Jan-2021 4452.31 5405.89 59.24 2.00 150.00 2484.76
   02:58:48.200.28-Jan-2021 4452.31 5405.89 59.24 2.00 150.20 2484.76
   02:58:48.400.28-Jan-2021 4452.31 5406.08 59.24 2.00 150.40 2484.76
   02:58:48.600.28-Jan-2021 4452.31 5405.35 59.23 2.00 150.60 2484.76
   02:58:48.800.28-Jan-2021 4452.31 5406.33 59.24 2.00 150.80 2484.76
   02:58:49.000.28-Jan-2021 4452.31 5406.44 59.23 2.00 151.00 2484.76
   02:58:49.200.28-Jan-2021 4452.31 5406.44 59.23 2.00 151.20 2484.76
   02:58:49.400.28-Jan-2021 4452.31 5406.21 59.23 2.00 151.40 2484.76
   02:58:49.600.28-Jan-2021 4452.31 5405.50 59.23 2.00 151.60 2484.76
   02:58:49.800.28-Jan-2021 4452.31 5409.01 59.23 2.00 151.80 2484.76
   02:58:50.000.28-Jan-2021 4452.31 5398.61 59.23 2.00 152.00 2484.76
   02:58:50.200.28-Jan-2021 4452.31 5398.61 59.23 2.00 152.20 2484.76
   02:58:50.400.28-Jan-2021 4452.31 5406.62 59.23 2.00 152.40 2484.76
   02:58:50.600.28-Jan-2021 4452.31 5408.53 59.23 2.00 152.60 2484.76
   02:58:50.800.28-Jan-2021 4452.31 5399.03 59.23 2.00 152.80 2484.76
   02:58:51.000.28-Jan-2021 4452.31 5405.73 59.23 2.00 153.00 2484.76
   02:58:51.200.28-Jan-2021 4452.31 5405.73 59.23 2.00 153.20 2484.76
   02:58:51.400.28-Jan-2021 4452.31 5408.74 59.23 2.00 153.40 2484.76
   02:58:51.600.28-Jan-2021 4452.31 5409.08 59.23 2.00 153.60 2484.76
   02:58:51.800.28-Jan-2021 4452.31 5397.88 59.23 2.00 153.80 2484.76
   02:58:52.000.28-Jan-2021 4452.31 5405.82 59.23 2.00 154.00 2484.76
   02:58:52.200.28-Jan-2021 4452.31 5405.82 59.23 2.00 154.20 2484.76
   02:58:52.400.28-Jan-2021 4452.31 5408.63 59.23 2.00 154.40 2484.76
   02:58:52.600.28-Jan-2021 4452.31 5407.47 59.23 2.00 154.60 2484.76
   02:58:52.800.28-Jan-2021 4452.31 5405.64 59.23 2.00 154.80 2484.76
   02:58:53.000.28-Jan-2021 4452.31 5397.54 59.23 2.00 155.00 2484.76
   02:58:53.200.28-Jan-2021 4452.31 5397.54 59.23 2.00 155.20 2484.76
   02:58:53.400.28-Jan-2021 4452.31 5405.79 59.23 2.00 155.40 2484.76
   02:58:53.600.28-Jan-2021 4452.31 5408.34 59.23 2.00 155.60 2484.76
   02:58:53.800.28-Jan-2021 4452.31 5406.73 59.23 2.00 155.80 2484.76
   02:58:54.000.28-Jan-2021 4452.31 5406.29 59.23 2.00 156.00 2484.76
   02:58:54.200.28-Jan-2021 4452.31 5406.29 59.23 2.00 156.20 2484.76
   02:58:54.400.28-Jan-2021 4452.31 5405.48 59.23 2.00 156.40 2484.76
   02:58:54.600.28-Jan-2021 4452.31 5406.23 59.23 2.00 156.60 2484.76
   02:58:54.800.28-Jan-2021 4452.31 5405.67 59.23 2.00 156.80 2484.76
   02:58:55.000.28-Jan-2021 4452.31 5406.58 59.23 2.00 157.00 2484.76
   02:58:55.200.28-Jan-2021 4452.31 5406.58 59.23 2.00 157.20 2484.76
   02:58:55.400.28-Jan-2021 4452.31 5405.72 59.23 2.00 157.40 2484.76
   02:58:55.600.28-Jan-2021 4452.31 5406.24 59.23 2.00 157.60 2484.76
   02:58:55.800.28-Jan-2021 4452.31 5404.65 59.23 2.00 157.80 2484.76
   02:58:56.000.28-Jan-2021 4452.31 5405.92 59.23 2.00 158.00 2484.76
   02:58:56.200.28-Jan-2021 4452.31 5405.92 59.23 2.00 158.20 2484.76
   02:58:56.400.28-Jan-2021 4452.31 5402.99 59.23 2.00 158.40 2484.76
   02:58:56.600.28-Jan-2021 4452.31 5399.69 59.23 2.00 158.60 2484.76
   02:58:56.800.28-Jan-2021 4452.31 5404.88 59.23 2.00 158.80 2484.76
   02:58:57.000.28-Jan-2021 4452.31 5407.07 59.23 2.00 159.00 2484.76
   02:58:57.200.28-Jan-2021 4452.31 5407.07 59.23 2.00 159.20 2484.76
   02:58:57.400.28-Jan-2021 4452.31 5405.89 59.23 2.00 159.40 2484.76
   02:58:57.600.28-Jan-2021 4452.31 5406.06 59.23 2.00 159.60 2484.76
   02:58:57.800.28-Jan-2021 4452.31 5405.00 59.23 2.00 159.80 2484.76
   02:58:58.000.28-Jan-2021 4452.31 5405.76 59.23 2.00 160.00 2484.76
   02:58:58.200.28-Jan-2021 4452.31 5405.76 59.23 2.00 160.20 2484.76
   02:58:58.400.28-Jan-2021 4452.31 5405.68 59.23 2.00 160.40 2484.76
   02:58:58.600.28-Jan-2021 4452.31 5406.87 59.23 2.00 160.60 2484.76
   02:58:58.800.28-Jan-2021 4452.31 5405.74 59.23 2.00 160.80 2484.76
