~Version Information
 VERS.                  2.0:   CWLS log ASCII Standard -VERSION 2.0
 WRAP.                   NO:   One line per depth step
~Well Information Block
#MNEM.UNIT     VALUE/NAME     DESCRIPTION
#---------     -----------    ---------------------------
 STRT.S             20:44:12 29-Jan-21: START TIME 20:44:12 29-Jan-21
 STOP.S             20:50:42 29-Jan-21: STOP TIME  20:50:42 29-Jan-21
 STEP.S                   0.00: STEP TIME
 NULL.                 -999.25: NULL VALUE
 DFWT.                        :  DIST FWL TEXT
 DFST.                        :  DIST FSL TEXT
 DMF .             Drill Floor:  DRILL MEAS FROM
 STIM.      00.00.00 25-Sep-20:  START TIME
 DATE.      16.12.48 31-Jan-21:  END TIME
 SPUD.               20-Sep-20:  SPUD DATE
 NREF.                    Grid:  NORTH REFERENCE
 HPTY.       Minimum Curvature:  HOLE POS TYPE
 DMOD.             Drill Model:  DRILL MOD DESC
 SVYD.                  Survey:  SURVEY DESC
 ILTD.               Lithology:  INTERP LTH DESC
 FTOP.          Formation Tops:  FORM TOPS DESC
 RIG .              East Azeri:  RIG NAME
 PDAT.          Mean Sea Level:  PERMANENT DATUM
 FLD .                     ACG:  FIELD NAME
 SON .        AZ-XX-0906591820:  JOB NUMBER
 CTRY.              Azerbaijan:  COUNTRY NAME
 WELL.                     D37:  WELL NAME
 SRVC.     Turan Drilling & Engineering:  CONTRACTOR
 COMP.     BP Exploration (Caspian Sea) ltd.:  COMPANY
 WTYP.                Deviated:  WELL TYPE
 MDS .        Operator Entered:  MAG DATA SOURCE
 UWI .                     N/A:  UNIQUE WELL IDENTIFIER
 API .                     N/A:  API NUMBER
 BASE.              Azerbaijan:  LOGGING EQUIPMENT BASE LOCATION
 REGN.                   EESSA:  REGION
 PROV.                    Baku:  PROVINCE
 STAT.                    Baku:  STATE NAME
 MWDS.                    Baku:  MWD SHOP
 JOBN.        AZ-XX-0906591820:  JOB TICKET NUMB
 DOE .                     N/A:  DOE NUMBER
 DCON.         Sperry Drilling:  DIRECTNL CONTR
 UNIT.                     N/A:  LOGGING EQUIPMENT ID
 CNTY.                        :  COUNTY
 LOC .                        :  LOCATION
 LMF .             Drill Floor:  LOG MEASURED FROM
 TVDS.m                  43.60:  TVDSS CORRECTN
 LATI.deg                40.02:  LATITUDE
 LONG.deg                51.45:  LONGITUDE
 WHNS.m                  11.04:  WELL HEAD N/S
 WHEW.m                 -12.38:  WELL HEAD E/W
 UTMX.m              538763.98:  UTM X
 UTMY.m             4431880.20:  UTM Y
 DFWL.m                   0.00:  DISTANCE FWL
 DFSL.m                   0.00:  DISTANCE FSL
 SDEP.m                 300.00:  START DEPTH
 TDD .m                4900.01:  TOTAL DEPTH (DRILLER)
 VSDR.deg               185.64:  VERT SEC DIRECT
 GVFD.g                   1.00:  GRAVITY FIELD
 MFLD.nT              50301.00:  MAGNETIC FIELD
 MDIP.deg                59.46:  MAGNETIC DIP
 MDEC.deg                 6.43:  MAGNETIC DECL
 GRDC.deg                 0.29:  GRID CORRECTION
 AZTC.deg                 6.14:  AZM TOTAL CORR
 EPD .m                   0.00:  ELEVATION
 EGL .m                   0.00:  GROUND ELEVATION
 WDMS.m                 151.80:  WD ELEV
 APD .m                  43.60:  DEPTH ABOVE PD
 DEP .m                 571.69:  DEPTH
 AGAP.m                  43.60:  AIR GAP
 VSEW.m                 -12.38:  VERT SEC E/W
 VSNS.m                  11.04:  VERT SEC N/S
 EKB .m                  43.60:  KB ELEVATION
 EDF .m                  43.60:  DF ELEVATION
 TDL .m                 412.00:  TOTAL DEPTH (LOGGER)
 VSC .                       0:  VS TO CLOSURE
 MAGU.                 1849300:  MAGUTM CHECKSUM
~Parameter Information Block
#MNEM.UNIT       Value        Description
#---------     -----------    ---------------------------
 AV  .mps                 2.21:  Ann Velocity 
 AVMX.mps                 2.53:  Max Ann Veloc 
 AZIF.deg               144.83:  Azm, Final 
 BHAT.        Rotary Steerable:  BHA Type 
 BROT.°/30m              -0.52:  Build Rotating 
 BS  .in                  6.50:  Bit Size 
 BTPL.psig              209.00:  Bit Press Loss 
 CABU.                      No:  Customer Abuse 
 CGEO.        Ali Isfandiyarov:  Customer Geo 
 TCS .hr                 61.31:  Time Ciculation Ended 
 CV  .mps                 4.66:  Crit Velocity 
 CVMX.mps                 5.02:  Max Crit Veloc 
 DD1 .          Fariz Nahmatov:  Direct Drillr 1 
 DD2 .            Musa Ahmadov:  Direct Drillr 2 
 DDSV.               Geo-Pilot:  DD Service 
 DEFF.%                 100.00:  % Det Eff 
 DLRX.°/30m               1.44:  Dogleg Rot Max 
 DLSO.°/30m               0.83:  Dogleg Oriented 
 DLSX.°/30m               1.44:  Dogleg Str Max 
 DRET.      08.30.00 30-Jan-21:  Drill End Time 
 DRST.      21.15.00 27-Jan-21:  Drill Start Tim 
 DTIM.hr                 37.28:  Time Drilling 
 EDEP.m                4867.01:  End Depth 
 ENG1.          Rasim Hashimov:  Engineer 1 
 ENG2.         Almaz Almadatov:  Engineer 2 
 ENG3.        Tamerlan Ahmadov:  Engineer 3 
 ETIM.      22.41.04 31-Jan-21:  End Time 
 FLOI.gpm               400.00:  Flow In 
 FLON.gpm               300.00:  Flow In Min 
 FLOS.cptm                0.00:  Fluid Loss 
 FLOX.gpm               400.00:  Flow In Max 
 HFLO.                      No:  High Flow 
 HPRE.                      No:  High Pressure 
 HTEM.                      No:  High Temp 
 HYDO.m                   1.80:  Hydro Offset 
 IFIN.deg                65.63:  Inc, Final 
 IMAX.deg                66.77:  Inc Max 
 IMIN.deg                65.61:  Inc Min 
 IMND.m                4612.67:  Inc Min Depth 
 IMXD.m                4811.63:  Inc Max Depth 
 JARR.                      No:  Jarring 
 LETM.      08.30.00 30-Jan-21:  Log End Time 
 LOST.hr                     0:  Lost Rig Time 
 LSTM.      21.15.00 27-Jan-21:  Log Start Time 
 MDCL.ppm             41000.00:  Mud Chlorides 
 MDES.     Inversion Oil/Synthetic:  Mud Desc 
 DFD .sg                  1.40:  Mud Density 
 MDMN.sg                  1.40:  Dens Mud Min 
 MDMX.sg                  1.40:  Dens Mud Max 
 MOIL.                      53:  Run Mud Oil % 
 MOWR.                   66:34:  Run Mud OWR 
 MSND.                     0.2:  Run Mud Sand % 
 MSOL.                    17.9:  Run Mud Solids% 
 DFV .spqt               77.00:  Mud Viscosity 
 MWOD.in                  4.75:  MWD Tool OD 
 MWSI.                      No:  Serv Intrp, MWD 
 OTIM.hr                110.38:  Time Operating 
 PCON.           Look Like New:  Pad Condition 
 PMAX.psia             5300.00:  Press Op, Max 
 PV  .cP                 57.00:  Mud PV 
 RUN .                    1200:  Run Number 
 ROPA.m/hr               13.00:  ROP Avg 
 ROPN.m/hr                9.00:  ROP Min 
 ROPX.m/hr               15.00:  ROP Max 
 RPMA.rpm               120.00:  RPM Surface Avg 
 RPMN.rpm               100.00:  RPM Surface Min 
 RPMX.rpm               135.00:  RPM Surface Max 
 RRUN.                    1200:  Rig Run Number 
 RTIM.hr                  2.65:  Time Reaming 
 SAZI.deg               145.04:  Azm, Start 
 SDEP.m                4455.01:  Start Depth 
 SIDD.                      No:  Serv Intrp, DD 
 SINC.deg                65.83:  Inc, Start 
 SPPA.psig             5037.00:  SPP Avg 
 SPPN.psig             4430.00:  SPP Min 
 SPPX.psig             5300.00:  SPP Max 
 STIM.      22.41.04 26-Jan-21:  Start Time 
 SVCS.                 DD, MWD:  Services 
 SVER.                    9.20:  Sperry Version 
 TDAT.m                 412.00:  Tot Depth Attmp 
 TDDF.                      No:  Trip for DD 
 TDLG.m                 412.00:  Tot Depth Loggd 
 TFF .                      No:  Trip for Fail 
 TQAA.f-kp               15.00:  Torque Abs Avg 
 TQAN.f-kp               12.00:  Torque Abs Min 
 TQAX.f-kp               17.00:  Torque Abs Max 
 TRRT.°/30m               1.18:  Turn Rotating 
 MRT .                     ADR:  Maximum Recorded Temperature 
 TTMX.degC               88.24:  Max Tool Temp 
 VS01.                90619458:  Virtual Str1 SN 
 VS02.                90519326:  Virtual Str2 SN 
 VS03.                90522176:  Virtual Str3 SN 
 VS04.                90512683:  Virtual Str4 SN 
 WBMN.klb                 1.00:  WOB Min 
 WITN.           Murad Giluyev:  Customer Rep 
 WITN.     Kamran Kemberlinski:  Customer Rep 2 
 WOBA.klb                 5.00:  WOB Avg 
 WOBX.klb                 9.00:  WOB Max 
 YP  .lhf2               41.00:  Yield Point 
~Curve Information Block
#MNEM.UNIT                 API CODE     Curve Description
#---------               -----------    ---------------------------
 TIME.HHMMSS            00 000 000 000:  GT Time & Date
 GTDEPTH.m              00 000 000 000:  GT Depth
 GTPQH.psia             00 000 000 000:  GT HR Quartz Pressure
 GTTQ.degC              00 000 000 000:  GT Quartz Temperature
 GTTN.NONE              00 000 000 000:  GT Test Number
 GTET.sec               00 000 000 000:  GT Elapsed Test Time
 GTTVD.m                00 000 000 000:  GT True Vertical Depth
#Other Information
#
#WARRANTY: Halliburton will use its best efforts to furnish customers with 
#accurate information and interpretations that are part of, and incident to, the services 
#provided.  However, Halliburton cannot and does not warrant the accuracy 
#or correctness of such information and interpretations.  Under no circumstances should any 
#such information or interpretation be relied upon as the sole basis for any drilling, 
#completion, production, or financial decision or any procedure involving any risk to the 
#safety of any drilling venture, drilling rig or its crew or any other third party.  The 
#Customer has full responsibility for all drilling, completion and production operation.  
#Halliburton makes no representations or warranties, either expressed or 
#implied, including, but not limited to, the implied warranties of merchantability or fitness 
#for a particular purpose, with respect to the services rendered.  In no event will 
#Halliburton be liable for failure to obtain any particular results or for 
#any damages, including, but not limited to, indirect, special or consequential damages, 
#resulting from the use of any information or interpretation provided by Halliburton.
#
~A           TIME           GTDEPTH  GTPQH  GTTQ  GTTN   GTET   GTTVD  
   20:44:12.598.29-Jan-2021 4766.51 5708.81 83.96 13.00   0.00 2612.24
   20:44:12.798.29-Jan-2021 4766.51 5708.81 83.96 13.00   0.20 2612.24
   20:44:12.998.29-Jan-2021 4766.51 5707.10 83.96 13.00   0.40 2612.24
   20:44:13.198.29-Jan-2021 4766.51 5705.82 83.96 13.00   0.60 2612.24
   20:44:13.398.29-Jan-2021 4766.51 5705.44 83.96 13.00   0.80 2612.24
   20:44:13.598.29-Jan-2021 4766.51 5706.13 83.96 13.00   1.00 2612.24
   20:44:13.798.29-Jan-2021 4766.51 5706.13 83.96 13.00   1.20 2612.24
   20:44:13.998.29-Jan-2021 4766.51 5700.85 83.96 13.00   1.40 2612.24
   20:44:14.198.29-Jan-2021 4766.51 5704.42 83.95 13.00   1.60 2612.24
   20:44:14.398.29-Jan-2021 4766.51 5703.87 83.95 13.00   1.80 2612.24
   20:44:14.598.29-Jan-2021 4766.51 5703.46 83.95 13.00   2.00 2612.24
   20:44:14.798.29-Jan-2021 4766.51 5703.46 83.95 13.00   2.20 2612.24
   20:44:14.999.29-Jan-2021 4766.51 5705.23 83.95 13.00   2.40 2612.24
   20:44:15.199.29-Jan-2021 4766.51 5705.54 83.95 13.00   2.60 2612.24
   20:44:15.399.29-Jan-2021 4766.51 5700.45 83.95 13.00   2.80 2612.24
   20:44:15.599.29-Jan-2021 4766.51 5706.39 83.95 13.00   3.00 2612.24
   20:44:15.799.29-Jan-2021 4766.51 5706.39 83.95 13.00   3.20 2612.24
   20:44:15.999.29-Jan-2021 4766.51 5708.07 83.95 13.00   3.40 2612.24
   20:44:16.199.29-Jan-2021 4766.51 5704.89 83.95 13.00   3.60 2612.24
   20:44:16.399.29-Jan-2021 4766.51 5707.20 83.95 13.00   3.80 2612.24
   20:44:16.599.29-Jan-2021 4766.51 5708.60 83.95 13.00   4.00 2612.24
   20:44:16.799.29-Jan-2021 4766.51 5708.60 83.95 13.00   4.20 2612.24
   20:44:16.999.29-Jan-2021 4766.51 5707.10 83.94 13.00   4.40 2612.24
   20:44:17.199.29-Jan-2021 4766.51 5707.41 83.94 13.00   4.60 2612.24
   20:44:17.399.29-Jan-2021 4766.51 5701.32 83.94 13.00   4.80 2612.24
   20:44:17.599.29-Jan-2021 4766.51 5709.65 83.94 13.00   5.00 2612.24
   20:44:17.799.29-Jan-2021 4766.51 5709.65 83.94 13.00   5.20 2612.24
   20:44:17.999.29-Jan-2021 4766.51 5708.70 83.94 13.00   5.40 2612.24
   20:44:18.199.29-Jan-2021 4766.51 5703.44 83.94 13.00   5.60 2612.24
   20:44:18.399.29-Jan-2021 4766.51 5707.71 83.94 13.00   5.80 2612.24
   20:44:18.599.29-Jan-2021 4766.51 5706.84 83.94 13.00   6.00 2612.24
   20:44:18.799.29-Jan-2021 4766.51 5706.84 83.94 13.00   6.20 2612.24
   20:44:18.999.29-Jan-2021 4766.51 5706.59 83.94 13.00   6.40 2612.24
   20:44:19.199.29-Jan-2021 4766.51 5708.58 83.93 13.00   6.60 2612.24
   20:44:19.399.29-Jan-2021 4766.51 5707.80 83.93 13.00   6.80 2612.24
   20:44:19.599.29-Jan-2021 4766.51 5709.81 83.93 13.00   7.00 2612.24
   20:44:19.799.29-Jan-2021 4766.51 5709.81 83.93 13.00   7.20 2612.24
   20:44:19.999.29-Jan-2021 4766.51 5709.81 83.93 13.00   7.40 2612.24
   20:44:20.199.29-Jan-2021 4766.51 5708.47 83.93 13.00   7.60 2612.24
   20:44:20.399.29-Jan-2021 4766.51 5709.17 83.93 13.00   7.80 2612.24
   20:44:20.599.29-Jan-2021 4766.51 5708.68 83.93 13.00   8.00 2612.24
   20:44:20.799.29-Jan-2021 4766.51 5708.68 83.93 13.00   8.20 2612.24
   20:44:20.999.29-Jan-2021 4766.51 5703.22 83.93 13.00   8.40 2612.24
   20:44:21.199.29-Jan-2021 4766.51 5708.95 83.93 13.00   8.60 2612.24
   20:44:21.399.29-Jan-2021 4766.51 5709.27 83.93 13.00   8.80 2612.24
   20:44:21.599.29-Jan-2021 4766.51 5708.83 83.92 13.00   9.00 2612.24
   20:44:21.799.29-Jan-2021 4766.51 5708.83 83.92 13.00   9.20 2612.24
   20:44:21.999.29-Jan-2021 4766.51 5707.90 83.92 13.00   9.40 2612.24
   20:44:22.199.29-Jan-2021 4766.51 5709.33 83.92 13.00   9.60 2612.24
   20:44:22.399.29-Jan-2021 4766.51 5709.32 83.92 13.00   9.80 2612.24
   20:44:22.599.29-Jan-2021 4766.51 5708.04 83.92 13.00  10.00 2612.24
   20:44:22.799.29-Jan-2021 4766.51 5708.04 83.92 13.00  10.20 2612.24
   20:44:22.999.29-Jan-2021 4766.51 5708.80 83.92 13.00  10.40 2612.24
   20:44:23.199.29-Jan-2021 4766.51 5708.55 83.92 13.00  10.60 2612.24
   20:44:23.400.29-Jan-2021 4766.51 5707.97 83.92 13.00  10.80 2612.24
   20:44:23.600.29-Jan-2021 4766.51 5707.96 83.92 13.00  11.00 2612.24
   20:44:23.800.29-Jan-2021 4766.51 5707.96 83.92 13.00  11.20 2612.24
   20:44:24.000.29-Jan-2021 4766.51 5708.57 83.92 13.00  11.40 2612.24
   20:44:24.200.29-Jan-2021 4766.51 5708.13 83.91 13.00  11.60 2612.24
   20:44:24.400.29-Jan-2021 4766.51 5708.57 83.91 13.00  11.80 2612.24
   20:44:24.600.29-Jan-2021 4766.51 5706.77 83.91 13.00  12.00 2612.24
   20:44:24.800.29-Jan-2021 4766.51 5706.77 83.91 13.00  12.20 2612.24
   20:44:25.000.29-Jan-2021 4766.51 5708.35 83.91 13.00  12.40 2612.24
   20:44:25.200.29-Jan-2021 4766.51 5709.35 83.91 13.00  12.60 2612.24
   20:44:25.400.29-Jan-2021 4766.51 5706.93 83.91 13.00  12.80 2612.24
   20:44:25.600.29-Jan-2021 4766.51 5707.17 83.91 13.00  13.00 2612.24
   20:44:25.800.29-Jan-2021 4766.51 5707.17 83.91 13.00  13.20 2612.24
   20:44:26.000.29-Jan-2021 4766.51 5710.58 83.91 13.00  13.40 2612.24
   20:44:26.200.29-Jan-2021 4766.51 5708.77 83.91 13.00  13.60 2612.24
   20:44:26.400.29-Jan-2021 4766.51 5708.58 83.91 13.00  13.80 2612.24
   20:44:26.600.29-Jan-2021 4766.51 5698.16 83.90 13.00  14.00 2612.24
   20:44:26.800.29-Jan-2021 4766.51 5698.16 83.90 13.00  14.20 2612.24
   20:44:27.000.29-Jan-2021 4766.51 5709.56 83.90 13.00  14.40 2612.24
   20:44:27.200.29-Jan-2021 4766.51 5708.89 83.90 13.00  14.60 2612.24
   20:44:27.400.29-Jan-2021 4766.51 5700.60 83.90 13.00  14.80 2612.24
   20:44:27.600.29-Jan-2021 4766.51 5708.46 83.90 13.00  15.00 2612.24
   20:44:27.800.29-Jan-2021 4766.51 5708.46 83.90 13.00  15.20 2612.24
   20:44:28.000.29-Jan-2021 4766.51 5703.93 83.90 13.00  15.40 2612.24
   20:44:28.200.29-Jan-2021 4766.51 5707.10 83.90 13.00  15.60 2612.24
   20:44:28.400.29-Jan-2021 4766.51 5709.34 83.90 13.00  15.80 2612.24
   20:44:28.600.29-Jan-2021 4766.51 5711.34 83.90 13.00  16.00 2612.24
   20:44:28.800.29-Jan-2021 4766.51 5711.34 83.90 13.00  16.20 2612.24
   20:44:29.000.29-Jan-2021 4766.51 5706.96 83.89 13.00  16.40 2612.24
   20:44:29.200.29-Jan-2021 4766.51 5712.14 83.89 13.00  16.60 2612.24
   20:44:29.400.29-Jan-2021 4766.51 5765.00 83.89 13.00  16.80 2612.24
   20:44:29.600.29-Jan-2021 4766.51 5814.84 83.89 13.00  17.00 2612.24
   20:44:29.800.29-Jan-2021 4766.51 5814.84 83.89 13.00  17.20 2612.24
   20:44:30.000.29-Jan-2021 4766.51 5914.90 83.89 13.00  17.40 2612.24
   20:44:30.200.29-Jan-2021 4766.51 5962.23 83.89 13.00  17.60 2612.24
   20:44:30.400.29-Jan-2021 4766.51 6006.00 83.89 13.00  17.80 2612.24
   20:44:30.600.29-Jan-2021 4766.51 6057.67 83.89 13.00  18.00 2612.24
   20:44:30.800.29-Jan-2021 4766.51 6057.67 83.89 13.00  18.20 2612.24
   20:44:31.000.29-Jan-2021 4766.51 6159.33 83.89 13.00  18.40 2612.24
   20:44:31.200.29-Jan-2021 4766.51 6208.21 83.89 13.00  18.60 2612.24
   20:44:31.400.29-Jan-2021 4766.51 6264.42 83.89 13.00  18.80 2612.24
   20:44:31.600.29-Jan-2021 4766.51 6246.42 83.88 13.00  19.00 2612.24
   20:44:31.800.29-Jan-2021 4766.51 6246.42 83.88 13.00  19.20 2612.24
   20:44:32.001.29-Jan-2021 4766.51 6304.28 83.88 13.00  19.40 2612.24
   20:44:32.201.29-Jan-2021 4766.51 6346.19 83.88 13.00  19.60 2612.24
   20:44:32.401.29-Jan-2021 4766.51 6355.60 83.88 13.00  19.80 2612.24
   20:44:32.601.29-Jan-2021 4766.51 6085.68 83.88 13.00  20.00 2612.24
   20:44:32.801.29-Jan-2021 4766.51 6085.68 83.88 13.00  20.20 2612.24
   20:44:33.001.29-Jan-2021 4766.51 6047.98 83.88 13.00  20.40 2612.24
   20:44:33.201.29-Jan-2021 4766.51 6089.67 83.88 13.00  20.60 2612.24
   20:44:33.401.29-Jan-2021 4766.51 6162.36 83.88 13.00  20.80 2612.24
   20:44:33.601.29-Jan-2021 4766.51 6304.09 83.88 13.00  21.00 2612.24
   20:44:33.801.29-Jan-2021 4766.51 6304.09 83.88 13.00  21.20 2612.24
   20:44:34.001.29-Jan-2021 4766.51 5973.67 83.88 13.00  21.40 2612.24
   20:44:34.201.29-Jan-2021 4766.51 5769.32 83.87 13.00  21.60 2612.24
   20:44:34.401.29-Jan-2021 4766.51 5740.63 83.87 13.00  21.80 2612.24
   20:44:34.601.29-Jan-2021 4766.51 5743.31 83.87 13.00  22.00 2612.24
   20:44:34.801.29-Jan-2021 4766.51 5743.31 83.87 13.00  22.20 2612.24
   20:44:35.001.29-Jan-2021 4766.51 5731.06 83.87 13.00  22.40 2612.24
