~Version Information
 VERS.                  2.0:   CWLS log ASCII Standard -VERSION 2.0
 WRAP.                   NO:   One line per depth step
~Well Information Block
#MNEM.UNIT     VALUE/NAME     DESCRIPTION
#---------     -----------    ---------------------------
 STRT.S             14:01:04 28-Jan-21: START TIME 14:01:04 28-Jan-21
 STOP.S             14:07:34 28-Jan-21: STOP TIME  14:07:34 28-Jan-21
 STEP.S                   0.00: STEP TIME
 NULL.                 -999.25: NULL VALUE
 DFWT.                        :  DIST FWL TEXT
 DFST.                        :  DIST FSL TEXT
 DMF .             Drill Floor:  DRILL MEAS FROM
 STIM.      00.00.00 25-Sep-20:  START TIME
 DATE.      16.12.48 31-Jan-21:  END TIME
 SPUD.               20-Sep-20:  SPUD DATE
 NREF.                    Grid:  NORTH REFERENCE
 HPTY.       Minimum Curvature:  HOLE POS TYPE
 DMOD.             Drill Model:  DRILL MOD DESC
 SVYD.                  Survey:  SURVEY DESC
 ILTD.               Lithology:  INTERP LTH DESC
 FTOP.          Formation Tops:  FORM TOPS DESC
 RIG .              East Azeri:  RIG NAME
 PDAT.          Mean Sea Level:  PERMANENT DATUM
 FLD .                     ACG:  FIELD NAME
 SON .        AZ-XX-0906591820:  JOB NUMBER
 CTRY.              Azerbaijan:  COUNTRY NAME
 WELL.                     D37:  WELL NAME
 SRVC.     Turan Drilling & Engineering:  CONTRACTOR
 COMP.     BP Exploration (Caspian Sea) ltd.:  COMPANY
 WTYP.                Deviated:  WELL TYPE
 MDS .        Operator Entered:  MAG DATA SOURCE
 UWI .                     N/A:  UNIQUE WELL IDENTIFIER
 API .                     N/A:  API NUMBER
 BASE.              Azerbaijan:  LOGGING EQUIPMENT BASE LOCATION
 REGN.                   EESSA:  REGION
 PROV.                    Baku:  PROVINCE
 STAT.                    Baku:  STATE NAME
 MWDS.                    Baku:  MWD SHOP
 JOBN.        AZ-XX-0906591820:  JOB TICKET NUMB
 DOE .                     N/A:  DOE NUMBER
 DCON.         Sperry Drilling:  DIRECTNL CONTR
 UNIT.                     N/A:  LOGGING EQUIPMENT ID
 CNTY.                        :  COUNTY
 LOC .                        :  LOCATION
 LMF .             Drill Floor:  LOG MEASURED FROM
 TVDS.m                  43.60:  TVDSS CORRECTN
 LATI.deg                40.02:  LATITUDE
 LONG.deg                51.45:  LONGITUDE
 WHNS.m                  11.04:  WELL HEAD N/S
 WHEW.m                 -12.38:  WELL HEAD E/W
 UTMX.m              538763.98:  UTM X
 UTMY.m             4431880.20:  UTM Y
 DFWL.m                   0.00:  DISTANCE FWL
 DFSL.m                   0.00:  DISTANCE FSL
 SDEP.m                 300.00:  START DEPTH
 TDD .m                4900.01:  TOTAL DEPTH (DRILLER)
 VSDR.deg               185.64:  VERT SEC DIRECT
 GVFD.g                   1.00:  GRAVITY FIELD
 MFLD.nT              50301.00:  MAGNETIC FIELD
 MDIP.deg                59.46:  MAGNETIC DIP
 MDEC.deg                 6.43:  MAGNETIC DECL
 GRDC.deg                 0.29:  GRID CORRECTION
 AZTC.deg                 6.14:  AZM TOTAL CORR
 EPD .m                   0.00:  ELEVATION
 EGL .m                   0.00:  GROUND ELEVATION
 WDMS.m                 151.80:  WD ELEV
 APD .m                  43.60:  DEPTH ABOVE PD
 DEP .m                 571.69:  DEPTH
 AGAP.m                  43.60:  AIR GAP
 VSEW.m                 -12.38:  VERT SEC E/W
 VSNS.m                  11.04:  VERT SEC N/S
 EKB .m                  43.60:  KB ELEVATION
 EDF .m                  43.60:  DF ELEVATION
 TDL .m                 412.00:  TOTAL DEPTH (LOGGER)
 VSC .                       0:  VS TO CLOSURE
 MAGU.                 1849300:  MAGUTM CHECKSUM
~Parameter Information Block
#MNEM.UNIT       Value        Description
#---------     -----------    ---------------------------
 AV  .mps                 2.21:  Ann Velocity 
 AVMX.mps                 2.53:  Max Ann Veloc 
 AZIF.deg               144.83:  Azm, Final 
 BHAT.        Rotary Steerable:  BHA Type 
 BROT.°/30m              -0.52:  Build Rotating 
 BS  .in                  6.50:  Bit Size 
 BTPL.psig              209.00:  Bit Press Loss 
 CABU.                      No:  Customer Abuse 
 CGEO.        Ali Isfandiyarov:  Customer Geo 
 COMM.                     T´U:  Run Comments 1 
 TCS .hr                 61.31:  Time Ciculation Ended 
 CV  .mps                 4.66:  Crit Velocity 
 CVMX.mps                 5.02:  Max Crit Veloc 
 DD1 .          Fariz Nahmatov:  Direct Drillr 1 
 DD2 .            Musa Ahmadov:  Direct Drillr 2 
 DDSV.               Geo-Pilot:  DD Service 
 DEFF.%                 100.00:  % Det Eff 
 DLRX.°/30m               1.44:  Dogleg Rot Max 
 DLSO.°/30m               0.83:  Dogleg Oriented 
 DLSX.°/30m               1.44:  Dogleg Str Max 
 DRET.      08.30.00 30-Jan-21:  Drill End Time 
 DRST.      21.15.00 27-Jan-21:  Drill Start Tim 
 DTIM.hr                 37.28:  Time Drilling 
 EDEP.m                4867.01:  End Depth 
 ENG1.          Rasim Hashimov:  Engineer 1 
 ENG2.         Almaz Almadatov:  Engineer 2 
 ENG3.        Tamerlan Ahmadov:  Engineer 3 
 ETIM.      22.41.04 31-Jan-21:  End Time 
 FLOI.gpm               400.00:  Flow In 
 FLON.gpm               300.00:  Flow In Min 
 FLOS.cptm                0.00:  Fluid Loss 
 FLOX.gpm               400.00:  Flow In Max 
 HFLO.                      No:  High Flow 
 HPRE.                      No:  High Pressure 
 HTEM.                      No:  High Temp 
 HYDO.m                   1.80:  Hydro Offset 
 IFIN.deg                65.63:  Inc, Final 
 IMAX.deg                66.77:  Inc Max 
 IMIN.deg                65.61:  Inc Min 
 IMND.m                4612.67:  Inc Min Depth 
 IMXD.m                4811.63:  Inc Max Depth 
 JARR.                      No:  Jarring 
 LETM.      08.30.00 30-Jan-21:  Log End Time 
 LOST.hr                     0:  Lost Rig Time 
 LSTM.      21.15.00 27-Jan-21:  Log Start Time 
 MDCL.ppm             41000.00:  Mud Chlorides 
 MDES.     Inversion Oil/Synthetic:  Mud Desc 
 DFD .sg                  1.40:  Mud Density 
 MDMN.sg                  1.40:  Dens Mud Min 
 MDMX.sg                  1.40:  Dens Mud Max 
 MOIL.                      53:  Run Mud Oil % 
 MOWR.                   66:34:  Run Mud OWR 
 MSND.                     0.2:  Run Mud Sand % 
 MSOL.                    17.9:  Run Mud Solids% 
 DFV .spqt               77.00:  Mud Viscosity 
 MWOD.in                  4.75:  MWD Tool OD 
 MWSI.                      No:  Serv Intrp, MWD 
 OTIM.hr                110.38:  Time Operating 
 PCON.           Look Like New:  Pad Condition 
 PMAX.psia             5300.00:  Press Op, Max 
 PV  .cP                 57.00:  Mud PV 
 RUN .                    1200:  Run Number 
 ROPA.m/hr               13.00:  ROP Avg 
 ROPN.m/hr                9.00:  ROP Min 
 ROPX.m/hr               15.00:  ROP Max 
 RPMA.rpm               120.00:  RPM Surface Avg 
 RPMN.rpm               100.00:  RPM Surface Min 
 RPMX.rpm               135.00:  RPM Surface Max 
 RRUN.                    1200:  Rig Run Number 
 RTIM.hr                  2.65:  Time Reaming 
 SAZI.deg               145.04:  Azm, Start 
 SDEP.m                4455.01:  Start Depth 
 SIDD.                      No:  Serv Intrp, DD 
 SINC.deg                65.83:  Inc, Start 
 SPPA.psig             5037.00:  SPP Avg 
 SPPN.psig             4430.00:  SPP Min 
 SPPX.psig             5300.00:  SPP Max 
 STIM.      22.41.04 26-Jan-21:  Start Time 
 SVCS.                 DD, MWD:  Services 
 SVER.                    9.20:  Sperry Version 
 TDAT.m                 412.00:  Tot Depth Attmp 
 TDDF.                      No:  Trip for DD 
 TDLG.m                 412.00:  Tot Depth Loggd 
 TFF .                      No:  Trip for Fail 
 TQAA.f-kp               15.00:  Torque Abs Avg 
 TQAN.f-kp               12.00:  Torque Abs Min 
 TQAX.f-kp               17.00:  Torque Abs Max 
 TRRT.°/30m               1.18:  Turn Rotating 
 MRT .                     ADR:  Maximum Recorded Temperature 
 TTMX.degC               88.24:  Max Tool Temp 
 VS01.                90619458:  Virtual Str1 SN 
 VS02.                90519326:  Virtual Str2 SN 
 VS03.                90522176:  Virtual Str3 SN 
 VS04.                90512683:  Virtual Str4 SN 
 WBMN.klb                 1.00:  WOB Min 
 WITN.           Murad Giluyev:  Customer Rep 
 WITN.     Kamran Kemberlinski:  Customer Rep 2 
 WOBA.klb                 5.00:  WOB Avg 
 WOBX.klb                 9.00:  WOB Max 
 YP  .lhf2               41.00:  Yield Point 
~Curve Information Block
#MNEM.UNIT                 API CODE     Curve Description
#---------               -----------    ---------------------------
 TIME.HHMMSS            00 000 000 000:  GT Time & Date
 GTDEPTH.m              00 000 000 000:  GT Depth
 GTPQH.psia             00 000 000 000:  GT HR Quartz Pressure
 GTTQ.degC              00 000 000 000:  GT Quartz Temperature
 GTTN.NONE              00 000 000 000:  GT Test Number
 GTET.sec               00 000 000 000:  GT Elapsed Test Time
 GTTVD.m                00 000 000 000:  GT True Vertical Depth
#Other Information
#
#WARRANTY: Halliburton will use its best efforts to furnish customers with 
#accurate information and interpretations that are part of, and incident to, the services 
#provided.  However, Halliburton cannot and does not warrant the accuracy 
#or correctness of such information and interpretations.  Under no circumstances should any 
#such information or interpretation be relied upon as the sole basis for any drilling, 
#completion, production, or financial decision or any procedure involving any risk to the 
#safety of any drilling venture, drilling rig or its crew or any other third party.  The 
#Customer has full responsibility for all drilling, completion and production operation.  
#Halliburton makes no representations or warranties, either expressed or 
#implied, including, but not limited to, the implied warranties of merchantability or fitness 
#for a particular purpose, with respect to the services rendered.  In no event will 
#Halliburton be liable for failure to obtain any particular results or for 
#any damages, including, but not limited to, indirect, special or consequential damages, 
#resulting from the use of any information or interpretation provided by Halliburton.
#
~A           TIME           GTDEPTH  GTPQH  GTTQ  GTTN  GTET   GTTVD  
# ...
   14:03:45.782.28-Jan-2021 4535.01 3139.12 72.10 3.00 161.03 2518.76
   14:03:45.982.28-Jan-2021 4535.01 3139.12 72.10 3.00 161.23 2518.76
   14:03:46.182.28-Jan-2021 4535.01 3139.12 72.09 3.00 161.43 2518.76
   14:03:46.382.28-Jan-2021 4535.01 3139.11 72.09 3.00 161.63 2518.76
   14:03:46.582.28-Jan-2021 4535.01 3139.12 72.09 3.00 161.83 2518.76
   14:03:46.782.28-Jan-2021 4535.01 3139.11 72.09 3.00 162.03 2518.76
   14:03:46.982.28-Jan-2021 4535.01 3139.11 72.09 3.00 162.23 2518.76
   14:03:47.182.28-Jan-2021 4535.01 3139.11 72.09 3.00 162.43 2518.76
   14:03:47.382.28-Jan-2021 4535.01 3139.01 72.09 3.00 162.63 2518.76
   14:03:47.582.28-Jan-2021 4535.01 3139.18 72.09 3.00 162.83 2518.76
   14:03:47.783.28-Jan-2021 4535.01 3139.14 72.09 3.00 163.03 2518.76
   14:03:47.983.28-Jan-2021 4535.01 3139.14 72.09 3.00 163.23 2518.76
   14:03:48.183.28-Jan-2021 4535.01 3139.03 72.09 3.00 163.43 2518.76
   14:03:48.383.28-Jan-2021 4535.01 3139.17 72.09 3.00 163.63 2518.76
   14:03:48.583.28-Jan-2021 4535.01 3139.16 72.09 3.00 163.83 2518.76
   14:03:48.783.28-Jan-2021 4535.01 3139.11 72.09 3.00 164.03 2518.76
   14:03:48.983.28-Jan-2021 4535.01 3139.11 72.09 3.00 164.23 2518.76
   14:03:49.183.28-Jan-2021 4535.01 3139.18 72.09 3.00 164.43 2518.76
   14:03:49.383.28-Jan-2021 4535.01 3139.15 72.09 3.00 164.63 2518.76
   14:03:49.583.28-Jan-2021 4535.01 3139.12 72.09 3.00 164.83 2518.76
   14:03:49.783.28-Jan-2021 4535.01 3139.14 72.09 3.00 165.03 2518.76
   14:03:49.983.28-Jan-2021 4535.01 3139.14 72.09 3.00 165.23 2518.76
   14:03:50.183.28-Jan-2021 4535.01 3139.12 72.09 3.00 165.43 2518.76
   14:03:50.383.28-Jan-2021 4535.01 3139.09 72.09 3.00 165.63 2518.76
   14:03:50.583.28-Jan-2021 4535.01 3139.14 72.09 3.00 165.83 2518.76
   14:03:50.783.28-Jan-2021 4535.01 3139.12 72.09 3.00 166.03 2518.76
   14:03:50.983.28-Jan-2021 4535.01 3139.12 72.09 3.00 166.23 2518.76
   14:03:51.183.28-Jan-2021 4535.01 3139.10 72.09 3.00 166.43 2518.76
   14:03:51.383.28-Jan-2021 4535.01 3139.13 72.09 3.00 166.63 2518.76
   14:03:51.583.28-Jan-2021 4535.01 3139.09 72.09 3.00 166.83 2518.76
   14:03:51.783.28-Jan-2021 4535.01 3139.14 72.09 3.00 167.03 2518.76
   14:03:51.983.28-Jan-2021 4535.01 3139.14 72.09 3.00 167.23 2518.76
   14:03:52.183.28-Jan-2021 4535.01 3139.14 72.08 3.00 167.43 2518.76
   14:03:52.383.28-Jan-2021 4535.01 3139.12 72.08 3.00 167.63 2518.76
   14:03:52.584.28-Jan-2021 4535.01 3139.11 72.08 3.00 167.83 2518.76
   14:03:52.784.28-Jan-2021 4535.01 3139.11 72.08 3.00 168.03 2518.76
   14:03:52.984.28-Jan-2021 4535.01 3139.11 72.08 3.00 168.23 2518.76
   14:03:53.184.28-Jan-2021 4535.01 3139.11 72.08 3.00 168.43 2518.76
   14:03:53.384.28-Jan-2021 4535.01 3139.11 72.08 3.00 168.63 2518.76
   14:03:53.584.28-Jan-2021 4535.01 3139.11 72.08 3.00 168.83 2518.76
   14:03:53.784.28-Jan-2021 4535.01 3139.11 72.08 3.00 169.04 2518.76
   14:03:53.984.28-Jan-2021 4535.01 3139.11 72.08 3.00 169.24 2518.76
   14:03:54.184.28-Jan-2021 4535.01 3139.10 72.08 3.00 169.44 2518.76
   14:03:54.384.28-Jan-2021 4535.01 3139.11 72.08 3.00 169.64 2518.76
   14:03:54.584.28-Jan-2021 4535.01 3139.09 72.08 3.00 169.84 2518.76
   14:03:54.784.28-Jan-2021 4535.01 3139.10 72.08 3.00 170.04 2518.76
   14:03:54.984.28-Jan-2021 4535.01 3139.10 72.08 3.00 170.24 2518.76
   14:03:55.184.28-Jan-2021 4535.01 3139.09 72.08 3.00 170.44 2518.76
   14:03:55.384.28-Jan-2021 4535.01 3139.12 72.08 3.00 170.64 2518.76
   14:03:55.584.28-Jan-2021 4535.01 3139.12 72.08 3.00 170.84 2518.76
   14:03:55.784.28-Jan-2021 4535.01 3139.12 72.08 3.00 171.04 2518.76
   14:03:55.984.28-Jan-2021 4535.01 3139.12 72.08 3.00 171.24 2518.76
   14:03:56.184.28-Jan-2021 4535.01 3139.11 72.08 3.00 171.44 2518.76
   14:03:56.384.28-Jan-2021 4535.01 3139.11 72.08 3.00 171.64 2518.76
   14:03:56.584.28-Jan-2021 4535.01 3139.10 72.08 3.00 171.84 2518.76
   14:03:56.784.28-Jan-2021 4535.01 3139.09 72.08 3.00 172.04 2518.76
   14:03:56.984.28-Jan-2021 4535.01 3139.09 72.08 3.00 172.24 2518.76
   14:03:57.184.28-Jan-2021 4535.01 3139.08 72.08 3.00 172.44 2518.76
   14:03:57.385.28-Jan-2021 4535.01 3139.11 72.08 3.00 172.64 2518.76
   14:03:57.585.28-Jan-2021 4535.01 3139.09 72.08 3.00 172.84 2518.76
   14:03:57.785.28-Jan-2021 4535.01 3139.10 72.07 3.00 173.04 2518.76
   14:03:57.985.28-Jan-2021 4535.01 3139.10 72.07 3.00 173.24 2518.76
   14:03:58.185.28-Jan-2021 4535.01 3139.10 72.07 3.00 173.44 2518.76
   14:03:58.385.28-Jan-2021 4535.01 3139.07 72.07 3.00 173.64 2518.76
   14:03:58.585.28-Jan-2021 4535.01 3139.12 72.07 3.00 173.84 2518.76
   14:03:58.785.28-Jan-2021 4535.01 3139.11 72.07 3.00 174.04 2518.76
   14:03:58.985.28-Jan-2021 4535.01 3139.11 72.07 3.00 174.24 2518.76
   14:03:59.185.28-Jan-2021 4535.01 3139.16 72.07 3.00 174.44 2518.76
   14:03:59.385.28-Jan-2021 4535.01 3139.13 72.07 3.00 174.64 2518.76
   14:03:59.585.28-Jan-2021 4535.01 3139.09 72.07 3.00 174.84 2518.76
   14:03:59.785.28-Jan-2021 4535.01 3139.13 72.07 3.00 175.04 2518.76
   14:03:59.985.28-Jan-2021 4535.01 3139.13 72.07 3.00 175.24 2518.76
   14:04:00.185.28-Jan-2021 4535.01 3139.12 72.07 3.00 175.44 2518.76
   14:04:00.385.28-Jan-2021 4535.01 3139.11 72.07 3.00 175.64 2518.76
   14:04:00.585.28-Jan-2021 4535.01 3139.12 72.07 3.00 175.84 2518.76
   14:04:00.785.28-Jan-2021 4535.01 3139.06 72.07 3.00 176.04 2518.76
   14:04:00.985.28-Jan-2021 4535.01 3139.06 72.07 3.00 176.24 2518.76
   14:04:01.185.28-Jan-2021 4535.01 3139.08 72.07 3.00 176.44 2518.76
   14:04:01.385.28-Jan-2021 4535.01 3139.11 72.07 3.00 176.64 2518.76
   14:04:01.585.28-Jan-2021 4535.01 3139.12 72.07 3.00 176.84 2518.76
   14:04:01.785.28-Jan-2021 4535.01 3139.10 72.07 3.00 177.04 2518.76
   14:04:01.985.28-Jan-2021 4535.01 3139.10 72.07 3.00 177.24 2518.76
   14:04:02.185.28-Jan-2021 4535.01 3139.15 72.07 3.00 177.44 2518.76
   14:04:02.386.28-Jan-2021 4535.01 3139.08 72.07 3.00 177.64 2518.76
   14:04:02.586.28-Jan-2021 4535.01 3139.09 72.07 3.00 177.84 2518.76
   14:04:02.786.28-Jan-2021 4535.01 3139.12 72.07 3.00 178.04 2518.76
   14:04:02.986.28-Jan-2021 4535.01 3139.12 72.07 3.00 178.24 2518.76
   14:04:03.186.28-Jan-2021 4535.01 3139.10 72.07 3.00 178.44 2518.76
   14:04:03.386.28-Jan-2021 4535.01 3139.11 72.07 3.00 178.64 2518.76
   14:04:03.586.28-Jan-2021 4535.01 3139.09 72.06 3.00 178.84 2518.76
   14:04:03.786.28-Jan-2021 4535.01 3139.10 72.06 3.00 179.04 2518.76
   14:04:03.986.28-Jan-2021 4535.01 3139.10 72.06 3.00 179.24 2518.76
   14:04:04.186.28-Jan-2021 4535.01 3139.10 72.06 3.00 179.44 2518.76
   14:04:04.386.28-Jan-2021 4535.01 3139.08 72.06 3.00 179.64 2518.76
   14:04:04.586.28-Jan-2021 4535.01 3139.10 72.06 3.00 179.84 2518.76
   14:04:04.786.28-Jan-2021 4535.01 3139.08 72.06 3.00 180.04 2518.76
   14:04:04.986.28-Jan-2021 4535.01 3139.08 72.06 3.00 180.24 2518.76
   14:04:05.186.28-Jan-2021 4535.01 3139.08 72.06 3.00 180.44 2518.76
   14:04:05.386.28-Jan-2021 4535.01 3139.08 72.06 3.00 180.64 2518.76
   14:04:05.586.28-Jan-2021 4535.01 3139.03 72.06 3.00 180.84 2518.76
   14:04:05.786.28-Jan-2021 4535.01 3139.13 72.06 3.00 181.04 2518.76
   14:04:05.986.28-Jan-2021 4535.01 3139.13 72.06 3.00 181.24 2518.76
   14:04:06.186.28-Jan-2021 4535.01 3139.10 72.06 3.00 181.44 2518.76
   14:04:06.386.28-Jan-2021 4535.01 3139.10 72.06 3.00 181.64 2518.76
   14:04:06.586.28-Jan-2021 4535.01 3139.09 72.06 3.00 181.84 2518.76
   14:04:06.786.28-Jan-2021 4535.01 3139.10 72.06 3.00 182.04 2518.76
   14:04:06.986.28-Jan-2021 4535.01 3139.10 72.06 3.00 182.24 2518.76
   14:04:07.187.28-Jan-2021 4535.01 3139.08 72.06 3.00 182.44 2518.76
   14:04:07.387.28-Jan-2021 4535.01 3139.08 72.06 3.00 182.64 2518.76
   14:04:07.587.28-Jan-2021 4535.01 3139.09 72.06 3.00 182.84 2518.76
   14:04:07.787.28-Jan-2021 4535.01 3139.07 72.06 3.00 183.04 2518.76
   14:04:07.987.28-Jan-2021 4535.01 3139.07 72.06 3.00 183.24 2518.76
   14:04:08.187.28-Jan-2021 4535.01 3139.07 72.06 3.00 183.44 2518.76
   14:04:08.387.28-Jan-2021 4535.01 3139.08 72.06 3.00 183.64 2518.76
   14:04:08.587.28-Jan-2021 4535.01 3139.06 72.06 3.00 183.84 2518.76
