~Version Information
 VERS.                  2.0:   CWLS log ASCII Standard -VERSION 2.0
 WRAP.                   NO:   One line per depth step
~Well Information Block
#MNEM.UNIT     VALUE/NAME     DESCRIPTION
#---------     -----------    ---------------------------
 STRT.S             01:54:12 30-Jan-21: START TIME 01:54:12 30-Jan-21
 STOP.S             02:00:42 30-Jan-21: STOP TIME  02:00:42 30-Jan-21
 STEP.S                   0.00: STEP TIME
 NULL.                 -999.25: NULL VALUE
 DFWT.                        :  DIST FWL TEXT
 DFST.                        :  DIST FSL TEXT
 DMF .             Drill Floor:  DRILL MEAS FROM
 STIM.      00.00.00 25-Sep-20:  START TIME
 DATE.      16.12.48 31-Jan-21:  END TIME
 SPUD.               20-Sep-20:  SPUD DATE
 NREF.                    Grid:  NORTH REFERENCE
 HPTY.       Minimum Curvature:  HOLE POS TYPE
 DMOD.             Drill Model:  DRILL MOD DESC
 SVYD.                  Survey:  SURVEY DESC
 ILTD.               Lithology:  INTERP LTH DESC
 FTOP.          Formation Tops:  FORM TOPS DESC
 RIG .              East Azeri:  RIG NAME
 PDAT.          Mean Sea Level:  PERMANENT DATUM
 FLD .                     ACG:  FIELD NAME
 SON .        AZ-XX-0906591820:  JOB NUMBER
 CTRY.              Azerbaijan:  COUNTRY NAME
 WELL.                     D37:  WELL NAME
 SRVC.     Turan Drilling & Engineering:  CONTRACTOR
 COMP.     BP Exploration (Caspian Sea) ltd.:  COMPANY
 WTYP.                Deviated:  WELL TYPE
 MDS .        Operator Entered:  MAG DATA SOURCE
 UWI .                     N/A:  UNIQUE WELL IDENTIFIER
 API .                     N/A:  API NUMBER
 BASE.              Azerbaijan:  LOGGING EQUIPMENT BASE LOCATION
 REGN.                   EESSA:  REGION
 PROV.                    Baku:  PROVINCE
 STAT.                    Baku:  STATE NAME
 MWDS.                    Baku:  MWD SHOP
 JOBN.        AZ-XX-0906591820:  JOB TICKET NUMB
 DOE .                     N/A:  DOE NUMBER
 DCON.         Sperry Drilling:  DIRECTNL CONTR
 UNIT.                     N/A:  LOGGING EQUIPMENT ID
 CNTY.                        :  COUNTY
 LOC .                        :  LOCATION
 LMF .             Drill Floor:  LOG MEASURED FROM
 TVDS.m                  43.60:  TVDSS CORRECTN
 LATI.deg                40.02:  LATITUDE
 LONG.deg                51.45:  LONGITUDE
 WHNS.m                  11.04:  WELL HEAD N/S
 WHEW.m                 -12.38:  WELL HEAD E/W
 UTMX.m              538763.98:  UTM X
 UTMY.m             4431880.20:  UTM Y
 DFWL.m                   0.00:  DISTANCE FWL
 DFSL.m                   0.00:  DISTANCE FSL
 SDEP.m                 300.00:  START DEPTH
 TDD .m                4900.01:  TOTAL DEPTH (DRILLER)
 VSDR.deg               185.64:  VERT SEC DIRECT
 GVFD.g                   1.00:  GRAVITY FIELD
 MFLD.nT              50301.00:  MAGNETIC FIELD
 MDIP.deg                59.46:  MAGNETIC DIP
 MDEC.deg                 6.43:  MAGNETIC DECL
 GRDC.deg                 0.29:  GRID CORRECTION
 AZTC.deg                 6.14:  AZM TOTAL CORR
 EPD .m                   0.00:  ELEVATION
 EGL .m                   0.00:  GROUND ELEVATION
 WDMS.m                 151.80:  WD ELEV
 APD .m                  43.60:  DEPTH ABOVE PD
 DEP .m                 571.69:  DEPTH
 AGAP.m                  43.60:  AIR GAP
 VSEW.m                 -12.38:  VERT SEC E/W
 VSNS.m                  11.04:  VERT SEC N/S
 EKB .m                  43.60:  KB ELEVATION
 EDF .m                  43.60:  DF ELEVATION
 TDL .m                 412.00:  TOTAL DEPTH (LOGGER)
 VSC .                       0:  VS TO CLOSURE
 MAGU.                 1849300:  MAGUTM CHECKSUM
~Parameter Information Block
#MNEM.UNIT       Value        Description
#---------     -----------    ---------------------------
 AV  .mps                 2.21:  Ann Velocity 
 AVMX.mps                 2.53:  Max Ann Veloc 
 AZIF.deg               144.83:  Azm, Final 
 BHAT.        Rotary Steerable:  BHA Type 
 BROT.°/30m              -0.52:  Build Rotating 
 BS  .in                  6.50:  Bit Size 
 BTPL.psig              209.00:  Bit Press Loss 
 CABU.                      No:  Customer Abuse 
 CGEO.        Ali Isfandiyarov:  Customer Geo 
 COMM.                     d!e:  Run Comments 1 
 TCS .hr                 61.31:  Time Ciculation Ended 
 CV  .mps                 4.66:  Crit Velocity 
 CVMX.mps                 5.02:  Max Crit Veloc 
 DD1 .          Fariz Nahmatov:  Direct Drillr 1 
 DD2 .            Musa Ahmadov:  Direct Drillr 2 
 DDSV.               Geo-Pilot:  DD Service 
 DEFF.%                 100.00:  % Det Eff 
 DLRX.°/30m               1.44:  Dogleg Rot Max 
 DLSO.°/30m               0.83:  Dogleg Oriented 
 DLSX.°/30m               1.44:  Dogleg Str Max 
 DRET.      08.30.00 30-Jan-21:  Drill End Time 
 DRST.      21.15.00 27-Jan-21:  Drill Start Tim 
 DTIM.hr                 37.28:  Time Drilling 
 EDEP.m                4867.01:  End Depth 
 ENG1.          Rasim Hashimov:  Engineer 1 
 ENG2.         Almaz Almadatov:  Engineer 2 
 ENG3.        Tamerlan Ahmadov:  Engineer 3 
 ETIM.      22.41.04 31-Jan-21:  End Time 
 FLOI.gpm               400.00:  Flow In 
 FLON.gpm               300.00:  Flow In Min 
 FLOS.cptm                0.00:  Fluid Loss 
 FLOX.gpm               400.00:  Flow In Max 
 HFLO.                      No:  High Flow 
 HPRE.                      No:  High Pressure 
 HTEM.                      No:  High Temp 
 HYDO.m                   1.80:  Hydro Offset 
 IFIN.deg                65.63:  Inc, Final 
 IMAX.deg                66.77:  Inc Max 
 IMIN.deg                65.61:  Inc Min 
 IMND.m                4612.67:  Inc Min Depth 
 IMXD.m                4811.63:  Inc Max Depth 
 JARR.                      No:  Jarring 
 LETM.      08.30.00 30-Jan-21:  Log End Time 
 LOST.hr                     0:  Lost Rig Time 
 LSTM.      21.15.00 27-Jan-21:  Log Start Time 
 MDCL.ppm             41000.00:  Mud Chlorides 
 MDES.     Inversion Oil/Synthetic:  Mud Desc 
 DFD .sg                  1.40:  Mud Density 
 MDMN.sg                  1.40:  Dens Mud Min 
 MDMX.sg                  1.40:  Dens Mud Max 
 MOIL.                      53:  Run Mud Oil % 
 MOWR.                   66:34:  Run Mud OWR 
 MSND.                     0.2:  Run Mud Sand % 
 MSOL.                    17.9:  Run Mud Solids% 
 DFV .spqt               77.00:  Mud Viscosity 
 MWOD.in                  4.75:  MWD Tool OD 
 MWSI.                      No:  Serv Intrp, MWD 
 OTIM.hr                110.38:  Time Operating 
 PCON.           Look Like New:  Pad Condition 
 PMAX.psia             5300.00:  Press Op, Max 
 PV  .cP                 57.00:  Mud PV 
 RUN .                    1200:  Run Number 
 ROPA.m/hr               13.00:  ROP Avg 
 ROPN.m/hr                9.00:  ROP Min 
 ROPX.m/hr               15.00:  ROP Max 
 RPMA.rpm               120.00:  RPM Surface Avg 
 RPMN.rpm               100.00:  RPM Surface Min 
 RPMX.rpm               135.00:  RPM Surface Max 
 RRUN.                    1200:  Rig Run Number 
 RTIM.hr                  2.65:  Time Reaming 
 SAZI.deg               145.04:  Azm, Start 
 SDEP.m                4455.01:  Start Depth 
 SIDD.                      No:  Serv Intrp, DD 
 SINC.deg                65.83:  Inc, Start 
 SPPA.psig             5037.00:  SPP Avg 
 SPPN.psig             4430.00:  SPP Min 
 SPPX.psig             5300.00:  SPP Max 
 STIM.      22.41.04 26-Jan-21:  Start Time 
 SVCS.                 DD, MWD:  Services 
 SVER.                    9.20:  Sperry Version 
 TDAT.m                 412.00:  Tot Depth Attmp 
 TDDF.                      No:  Trip for DD 
 TDLG.m                 412.00:  Tot Depth Loggd 
 TFF .                      No:  Trip for Fail 
 TQAA.f-kp               15.00:  Torque Abs Avg 
 TQAN.f-kp               12.00:  Torque Abs Min 
 TQAX.f-kp               17.00:  Torque Abs Max 
 TRRT.°/30m               1.18:  Turn Rotating 
 MRT .                     ADR:  Maximum Recorded Temperature 
 TTMX.degC               88.24:  Max Tool Temp 
 VS01.                90619458:  Virtual Str1 SN 
 VS02.                90519326:  Virtual Str2 SN 
 VS03.                90522176:  Virtual Str3 SN 
 VS04.                90512683:  Virtual Str4 SN 
 WBMN.klb                 1.00:  WOB Min 
 WITN.           Murad Giluyev:  Customer Rep 
 WITN.     Kamran Kemberlinski:  Customer Rep 2 
 WOBA.klb                 5.00:  WOB Avg 
 WOBX.klb                 9.00:  WOB Max 
 YP  .lhf2               41.00:  Yield Point 
~Curve Information Block
#MNEM.UNIT                 API CODE     Curve Description
#---------               -----------    ---------------------------
 TIME.HHMMSS            00 000 000 000:  GT Time & Date
 GTDEPTH.m              00 000 000 000:  GT Depth
 GTPQH.psia             00 000 000 000:  GT HR Quartz Pressure
 GTTQ.degC              00 000 000 000:  GT Quartz Temperature
 GTTN.NONE              00 000 000 000:  GT Test Number
 GTET.sec               00 000 000 000:  GT Elapsed Test Time
 GTTVD.m                00 000 000 000:  GT True Vertical Depth
#Other Information
#
#WARRANTY: Halliburton will use its best efforts to furnish customers with 
#accurate information and interpretations that are part of, and incident to, the services 
#provided.  However, Halliburton cannot and does not warrant the accuracy 
#or correctness of such information and interpretations.  Under no circumstances should any 
#such information or interpretation be relied upon as the sole basis for any drilling, 
#completion, production, or financial decision or any procedure involving any risk to the 
#safety of any drilling venture, drilling rig or its crew or any other third party.  The 
#Customer has full responsibility for all drilling, completion and production operation.  
#Halliburton makes no representations or warranties, either expressed or 
#implied, including, but not limited to, the implied warranties of merchantability or fitness 
#for a particular purpose, with respect to the services rendered.  In no event will 
#Halliburton be liable for failure to obtain any particular results or for 
#any damages, including, but not limited to, indirect, special or consequential damages, 
#resulting from the use of any information or interpretation provided by Halliburton.
#
~A           TIME           GTDEPTH  GTPQH  GTTQ  GTTN   GTET   GTTVD  
   01:54:12.926.30-Jan-2021 4790.01 5720.86 80.67 16.00   0.00 2621.59
   01:54:13.126.30-Jan-2021 4790.01 5720.86 80.67 16.00   0.20 2621.59
   01:54:13.326.30-Jan-2021 4790.01 5722.89 80.67 16.00   0.40 2621.59
   01:54:13.526.30-Jan-2021 4790.01 5718.21 80.67 16.00   0.60 2621.59
   01:54:13.726.30-Jan-2021 4790.01 5720.88 80.67 16.00   0.80 2621.59
   01:54:13.926.30-Jan-2021 4790.01 5720.36 80.67 16.00   1.00 2621.59
   01:54:14.126.30-Jan-2021 4790.01 5720.36 80.67 16.00   1.20 2621.59
   01:54:14.327.30-Jan-2021 4790.01 5717.14 80.67 16.00   1.40 2621.59
   01:54:14.527.30-Jan-2021 4790.01 5719.75 80.67 16.00   1.60 2621.59
   01:54:14.727.30-Jan-2021 4790.01 5713.78 80.67 16.00   1.80 2621.59
   01:54:14.927.30-Jan-2021 4790.01 5722.48 80.67 16.00   2.00 2621.59
   01:54:15.127.30-Jan-2021 4790.01 5722.48 80.67 16.00   2.20 2621.59
   01:54:15.327.30-Jan-2021 4790.01 5721.34 80.67 16.00   2.40 2621.59
   01:54:15.527.30-Jan-2021 4790.01 5719.35 80.67 16.00   2.60 2621.59
   01:54:15.727.30-Jan-2021 4790.01 5722.44 80.67 16.00   2.80 2621.59
   01:54:15.927.30-Jan-2021 4790.01 5722.57 80.67 16.00   3.00 2621.59
   01:54:16.127.30-Jan-2021 4790.01 5722.57 80.67 16.00   3.20 2621.59
   01:54:16.327.30-Jan-2021 4790.01 5723.69 80.67 16.00   3.40 2621.59
   01:54:16.527.30-Jan-2021 4790.01 5723.45 80.67 16.00   3.60 2621.59
   01:54:16.727.30-Jan-2021 4790.01 5724.03 80.67 16.00   3.80 2621.59
   01:54:16.927.30-Jan-2021 4790.01 5724.54 80.67 16.00   4.00 2621.59
   01:54:17.127.30-Jan-2021 4790.01 5724.54 80.67 16.00   4.20 2621.59
   01:54:17.327.30-Jan-2021 4790.01 5723.87 80.67 16.00   4.40 2621.59
   01:54:17.527.30-Jan-2021 4790.01 5723.41 80.67 16.00   4.60 2621.59
   01:54:17.727.30-Jan-2021 4790.01 5723.06 80.67 16.00   4.80 2621.59
   01:54:17.927.30-Jan-2021 4790.01 5723.08 80.67 16.00   5.00 2621.59
   01:54:18.127.30-Jan-2021 4790.01 5723.08 80.67 16.00   5.20 2621.59
   01:54:18.327.30-Jan-2021 4790.01 5718.08 80.67 16.00   5.40 2621.59
   01:54:18.527.30-Jan-2021 4790.01 5722.94 80.67 16.00   5.60 2621.59
   01:54:18.727.30-Jan-2021 4790.01 5723.84 80.67 16.00   5.80 2621.59
   01:54:18.927.30-Jan-2021 4790.01 5724.13 80.67 16.00   6.00 2621.59
   01:54:19.127.30-Jan-2021 4790.01 5724.13 80.67 16.00   6.20 2621.59
   01:54:19.327.30-Jan-2021 4790.01 5723.24 80.67 16.00   6.40 2621.59
   01:54:19.528.30-Jan-2021 4790.01 5724.06 80.66 16.00   6.60 2621.59
   01:54:19.728.30-Jan-2021 4790.01 5725.31 80.66 16.00   6.80 2621.59
   01:54:19.928.30-Jan-2021 4790.01 5723.90 80.66 16.00   7.00 2621.59
   01:54:20.128.30-Jan-2021 4790.01 5723.90 80.66 16.00   7.20 2621.59
   01:54:20.328.30-Jan-2021 4790.01 5723.90 80.66 16.00   7.40 2621.59
   01:54:20.528.30-Jan-2021 4790.01 5725.09 80.66 16.00   7.60 2621.59
   01:54:20.728.30-Jan-2021 4790.01 5725.05 80.66 16.00   7.80 2621.59
   01:54:20.928.30-Jan-2021 4790.01 5724.51 80.66 16.00   8.00 2621.59
   01:54:21.128.30-Jan-2021 4790.01 5724.51 80.66 16.00   8.20 2621.59
   01:54:21.328.30-Jan-2021 4790.01 5724.57 80.66 16.00   8.40 2621.59
   01:54:21.528.30-Jan-2021 4790.01 5724.69 80.66 16.00   8.60 2621.59
   01:54:21.728.30-Jan-2021 4790.01 5724.26 80.66 16.00   8.80 2621.59
   01:54:21.928.30-Jan-2021 4790.01 5722.07 80.66 16.00   9.00 2621.59
   01:54:22.128.30-Jan-2021 4790.01 5722.07 80.66 16.00   9.20 2621.59
   01:54:22.328.30-Jan-2021 4790.01 5723.48 80.66 16.00   9.40 2621.59
   01:54:22.528.30-Jan-2021 4790.01 5723.65 80.66 16.00   9.60 2621.59
   01:54:22.728.30-Jan-2021 4790.01 5724.00 80.66 16.00   9.80 2621.59
   01:54:22.928.30-Jan-2021 4790.01 5720.35 80.66 16.00  10.00 2621.59
   01:54:23.128.30-Jan-2021 4790.01 5720.35 80.66 16.00  10.20 2621.59
   01:54:23.328.30-Jan-2021 4790.01 5724.97 80.66 16.00  10.40 2621.59
   01:54:23.528.30-Jan-2021 4790.01 5726.19 80.66 16.00  10.60 2621.59
   01:54:23.728.30-Jan-2021 4790.01 5724.58 80.66 16.00  10.80 2621.59
   01:54:23.928.30-Jan-2021 4790.01 5714.23 80.66 16.00  11.00 2621.59
   01:54:24.128.30-Jan-2021 4790.01 5714.23 80.66 16.00  11.20 2621.59
   01:54:24.328.30-Jan-2021 4790.01 5727.13 80.66 16.00  11.40 2621.59
   01:54:24.528.30-Jan-2021 4790.01 5725.14 80.66 16.00  11.60 2621.59
   01:54:24.729.30-Jan-2021 4790.01 5719.83 80.66 16.00  11.80 2621.59
   01:54:24.929.30-Jan-2021 4790.01 5724.32 80.66 16.00  12.00 2621.59
   01:54:25.129.30-Jan-2021 4790.01 5724.32 80.66 16.00  12.20 2621.59
   01:54:25.329.30-Jan-2021 4790.01 5721.88 80.66 16.00  12.40 2621.59
   01:54:25.529.30-Jan-2021 4790.01 5724.69 80.66 16.00  12.60 2621.59
   01:54:25.729.30-Jan-2021 4790.01 5725.58 80.66 16.00  12.80 2621.59
   01:54:25.929.30-Jan-2021 4790.01 5726.16 80.66 16.00  13.00 2621.59
   01:54:26.129.30-Jan-2021 4790.01 5726.16 80.66 16.00  13.20 2621.59
   01:54:26.329.30-Jan-2021 4790.01 5722.01 80.66 16.00  13.40 2621.59
   01:54:26.529.30-Jan-2021 4790.01 5722.60 80.66 16.00  13.60 2621.59
   01:54:26.729.30-Jan-2021 4790.01 5725.87 80.66 16.00  13.80 2621.59
   01:54:26.929.30-Jan-2021 4790.01 5726.31 80.66 16.00  14.00 2621.59
   01:54:27.129.30-Jan-2021 4790.01 5726.31 80.66 16.00  14.20 2621.59
   01:54:27.329.30-Jan-2021 4790.01 5722.43 80.66 16.00  14.40 2621.59
   01:54:27.529.30-Jan-2021 4790.01 5725.13 80.66 16.00  14.60 2621.59
   01:54:27.729.30-Jan-2021 4790.01 5726.39 80.66 16.00  14.80 2621.59
   01:54:27.929.30-Jan-2021 4790.01 5727.12 80.66 16.00  15.00 2621.59
   01:54:28.129.30-Jan-2021 4790.01 5727.12 80.66 16.00  15.20 2621.59
   01:54:28.329.30-Jan-2021 4790.01 5725.61 80.66 16.00  15.40 2621.59
   01:54:28.529.30-Jan-2021 4790.01 5726.02 80.66 16.00  15.60 2621.59
   01:54:28.729.30-Jan-2021 4790.01 5726.54 80.66 16.00  15.80 2621.59
   01:54:28.929.30-Jan-2021 4790.01 5726.39 80.65 16.00  16.00 2621.59
   01:54:29.129.30-Jan-2021 4790.01 5726.39 80.65 16.00  16.20 2621.59
   01:54:29.329.30-Jan-2021 4790.01 5811.05 80.65 16.00  16.40 2621.59
   01:54:29.529.30-Jan-2021 4790.01 5902.37 80.65 16.00  16.60 2621.59
   01:54:29.729.30-Jan-2021 4790.01 5977.13 80.65 16.00  16.80 2621.59
   01:54:29.930.30-Jan-2021 4790.01 6040.59 80.65 16.00  17.00 2621.59
   01:54:30.130.30-Jan-2021 4790.01 6040.59 80.65 16.00  17.20 2621.59
   01:54:30.330.30-Jan-2021 4790.01 6164.67 80.65 16.00  17.40 2621.59
   01:54:30.530.30-Jan-2021 4790.01 6223.04 80.65 16.00  17.60 2621.59
   01:54:30.730.30-Jan-2021 4790.01 6285.42 80.65 16.00  17.80 2621.59
   01:54:30.930.30-Jan-2021 4790.01 6347.36 80.65 16.00  18.00 2621.59
   01:54:31.130.30-Jan-2021 4790.01 6347.36 80.65 16.00  18.20 2621.59
   01:54:31.330.30-Jan-2021 4790.01 6448.34 80.65 16.00  18.40 2621.59
   01:54:31.530.30-Jan-2021 4790.01 6537.91 80.65 16.00  18.60 2621.59
   01:54:31.730.30-Jan-2021 4790.01 6580.24 80.65 16.00  18.80 2621.59
   01:54:31.930.30-Jan-2021 4790.01 6553.38 80.65 16.00  19.00 2621.59
   01:54:32.130.30-Jan-2021 4790.01 6553.38 80.65 16.00  19.20 2621.59
   01:54:32.330.30-Jan-2021 4790.01 6645.06 80.65 16.00  19.40 2621.59
   01:54:32.530.30-Jan-2021 4790.01 6668.52 80.65 16.00  19.60 2621.59
   01:54:32.730.30-Jan-2021 4790.01 6473.14 80.65 16.00  19.80 2621.59
   01:54:32.930.30-Jan-2021 4790.01 6548.20 80.65 16.00  20.00 2621.59
   01:54:33.130.30-Jan-2021 4790.01 6548.20 80.65 16.00  20.20 2621.59
   01:54:33.330.30-Jan-2021 4790.01 6628.91 80.65 16.00  20.40 2621.59
   01:54:33.530.30-Jan-2021 4790.01 6589.02 80.65 16.00  20.60 2621.59
   01:54:33.730.30-Jan-2021 4790.01 6455.55 80.65 16.00  20.80 2621.59
   01:54:33.930.30-Jan-2021 4790.01 6455.09 80.65 16.00  21.00 2621.59
   01:54:34.130.30-Jan-2021 4790.01 6455.09 80.65 16.00  21.20 2621.59
   01:54:34.330.30-Jan-2021 4790.01 6399.17 80.65 16.00  21.40 2621.59
   01:54:34.530.30-Jan-2021 4790.01 6427.38 80.65 16.00  21.60 2621.59
   01:54:34.730.30-Jan-2021 4790.01 6453.01 80.65 16.00  21.80 2621.59
   01:54:34.930.30-Jan-2021 4790.01 6469.47 80.65 16.00  22.00 2621.59
   01:54:35.131.30-Jan-2021 4790.01 6469.47 80.65 16.00  22.20 2621.59
   01:54:35.331.30-Jan-2021 4790.01 6486.90 80.65 16.00  22.40 2621.59
