~Version Information
 VERS.                  2.0:   CWLS log ASCII Standard -VERSION 2.0
 WRAP.                   NO:   One line per depth step
~Well Information Block
#MNEM.UNIT     VALUE/NAME     DESCRIPTION
#---------     -----------    ---------------------------
 STRT.S             01:29:12 30-Jan-21: START TIME 01:29:12 30-Jan-21
 STOP.S             01:35:33 30-Jan-21: STOP TIME  01:35:33 30-Jan-21
 STEP.S                   0.00: STEP TIME
 NULL.                 -999.25: NULL VALUE
 DFWT.                        :  DIST FWL TEXT
 DFST.                        :  DIST FSL TEXT
 DMF .             Drill Floor:  DRILL MEAS FROM
 STIM.      00.00.00 25-Sep-20:  START TIME
 DATE.      16.12.48 31-Jan-21:  END TIME
 SPUD.               20-Sep-20:  SPUD DATE
 NREF.                    Grid:  NORTH REFERENCE
 HPTY.       Minimum Curvature:  HOLE POS TYPE
 DMOD.             Drill Model:  DRILL MOD DESC
 SVYD.                  Survey:  SURVEY DESC
 ILTD.               Lithology:  INTERP LTH DESC
 FTOP.          Formation Tops:  FORM TOPS DESC
 RIG .              East Azeri:  RIG NAME
 PDAT.          Mean Sea Level:  PERMANENT DATUM
 FLD .                     ACG:  FIELD NAME
 SON .        AZ-XX-0906591820:  JOB NUMBER
 CTRY.              Azerbaijan:  COUNTRY NAME
 WELL.                     D37:  WELL NAME
 SRVC.     Turan Drilling & Engineering:  CONTRACTOR
 COMP.     BP Exploration (Caspian Sea) ltd.:  COMPANY
 WTYP.                Deviated:  WELL TYPE
 MDS .        Operator Entered:  MAG DATA SOURCE
 UWI .                     N/A:  UNIQUE WELL IDENTIFIER
 API .                     N/A:  API NUMBER
 BASE.              Azerbaijan:  LOGGING EQUIPMENT BASE LOCATION
 REGN.                   EESSA:  REGION
 PROV.                    Baku:  PROVINCE
 STAT.                    Baku:  STATE NAME
 MWDS.                    Baku:  MWD SHOP
 JOBN.        AZ-XX-0906591820:  JOB TICKET NUMB
 DOE .                     N/A:  DOE NUMBER
 DCON.         Sperry Drilling:  DIRECTNL CONTR
 UNIT.                     N/A:  LOGGING EQUIPMENT ID
 CNTY.                        :  COUNTY
 LOC .                        :  LOCATION
 LMF .             Drill Floor:  LOG MEASURED FROM
 TVDS.m                  43.60:  TVDSS CORRECTN
 LATI.deg                40.02:  LATITUDE
 LONG.deg                51.45:  LONGITUDE
 WHNS.m                  11.04:  WELL HEAD N/S
 WHEW.m                 -12.38:  WELL HEAD E/W
 UTMX.m              538763.98:  UTM X
 UTMY.m             4431880.20:  UTM Y
 DFWL.m                   0.00:  DISTANCE FWL
 DFSL.m                   0.00:  DISTANCE FSL
 SDEP.m                 300.00:  START DEPTH
 TDD .m                4900.01:  TOTAL DEPTH (DRILLER)
 VSDR.deg               185.64:  VERT SEC DIRECT
 GVFD.g                   1.00:  GRAVITY FIELD
 MFLD.nT              50301.00:  MAGNETIC FIELD
 MDIP.deg                59.46:  MAGNETIC DIP
 MDEC.deg                 6.43:  MAGNETIC DECL
 GRDC.deg                 0.29:  GRID CORRECTION
 AZTC.deg                 6.14:  AZM TOTAL CORR
 EPD .m                   0.00:  ELEVATION
 EGL .m                   0.00:  GROUND ELEVATION
 WDMS.m                 151.80:  WD ELEV
 APD .m                  43.60:  DEPTH ABOVE PD
 DEP .m                 571.69:  DEPTH
 AGAP.m                  43.60:  AIR GAP
 VSEW.m                 -12.38:  VERT SEC E/W
 VSNS.m                  11.04:  VERT SEC N/S
 EKB .m                  43.60:  KB ELEVATION
 EDF .m                  43.60:  DF ELEVATION
 TDL .m                 412.00:  TOTAL DEPTH (LOGGER)
 VSC .                       0:  VS TO CLOSURE
 MAGU.                 1849300:  MAGUTM CHECKSUM
~Parameter Information Block
#MNEM.UNIT       Value        Description
#---------     -----------    ---------------------------
 AV  .mps                 2.21:  Ann Velocity 
 AVMX.mps                 2.53:  Max Ann Veloc 
 AZIF.deg               144.83:  Azm, Final 
 BHAT.        Rotary Steerable:  BHA Type 
 BROT.°/30m              -0.52:  Build Rotating 
 BS  .in                  6.50:  Bit Size 
 BTPL.psig              209.00:  Bit Press Loss 
 CABU.                      No:  Customer Abuse 
 CGEO.        Ali Isfandiyarov:  Customer Geo 
 COMM.                     5j:  Run Comments 1 
 TCS .hr                 61.31:  Time Ciculation Ended 
 CV  .mps                 4.66:  Crit Velocity 
 CVMX.mps                 5.02:  Max Crit Veloc 
 DD1 .          Fariz Nahmatov:  Direct Drillr 1 
 DD2 .            Musa Ahmadov:  Direct Drillr 2 
 DDSV.               Geo-Pilot:  DD Service 
 DEFF.%                 100.00:  % Det Eff 
 DLRX.°/30m               1.44:  Dogleg Rot Max 
 DLSO.°/30m               0.83:  Dogleg Oriented 
 DLSX.°/30m               1.44:  Dogleg Str Max 
 DRET.      08.30.00 30-Jan-21:  Drill End Time 
 DRST.      21.15.00 27-Jan-21:  Drill Start Tim 
 DTIM.hr                 37.28:  Time Drilling 
 EDEP.m                4867.01:  End Depth 
 ENG1.          Rasim Hashimov:  Engineer 1 
 ENG2.         Almaz Almadatov:  Engineer 2 
 ENG3.        Tamerlan Ahmadov:  Engineer 3 
 ETIM.      22.41.04 31-Jan-21:  End Time 
 FLOI.gpm               400.00:  Flow In 
 FLON.gpm               300.00:  Flow In Min 
 FLOS.cptm                0.00:  Fluid Loss 
 FLOX.gpm               400.00:  Flow In Max 
 HFLO.                      No:  High Flow 
 HPRE.                      No:  High Pressure 
 HTEM.                      No:  High Temp 
 HYDO.m                   1.80:  Hydro Offset 
 IFIN.deg                65.63:  Inc, Final 
 IMAX.deg                66.77:  Inc Max 
 IMIN.deg                65.61:  Inc Min 
 IMND.m                4612.67:  Inc Min Depth 
 IMXD.m                4811.63:  Inc Max Depth 
 JARR.                      No:  Jarring 
 LETM.      08.30.00 30-Jan-21:  Log End Time 
 LOST.hr                     0:  Lost Rig Time 
 LSTM.      21.15.00 27-Jan-21:  Log Start Time 
 MDCL.ppm             41000.00:  Mud Chlorides 
 MDES.     Inversion Oil/Synthetic:  Mud Desc 
 DFD .sg                  1.40:  Mud Density 
 MDMN.sg                  1.40:  Dens Mud Min 
 MDMX.sg                  1.40:  Dens Mud Max 
 MOIL.                      53:  Run Mud Oil % 
 MOWR.                   66:34:  Run Mud OWR 
 MSND.                     0.2:  Run Mud Sand % 
 MSOL.                    17.9:  Run Mud Solids% 
 DFV .spqt               77.00:  Mud Viscosity 
 MWOD.in                  4.75:  MWD Tool OD 
 MWSI.                      No:  Serv Intrp, MWD 
 OTIM.hr                110.38:  Time Operating 
 PCON.           Look Like New:  Pad Condition 
 PMAX.psia             5300.00:  Press Op, Max 
 PV  .cP                 57.00:  Mud PV 
 RUN .                    1200:  Run Number 
 ROPA.m/hr               13.00:  ROP Avg 
 ROPN.m/hr                9.00:  ROP Min 
 ROPX.m/hr               15.00:  ROP Max 
 RPMA.rpm               120.00:  RPM Surface Avg 
 RPMN.rpm               100.00:  RPM Surface Min 
 RPMX.rpm               135.00:  RPM Surface Max 
 RRUN.                    1200:  Rig Run Number 
 RTIM.hr                  2.65:  Time Reaming 
 SAZI.deg               145.04:  Azm, Start 
 SDEP.m                4455.01:  Start Depth 
 SIDD.                      No:  Serv Intrp, DD 
 SINC.deg                65.83:  Inc, Start 
 SPPA.psig             5037.00:  SPP Avg 
 SPPN.psig             4430.00:  SPP Min 
 SPPX.psig             5300.00:  SPP Max 
 STIM.      22.41.04 26-Jan-21:  Start Time 
 SVCS.                 DD, MWD:  Services 
 SVER.                    9.20:  Sperry Version 
 TDAT.m                 412.00:  Tot Depth Attmp 
 TDDF.                      No:  Trip for DD 
 TDLG.m                 412.00:  Tot Depth Loggd 
 TFF .                      No:  Trip for Fail 
 TQAA.f-kp               15.00:  Torque Abs Avg 
 TQAN.f-kp               12.00:  Torque Abs Min 
 TQAX.f-kp               17.00:  Torque Abs Max 
 TRRT.°/30m               1.18:  Turn Rotating 
 MRT .                     ADR:  Maximum Recorded Temperature 
 TTMX.degC               88.24:  Max Tool Temp 
 VS01.                90619458:  Virtual Str1 SN 
 VS02.                90519326:  Virtual Str2 SN 
 VS03.                90522176:  Virtual Str3 SN 
 VS04.                90512683:  Virtual Str4 SN 
 WBMN.klb                 1.00:  WOB Min 
 WITN.           Murad Giluyev:  Customer Rep 
 WITN.     Kamran Kemberlinski:  Customer Rep 2 
 WOBA.klb                 5.00:  WOB Avg 
 WOBX.klb                 9.00:  WOB Max 
 YP  .lhf2               41.00:  Yield Point 
~Curve Information Block
#MNEM.UNIT                 API CODE     Curve Description
#---------               -----------    ---------------------------
 TIME.HHMMSS            00 000 000 000:  GT Time & Date
 GTDEPTH.m              00 000 000 000:  GT Depth
 GTPQH.psia             00 000 000 000:  GT HR Quartz Pressure
 GTTQ.degC              00 000 000 000:  GT Quartz Temperature
 GTTN.NONE              00 000 000 000:  GT Test Number
 GTET.sec               00 000 000 000:  GT Elapsed Test Time
 GTTVD.m                00 000 000 000:  GT True Vertical Depth
#Other Information
#
#WARRANTY: Halliburton will use its best efforts to furnish customers with 
#accurate information and interpretations that are part of, and incident to, the services 
#provided.  However, Halliburton cannot and does not warrant the accuracy 
#or correctness of such information and interpretations.  Under no circumstances should any 
#such information or interpretation be relied upon as the sole basis for any drilling, 
#completion, production, or financial decision or any procedure involving any risk to the 
#safety of any drilling venture, drilling rig or its crew or any other third party.  The 
#Customer has full responsibility for all drilling, completion and production operation.  
#Halliburton makes no representations or warranties, either expressed or 
#implied, including, but not limited to, the implied warranties of merchantability or fitness 
#for a particular purpose, with respect to the services rendered.  In no event will 
#Halliburton be liable for failure to obtain any particular results or for 
#any damages, including, but not limited to, indirect, special or consequential damages, 
#resulting from the use of any information or interpretation provided by Halliburton.
#
~A           TIME           GTDEPTH  GTPQH  GTTQ  GTTN   GTET   GTTVD  
# ...
   01:33:21.285.30-Jan-2021 4789.01   27.64 81.80 15.00 248.65 2621.19
   01:33:21.485.30-Jan-2021 4789.01   27.46 81.80 15.00 248.85 2621.19
   01:33:21.685.30-Jan-2021 4789.01   27.29 81.80 15.00 249.05 2621.19
   01:33:21.885.30-Jan-2021 4789.01   27.29 81.80 15.00 249.25 2621.19
   01:33:22.085.30-Jan-2021 4789.01   27.05 81.80 15.00 249.45 2621.19
   01:33:22.285.30-Jan-2021 4789.01   26.93 81.80 15.00 249.65 2621.19
   01:33:22.486.30-Jan-2021 4789.01   26.82 81.80 15.00 249.85 2621.19
   01:33:22.686.30-Jan-2021 4789.01   26.70 81.80 15.00 250.05 2621.19
   01:33:22.886.30-Jan-2021 4789.01   26.70 81.80 15.00 250.25 2621.19
   01:33:23.086.30-Jan-2021 4789.01   26.41 81.80 15.00 250.45 2621.19
   01:33:23.286.30-Jan-2021 4789.01   26.35 81.80 15.00 250.65 2621.19
   01:33:23.486.30-Jan-2021 4789.01   26.33 81.80 15.00 250.85 2621.19
   01:33:23.686.30-Jan-2021 4789.01   26.33 81.80 15.00 251.05 2621.19
   01:33:23.886.30-Jan-2021 4789.01   26.33 81.80 15.00 251.25 2621.19
   01:33:24.086.30-Jan-2021 4789.01   26.33 81.80 15.00 251.45 2621.19
   01:33:24.286.30-Jan-2021 4789.01   26.33 81.80 15.00 251.65 2621.19
   01:33:24.486.30-Jan-2021 4789.01   26.34 81.80 15.00 251.85 2621.19
   01:33:24.686.30-Jan-2021 4789.01   26.35 81.80 15.00 252.05 2621.19
   01:33:24.886.30-Jan-2021 4789.01   26.35 81.80 15.00 252.25 2621.19
   01:33:25.086.30-Jan-2021 4789.01   26.36 81.80 15.00 252.45 2621.19
   01:33:25.286.30-Jan-2021 4789.01   26.36 81.79 15.00 252.65 2621.19
   01:33:25.486.30-Jan-2021 4789.01   26.37 81.79 15.00 252.85 2621.19
   01:33:25.686.30-Jan-2021 4789.01   26.38 81.79 15.00 253.05 2621.19
   01:33:25.886.30-Jan-2021 4789.01   26.38 81.79 15.00 253.25 2621.19
   01:33:26.086.30-Jan-2021 4789.01   26.39 81.79 15.00 253.45 2621.19
   01:33:26.286.30-Jan-2021 4789.01   26.40 81.79 15.00 253.65 2621.19
   01:33:26.486.30-Jan-2021 4789.01   26.40 81.79 15.00 253.85 2621.19
   01:33:26.686.30-Jan-2021 4789.01   26.40 81.79 15.00 254.05 2621.19
   01:33:26.886.30-Jan-2021 4789.01   26.40 81.79 15.00 254.25 2621.19
   01:33:27.086.30-Jan-2021 4789.01   26.42 81.79 15.00 254.45 2621.19
   01:33:27.286.30-Jan-2021 4789.01   26.42 81.79 15.00 254.65 2621.19
   01:33:27.486.30-Jan-2021 4789.01   26.43 81.79 15.00 254.85 2621.19
   01:33:27.687.30-Jan-2021 4789.01   26.43 81.79 15.00 255.05 2621.19
   01:33:27.887.30-Jan-2021 4789.01   26.43 81.79 15.00 255.25 2621.19
   01:33:28.087.30-Jan-2021 4789.01   26.44 81.79 15.00 255.45 2621.19
   01:33:28.287.30-Jan-2021 4789.01   26.45 81.79 15.00 255.65 2621.19
   01:33:28.487.30-Jan-2021 4789.01   26.45 81.79 15.00 255.85 2621.19
   01:33:28.687.30-Jan-2021 4789.01   26.46 81.79 15.00 256.05 2621.19
   01:33:28.887.30-Jan-2021 4789.01   26.46 81.79 15.00 256.25 2621.19
   01:33:29.087.30-Jan-2021 4789.01   26.47 81.79 15.00 256.45 2621.19
   01:33:29.287.30-Jan-2021 4789.01   26.48 81.79 15.00 256.65 2621.19
   01:33:29.487.30-Jan-2021 4789.01   26.48 81.79 15.00 256.85 2621.19
   01:33:29.687.30-Jan-2021 4789.01   26.49 81.79 15.00 257.05 2621.19
   01:33:29.887.30-Jan-2021 4789.01   26.49 81.79 15.00 257.25 2621.19
   01:33:30.087.30-Jan-2021 4789.01   26.50 81.79 15.00 257.45 2621.19
   01:33:30.287.30-Jan-2021 4789.01   26.50 81.79 15.00 257.65 2621.19
   01:33:30.487.30-Jan-2021 4789.01   26.51 81.79 15.00 257.85 2621.19
   01:33:30.687.30-Jan-2021 4789.01   26.51 81.79 15.00 258.05 2621.19
   01:33:30.887.30-Jan-2021 4789.01   26.51 81.79 15.00 258.25 2621.19
   01:33:31.087.30-Jan-2021 4789.01   26.52 81.78 15.00 258.45 2621.19
   01:33:31.287.30-Jan-2021 4789.01   26.52 81.78 15.00 258.65 2621.19
   01:33:31.487.30-Jan-2021 4789.01   26.53 81.78 15.00 258.85 2621.19
   01:33:31.687.30-Jan-2021 4789.01   26.53 81.78 15.00 259.05 2621.19
   01:33:31.887.30-Jan-2021 4789.01   26.53 81.78 15.00 259.25 2621.19
   01:33:32.087.30-Jan-2021 4789.01   26.54 81.78 15.00 259.45 2621.19
   01:33:32.287.30-Jan-2021 4789.01   26.55 81.78 15.00 259.65 2621.19
   01:33:32.487.30-Jan-2021 4789.01   26.55 81.78 15.00 259.85 2621.19
   01:33:32.687.30-Jan-2021 4789.01   26.56 81.78 15.00 260.05 2621.19
   01:33:32.888.30-Jan-2021 4789.01   26.56 81.78 15.00 260.25 2621.19
   01:33:33.088.30-Jan-2021 4789.01   26.56 81.78 15.00 260.45 2621.19
   01:33:33.288.30-Jan-2021 4789.01   26.57 81.78 15.00 260.65 2621.19
   01:33:33.488.30-Jan-2021 4789.01   26.58 81.78 15.00 260.85 2621.19
   01:33:33.688.30-Jan-2021 4789.01   26.58 81.78 15.00 261.05 2621.19
   01:33:33.888.30-Jan-2021 4789.01   26.58 81.78 15.00 261.25 2621.19
   01:33:34.088.30-Jan-2021 4789.01   26.59 81.78 15.00 261.45 2621.19
   01:33:34.288.30-Jan-2021 4789.01   26.60 81.78 15.00 261.65 2621.19
   01:33:34.488.30-Jan-2021 4789.01   26.60 81.78 15.00 261.85 2621.19
   01:33:34.688.30-Jan-2021 4789.01   26.61 81.78 15.00 262.05 2621.19
   01:33:34.888.30-Jan-2021 4789.01   26.61 81.78 15.00 262.25 2621.19
   01:33:35.088.30-Jan-2021 4789.01   26.61 81.78 15.00 262.45 2621.19
   01:33:35.288.30-Jan-2021 4789.01   26.62 81.78 15.00 262.65 2621.19
   01:33:35.488.30-Jan-2021 4789.01   26.62 81.78 15.00 262.85 2621.19
   01:33:35.688.30-Jan-2021 4789.01   26.63 81.78 15.00 263.05 2621.19
   01:33:35.888.30-Jan-2021 4789.01   26.63 81.78 15.00 263.25 2621.19
   01:33:36.088.30-Jan-2021 4789.01   26.64 81.78 15.00 263.45 2621.19
   01:33:36.288.30-Jan-2021 4789.01   26.64 81.77 15.00 263.65 2621.19
   01:33:36.488.30-Jan-2021 4789.01   26.65 81.77 15.00 263.85 2621.19
   01:33:36.688.30-Jan-2021 4789.01   26.65 81.77 15.00 264.05 2621.19
   01:33:36.888.30-Jan-2021 4789.01   26.65 81.77 15.00 264.25 2621.19
   01:33:37.088.30-Jan-2021 4789.01   26.66 81.77 15.00 264.45 2621.19
   01:33:37.288.30-Jan-2021 4789.01   26.67 81.77 15.00 264.65 2621.19
   01:33:37.488.30-Jan-2021 4789.01   26.67 81.77 15.00 264.85 2621.19
   01:33:37.688.30-Jan-2021 4789.01   26.68 81.77 15.00 265.05 2621.19
   01:33:37.888.30-Jan-2021 4789.01   26.68 81.77 15.00 265.25 2621.19
   01:33:38.089.30-Jan-2021 4789.01   26.69 81.77 15.00 265.45 2621.19
   01:33:38.289.30-Jan-2021 4789.01   26.69 81.77 15.00 265.65 2621.19
   01:33:38.489.30-Jan-2021 4789.01   26.69 81.77 15.00 265.85 2621.19
   01:33:38.689.30-Jan-2021 4789.01   26.70 81.77 15.00 266.05 2621.19
   01:33:38.889.30-Jan-2021 4789.01   26.70 81.77 15.00 266.25 2621.19
   01:33:39.089.30-Jan-2021 4789.01   26.71 81.77 15.00 266.45 2621.19
   01:33:39.289.30-Jan-2021 4789.01   26.71 81.77 15.00 266.65 2621.19
   01:33:39.489.30-Jan-2021 4789.01   26.71 81.77 15.00 266.85 2621.19
   01:33:39.689.30-Jan-2021 4789.01   26.72 81.77 15.00 267.05 2621.19
   01:33:39.889.30-Jan-2021 4789.01   26.72 81.77 15.00 267.25 2621.19
   01:33:40.089.30-Jan-2021 4789.01   26.73 81.77 15.00 267.45 2621.19
   01:33:40.289.30-Jan-2021 4789.01   26.73 81.77 15.00 267.65 2621.19
   01:33:40.489.30-Jan-2021 4789.01   26.74 81.77 15.00 267.85 2621.19
   01:33:40.689.30-Jan-2021 4789.01   26.74 81.77 15.00 268.05 2621.19
   01:33:40.889.30-Jan-2021 4789.01   26.74 81.77 15.00 268.25 2621.19
   01:33:41.089.30-Jan-2021 4789.01   26.75 81.77 15.00 268.45 2621.19
   01:33:41.289.30-Jan-2021 4789.01   26.75 81.77 15.00 268.65 2621.19
   01:33:41.489.30-Jan-2021 4789.01   26.76 81.77 15.00 268.85 2621.19
   01:33:41.689.30-Jan-2021 4789.01   26.76 81.76 15.00 269.05 2621.19
   01:33:41.889.30-Jan-2021 4789.01   26.76 81.76 15.00 269.25 2621.19
   01:33:42.089.30-Jan-2021 4789.01   26.76 81.76 15.00 269.45 2621.19
   01:33:42.289.30-Jan-2021 4789.01   26.77 81.76 15.00 269.65 2621.19
   01:33:42.489.30-Jan-2021 4789.01   26.78 81.76 15.00 269.85 2621.19
   01:33:42.689.30-Jan-2021 4789.01   26.78 81.76 15.00 270.05 2621.19
   01:33:42.889.30-Jan-2021 4789.01   26.78 81.76 15.00 270.25 2621.19
   01:33:43.089.30-Jan-2021 4789.01   26.79 81.76 15.00 270.45 2621.19
   01:33:43.290.30-Jan-2021 4789.01   26.79 81.76 15.00 270.65 2621.19
   01:33:43.490.30-Jan-2021 4789.01   26.79 81.76 15.00 270.85 2621.19
   01:33:43.690.30-Jan-2021 4789.01   26.80 81.76 15.00 271.05 2621.19
