~Version Information
 VERS.                  2.0:   CWLS log ASCII Standard -VERSION 2.0
 WRAP.                   NO:   One line per depth step
~Well Information Block
#MNEM.UNIT     VALUE/NAME     DESCRIPTION
#---------     -----------    ---------------------------
 STRT.S             10:42:31 29-Jan-21: START TIME 10:42:31 29-Jan-21
 STOP.S             10:49:01 29-Jan-21: STOP TIME  10:49:01 29-Jan-21
 STEP.S                   0.00: STEP TIME
 NULL.                 -999.25: NULL VALUE
 DFWT.                        :  DIST FWL TEXT
 DFST.                        :  DIST FSL TEXT
 DMF .             Drill Floor:  DRILL MEAS FROM
 STIM.      00.00.00 25-Sep-20:  START TIME
 DATE.      16.12.48 31-Jan-21:  END TIME
 SPUD.               20-Sep-20:  SPUD DATE
 NREF.                    Grid:  NORTH REFERENCE
 HPTY.       Minimum Curvature:  HOLE POS TYPE
 DMOD.             Drill Model:  DRILL MOD DESC
 SVYD.                  Survey:  SURVEY DESC
 ILTD.               Lithology:  INTERP LTH DESC
 FTOP.          Formation Tops:  FORM TOPS DESC
 RIG .              East Azeri:  RIG NAME
 PDAT.          Mean Sea Level:  PERMANENT DATUM
 FLD .                     ACG:  FIELD NAME
 SON .        AZ-XX-0906591820:  JOB NUMBER
 CTRY.              Azerbaijan:  COUNTRY NAME
 WELL.                     D37:  WELL NAME
 SRVC.     Turan Drilling & Engineering:  CONTRACTOR
 COMP.     BP Exploration (Caspian Sea) ltd.:  COMPANY
 WTYP.                Deviated:  WELL TYPE
 MDS .        Operator Entered:  MAG DATA SOURCE
 UWI .                     N/A:  UNIQUE WELL IDENTIFIER
 API .                     N/A:  API NUMBER
 BASE.              Azerbaijan:  LOGGING EQUIPMENT BASE LOCATION
 REGN.                   EESSA:  REGION
 PROV.                    Baku:  PROVINCE
 STAT.                    Baku:  STATE NAME
 MWDS.                    Baku:  MWD SHOP
 JOBN.        AZ-XX-0906591820:  JOB TICKET NUMB
 DOE .                     N/A:  DOE NUMBER
 DCON.         Sperry Drilling:  DIRECTNL CONTR
 UNIT.                     N/A:  LOGGING EQUIPMENT ID
 CNTY.                        :  COUNTY
 LOC .                        :  LOCATION
 LMF .             Drill Floor:  LOG MEASURED FROM
 TVDS.m                  43.60:  TVDSS CORRECTN
 LATI.deg                40.02:  LATITUDE
 LONG.deg                51.45:  LONGITUDE
 WHNS.m                  11.04:  WELL HEAD N/S
 WHEW.m                 -12.38:  WELL HEAD E/W
 UTMX.m              538763.98:  UTM X
 UTMY.m             4431880.20:  UTM Y
 DFWL.m                   0.00:  DISTANCE FWL
 DFSL.m                   0.00:  DISTANCE FSL
 SDEP.m                 300.00:  START DEPTH
 TDD .m                4900.01:  TOTAL DEPTH (DRILLER)
 VSDR.deg               185.64:  VERT SEC DIRECT
 GVFD.g                   1.00:  GRAVITY FIELD
 MFLD.nT              50301.00:  MAGNETIC FIELD
 MDIP.deg                59.46:  MAGNETIC DIP
 MDEC.deg                 6.43:  MAGNETIC DECL
 GRDC.deg                 0.29:  GRID CORRECTION
 AZTC.deg                 6.14:  AZM TOTAL CORR
 EPD .m                   0.00:  ELEVATION
 EGL .m                   0.00:  GROUND ELEVATION
 WDMS.m                 151.80:  WD ELEV
 APD .m                  43.60:  DEPTH ABOVE PD
 DEP .m                 571.69:  DEPTH
 AGAP.m                  43.60:  AIR GAP
 VSEW.m                 -12.38:  VERT SEC E/W
 VSNS.m                  11.04:  VERT SEC N/S
 EKB .m                  43.60:  KB ELEVATION
 EDF .m                  43.60:  DF ELEVATION
 TDL .m                 412.00:  TOTAL DEPTH (LOGGER)
 VSC .                       0:  VS TO CLOSURE
 MAGU.                 1849300:  MAGUTM CHECKSUM
~Parameter Information Block
#MNEM.UNIT       Value        Description
#---------     -----------    ---------------------------
 AV  .mps                 2.21:  Ann Velocity 
 AVMX.mps                 2.53:  Max Ann Veloc 
 AZIF.deg               144.83:  Azm, Final 
 BHAT.        Rotary Steerable:  BHA Type 
 BROT.°/30m              -0.52:  Build Rotating 
 BS  .in                  6.50:  Bit Size 
 BTPL.psig              209.00:  Bit Press Loss 
 CABU.                      No:  Customer Abuse 
 CGEO.        Ali Isfandiyarov:  Customer Geo 
 COMM.                     ,H:  Run Comments 1 
 TCS .hr                 61.31:  Time Ciculation Ended 
 CV  .mps                 4.66:  Crit Velocity 
 CVMX.mps                 5.02:  Max Crit Veloc 
 DD1 .          Fariz Nahmatov:  Direct Drillr 1 
 DD2 .            Musa Ahmadov:  Direct Drillr 2 
 DDSV.               Geo-Pilot:  DD Service 
 DEFF.%                 100.00:  % Det Eff 
 DLRX.°/30m               1.44:  Dogleg Rot Max 
 DLSO.°/30m               0.83:  Dogleg Oriented 
 DLSX.°/30m               1.44:  Dogleg Str Max 
 DRET.      08.30.00 30-Jan-21:  Drill End Time 
 DRST.      21.15.00 27-Jan-21:  Drill Start Tim 
 DTIM.hr                 37.28:  Time Drilling 
 EDEP.m                4867.01:  End Depth 
 ENG1.          Rasim Hashimov:  Engineer 1 
 ENG2.         Almaz Almadatov:  Engineer 2 
 ENG3.        Tamerlan Ahmadov:  Engineer 3 
 ETIM.      22.41.04 31-Jan-21:  End Time 
 FLOI.gpm               400.00:  Flow In 
 FLON.gpm               300.00:  Flow In Min 
 FLOS.cptm                0.00:  Fluid Loss 
 FLOX.gpm               400.00:  Flow In Max 
 HFLO.                      No:  High Flow 
 HPRE.                      No:  High Pressure 
 HTEM.                      No:  High Temp 
 HYDO.m                   1.80:  Hydro Offset 
 IFIN.deg                65.63:  Inc, Final 
 IMAX.deg                66.77:  Inc Max 
 IMIN.deg                65.61:  Inc Min 
 IMND.m                4612.67:  Inc Min Depth 
 IMXD.m                4811.63:  Inc Max Depth 
 JARR.                      No:  Jarring 
 LETM.      08.30.00 30-Jan-21:  Log End Time 
 LOST.hr                     0:  Lost Rig Time 
 LSTM.      21.15.00 27-Jan-21:  Log Start Time 
 MDCL.ppm             41000.00:  Mud Chlorides 
 MDES.     Inversion Oil/Synthetic:  Mud Desc 
 DFD .sg                  1.40:  Mud Density 
 MDMN.sg                  1.40:  Dens Mud Min 
 MDMX.sg                  1.40:  Dens Mud Max 
 MOIL.                      53:  Run Mud Oil % 
 MOWR.                   66:34:  Run Mud OWR 
 MSND.                     0.2:  Run Mud Sand % 
 MSOL.                    17.9:  Run Mud Solids% 
 DFV .spqt               77.00:  Mud Viscosity 
 MWOD.in                  4.75:  MWD Tool OD 
 MWSI.                      No:  Serv Intrp, MWD 
 OTIM.hr                110.38:  Time Operating 
 PCON.           Look Like New:  Pad Condition 
 PMAX.psia             5300.00:  Press Op, Max 
 PV  .cP                 57.00:  Mud PV 
 RUN .                    1200:  Run Number 
 ROPA.m/hr               13.00:  ROP Avg 
 ROPN.m/hr                9.00:  ROP Min 
 ROPX.m/hr               15.00:  ROP Max 
 RPMA.rpm               120.00:  RPM Surface Avg 
 RPMN.rpm               100.00:  RPM Surface Min 
 RPMX.rpm               135.00:  RPM Surface Max 
 RRUN.                    1200:  Rig Run Number 
 RTIM.hr                  2.65:  Time Reaming 
 SAZI.deg               145.04:  Azm, Start 
 SDEP.m                4455.01:  Start Depth 
 SIDD.                      No:  Serv Intrp, DD 
 SINC.deg                65.83:  Inc, Start 
 SPPA.psig             5037.00:  SPP Avg 
 SPPN.psig             4430.00:  SPP Min 
 SPPX.psig             5300.00:  SPP Max 
 STIM.      22.41.04 26-Jan-21:  Start Time 
 SVCS.                 DD, MWD:  Services 
 SVER.                    9.20:  Sperry Version 
 TDAT.m                 412.00:  Tot Depth Attmp 
 TDDF.                      No:  Trip for DD 
 TDLG.m                 412.00:  Tot Depth Loggd 
 TFF .                      No:  Trip for Fail 
 TQAA.f-kp               15.00:  Torque Abs Avg 
 TQAN.f-kp               12.00:  Torque Abs Min 
 TQAX.f-kp               17.00:  Torque Abs Max 
 TRRT.°/30m               1.18:  Turn Rotating 
 MRT .                     ADR:  Maximum Recorded Temperature 
 TTMX.degC               88.24:  Max Tool Temp 
 VS01.                90619458:  Virtual Str1 SN 
 VS02.                90519326:  Virtual Str2 SN 
 VS03.                90522176:  Virtual Str3 SN 
 VS04.                90512683:  Virtual Str4 SN 
 WBMN.klb                 1.00:  WOB Min 
 WITN.           Murad Giluyev:  Customer Rep 
 WITN.     Kamran Kemberlinski:  Customer Rep 2 
 WOBA.klb                 5.00:  WOB Avg 
 WOBX.klb                 9.00:  WOB Max 
 YP  .lhf2               41.00:  Yield Point 
~Curve Information Block
#MNEM.UNIT                 API CODE     Curve Description
#---------               -----------    ---------------------------
 TIME.HHMMSS            00 000 000 000:  GT Time & Date
 GTDEPTH.m              00 000 000 000:  GT Depth
 GTPQH.psia             00 000 000 000:  GT HR Quartz Pressure
 GTTQ.degC              00 000 000 000:  GT Quartz Temperature
 GTTN.NONE              00 000 000 000:  GT Test Number
 GTET.sec               00 000 000 000:  GT Elapsed Test Time
 GTTVD.m                00 000 000 000:  GT True Vertical Depth
#Other Information
#
#WARRANTY: Halliburton will use its best efforts to furnish customers with 
#accurate information and interpretations that are part of, and incident to, the services 
#provided.  However, Halliburton cannot and does not warrant the accuracy 
#or correctness of such information and interpretations.  Under no circumstances should any 
#such information or interpretation be relied upon as the sole basis for any drilling, 
#completion, production, or financial decision or any procedure involving any risk to the 
#safety of any drilling venture, drilling rig or its crew or any other third party.  The 
#Customer has full responsibility for all drilling, completion and production operation.  
#Halliburton makes no representations or warranties, either expressed or 
#implied, including, but not limited to, the implied warranties of merchantability or fitness 
#for a particular purpose, with respect to the services rendered.  In no event will 
#Halliburton be liable for failure to obtain any particular results or for 
#any damages, including, but not limited to, indirect, special or consequential damages, 
#resulting from the use of any information or interpretation provided by Halliburton.
#
~A           TIME           GTDEPTH  GTPQH  GTTQ  GTTN   GTET   GTTVD  
# ...
   10:48:10.200.29-Jan-2021 4690.01 3067.49 79.82 10.00 339.02 2581.69
   10:48:10.400.29-Jan-2021 4690.01 3067.49 79.82 10.00 339.22 2581.69
   10:48:10.600.29-Jan-2021 4690.01 3067.47 79.82 10.00 339.42 2581.69
   10:48:10.800.29-Jan-2021 4690.01 3067.47 79.82 10.00 339.62 2581.69
   10:48:11.000.29-Jan-2021 4690.01 3067.47 79.82 10.00 339.82 2581.69
   10:48:11.200.29-Jan-2021 4690.01 3067.44 79.82 10.00 340.02 2581.69
   10:48:11.400.29-Jan-2021 4690.01 3067.44 79.82 10.00 340.22 2581.69
   10:48:11.600.29-Jan-2021 4690.01 3067.48 79.82 10.00 340.42 2581.69
   10:48:11.800.29-Jan-2021 4690.01 3067.46 79.82 10.00 340.62 2581.69
   10:48:12.000.29-Jan-2021 4690.01 3067.48 79.82 10.00 340.82 2581.69
   10:48:12.200.29-Jan-2021 4690.01 3067.48 79.81 10.00 341.02 2581.69
   10:48:12.400.29-Jan-2021 4690.01 3067.48 79.81 10.00 341.22 2581.69
   10:48:12.600.29-Jan-2021 4690.01 3067.47 79.81 10.00 341.42 2581.69
   10:48:12.800.29-Jan-2021 4690.01 3067.46 79.81 10.00 341.62 2581.69
   10:48:13.000.29-Jan-2021 4690.01 3067.47 79.81 10.00 341.82 2581.69
   10:48:13.200.29-Jan-2021 4690.01 3067.46 79.81 10.00 342.02 2581.69
   10:48:13.400.29-Jan-2021 4690.01 3067.46 79.81 10.00 342.22 2581.69
   10:48:13.600.29-Jan-2021 4690.01 3067.46 79.81 10.00 342.42 2581.69
   10:48:13.800.29-Jan-2021 4690.01 3067.46 79.81 10.00 342.62 2581.69
   10:48:14.000.29-Jan-2021 4690.01 3067.46 79.81 10.00 342.82 2581.69
   10:48:14.200.29-Jan-2021 4690.01 3067.46 79.81 10.00 343.02 2581.69
   10:48:14.400.29-Jan-2021 4690.01 3067.46 79.81 10.00 343.22 2581.69
   10:48:14.600.29-Jan-2021 4690.01 3067.46 79.81 10.00 343.42 2581.69
   10:48:14.800.29-Jan-2021 4690.01 3067.42 79.81 10.00 343.62 2581.69
   10:48:15.000.29-Jan-2021 4690.01 3067.51 79.81 10.00 343.82 2581.69
   10:48:15.200.29-Jan-2021 4690.01 3067.49 79.81 10.00 344.02 2581.69
   10:48:15.400.29-Jan-2021 4690.01 3067.49 79.81 10.00 344.22 2581.69
   10:48:15.600.29-Jan-2021 4690.01 3067.47 79.81 10.00 344.42 2581.69
   10:48:15.800.29-Jan-2021 4690.01 3067.48 79.81 10.00 344.62 2581.69
   10:48:16.000.29-Jan-2021 4690.01 3067.47 79.80 10.00 344.82 2581.69
   10:48:16.200.29-Jan-2021 4690.01 3067.46 79.80 10.00 345.02 2581.69
   10:48:16.400.29-Jan-2021 4690.01 3067.46 79.80 10.00 345.22 2581.69
   10:48:16.600.29-Jan-2021 4690.01 3067.46 79.80 10.00 345.42 2581.69
   10:48:16.800.29-Jan-2021 4690.01 3067.47 79.80 10.00 345.62 2581.69
   10:48:17.000.29-Jan-2021 4690.01 3067.46 79.80 10.00 345.82 2581.69
   10:48:17.200.29-Jan-2021 4690.01 3067.46 79.80 10.00 346.02 2581.69
   10:48:17.400.29-Jan-2021 4690.01 3067.46 79.80 10.00 346.22 2581.69
   10:48:17.600.29-Jan-2021 4690.01 3067.45 79.80 10.00 346.42 2581.69
   10:48:17.800.29-Jan-2021 4690.01 3067.46 79.80 10.00 346.62 2581.69
   10:48:18.000.29-Jan-2021 4690.01 3067.42 79.80 10.00 346.82 2581.69
   10:48:18.200.29-Jan-2021 4690.01 3067.53 79.80 10.00 347.02 2581.69
   10:48:18.400.29-Jan-2021 4690.01 3067.53 79.80 10.00 347.22 2581.69
   10:48:18.600.29-Jan-2021 4690.01 3071.56 79.80 10.00 347.42 2581.69
   10:48:18.800.29-Jan-2021 4690.01 3077.39 79.80 10.00 347.62 2581.69
   10:48:19.000.29-Jan-2021 4690.01 5500.97 79.80 10.00 347.82 2581.69
   10:48:19.200.29-Jan-2021 4690.01 5640.15 79.80 10.00 348.02 2581.69
   10:48:19.400.29-Jan-2021 4690.01 5640.15 79.80 10.00 348.22 2581.69
   10:48:19.600.29-Jan-2021 4690.01 5638.32 79.80 10.00 348.42 2581.69
   10:48:19.801.29-Jan-2021 4690.01 5641.41 79.80 10.00 348.62 2581.69
   10:48:20.001.29-Jan-2021 4690.01 5642.60 79.79 10.00 348.82 2581.69
   10:48:20.201.29-Jan-2021 4690.01 5641.34 79.79 10.00 349.02 2581.69
   10:48:20.401.29-Jan-2021 4690.01 5641.34 79.79 10.00 349.22 2581.69
   10:48:20.601.29-Jan-2021 4690.01 5644.08 79.79 10.00 349.42 2581.69
   10:48:20.801.29-Jan-2021 4690.01 5644.85 79.79 10.00 349.62 2581.69
   10:48:21.001.29-Jan-2021 4690.01 5639.37 79.79 10.00 349.82 2581.69
   10:48:21.201.29-Jan-2021 4690.01 5644.41 79.79 10.00 350.02 2581.69
   10:48:21.401.29-Jan-2021 4690.01 5644.41 79.79 10.00 350.22 2581.69
   10:48:21.601.29-Jan-2021 4690.01 5642.01 79.79 10.00 350.42 2581.69
   10:48:21.801.29-Jan-2021 4690.01 5643.00 79.79 10.00 350.62 2581.69
   10:48:22.001.29-Jan-2021 4690.01 5646.24 79.79 10.00 350.82 2581.69
   10:48:22.201.29-Jan-2021 4690.01 5645.62 79.79 10.00 351.02 2581.69
   10:48:22.401.29-Jan-2021 4690.01 5645.62 79.79 10.00 351.22 2581.69
   10:48:22.601.29-Jan-2021 4690.01 5645.47 79.79 10.00 351.42 2581.69
   10:48:22.801.29-Jan-2021 4690.01 5641.16 79.79 10.00 351.62 2581.69
   10:48:23.001.29-Jan-2021 4690.01 5647.16 79.79 10.00 351.82 2581.69
   10:48:23.201.29-Jan-2021 4690.01 5646.99 79.79 10.00 352.02 2581.69
   10:48:23.401.29-Jan-2021 4690.01 5646.99 79.79 10.00 352.22 2581.69
   10:48:23.601.29-Jan-2021 4690.01 5647.13 79.79 10.00 352.42 2581.69
   10:48:23.801.29-Jan-2021 4690.01 5646.96 79.79 10.00 352.62 2581.69
   10:48:24.001.29-Jan-2021 4690.01 5646.42 79.79 10.00 352.82 2581.69
   10:48:24.201.29-Jan-2021 4690.01 5646.77 79.79 10.00 353.02 2581.69
   10:48:24.401.29-Jan-2021 4690.01 5646.77 79.79 10.00 353.22 2581.69
   10:48:24.601.29-Jan-2021 4690.01 5647.04 79.79 10.00 353.42 2581.69
   10:48:24.801.29-Jan-2021 4690.01 5646.21 79.79 10.00 353.62 2581.69
   10:48:25.001.29-Jan-2021 4690.01 5646.60 79.79 10.00 353.82 2581.69
   10:48:25.201.29-Jan-2021 4690.01 5646.19 79.79 10.00 354.02 2581.69
   10:48:25.401.29-Jan-2021 4690.01 5646.19 79.79 10.00 354.22 2581.69
   10:48:25.601.29-Jan-2021 4690.01 5646.09 79.79 10.00 354.42 2581.69
   10:48:25.801.29-Jan-2021 4690.01 5646.28 79.79 10.00 354.62 2581.69
   10:48:26.001.29-Jan-2021 4690.01 5646.01 79.79 10.00 354.82 2581.69
   10:48:26.201.29-Jan-2021 4690.01 5646.19 79.79 10.00 355.02 2581.69
   10:48:26.401.29-Jan-2021 4690.01 5646.19 79.79 10.00 355.22 2581.69
   10:48:26.601.29-Jan-2021 4690.01 5648.48 79.79 10.00 355.42 2581.69
   10:48:26.801.29-Jan-2021 4690.01 5646.46 79.79 10.00 355.62 2581.69
   10:48:27.001.29-Jan-2021 4690.01 5643.11 79.79 10.00 355.82 2581.69
   10:48:27.201.29-Jan-2021 4690.01 5646.01 79.79 10.00 356.03 2581.69
   10:48:27.401.29-Jan-2021 4690.01 5646.01 79.79 10.00 356.23 2581.69
   10:48:27.601.29-Jan-2021 4690.01 5647.52 79.79 10.00 356.43 2581.69
   10:48:27.801.29-Jan-2021 4690.01 5646.18 79.79 10.00 356.63 2581.69
   10:48:28.001.29-Jan-2021 4690.01 5646.79 79.79 10.00 356.83 2581.69
   10:48:28.201.29-Jan-2021 4690.01 5647.19 79.79 10.00 357.03 2581.69
   10:48:28.401.29-Jan-2021 4690.01 5647.19 79.79 10.00 357.23 2581.69
   10:48:28.601.29-Jan-2021 4690.01 5647.02 79.79 10.00 357.43 2581.69
   10:48:28.801.29-Jan-2021 4690.01 5647.14 79.79 10.00 357.63 2581.69
   10:48:29.001.29-Jan-2021 4690.01 5647.13 79.79 10.00 357.83 2581.69
   10:48:29.201.29-Jan-2021 4690.01 5647.13 79.79 10.00 358.03 2581.69
   10:48:29.401.29-Jan-2021 4690.01 5647.13 79.79 10.00 358.23 2581.69
   10:48:29.601.29-Jan-2021 4690.01 5640.08 79.78 10.00 358.43 2581.69
   10:48:29.801.29-Jan-2021 4690.01 5647.74 79.79 10.00 358.63 2581.69
   10:48:30.001.29-Jan-2021 4690.01 5647.48 79.78 10.00 358.83 2581.69
   10:48:30.201.29-Jan-2021 4690.01 5642.04 79.78 10.00 359.03 2581.69
   10:48:30.401.29-Jan-2021 4690.01 5642.04 79.78 10.00 359.23 2581.69
   10:48:30.601.29-Jan-2021 4690.01 5649.41 79.78 10.00 359.43 2581.69
   10:48:30.801.29-Jan-2021 4690.01 5647.19 79.78 10.00 359.63 2581.69
   10:48:31.001.29-Jan-2021 4690.01 5643.63 79.78 10.00 359.83 2581.69
   10:48:31.201.29-Jan-2021 4690.01 5646.56 79.78 10.00 360.03 2581.69
   10:48:31.401.29-Jan-2021 4690.01 5646.56 79.78 10.00 360.23 2581.69
   10:48:31.601.29-Jan-2021 4690.01 5647.94 79.78 10.00 360.43 2581.69
   10:48:31.801.29-Jan-2021 4690.01 5644.13 79.78 10.00 360.63 2581.69
   10:48:32.001.29-Jan-2021 4690.01 5645.48 79.78 10.00 360.83 2581.69
   10:48:32.201.29-Jan-2021 4690.01 5647.94 79.78 10.00 361.03 2581.69
   10:48:32.401.29-Jan-2021 4690.01 5647.94 79.78 10.00 361.23 2581.69
   10:48:32.601.29-Jan-2021 4690.01 5644.94 79.78 10.00 361.43 2581.69
