~Version Information
 VERS.                  2.0:   CWLS log ASCII Standard -VERSION 2.0
 WRAP.                   NO:   One line per depth step
~Well Information Block
#MNEM.UNIT     VALUE/NAME     DESCRIPTION
#---------     -----------    ---------------------------
 STRT.S             13:18:38 29-Jan-21: START TIME 13:18:38 29-Jan-21
 STOP.S             13:25:08 29-Jan-21: STOP TIME  13:25:08 29-Jan-21
 STEP.S                   0.00: STEP TIME
 NULL.                 -999.25: NULL VALUE
 DFWT.                        :  DIST FWL TEXT
 DFST.                        :  DIST FSL TEXT
 DMF .             Drill Floor:  DRILL MEAS FROM
 STIM.      00.00.00 25-Sep-20:  START TIME
 DATE.      16.12.48 31-Jan-21:  END TIME
 SPUD.               20-Sep-20:  SPUD DATE
 NREF.                    Grid:  NORTH REFERENCE
 HPTY.       Minimum Curvature:  HOLE POS TYPE
 DMOD.             Drill Model:  DRILL MOD DESC
 SVYD.                  Survey:  SURVEY DESC
 ILTD.               Lithology:  INTERP LTH DESC
 FTOP.          Formation Tops:  FORM TOPS DESC
 RIG .              East Azeri:  RIG NAME
 PDAT.          Mean Sea Level:  PERMANENT DATUM
 FLD .                     ACG:  FIELD NAME
 SON .        AZ-XX-0906591820:  JOB NUMBER
 CTRY.              Azerbaijan:  COUNTRY NAME
 WELL.                     D37:  WELL NAME
 SRVC.     Turan Drilling & Engineering:  CONTRACTOR
 COMP.     BP Exploration (Caspian Sea) ltd.:  COMPANY
 WTYP.                Deviated:  WELL TYPE
 MDS .        Operator Entered:  MAG DATA SOURCE
 UWI .                     N/A:  UNIQUE WELL IDENTIFIER
 API .                     N/A:  API NUMBER
 BASE.              Azerbaijan:  LOGGING EQUIPMENT BASE LOCATION
 REGN.                   EESSA:  REGION
 PROV.                    Baku:  PROVINCE
 STAT.                    Baku:  STATE NAME
 MWDS.                    Baku:  MWD SHOP
 JOBN.        AZ-XX-0906591820:  JOB TICKET NUMB
 DOE .                     N/A:  DOE NUMBER
 DCON.         Sperry Drilling:  DIRECTNL CONTR
 UNIT.                     N/A:  LOGGING EQUIPMENT ID
 CNTY.                        :  COUNTY
 LOC .                        :  LOCATION
 LMF .             Drill Floor:  LOG MEASURED FROM
 TVDS.m                  43.60:  TVDSS CORRECTN
 LATI.deg                40.02:  LATITUDE
 LONG.deg                51.45:  LONGITUDE
 WHNS.m                  11.04:  WELL HEAD N/S
 WHEW.m                 -12.38:  WELL HEAD E/W
 UTMX.m              538763.98:  UTM X
 UTMY.m             4431880.20:  UTM Y
 DFWL.m                   0.00:  DISTANCE FWL
 DFSL.m                   0.00:  DISTANCE FSL
 SDEP.m                 300.00:  START DEPTH
 TDD .m                4900.01:  TOTAL DEPTH (DRILLER)
 VSDR.deg               185.64:  VERT SEC DIRECT
 GVFD.g                   1.00:  GRAVITY FIELD
 MFLD.nT              50301.00:  MAGNETIC FIELD
 MDIP.deg                59.46:  MAGNETIC DIP
 MDEC.deg                 6.43:  MAGNETIC DECL
 GRDC.deg                 0.29:  GRID CORRECTION
 AZTC.deg                 6.14:  AZM TOTAL CORR
 EPD .m                   0.00:  ELEVATION
 EGL .m                   0.00:  GROUND ELEVATION
 WDMS.m                 151.80:  WD ELEV
 APD .m                  43.60:  DEPTH ABOVE PD
 DEP .m                 571.69:  DEPTH
 AGAP.m                  43.60:  AIR GAP
 VSEW.m                 -12.38:  VERT SEC E/W
 VSNS.m                  11.04:  VERT SEC N/S
 EKB .m                  43.60:  KB ELEVATION
 EDF .m                  43.60:  DF ELEVATION
 TDL .m                 412.00:  TOTAL DEPTH (LOGGER)
 VSC .                       0:  VS TO CLOSURE
 MAGU.                 1849300:  MAGUTM CHECKSUM
~Parameter Information Block
#MNEM.UNIT       Value        Description
#---------     -----------    ---------------------------
 AV  .mps                 2.21:  Ann Velocity 
 AVMX.mps                 2.53:  Max Ann Veloc 
 AZIF.deg               144.83:  Azm, Final 
 BHAT.        Rotary Steerable:  BHA Type 
 BROT.°/30m              -0.52:  Build Rotating 
 BS  .in                  6.50:  Bit Size 
 BTPL.psig              209.00:  Bit Press Loss 
 CABU.                      No:  Customer Abuse 
 CGEO.        Ali Isfandiyarov:  Customer Geo 
 COMM.                     lÄt:  Run Comments 1 
 TCS .hr                 61.31:  Time Ciculation Ended 
 CV  .mps                 4.66:  Crit Velocity 
 CVMX.mps                 5.02:  Max Crit Veloc 
 DD1 .          Fariz Nahmatov:  Direct Drillr 1 
 DD2 .            Musa Ahmadov:  Direct Drillr 2 
 DDSV.               Geo-Pilot:  DD Service 
 DEFF.%                 100.00:  % Det Eff 
 DLRX.°/30m               1.44:  Dogleg Rot Max 
 DLSO.°/30m               0.83:  Dogleg Oriented 
 DLSX.°/30m               1.44:  Dogleg Str Max 
 DRET.      08.30.00 30-Jan-21:  Drill End Time 
 DRST.      21.15.00 27-Jan-21:  Drill Start Tim 
 DTIM.hr                 37.28:  Time Drilling 
 EDEP.m                4867.01:  End Depth 
 ENG1.          Rasim Hashimov:  Engineer 1 
 ENG2.         Almaz Almadatov:  Engineer 2 
 ENG3.        Tamerlan Ahmadov:  Engineer 3 
 ETIM.      22.41.04 31-Jan-21:  End Time 
 FLOI.gpm               400.00:  Flow In 
 FLON.gpm               300.00:  Flow In Min 
 FLOS.cptm                0.00:  Fluid Loss 
 FLOX.gpm               400.00:  Flow In Max 
 HFLO.                      No:  High Flow 
 HPRE.                      No:  High Pressure 
 HTEM.                      No:  High Temp 
 HYDO.m                   1.80:  Hydro Offset 
 IFIN.deg                65.63:  Inc, Final 
 IMAX.deg                66.77:  Inc Max 
 IMIN.deg                65.61:  Inc Min 
 IMND.m                4612.67:  Inc Min Depth 
 IMXD.m                4811.63:  Inc Max Depth 
 JARR.                      No:  Jarring 
 LETM.      08.30.00 30-Jan-21:  Log End Time 
 LOST.hr                     0:  Lost Rig Time 
 LSTM.      21.15.00 27-Jan-21:  Log Start Time 
 MDCL.ppm             41000.00:  Mud Chlorides 
 MDES.     Inversion Oil/Synthetic:  Mud Desc 
 DFD .sg                  1.40:  Mud Density 
 MDMN.sg                  1.40:  Dens Mud Min 
 MDMX.sg                  1.40:  Dens Mud Max 
 MOIL.                      53:  Run Mud Oil % 
 MOWR.                   66:34:  Run Mud OWR 
 MSND.                     0.2:  Run Mud Sand % 
 MSOL.                    17.9:  Run Mud Solids% 
 DFV .spqt               77.00:  Mud Viscosity 
 MWOD.in                  4.75:  MWD Tool OD 
 MWSI.                      No:  Serv Intrp, MWD 
 OTIM.hr                110.38:  Time Operating 
 PCON.           Look Like New:  Pad Condition 
 PMAX.psia             5300.00:  Press Op, Max 
 PV  .cP                 57.00:  Mud PV 
 RUN .                    1200:  Run Number 
 ROPA.m/hr               13.00:  ROP Avg 
 ROPN.m/hr                9.00:  ROP Min 
 ROPX.m/hr               15.00:  ROP Max 
 RPMA.rpm               120.00:  RPM Surface Avg 
 RPMN.rpm               100.00:  RPM Surface Min 
 RPMX.rpm               135.00:  RPM Surface Max 
 RRUN.                    1200:  Rig Run Number 
 RTIM.hr                  2.65:  Time Reaming 
 SAZI.deg               145.04:  Azm, Start 
 SDEP.m                4455.01:  Start Depth 
 SIDD.                      No:  Serv Intrp, DD 
 SINC.deg                65.83:  Inc, Start 
 SPPA.psig             5037.00:  SPP Avg 
 SPPN.psig             4430.00:  SPP Min 
 SPPX.psig             5300.00:  SPP Max 
 STIM.      22.41.04 26-Jan-21:  Start Time 
 SVCS.                 DD, MWD:  Services 
 SVER.                    9.20:  Sperry Version 
 TDAT.m                 412.00:  Tot Depth Attmp 
 TDDF.                      No:  Trip for DD 
 TDLG.m                 412.00:  Tot Depth Loggd 
 TFF .                      No:  Trip for Fail 
 TQAA.f-kp               15.00:  Torque Abs Avg 
 TQAN.f-kp               12.00:  Torque Abs Min 
 TQAX.f-kp               17.00:  Torque Abs Max 
 TRRT.°/30m               1.18:  Turn Rotating 
 MRT .                     ADR:  Maximum Recorded Temperature 
 TTMX.degC               88.24:  Max Tool Temp 
 VS01.                90619458:  Virtual Str1 SN 
 VS02.                90519326:  Virtual Str2 SN 
 VS03.                90522176:  Virtual Str3 SN 
 VS04.                90512683:  Virtual Str4 SN 
 WBMN.klb                 1.00:  WOB Min 
 WITN.           Murad Giluyev:  Customer Rep 
 WITN.     Kamran Kemberlinski:  Customer Rep 2 
 WOBA.klb                 5.00:  WOB Avg 
 WOBX.klb                 9.00:  WOB Max 
 YP  .lhf2               41.00:  Yield Point 
~Curve Information Block
#MNEM.UNIT                 API CODE     Curve Description
#---------               -----------    ---------------------------
 TIME.HHMMSS            00 000 000 000:  GT Time & Date
 GTDEPTH.m              00 000 000 000:  GT Depth
 GTPQH.psia             00 000 000 000:  GT HR Quartz Pressure
 GTTQ.degC              00 000 000 000:  GT Quartz Temperature
 GTTN.NONE              00 000 000 000:  GT Test Number
 GTET.sec               00 000 000 000:  GT Elapsed Test Time
 GTTVD.m                00 000 000 000:  GT True Vertical Depth
#Other Information
#
#WARRANTY: Halliburton will use its best efforts to furnish customers with 
#accurate information and interpretations that are part of, and incident to, the services 
#provided.  However, Halliburton cannot and does not warrant the accuracy 
#or correctness of such information and interpretations.  Under no circumstances should any 
#such information or interpretation be relied upon as the sole basis for any drilling, 
#completion, production, or financial decision or any procedure involving any risk to the 
#safety of any drilling venture, drilling rig or its crew or any other third party.  The 
#Customer has full responsibility for all drilling, completion and production operation.  
#Halliburton makes no representations or warranties, either expressed or 
#implied, including, but not limited to, the implied warranties of merchantability or fitness 
#for a particular purpose, with respect to the services rendered.  In no event will 
#Halliburton be liable for failure to obtain any particular results or for 
#any damages, including, but not limited to, indirect, special or consequential damages, 
#resulting from the use of any information or interpretation provided by Halliburton.
#
~A           TIME           GTDEPTH  GTPQH  GTTQ  GTTN   GTET   GTTVD  
# ...
   13:22:47.451.29-Jan-2021 4712.01 3031.63 81.57 11.00 248.62 2590.47
   13:22:47.651.29-Jan-2021 4712.01 3031.87 81.57 11.00 248.82 2590.47
   13:22:47.851.29-Jan-2021 4712.01 3031.24 81.57 11.00 249.02 2590.47
   13:22:48.052.29-Jan-2021 4712.01 3031.24 81.57 11.00 249.22 2590.47
   13:22:48.252.29-Jan-2021 4712.01 3031.97 81.57 11.00 249.42 2590.47
   13:22:48.452.29-Jan-2021 4712.01 3032.29 81.57 11.00 249.62 2590.47
   13:22:48.652.29-Jan-2021 4712.01 3047.56 81.56 11.00 249.82 2590.47
   13:22:48.852.29-Jan-2021 4712.01 3102.93 81.56 11.00 250.02 2590.47
   13:22:49.052.29-Jan-2021 4712.01 3102.93 81.56 11.00 250.22 2590.47
   13:22:49.252.29-Jan-2021 4712.01 3105.63 81.56 11.00 250.42 2590.47
   13:22:49.452.29-Jan-2021 4712.01 3105.78 81.56 11.00 250.62 2590.47
   13:22:49.652.29-Jan-2021 4712.01 3105.91 81.56 11.00 250.82 2590.47
   13:22:49.852.29-Jan-2021 4712.01 3105.98 81.56 11.00 251.02 2590.47
   13:22:50.052.29-Jan-2021 4712.01 3105.98 81.56 11.00 251.22 2590.47
   13:22:50.252.29-Jan-2021 4712.01 3106.22 81.56 11.00 251.42 2590.47
   13:22:50.452.29-Jan-2021 4712.01 3106.18 81.56 11.00 251.62 2590.47
   13:22:50.652.29-Jan-2021 4712.01 3106.21 81.56 11.00 251.82 2590.47
   13:22:50.852.29-Jan-2021 4712.01 3106.23 81.56 11.00 252.02 2590.47
   13:22:51.052.29-Jan-2021 4712.01 3106.23 81.56 11.00 252.22 2590.47
   13:22:51.252.29-Jan-2021 4712.01 3106.33 81.56 11.00 252.42 2590.47
   13:22:51.452.29-Jan-2021 4712.01 3106.27 81.56 11.00 252.62 2590.47
   13:22:51.652.29-Jan-2021 4712.01 3106.34 81.56 11.00 252.82 2590.47
   13:22:51.852.29-Jan-2021 4712.01 3106.35 81.55 11.00 253.02 2590.47
   13:22:52.052.29-Jan-2021 4712.01 3106.35 81.55 11.00 253.22 2590.47
   13:22:52.252.29-Jan-2021 4712.01 3106.36 81.55 11.00 253.42 2590.47
   13:22:52.452.29-Jan-2021 4712.01 3106.38 81.55 11.00 253.62 2590.47
   13:22:52.652.29-Jan-2021 4712.01 3106.42 81.55 11.00 253.82 2590.47
   13:22:52.852.29-Jan-2021 4712.01 3106.39 81.55 11.00 254.02 2590.47
   13:22:53.052.29-Jan-2021 4712.01 3106.39 81.55 11.00 254.22 2590.47
   13:22:53.252.29-Jan-2021 4712.01 3106.27 81.55 11.00 254.42 2590.47
   13:22:53.452.29-Jan-2021 4712.01 3106.61 81.55 11.00 254.62 2590.47
   13:22:53.652.29-Jan-2021 4712.01 3106.48 81.55 11.00 254.82 2590.47
   13:22:53.852.29-Jan-2021 4712.01 3106.42 81.55 11.00 255.02 2590.47
   13:22:54.052.29-Jan-2021 4712.01 3106.42 81.55 11.00 255.22 2590.47
   13:22:54.252.29-Jan-2021 4712.01 3106.58 81.55 11.00 255.42 2590.47
   13:22:54.452.29-Jan-2021 4712.01 3106.51 81.55 11.00 255.62 2590.47
   13:22:54.652.29-Jan-2021 4712.01 3106.46 81.55 11.00 255.82 2590.47
   13:22:54.852.29-Jan-2021 4712.01 3106.49 81.55 11.00 256.02 2590.47
   13:22:55.052.29-Jan-2021 4712.01 3106.49 81.55 11.00 256.22 2590.47
   13:22:55.252.29-Jan-2021 4712.01 3106.37 81.54 11.00 256.42 2590.47
   13:22:55.452.29-Jan-2021 4712.01 3106.63 81.54 11.00 256.62 2590.47
   13:22:55.652.29-Jan-2021 4712.01 3106.52 81.54 11.00 256.82 2590.47
   13:22:55.852.29-Jan-2021 4712.01 3106.46 81.54 11.00 257.02 2590.47
   13:22:56.052.29-Jan-2021 4712.01 3106.46 81.54 11.00 257.22 2590.47
   13:22:56.252.29-Jan-2021 4712.01 3106.50 81.54 11.00 257.42 2590.47
   13:22:56.452.29-Jan-2021 4712.01 3106.54 81.54 11.00 257.62 2590.47
   13:22:56.652.29-Jan-2021 4712.01 3106.38 81.54 11.00 257.82 2590.47
   13:22:56.852.29-Jan-2021 4712.01 3106.62 81.54 11.00 258.02 2590.47
   13:22:57.052.29-Jan-2021 4712.01 3106.62 81.54 11.00 258.22 2590.47
   13:22:57.252.29-Jan-2021 4712.01 3106.54 81.54 11.00 258.42 2590.47
   13:22:57.452.29-Jan-2021 4712.01 3106.51 81.54 11.00 258.62 2590.47
   13:22:57.652.29-Jan-2021 4712.01 3106.37 81.54 11.00 258.82 2590.47
   13:22:57.852.29-Jan-2021 4712.01 3106.72 81.54 11.00 259.02 2590.47
   13:22:58.052.29-Jan-2021 4712.01 3106.72 81.54 11.00 259.22 2590.47
   13:22:58.252.29-Jan-2021 4712.01 3106.50 81.54 11.00 259.42 2590.47
   13:22:58.452.29-Jan-2021 4712.01 3106.58 81.53 11.00 259.62 2590.47
   13:22:58.652.29-Jan-2021 4712.01 3106.54 81.53 11.00 259.82 2590.47
   13:22:58.852.29-Jan-2021 4712.01 3106.56 81.53 11.00 260.02 2590.47
   13:22:59.052.29-Jan-2021 4712.01 3106.56 81.53 11.00 260.22 2590.47
   13:22:59.252.29-Jan-2021 4712.01 3106.55 81.53 11.00 260.42 2590.47
   13:22:59.452.29-Jan-2021 4712.01 3106.54 81.53 11.00 260.62 2590.47
   13:22:59.652.29-Jan-2021 4712.01 3106.52 81.53 11.00 260.82 2590.47
   13:22:59.852.29-Jan-2021 4712.01 3106.55 81.53 11.00 261.02 2590.47
   13:23:00.052.29-Jan-2021 4712.01 3106.55 81.53 11.00 261.22 2590.47
   13:23:00.252.29-Jan-2021 4712.01 3106.52 81.53 11.00 261.42 2590.47
   13:23:00.452.29-Jan-2021 4712.01 3106.51 81.53 11.00 261.62 2590.47
   13:23:00.652.29-Jan-2021 4712.01 3106.54 81.53 11.00 261.82 2590.47
   13:23:00.852.29-Jan-2021 4712.01 3106.54 81.53 11.00 262.02 2590.47
   13:23:01.052.29-Jan-2021 4712.01 3106.54 81.53 11.00 262.22 2590.47
   13:23:01.252.29-Jan-2021 4712.01 3106.39 81.53 11.00 262.42 2590.47
   13:23:01.452.29-Jan-2021 4712.01 3106.71 81.53 11.00 262.62 2590.47
   13:23:01.652.29-Jan-2021 4712.01 3106.60 81.52 11.00 262.82 2590.47
   13:23:01.852.29-Jan-2021 4712.01 3106.51 81.52 11.00 263.02 2590.47
   13:23:02.052.29-Jan-2021 4712.01 3106.51 81.52 11.00 263.22 2590.47
   13:23:02.253.29-Jan-2021 4712.01 3106.56 81.52 11.00 263.42 2590.47
   13:23:02.453.29-Jan-2021 4712.01 3106.60 81.52 11.00 263.62 2590.47
   13:23:02.653.29-Jan-2021 4712.01 3106.53 81.52 11.00 263.82 2590.47
   13:23:02.853.29-Jan-2021 4712.01 3106.58 81.52 11.00 264.02 2590.47
   13:23:03.053.29-Jan-2021 4712.01 3106.58 81.52 11.00 264.22 2590.47
   13:23:03.253.29-Jan-2021 4712.01 3106.56 81.52 11.00 264.42 2590.47
   13:23:03.453.29-Jan-2021 4712.01 3106.54 81.52 11.00 264.62 2590.47
   13:23:03.653.29-Jan-2021 4712.01 3106.55 81.52 11.00 264.82 2590.47
   13:23:03.853.29-Jan-2021 4712.01 3106.56 81.52 11.00 265.02 2590.47
   13:23:04.053.29-Jan-2021 4712.01 3106.56 81.52 11.00 265.22 2590.47
   13:23:04.253.29-Jan-2021 4712.01 3106.56 81.52 11.00 265.42 2590.47
   13:23:04.453.29-Jan-2021 4712.01 3106.40 81.52 11.00 265.62 2590.47
   13:23:04.653.29-Jan-2021 4712.01 3106.70 81.52 11.00 265.82 2590.47
   13:23:04.853.29-Jan-2021 4712.01 3106.58 81.52 11.00 266.02 2590.47
   13:23:05.053.29-Jan-2021 4712.01 3106.58 81.52 11.00 266.22 2590.47
   13:23:05.253.29-Jan-2021 4712.01 3106.51 81.51 11.00 266.42 2590.47
   13:23:05.453.29-Jan-2021 4712.01 3106.67 81.51 11.00 266.62 2590.47
   13:23:05.653.29-Jan-2021 4712.01 3106.60 81.51 11.00 266.82 2590.47
   13:23:05.853.29-Jan-2021 4712.01 3106.57 81.51 11.00 267.02 2590.47
   13:23:06.053.29-Jan-2021 4712.01 3106.57 81.51 11.00 267.22 2590.47
   13:23:06.253.29-Jan-2021 4712.01 3106.44 81.51 11.00 267.42 2590.47
   13:23:06.453.29-Jan-2021 4712.01 3106.76 81.51 11.00 267.62 2590.47
   13:23:06.653.29-Jan-2021 4712.01 3106.58 81.51 11.00 267.82 2590.47
   13:23:06.853.29-Jan-2021 4712.01 3106.52 81.51 11.00 268.02 2590.47
   13:23:07.053.29-Jan-2021 4712.01 3106.52 81.51 11.00 268.22 2590.47
   13:23:07.253.29-Jan-2021 4712.01 3106.60 81.51 11.00 268.42 2590.47
   13:23:07.453.29-Jan-2021 4712.01 3106.63 81.51 11.00 268.62 2590.47
   13:23:07.653.29-Jan-2021 4712.01 3106.50 81.51 11.00 268.82 2590.47
   13:23:07.853.29-Jan-2021 4712.01 3106.63 81.51 11.00 269.02 2590.47
   13:23:08.053.29-Jan-2021 4712.01 3106.63 81.51 11.00 269.22 2590.47
   13:23:08.253.29-Jan-2021 4712.01 3106.44 81.51 11.00 269.42 2590.47
   13:23:08.453.29-Jan-2021 4712.01 3106.61 81.50 11.00 269.62 2590.47
   13:23:08.653.29-Jan-2021 4712.01 3106.52 81.50 11.00 269.82 2590.47
   13:23:08.853.29-Jan-2021 4712.01 3106.64 81.50 11.00 270.02 2590.47
   13:23:09.053.29-Jan-2021 4712.01 3106.64 81.50 11.00 270.22 2590.47
   13:23:09.253.29-Jan-2021 4712.01 3106.59 81.50 11.00 270.42 2590.47
   13:23:09.453.29-Jan-2021 4712.01 3106.56 81.50 11.00 270.62 2590.47
   13:23:09.653.29-Jan-2021 4712.01 3106.58 81.50 11.00 270.82 2590.47
   13:23:09.853.29-Jan-2021 4712.01 3106.55 81.50 11.00 271.02 2590.47
