~Version Information
 VERS.                  2.0:   CWLS log ASCII Standard -VERSION 2.0
 WRAP.                   NO:   One line per depth step
~Well Information Block
#MNEM.UNIT     VALUE/NAME     DESCRIPTION
#---------     -----------    ---------------------------
 STRT.S             07:03:45 29-Jan-21: START TIME 07:03:45 29-Jan-21
 STOP.S             07:10:14 29-Jan-21: STOP TIME  07:10:14 29-Jan-21
 STEP.S                   0.00: STEP TIME
 NULL.                 -999.25: NULL VALUE
 DFWT.                        :  DIST FWL TEXT
 DFST.                        :  DIST FSL TEXT
 DMF .             Drill Floor:  DRILL MEAS FROM
 STIM.      00.00.00 25-Sep-20:  START TIME
 DATE.      16.12.48 31-Jan-21:  END TIME
 SPUD.               20-Sep-20:  SPUD DATE
 NREF.                    Grid:  NORTH REFERENCE
 HPTY.       Minimum Curvature:  HOLE POS TYPE
 DMOD.             Drill Model:  DRILL MOD DESC
 SVYD.                  Survey:  SURVEY DESC
 ILTD.               Lithology:  INTERP LTH DESC
 FTOP.          Formation Tops:  FORM TOPS DESC
 RIG .              East Azeri:  RIG NAME
 PDAT.          Mean Sea Level:  PERMANENT DATUM
 FLD .                     ACG:  FIELD NAME
 SON .        AZ-XX-0906591820:  JOB NUMBER
 CTRY.              Azerbaijan:  COUNTRY NAME
 WELL.                     D37:  WELL NAME
 SRVC.     Turan Drilling & Engineering:  CONTRACTOR
 COMP.     BP Exploration (Caspian Sea) ltd.:  COMPANY
 WTYP.                Deviated:  WELL TYPE
 MDS .        Operator Entered:  MAG DATA SOURCE
 UWI .                     N/A:  UNIQUE WELL IDENTIFIER
 API .                     N/A:  API NUMBER
 BASE.              Azerbaijan:  LOGGING EQUIPMENT BASE LOCATION
 REGN.                   EESSA:  REGION
 PROV.                    Baku:  PROVINCE
 STAT.                    Baku:  STATE NAME
 MWDS.                    Baku:  MWD SHOP
 JOBN.        AZ-XX-0906591820:  JOB TICKET NUMB
 DOE .                     N/A:  DOE NUMBER
 DCON.         Sperry Drilling:  DIRECTNL CONTR
 UNIT.                     N/A:  LOGGING EQUIPMENT ID
 CNTY.                        :  COUNTY
 LOC .                        :  LOCATION
 LMF .             Drill Floor:  LOG MEASURED FROM
 TVDS.m                  43.60:  TVDSS CORRECTN
 LATI.deg                40.02:  LATITUDE
 LONG.deg                51.45:  LONGITUDE
 WHNS.m                  11.04:  WELL HEAD N/S
 WHEW.m                 -12.38:  WELL HEAD E/W
 UTMX.m              538763.98:  UTM X
 UTMY.m             4431880.20:  UTM Y
 DFWL.m                   0.00:  DISTANCE FWL
 DFSL.m                   0.00:  DISTANCE FSL
 SDEP.m                 300.00:  START DEPTH
 TDD .m                4900.01:  TOTAL DEPTH (DRILLER)
 VSDR.deg               185.64:  VERT SEC DIRECT
 GVFD.g                   1.00:  GRAVITY FIELD
 MFLD.nT              50301.00:  MAGNETIC FIELD
 MDIP.deg                59.46:  MAGNETIC DIP
 MDEC.deg                 6.43:  MAGNETIC DECL
 GRDC.deg                 0.29:  GRID CORRECTION
 AZTC.deg                 6.14:  AZM TOTAL CORR
 EPD .m                   0.00:  ELEVATION
 EGL .m                   0.00:  GROUND ELEVATION
 WDMS.m                 151.80:  WD ELEV
 APD .m                  43.60:  DEPTH ABOVE PD
 DEP .m                 571.69:  DEPTH
 AGAP.m                  43.60:  AIR GAP
 VSEW.m                 -12.38:  VERT SEC E/W
 VSNS.m                  11.04:  VERT SEC N/S
 EKB .m                  43.60:  KB ELEVATION
 EDF .m                  43.60:  DF ELEVATION
 TDL .m                 412.00:  TOTAL DEPTH (LOGGER)
 VSC .                       0:  VS TO CLOSURE
 MAGU.                 1849300:  MAGUTM CHECKSUM
~Parameter Information Block
#MNEM.UNIT       Value        Description
#---------     -----------    ---------------------------
 AV  .mps                 2.21:  Ann Velocity 
 AVMX.mps                 2.53:  Max Ann Veloc 
 AZIF.deg               144.83:  Azm, Final 
 BHAT.        Rotary Steerable:  BHA Type 
 BROT.°/30m              -0.52:  Build Rotating 
 BS  .in                  6.50:  Bit Size 
 BTPL.psig              209.00:  Bit Press Loss 
 CABU.                      No:  Customer Abuse 
 CGEO.        Ali Isfandiyarov:  Customer Geo 
 COMM.                     ü®q:  Run Comments 1 
 TCS .hr                 61.31:  Time Ciculation Ended 
 CV  .mps                 4.66:  Crit Velocity 
 CVMX.mps                 5.02:  Max Crit Veloc 
 DD1 .          Fariz Nahmatov:  Direct Drillr 1 
 DD2 .            Musa Ahmadov:  Direct Drillr 2 
 DDSV.               Geo-Pilot:  DD Service 
 DEFF.%                 100.00:  % Det Eff 
 DLRX.°/30m               1.44:  Dogleg Rot Max 
 DLSO.°/30m               0.83:  Dogleg Oriented 
 DLSX.°/30m               1.44:  Dogleg Str Max 
 DRET.      08.30.00 30-Jan-21:  Drill End Time 
 DRST.      21.15.00 27-Jan-21:  Drill Start Tim 
 DTIM.hr                 37.28:  Time Drilling 
 EDEP.m                4867.01:  End Depth 
 ENG1.          Rasim Hashimov:  Engineer 1 
 ENG2.         Almaz Almadatov:  Engineer 2 
 ENG3.        Tamerlan Ahmadov:  Engineer 3 
 ETIM.      22.41.04 31-Jan-21:  End Time 
 FLOI.gpm               400.00:  Flow In 
 FLON.gpm               300.00:  Flow In Min 
 FLOS.cptm                0.00:  Fluid Loss 
 FLOX.gpm               400.00:  Flow In Max 
 HFLO.                      No:  High Flow 
 HPRE.                      No:  High Pressure 
 HTEM.                      No:  High Temp 
 HYDO.m                   1.80:  Hydro Offset 
 IFIN.deg                65.63:  Inc, Final 
 IMAX.deg                66.77:  Inc Max 
 IMIN.deg                65.61:  Inc Min 
 IMND.m                4612.67:  Inc Min Depth 
 IMXD.m                4811.63:  Inc Max Depth 
 JARR.                      No:  Jarring 
 LETM.      08.30.00 30-Jan-21:  Log End Time 
 LOST.hr                     0:  Lost Rig Time 
 LSTM.      21.15.00 27-Jan-21:  Log Start Time 
 MDCL.ppm             41000.00:  Mud Chlorides 
 MDES.     Inversion Oil/Synthetic:  Mud Desc 
 DFD .sg                  1.40:  Mud Density 
 MDMN.sg                  1.40:  Dens Mud Min 
 MDMX.sg                  1.40:  Dens Mud Max 
 MOIL.                      53:  Run Mud Oil % 
 MOWR.                   66:34:  Run Mud OWR 
 MSND.                     0.2:  Run Mud Sand % 
 MSOL.                    17.9:  Run Mud Solids% 
 DFV .spqt               77.00:  Mud Viscosity 
 MWOD.in                  4.75:  MWD Tool OD 
 MWSI.                      No:  Serv Intrp, MWD 
 OTIM.hr                110.38:  Time Operating 
 PCON.           Look Like New:  Pad Condition 
 PMAX.psia             5300.00:  Press Op, Max 
 PV  .cP                 57.00:  Mud PV 
 RUN .                    1200:  Run Number 
 ROPA.m/hr               13.00:  ROP Avg 
 ROPN.m/hr                9.00:  ROP Min 
 ROPX.m/hr               15.00:  ROP Max 
 RPMA.rpm               120.00:  RPM Surface Avg 
 RPMN.rpm               100.00:  RPM Surface Min 
 RPMX.rpm               135.00:  RPM Surface Max 
 RRUN.                    1200:  Rig Run Number 
 RTIM.hr                  2.65:  Time Reaming 
 SAZI.deg               145.04:  Azm, Start 
 SDEP.m                4455.01:  Start Depth 
 SIDD.                      No:  Serv Intrp, DD 
 SINC.deg                65.83:  Inc, Start 
 SPPA.psig             5037.00:  SPP Avg 
 SPPN.psig             4430.00:  SPP Min 
 SPPX.psig             5300.00:  SPP Max 
 STIM.      22.41.04 26-Jan-21:  Start Time 
 SVCS.                 DD, MWD:  Services 
 SVER.                    9.20:  Sperry Version 
 TDAT.m                 412.00:  Tot Depth Attmp 
 TDDF.                      No:  Trip for DD 
 TDLG.m                 412.00:  Tot Depth Loggd 
 TFF .                      No:  Trip for Fail 
 TQAA.f-kp               15.00:  Torque Abs Avg 
 TQAN.f-kp               12.00:  Torque Abs Min 
 TQAX.f-kp               17.00:  Torque Abs Max 
 TRRT.°/30m               1.18:  Turn Rotating 
 MRT .                     ADR:  Maximum Recorded Temperature 
 TTMX.degC               88.24:  Max Tool Temp 
 VS01.                90619458:  Virtual Str1 SN 
 VS02.                90519326:  Virtual Str2 SN 
 VS03.                90522176:  Virtual Str3 SN 
 VS04.                90512683:  Virtual Str4 SN 
 WBMN.klb                 1.00:  WOB Min 
 WITN.           Murad Giluyev:  Customer Rep 
 WITN.     Kamran Kemberlinski:  Customer Rep 2 
 WOBA.klb                 5.00:  WOB Avg 
 WOBX.klb                 9.00:  WOB Max 
 YP  .lhf2               41.00:  Yield Point 
~Curve Information Block
#MNEM.UNIT                 API CODE     Curve Description
#---------               -----------    ---------------------------
 TIME.HHMMSS            00 000 000 000:  GT Time & Date
 GTDEPTH.m              00 000 000 000:  GT Depth
 GTPQH.psia             00 000 000 000:  GT HR Quartz Pressure
 GTTQ.degC              00 000 000 000:  GT Quartz Temperature
 GTTN.NONE              00 000 000 000:  GT Test Number
 GTET.sec               00 000 000 000:  GT Elapsed Test Time
 GTTVD.m                00 000 000 000:  GT True Vertical Depth
#Other Information
#
#WARRANTY: Halliburton will use its best efforts to furnish customers with 
#accurate information and interpretations that are part of, and incident to, the services 
#provided.  However, Halliburton cannot and does not warrant the accuracy 
#or correctness of such information and interpretations.  Under no circumstances should any 
#such information or interpretation be relied upon as the sole basis for any drilling, 
#completion, production, or financial decision or any procedure involving any risk to the 
#safety of any drilling venture, drilling rig or its crew or any other third party.  The 
#Customer has full responsibility for all drilling, completion and production operation.  
#Halliburton makes no representations or warranties, either expressed or 
#implied, including, but not limited to, the implied warranties of merchantability or fitness 
#for a particular purpose, with respect to the services rendered.  In no event will 
#Halliburton be liable for failure to obtain any particular results or for 
#any damages, including, but not limited to, indirect, special or consequential damages, 
#resulting from the use of any information or interpretation provided by Halliburton.
#
~A           TIME           GTDEPTH  GTPQH  GTTQ  GTTN  GTET   GTTVD  
# ...
   07:07:12.362.29-Jan-2021 4666.01 3051.62 79.53 8.00 207.04 2572.07
   07:07:12.562.29-Jan-2021 4666.01 3051.62 79.53 8.00 207.24 2572.07
   07:07:12.762.29-Jan-2021 4666.01 3051.61 79.52 8.00 207.44 2572.07
   07:07:12.962.29-Jan-2021 4666.01 3051.63 79.52 8.00 207.64 2572.07
   07:07:13.163.29-Jan-2021 4666.01 3051.65 79.52 8.00 207.84 2572.07
   07:07:13.363.29-Jan-2021 4666.01 3051.65 79.52 8.00 208.04 2572.07
   07:07:13.563.29-Jan-2021 4666.01 3051.65 79.52 8.00 208.24 2572.07
   07:07:13.763.29-Jan-2021 4666.01 3051.65 79.52 8.00 208.44 2572.07
   07:07:13.963.29-Jan-2021 4666.01 3051.64 79.52 8.00 208.64 2572.07
   07:07:14.163.29-Jan-2021 4666.01 3051.65 79.52 8.00 208.84 2572.07
   07:07:14.363.29-Jan-2021 4666.01 3051.62 79.52 8.00 209.04 2572.07
   07:07:14.563.29-Jan-2021 4666.01 3051.62 79.52 8.00 209.24 2572.07
   07:07:14.763.29-Jan-2021 4666.01 3051.61 79.52 8.00 209.44 2572.07
   07:07:14.963.29-Jan-2021 4666.01 3051.63 79.52 8.00 209.64 2572.07
   07:07:15.163.29-Jan-2021 4666.01 3051.61 79.52 8.00 209.84 2572.07
   07:07:15.363.29-Jan-2021 4666.01 3051.62 79.52 8.00 210.04 2572.07
   07:07:15.563.29-Jan-2021 4666.01 3051.62 79.52 8.00 210.24 2572.07
   07:07:15.763.29-Jan-2021 4666.01 3051.60 79.52 8.00 210.44 2572.07
   07:07:15.963.29-Jan-2021 4666.01 3051.59 79.52 8.00 210.64 2572.07
   07:07:16.163.29-Jan-2021 4666.01 3051.67 79.52 8.00 210.84 2572.07
   07:07:16.363.29-Jan-2021 4666.01 3051.65 79.51 8.00 211.04 2572.07
   07:07:16.563.29-Jan-2021 4666.01 3051.65 79.51 8.00 211.24 2572.07
   07:07:16.763.29-Jan-2021 4666.01 3051.67 79.51 8.00 211.44 2572.07
   07:07:16.963.29-Jan-2021 4666.01 3051.63 79.51 8.00 211.64 2572.07
   07:07:17.163.29-Jan-2021 4666.01 3051.65 79.51 8.00 211.84 2572.07
   07:07:17.363.29-Jan-2021 4666.01 3051.63 79.51 8.00 212.04 2572.07
   07:07:17.563.29-Jan-2021 4666.01 3051.63 79.51 8.00 212.24 2572.07
   07:07:17.763.29-Jan-2021 4666.01 3051.64 79.51 8.00 212.44 2572.07
   07:07:17.964.29-Jan-2021 4666.01 3051.65 79.51 8.00 212.64 2572.07
   07:07:18.164.29-Jan-2021 4666.01 3051.63 79.51 8.00 212.84 2572.07
   07:07:18.364.29-Jan-2021 4666.01 3051.58 79.51 8.00 213.04 2572.07
   07:07:18.564.29-Jan-2021 4666.01 3051.58 79.51 8.00 213.24 2572.07
   07:07:18.764.29-Jan-2021 4666.01 3051.66 79.51 8.00 213.44 2572.07
   07:07:18.964.29-Jan-2021 4666.01 3051.64 79.51 8.00 213.65 2572.07
   07:07:19.164.29-Jan-2021 4666.01 3051.64 79.51 8.00 213.85 2572.07
   07:07:19.364.29-Jan-2021 4666.01 3051.65 79.51 8.00 214.05 2572.07
   07:07:19.564.29-Jan-2021 4666.01 3051.65 79.51 8.00 214.25 2572.07
   07:07:19.764.29-Jan-2021 4666.01 3051.64 79.51 8.00 214.45 2572.07
   07:07:19.964.29-Jan-2021 4666.01 3051.62 79.51 8.00 214.65 2572.07
   07:07:20.164.29-Jan-2021 4666.01 3051.56 79.50 8.00 214.85 2572.07
   07:07:20.364.29-Jan-2021 4666.01 3051.73 79.50 8.00 215.05 2572.07
   07:07:20.564.29-Jan-2021 4666.01 3051.73 79.50 8.00 215.25 2572.07
   07:07:20.764.29-Jan-2021 4666.01 3051.61 79.50 8.00 215.45 2572.07
   07:07:20.964.29-Jan-2021 4666.01 3051.67 79.50 8.00 215.65 2572.07
   07:07:21.164.29-Jan-2021 4666.01 3051.65 79.50 8.00 215.85 2572.07
   07:07:21.364.29-Jan-2021 4666.01 3051.65 79.50 8.00 216.05 2572.07
   07:07:21.564.29-Jan-2021 4666.01 3051.65 79.50 8.00 216.25 2572.07
   07:07:21.764.29-Jan-2021 4666.01 3051.63 79.50 8.00 216.45 2572.07
   07:07:21.964.29-Jan-2021 4666.01 3051.63 79.50 8.00 216.65 2572.07
   07:07:22.164.29-Jan-2021 4666.01 3051.61 79.50 8.00 216.85 2572.07
   07:07:22.364.29-Jan-2021 4666.01 3051.61 79.50 8.00 217.05 2572.07
   07:07:22.564.29-Jan-2021 4666.01 3051.61 79.50 8.00 217.25 2572.07
   07:07:22.765.29-Jan-2021 4666.01 3051.63 79.50 8.00 217.45 2572.07
   07:07:22.965.29-Jan-2021 4666.01 3051.60 79.50 8.00 217.65 2572.07
   07:07:23.165.29-Jan-2021 4666.01 3051.61 79.50 8.00 217.85 2572.07
   07:07:23.365.29-Jan-2021 4666.01 3051.60 79.50 8.00 218.05 2572.07
   07:07:23.565.29-Jan-2021 4666.01 3051.60 79.50 8.00 218.25 2572.07
   07:07:23.765.29-Jan-2021 4666.01 3051.57 79.49 8.00 218.45 2572.07
   07:07:23.965.29-Jan-2021 4666.01 3051.67 79.49 8.00 218.65 2572.07
   07:07:24.165.29-Jan-2021 4666.01 3051.66 79.49 8.00 218.85 2572.07
   07:07:24.365.29-Jan-2021 4666.01 3051.60 79.49 8.00 219.05 2572.07
   07:07:24.565.29-Jan-2021 4666.01 3051.60 79.49 8.00 219.25 2572.07
   07:07:24.765.29-Jan-2021 4666.01 3051.63 79.49 8.00 219.45 2572.07
   07:07:24.965.29-Jan-2021 4666.01 3051.63 79.49 8.00 219.65 2572.07
   07:07:25.165.29-Jan-2021 4666.01 3051.63 79.49 8.00 219.85 2572.07
   07:07:25.365.29-Jan-2021 4666.01 3051.61 79.49 8.00 220.05 2572.07
   07:07:25.565.29-Jan-2021 4666.01 3051.61 79.49 8.00 220.25 2572.07
   07:07:25.765.29-Jan-2021 4666.01 3051.62 79.49 8.00 220.45 2572.07
   07:07:25.965.29-Jan-2021 4666.01 3051.60 79.49 8.00 220.65 2572.07
   07:07:26.165.29-Jan-2021 4666.01 3051.61 79.49 8.00 220.85 2572.07
   07:07:26.365.29-Jan-2021 4666.01 3051.60 79.49 8.00 221.05 2572.07
   07:07:26.565.29-Jan-2021 4666.01 3051.60 79.49 8.00 221.25 2572.07
   07:07:26.765.29-Jan-2021 4666.01 3051.58 79.49 8.00 221.45 2572.07
   07:07:26.965.29-Jan-2021 4666.01 3051.53 79.49 8.00 221.65 2572.07
   07:07:27.165.29-Jan-2021 4666.01 3051.70 79.48 8.00 221.85 2572.07
   07:07:27.365.29-Jan-2021 4666.01 3051.68 79.48 8.00 222.05 2572.07
   07:07:27.566.29-Jan-2021 4666.01 3051.68 79.48 8.00 222.25 2572.07
   07:07:27.766.29-Jan-2021 4666.01 3051.62 79.48 8.00 222.45 2572.07
   07:07:27.966.29-Jan-2021 4666.01 3051.67 79.48 8.00 222.65 2572.07
   07:07:28.166.29-Jan-2021 4666.01 3051.67 79.48 8.00 222.85 2572.07
   07:07:28.366.29-Jan-2021 4666.01 3051.59 79.48 8.00 223.05 2572.07
   07:07:28.566.29-Jan-2021 4666.01 3051.59 79.48 8.00 223.25 2572.07
   07:07:28.766.29-Jan-2021 4666.01 3051.63 79.48 8.00 223.45 2572.07
   07:07:28.966.29-Jan-2021 4666.01 3051.65 79.48 8.00 223.65 2572.07
   07:07:29.166.29-Jan-2021 4666.01 3051.62 79.48 8.00 223.85 2572.07
   07:07:29.366.29-Jan-2021 4666.01 3051.63 79.48 8.00 224.05 2572.07
   07:07:29.566.29-Jan-2021 4666.01 3051.63 79.48 8.00 224.25 2572.07
   07:07:29.766.29-Jan-2021 4666.01 3051.61 79.48 8.00 224.45 2572.07
   07:07:29.966.29-Jan-2021 4666.01 3051.65 79.48 8.00 224.65 2572.07
   07:07:30.166.29-Jan-2021 4666.01 3051.62 79.48 8.00 224.85 2572.07
   07:07:30.366.29-Jan-2021 4666.01 3051.61 79.48 8.00 225.05 2572.07
   07:07:30.566.29-Jan-2021 4666.01 3051.61 79.48 8.00 225.25 2572.07
   07:07:30.766.29-Jan-2021 4666.01 3051.66 79.48 8.00 225.45 2572.07
   07:07:30.966.29-Jan-2021 4666.01 3051.60 79.47 8.00 225.65 2572.07
   07:07:31.166.29-Jan-2021 4666.01 3051.59 79.47 8.00 225.85 2572.07
   07:07:31.366.29-Jan-2021 4666.01 3051.70 79.47 8.00 226.05 2572.07
   07:07:31.566.29-Jan-2021 4666.01 3051.70 79.47 8.00 226.25 2572.07
   07:07:31.766.29-Jan-2021 4666.01 3051.63 79.47 8.00 226.45 2572.07
   07:07:31.966.29-Jan-2021 4666.01 3051.64 79.47 8.00 226.65 2572.07
   07:07:32.167.29-Jan-2021 4666.01 3051.65 79.47 8.00 226.85 2572.07
   07:07:32.367.29-Jan-2021 4666.01 3051.62 79.47 8.00 227.05 2572.07
   07:07:32.567.29-Jan-2021 4666.01 3051.62 79.47 8.00 227.25 2572.07
   07:07:32.767.29-Jan-2021 4666.01 3051.62 79.47 8.00 227.45 2572.07
   07:07:32.967.29-Jan-2021 4666.01 3051.62 79.47 8.00 227.65 2572.07
   07:07:33.167.29-Jan-2021 4666.01 3051.61 79.47 8.00 227.85 2572.07
   07:07:33.367.29-Jan-2021 4666.01 3051.61 79.47 8.00 228.05 2572.07
   07:07:33.567.29-Jan-2021 4666.01 3051.61 79.47 8.00 228.25 2572.07
   07:07:33.767.29-Jan-2021 4666.01 3051.62 79.47 8.00 228.45 2572.07
   07:07:33.967.29-Jan-2021 4666.01 3051.59 79.47 8.00 228.65 2572.07
   07:07:34.167.29-Jan-2021 4666.01 3051.60 79.47 8.00 228.85 2572.07
   07:07:34.367.29-Jan-2021 4666.01 3051.59 79.47 8.00 229.05 2572.07
   07:07:34.567.29-Jan-2021 4666.01 3051.59 79.47 8.00 229.25 2572.07
   07:07:34.767.29-Jan-2021 4666.01 3051.50 79.46 8.00 229.45 2572.07
   07:07:34.967.29-Jan-2021 4666.01 3051.71 79.46 8.00 229.65 2572.07
   07:07:35.167.29-Jan-2021 4666.01 3051.67 79.46 8.00 229.85 2572.07
