~Version Information
 VERS.                  2.0:   CWLS log ASCII Standard -VERSION 2.0
 WRAP.                   NO:   One line per depth step
~Well Information Block
#MNEM.UNIT     VALUE/NAME     DESCRIPTION
#---------     -----------    ---------------------------
 STRT.S             09:05:41 28-May-21: START TIME 09:05:41 28-May-21
 STOP.S             09:12:44 28-May-21: STOP TIME  09:12:44 28-May-21
 STEP.S                   0.00: STEP TIME
 NULL.                 -999.25: NULL VALUE
 UWI .                     N/A:  UNIQUE WELL IDENTIFIER
 API .                     N/A:  API NUMBER
 UNIT.                     N/A:  LOGGING EQUIPMENT ID
 DCON.         Sperry Drilling:  DIRECTNL CONTR
 DOE .                     N/A:  DOE NUMBER
 MWDS.                    Baku:  MWD SHOP
 SRVC.     Turan Drilling and Engineering:  CONTRACTOR
 CTRY.              Azerbaijan:  COUNTRY NAME
 PROV.                    Baku:  PROVINCE
 STAT.                    Baku:  STATE NAME
 REGN.                   EESSA:  REGION
 BASE.              Azerbaijan:  LOGGING EQUIPMENT BASE LOCATION
 WTYP.                Deviated:  WELL TYPE
 RIG .              East Azeri:  RIG NAME
 WELL.                    D02y:  WELL NAME
 FLD .                     ACG:  FIELD NAME
 COMP.     BP Exploration (Caspian Sea) Ltd.:  COMPANY
 PDAT.          Mean Sea Level:  PERMANENT DATUM
 MDS .        Operator Entered:  MAG DATA SOURCE
 SON .        AZ-XX-0906997291:  JOB NUMBER
 FTOP.          Formation Tops:  FORM TOPS DESC
 ILTD.               Lithology:  INTERP LTH DESC
 SVYD.                  Survey:  SURVEY DESC
 DMOD.             Drill Model:  DRILL MOD DESC
 HPTY.       Minimum Curvature:  HOLE POS TYPE
 NREF.                    Grid:  NORTH REFERENCE
 SPUD.               05-May-21:  SPUD DATE
 DATE.      09.27.28 12-Jun-21:  END TIME
 STIM.      09.27.28 12-May-21:  START TIME
 DMF .             Drill Floor:  DRILL MEAS FROM
 DFST.                        :  DIST FSL TEXT
 DFWT.                        :  DIST FWL TEXT
 CNTY.                        :  COUNTY
 LOC .                        :  LOCATION
 LMF .             Drill Floor:  LOG MEASURED FROM
 DEP .m                2806.40:  DEPTH
 AGAP.m                  43.60:  AIR GAP
 VSNS.m                  -4.42:  VERT SEC N/S
 VSEW.m                  -7.31:  VERT SEC E/W
 APD .m                  43.60:  DEPTH ABOVE PD
 WDMS.m                 151.80:  WD ELEV
 EGL .m                   0.00:  GROUND ELEVATION
 EPD .m                   0.00:  ELEVATION
 AZTC.deg                 6.18:  AZM TOTAL CORR
 GRDC.deg                 0.29:  GRID CORRECTION
 MDEC.deg                 6.47:  MAGNETIC DECL
 MDIP.deg                59.50:  MAGNETIC DIP
 MFLD.nT              50350.00:  MAGNETIC FIELD
 GVFD.g                   1.00:  GRAVITY FIELD
 VSDR.deg               179.08:  VERT SEC DIRECT
 TDD .m                4300.00:  TOTAL DEPTH (DRILLER)
 SDEP.m                2800.00:  START DEPTH
 DFSL.m                   0.00:  DISTANCE FSL
 DFWL.m                   0.00:  DISTANCE FWL
 UTMY.m             4431871.34:  UTM Y
 UTMX.m              538762.90:  UTM X
 WHEW.m                  -7.31:  WELL HEAD E/W
 WHNS.m                  -4.42:  WELL HEAD N/S
 LONG.deg                51.45:  LONGITUDE
 LATI.deg                40.02:  LATITUDE
 TVDS.m                  43.60:  TVDSS CORRECTN
 EKB .m                  43.60:  KB ELEVATION
 EDF .m                  43.60:  DF ELEVATION
 TDL .m                 806.00:  TOTAL DEPTH (LOGGER)
 MAGU.                 1851231:  MAGUTM CHECKSUM
 VSC .                       0:  VS TO CLOSURE
~Parameter Information Block
#MNEM.UNIT       Value        Description
#---------     -----------    ---------------------------
 AV  .mps                 1.60:  Ann Velocity 
 AVMX.mps                 2.00:  Max Ann Veloc 
 AZIF.deg               140.24:  Azm, Final 
 BHAT.        Rotary Steerable:  BHA Type 
 BROT.°/30m               0.50:  Build Rotating 
 BS  .in                  8.50:  Bit Size 
 BTPL.psig              619.00:  Bit Press Loss 
 CABU.                     Yes:  Customer Abuse 
 CGEO.          Ilgar Gurbanov:  Customer Geo 
 COMM.                     ÜøQ:  Run Comments 1 
 TCS .hr                 85.88:  Time Ciculation Ended 
 CV  .mps                 3.30:  Crit Velocity 
 CVMX.mps                 3.50:  Max Crit Veloc 
 DD1 .           Hamid Axmedov:  Direct Drillr 1 
 DD2 .           Teymur Aliyev:  Direct Drillr 2 
 DDSV.               Geo-Pilot:  DD Service 
 DEFF.%                 100.00:  % Det Eff 
 DLRX.°/30m               0.00:  Dogleg Rot Max 
 DLSO.°/30m               1.80:  Dogleg Oriented 
 DLSX.°/30m               3.34:  Dogleg Str Max 
 DRET.      11.50.00 27-May-21:  Drill End Time 
 DRST.      21.13.00 24-May-21:  Drill Start Tim 
 DTIM.hr                 45.11:  Time Drilling 
 EDEP.m                4054.00:  End Depth 
 ENG1.         Almaz Almadatov:  Engineer 1 
 ENG2.           Amrah Tahirov:  Engineer 2 
 ENG3.      Bakhtiyar Jabbarli:  Engineer 3 
 ENG4.          Nazrin Asgarli:  Engineer 4 
 ETIM.      10.00.00 30-May-21:  End Time 
 FLOI.gpm               530.00:  Flow In 
 FLON.gpm               400.00:  Flow In Min 
 FLOS.cptm                0.00:  Fluid Loss 
 FLOX.gpm               560.00:  Flow In Max 
 DFT .        Mineral Oil Base:  Mud Type 
 FTRO.       Formation Presure:  FTWD Run Obj 
 HFLO.                      No:  High Flow 
 HPRE.                      No:  High Pressure 
 HTEM.                      No:  High Temp 
 HYDO.m                   1.80:  Hydro Offset 
 IFIN.deg                73.83:  Inc, Final 
 IMAX.deg                73.83:  Inc Max 
 IMIN.deg                57.86:  Inc Min 
 IMND.m                3259.27:  Inc Min Depth 
 IMXD.m                4045.58:  Inc Max Depth 
 JARR.                     Yes:  Jarring 
 LETM.      11.50.00 27-May-21:  Log End Time 
 LOST.hr                     0:  Lost Rig Time 
 LSTM.      21.13.00 24-May-21:  Log Start Time 
 MDCL.ppm             42500.00:  Mud Chlorides 
 MDES.     Inversion Oil/Synthetic:  Mud Desc 
 DFD .sg                  1.52:  Mud Density 
 MDMN.sg                  1.52:  Dens Mud Min 
 MDMX.sg                  1.52:  Dens Mud Max 
 MOIL.                      70:  Run Mud Oil % 
 MOWR.                   70:30:  Run Mud OWR 
 MSND.                     0.2:  Run Mud Sand % 
 MSOL.                      22:  Run Mud Solids% 
 DFV .spqt               77.00:  Mud Viscosity 
 MWOD.in                  6.75:  MWD Tool OD 
 MWSI.                      No:  Serv Intrp, MWD 
 OTIM.hr                151.01:  Time Operating 
 PCON.          Wear / Scratch:  Pad Condition 
 PMAX.psia            11296.93:  Press Op, Max 
 PV  .cP                 37.00:  Mud PV 
 RUN .                     500:  Run Number 
 ROPA.m/hr               25.00:  ROP Avg 
 ROPN.m/hr                9.00:  ROP Min 
 ROPX.m/hr               28.00:  ROP Max 
 RPMA.rpm               140.00:  RPM Surface Avg 
 RPMN.rpm                90.00:  RPM Surface Min 
 RPMX.rpm               140.00:  RPM Surface Max 
 RRUN.                    0500:  Rig Run Number 
 SAZI.deg               172.17:  Azm, Start 
 SDEP.m                3248.00:  Start Depth 
 SIDD.                      No:  Serv Intrp, DD 
 SINC.deg                57.86:  Inc, Start 
 SPPA.psig             5620.00:  SPP Avg 
 SPPN.psig             5190.00:  SPP Min 
 SPPX.psig             6050.00:  SPP Max 
 STIM.      16.00.00 23-May-21:  Start Time 
 SVCS.                 DD, MWD:  Services 
 SVER.                    9.20:  Sperry Version 
 TDAT.m                 806.00:  Tot Depth Attmp 
 TDDF.                      No:  Trip for DD 
 TDLG.m                 806.00:  Tot Depth Loggd 
 TFF .                      No:  Trip for Fail 
 TQAA.f-kp               12.00:  Torque Abs Avg 
 TQAN.f-kp                8.00:  Torque Abs Min 
 TQAX.f-kp               15.00:  Torque Abs Max 
 TRRT.°/30m               0.30:  Turn Rotating 
 MRT .                  EWR-M5:  Maximum Recorded Temperature 
 TTMX.degC               93.00:  Max Tool Temp 
 VS01.                90649155:  Virtual Str1 SN 
 VS02.                90642264:  Virtual Str2 SN 
 VS03.                90642266:  Virtual Str3 SN 
 VS04.                90642261:  Virtual Str4 SN 
 WBMN.klb                 0.00:  WOB Min 
 WITN.             Anar Khalil:  Customer Rep 
 WITN.           Murad Guliyev:  Customer Rep 2 
 WOBA.klb                13.00:  WOB Avg 
 WOBX.klb                25.00:  WOB Max 
 YP  .lhf2               32.00:  Yield Point 
~Curve Information Block
#MNEM.UNIT                 API CODE     Curve Description
#---------               -----------    ---------------------------
 TIME.HHMMSS            00 000 000 000:  GT Time & Date
 GTDEPTH.m              00 000 000 000:  GT Depth
 GTPQH.psia             00 000 000 000:  GT HR Quartz Pressure
 GTTQ.degC              00 000 000 000:  GT Quartz Temperature
 GTTN.NONE              00 000 000 000:  GT Test Number
 GTET.sec               00 000 000 000:  GT Elapsed Test Time
 GTTVD.m                00 000 000 000:  GT True Vertical Depth
#Other Information
#
#WARRANTY: Halliburton will use its best efforts to furnish customers with 
#accurate information and interpretations that are part of, and incident to, the services 
#provided.  However, Halliburton cannot and does not warrant the accuracy 
#or correctness of such information and interpretations.  Under no circumstances should any 
#such information or interpretation be relied upon as the sole basis for any drilling, 
#completion, production, or financial decision or any procedure involving any risk to the 
#safety of any drilling venture, drilling rig or its crew or any other third party.  The 
#Customer has full responsibility for all drilling, completion and production operation.  
#Halliburton makes no representations or warranties, either expressed or 
#implied, including, but not limited to, the implied warranties of merchantability or fitness 
#for a particular purpose, with respect to the services rendered.  In no event will 
#Halliburton be liable for failure to obtain any particular results or for 
#any damages, including, but not limited to, indirect, special or consequential damages, 
#resulting from the use of any information or interpretation provided by Halliburton.
#
~A           TIME           GTDEPTH  GTPQH  GTTQ  GTTN   GTET   GTTVD  
# ...
   09:06:03.723.28-May-2021 3286.00 5813.74 82.38 15.00  22.60 2493.81
   09:06:03.923.28-May-2021 3286.00 5814.35 82.38 15.00  22.80 2493.81
   09:06:04.123.28-May-2021 3286.00 5814.15 82.38 15.00  23.00 2493.81
   09:06:04.323.28-May-2021 3286.00 5814.15 82.38 15.00  23.20 2493.81
   09:06:04.523.28-May-2021 3286.00 5814.30 82.38 15.00  23.40 2493.81
   09:06:04.723.28-May-2021 3286.00 5814.23 82.37 15.00  23.60 2493.81
   09:06:04.923.28-May-2021 3286.00 5814.30 82.37 15.00  23.80 2493.81
   09:06:05.123.28-May-2021 3286.00 5814.39 82.37 15.00  24.00 2493.81
   09:06:05.323.28-May-2021 3286.00 5814.39 82.37 15.00  24.20 2493.81
   09:06:05.523.28-May-2021 3286.00 5814.43 82.37 15.00  24.40 2493.81
   09:06:05.723.28-May-2021 3286.00 5811.77 82.37 15.00  24.60 2493.81
   09:06:05.923.28-May-2021 3286.00 5814.89 82.37 15.00  24.80 2493.81
   09:06:06.123.28-May-2021 3286.00 5814.25 82.37 15.00  25.00 2493.81
   09:06:06.323.28-May-2021 3286.00 5814.25 82.37 15.00  25.20 2493.81
   09:06:06.523.28-May-2021 3286.00 5820.01 82.37 15.00  25.40 2493.81
   09:06:06.723.28-May-2021 3286.00 5813.49 82.37 15.00  25.60 2493.81
   09:06:06.923.28-May-2021 3286.00 5815.68 82.37 15.00  25.80 2493.81
   09:06:07.124.28-May-2021 3286.00 5814.36 82.37 15.00  26.00 2493.81
   09:06:07.324.28-May-2021 3286.00 5814.36 82.37 15.00  26.20 2493.81
   09:06:07.524.28-May-2021 3286.00 5822.80 82.37 15.00  26.40 2493.81
   09:06:07.724.28-May-2021 3286.00 5816.12 82.37 15.00  26.60 2493.81
   09:06:07.924.28-May-2021 3286.00 5821.90 82.37 15.00  26.80 2493.81
   09:06:08.124.28-May-2021 3286.00 5812.39 82.37 15.00  27.00 2493.81
   09:06:08.324.28-May-2021 3286.00 5812.39 82.37 15.00  27.20 2493.81
   09:06:08.524.28-May-2021 3286.00 5815.45 82.37 15.00  27.40 2493.81
   09:06:08.724.28-May-2021 3286.00 5816.19 82.37 15.00  27.60 2493.81
   09:06:08.924.28-May-2021 3286.00 5815.89 82.37 15.00  27.80 2493.81
   09:06:09.124.28-May-2021 3286.00 5816.27 82.37 15.00  28.00 2493.81
   09:06:09.324.28-May-2021 3286.00 5816.27 82.37 15.00  28.20 2493.81
   09:06:09.524.28-May-2021 3286.00 5815.88 82.37 15.00  28.40 2493.81
   09:06:09.724.28-May-2021 3286.00 5815.76 82.37 15.00  28.60 2493.81
   09:06:09.924.28-May-2021 3286.00 5815.50 82.37 15.00  28.80 2493.81
   09:06:10.124.28-May-2021 3286.00 5815.48 82.37 15.00  29.00 2493.81
   09:06:10.324.28-May-2021 3286.00 5815.48 82.37 15.00  29.20 2493.81
   09:06:10.524.28-May-2021 3286.00 5822.25 82.37 15.00  29.40 2493.81
   09:06:10.724.28-May-2021 3286.00 5813.22 82.37 15.00  29.60 2493.81
   09:06:10.924.28-May-2021 3286.00 5816.64 82.37 15.00  29.80 2493.81
   09:06:11.124.28-May-2021 3286.00 5816.16 82.37 15.00  30.00 2493.81
   09:06:11.324.28-May-2021 3286.00 5816.16 82.37 15.00  30.20 2493.81
   09:06:11.524.28-May-2021 3286.00 5816.26 82.37 15.00  30.40 2493.81
   09:06:11.724.28-May-2021 3286.00 5816.89 82.37 15.00  30.60 2493.81
   09:06:11.924.28-May-2021 3286.00 5816.80 82.37 15.00  30.80 2493.81
   09:06:12.124.28-May-2021 3286.00 5816.83 82.37 15.00  31.00 2493.81
   09:06:12.324.28-May-2021 3286.00 5816.83 82.37 15.00  31.20 2493.81
   09:06:12.524.28-May-2021 3286.00 5816.66 82.36 15.00  31.40 2493.81
   09:06:12.724.28-May-2021 3286.00 5816.54 82.36 15.00  31.60 2493.81
   09:06:12.924.28-May-2021 3286.00 5816.61 82.36 15.00  31.80 2493.81
   09:06:13.124.28-May-2021 3286.00 5816.66 82.36 15.00  32.00 2493.81
   09:06:13.324.28-May-2021 3286.00 5816.66 82.36 15.00  32.20 2493.81
   09:06:13.524.28-May-2021 3286.00 5816.59 82.36 15.00  32.40 2493.81
   09:06:13.724.28-May-2021 3286.00 5816.75 82.36 15.00  32.60 2493.81
   09:06:13.924.28-May-2021 3286.00 5817.20 82.36 15.00  32.80 2493.81
   09:06:14.124.28-May-2021 3286.00 5816.53 82.36 15.00  33.00 2493.81
   09:06:14.324.28-May-2021 3286.00 5816.53 82.36 15.00  33.20 2493.81
   09:06:14.525.28-May-2021 3286.00 5815.42 82.36 15.00  33.40 2493.81
   09:06:14.725.28-May-2021 3286.00 5817.76 82.36 15.00  33.60 2493.81
   09:06:14.925.28-May-2021 3286.00 5816.37 82.36 15.00  33.80 2493.81
   09:06:15.125.28-May-2021 3286.00 5824.81 82.36 15.00  34.00 2493.81
   09:06:15.325.28-May-2021 3286.00 5824.81 82.36 15.00  34.20 2493.81
   09:06:15.525.28-May-2021 3286.00 5818.11 82.36 15.00  34.40 2493.81
   09:06:15.725.28-May-2021 3286.00 5816.63 82.36 15.00  34.60 2493.81
   09:06:15.925.28-May-2021 3286.00 5824.23 82.36 15.00  34.80 2493.81
   09:06:16.125.28-May-2021 3286.00 5815.07 82.36 15.00  35.00 2493.81
   09:06:16.325.28-May-2021 3286.00 5815.07 82.36 15.00  35.20 2493.81
   09:06:16.525.28-May-2021 3286.00 5817.77 82.36 15.00  35.40 2493.81
   09:06:16.725.28-May-2021 3286.00 5817.78 82.36 15.00  35.60 2493.81
   09:06:16.925.28-May-2021 3286.00 5818.07 82.36 15.00  35.80 2493.81
   09:06:17.125.28-May-2021 3286.00 5818.06 82.36 15.00  36.00 2493.81
   09:06:17.325.28-May-2021 3286.00 5818.06 82.36 15.00  36.20 2493.81
   09:06:17.525.28-May-2021 3286.00 5817.85 82.36 15.00  36.40 2493.81
   09:06:17.725.28-May-2021 3286.00 5817.72 82.36 15.00  36.60 2493.81
   09:06:17.925.28-May-2021 3286.00 5817.63 82.36 15.00  36.80 2493.81
   09:06:18.125.28-May-2021 3286.00 5817.75 82.36 15.00  37.00 2493.81
   09:06:18.325.28-May-2021 3286.00 5817.75 82.36 15.00  37.21 2493.81
   09:06:18.525.28-May-2021 3286.00 5817.88 82.36 15.00  37.41 2493.81
   09:06:18.725.28-May-2021 3286.00 5825.33 82.36 15.00  37.61 2493.81
   09:06:18.925.28-May-2021 3286.00 5814.83 82.36 15.00  37.81 2493.81
   09:06:19.125.28-May-2021 3286.00 5818.93 82.36 15.00  38.01 2493.81
   09:06:19.325.28-May-2021 3286.00 5818.93 82.36 15.00  38.21 2493.81
   09:06:19.525.28-May-2021 3286.00 5817.82 82.36 15.00  38.41 2493.81
   09:06:19.725.28-May-2021 3286.00 5818.46 82.36 15.00  38.61 2493.81
   09:06:19.925.28-May-2021 3286.00 5818.77 82.36 15.00  38.81 2493.81
   09:06:20.125.28-May-2021 3286.00 5818.56 82.36 15.00  39.01 2493.81
   09:06:20.325.28-May-2021 3286.00 5818.56 82.36 15.00  39.21 2493.81
   09:06:20.525.28-May-2021 3286.00 5818.42 82.35 15.00  39.41 2493.81
   09:06:20.725.28-May-2021 3286.00 5818.30 82.35 15.00  39.61 2493.81
   09:06:20.925.28-May-2021 3286.00 5771.14 82.35 15.00  39.81 2493.81
   09:06:21.125.28-May-2021 3286.00 5813.99 82.35 15.00  40.01 2493.81
   09:06:21.325.28-May-2021 3286.00 5813.99 82.35 15.00  40.21 2493.81
   09:06:21.525.28-May-2021 3286.00 5979.95 82.35 15.00  40.41 2493.81
   09:06:21.725.28-May-2021 3286.00 5976.09 82.35 15.00  40.61 2493.81
   09:06:21.926.28-May-2021 3286.00 5983.29 82.35 15.00  40.81 2493.81
   09:06:22.126.28-May-2021 3286.00 5988.06 82.35 15.00  41.01 2493.81
   09:06:22.326.28-May-2021 3286.00 5988.06 82.35 15.00  41.21 2493.81
   09:06:22.526.28-May-2021 3286.00 6000.41 82.35 15.00  41.41 2493.81
   09:06:22.726.28-May-2021 3286.00 6001.28 82.35 15.00  41.61 2493.81
   09:06:22.926.28-May-2021 3286.00 6007.64 82.35 15.00  41.81 2493.81
   09:06:23.126.28-May-2021 3286.00 6015.31 82.35 15.00  42.01 2493.81
   09:06:23.326.28-May-2021 3286.00 6015.31 82.35 15.00  42.21 2493.81
   09:06:23.526.28-May-2021 3286.00 6022.41 82.35 15.00  42.41 2493.81
   09:06:23.726.28-May-2021 3286.00 6024.82 82.35 15.00  42.61 2493.81
   09:06:23.926.28-May-2021 3286.00 6018.50 82.35 15.00  42.81 2493.81
   09:06:24.126.28-May-2021 3286.00 6009.93 82.35 15.00  43.01 2493.81
   09:06:24.326.28-May-2021 3286.00 6009.93 82.35 15.00  43.21 2493.81
   09:06:24.526.28-May-2021 3286.00 5986.33 82.35 15.00  43.41 2493.81
   09:06:24.726.28-May-2021 3286.00 5976.42 82.35 15.00  43.61 2493.81
   09:06:24.926.28-May-2021 3286.00 5961.60 82.35 15.00  43.81 2493.81
   09:06:25.126.28-May-2021 3286.00 5941.95 82.35 15.00  44.01 2493.81
   09:06:25.326.28-May-2021 3286.00 5941.95 82.35 15.00  44.21 2493.81
   09:06:25.526.28-May-2021 3286.00 5913.41 82.35 15.00  44.41 2493.81
   09:06:25.726.28-May-2021 3286.00 5898.98 82.35 15.00  44.61 2493.81
   09:06:25.926.28-May-2021 3286.00 5883.27 82.35 15.00  44.81 2493.81
   09:06:26.126.28-May-2021 3286.00 5875.53 82.35 15.00  45.01 2493.81
