~Version Information
 VERS.                  2.0:   CWLS log ASCII Standard -VERSION 2.0
 WRAP.                   NO:   One line per depth step
~Well Information Block
#MNEM.UNIT     VALUE/NAME     DESCRIPTION
#---------     -----------    ---------------------------
 STRT.S             00:16:40 28-May-21: START TIME 00:16:40 28-May-21
 STOP.S             00:23:42 28-May-21: STOP TIME  00:23:42 28-May-21
 STEP.S                   0.00: STEP TIME
 NULL.                 -999.25: NULL VALUE
 UWI .                     N/A:  UNIQUE WELL IDENTIFIER
 API .                     N/A:  API NUMBER
 UNIT.                     N/A:  LOGGING EQUIPMENT ID
 DCON.         Sperry Drilling:  DIRECTNL CONTR
 DOE .                     N/A:  DOE NUMBER
 MWDS.                    Baku:  MWD SHOP
 SRVC.     Turan Drilling and Engineering:  CONTRACTOR
 CTRY.              Azerbaijan:  COUNTRY NAME
 PROV.                    Baku:  PROVINCE
 STAT.                    Baku:  STATE NAME
 REGN.                   EESSA:  REGION
 BASE.              Azerbaijan:  LOGGING EQUIPMENT BASE LOCATION
 WTYP.                Deviated:  WELL TYPE
 RIG .              East Azeri:  RIG NAME
 WELL.                    D02y:  WELL NAME
 FLD .                     ACG:  FIELD NAME
 COMP.     BP Exploration (Caspian Sea) Ltd.:  COMPANY
 PDAT.          Mean Sea Level:  PERMANENT DATUM
 MDS .        Operator Entered:  MAG DATA SOURCE
 SON .        AZ-XX-0906997291:  JOB NUMBER
 FTOP.          Formation Tops:  FORM TOPS DESC
 ILTD.               Lithology:  INTERP LTH DESC
 SVYD.                  Survey:  SURVEY DESC
 DMOD.             Drill Model:  DRILL MOD DESC
 HPTY.       Minimum Curvature:  HOLE POS TYPE
 NREF.                    Grid:  NORTH REFERENCE
 SPUD.               05-May-21:  SPUD DATE
 DATE.      09.27.28 12-Jun-21:  END TIME
 STIM.      09.27.28 12-May-21:  START TIME
 DMF .             Drill Floor:  DRILL MEAS FROM
 DFST.                        :  DIST FSL TEXT
 DFWT.                        :  DIST FWL TEXT
 CNTY.                        :  COUNTY
 LOC .                        :  LOCATION
 LMF .             Drill Floor:  LOG MEASURED FROM
 DEP .m                2806.40:  DEPTH
 AGAP.m                  43.60:  AIR GAP
 VSNS.m                  -4.42:  VERT SEC N/S
 VSEW.m                  -7.31:  VERT SEC E/W
 APD .m                  43.60:  DEPTH ABOVE PD
 WDMS.m                 151.80:  WD ELEV
 EGL .m                   0.00:  GROUND ELEVATION
 EPD .m                   0.00:  ELEVATION
 AZTC.deg                 6.18:  AZM TOTAL CORR
 GRDC.deg                 0.29:  GRID CORRECTION
 MDEC.deg                 6.47:  MAGNETIC DECL
 MDIP.deg                59.50:  MAGNETIC DIP
 MFLD.nT              50350.00:  MAGNETIC FIELD
 GVFD.g                   1.00:  GRAVITY FIELD
 VSDR.deg               179.08:  VERT SEC DIRECT
 TDD .m                4300.00:  TOTAL DEPTH (DRILLER)
 SDEP.m                2800.00:  START DEPTH
 DFSL.m                   0.00:  DISTANCE FSL
 DFWL.m                   0.00:  DISTANCE FWL
 UTMY.m             4431871.34:  UTM Y
 UTMX.m              538762.90:  UTM X
 WHEW.m                  -7.31:  WELL HEAD E/W
 WHNS.m                  -4.42:  WELL HEAD N/S
 LONG.deg                51.45:  LONGITUDE
 LATI.deg                40.02:  LATITUDE
 TVDS.m                  43.60:  TVDSS CORRECTN
 EKB .m                  43.60:  KB ELEVATION
 EDF .m                  43.60:  DF ELEVATION
 TDL .m                 806.00:  TOTAL DEPTH (LOGGER)
 MAGU.                 1851231:  MAGUTM CHECKSUM
 VSC .                       0:  VS TO CLOSURE
~Parameter Information Block
#MNEM.UNIT       Value        Description
#---------     -----------    ---------------------------
 AV  .mps                 1.60:  Ann Velocity 
 AVMX.mps                 2.00:  Max Ann Veloc 
 AZIF.deg               140.24:  Azm, Final 
 BHAT.        Rotary Steerable:  BHA Type 
 BROT.°/30m               0.50:  Build Rotating 
 BS  .in                  8.50:  Bit Size 
 BTPL.psig              619.00:  Bit Press Loss 
 CABU.                     Yes:  Customer Abuse 
 CGEO.          Ilgar Gurbanov:  Customer Geo 
 COMM.                     ”)T:  Run Comments 1 
 TCS .hr                 85.88:  Time Ciculation Ended 
 CV  .mps                 3.30:  Crit Velocity 
 CVMX.mps                 3.50:  Max Crit Veloc 
 DD1 .           Hamid Axmedov:  Direct Drillr 1 
 DD2 .           Teymur Aliyev:  Direct Drillr 2 
 DDSV.               Geo-Pilot:  DD Service 
 DEFF.%                 100.00:  % Det Eff 
 DLRX.°/30m               0.00:  Dogleg Rot Max 
 DLSO.°/30m               1.80:  Dogleg Oriented 
 DLSX.°/30m               3.34:  Dogleg Str Max 
 DRET.      11.50.00 27-May-21:  Drill End Time 
 DRST.      21.13.00 24-May-21:  Drill Start Tim 
 DTIM.hr                 45.11:  Time Drilling 
 EDEP.m                4054.00:  End Depth 
 ENG1.         Almaz Almadatov:  Engineer 1 
 ENG2.           Amrah Tahirov:  Engineer 2 
 ENG3.      Bakhtiyar Jabbarli:  Engineer 3 
 ENG4.          Nazrin Asgarli:  Engineer 4 
 ETIM.      10.00.00 30-May-21:  End Time 
 FLOI.gpm               530.00:  Flow In 
 FLON.gpm               400.00:  Flow In Min 
 FLOS.cptm                0.00:  Fluid Loss 
 FLOX.gpm               560.00:  Flow In Max 
 DFT .        Mineral Oil Base:  Mud Type 
 FTRO.       Formation Presure:  FTWD Run Obj 
 HFLO.                      No:  High Flow 
 HPRE.                      No:  High Pressure 
 HTEM.                      No:  High Temp 
 HYDO.m                   1.80:  Hydro Offset 
 IFIN.deg                73.83:  Inc, Final 
 IMAX.deg                73.83:  Inc Max 
 IMIN.deg                57.86:  Inc Min 
 IMND.m                3259.27:  Inc Min Depth 
 IMXD.m                4045.58:  Inc Max Depth 
 JARR.                     Yes:  Jarring 
 LETM.      11.50.00 27-May-21:  Log End Time 
 LOST.hr                     0:  Lost Rig Time 
 LSTM.      21.13.00 24-May-21:  Log Start Time 
 MDCL.ppm             42500.00:  Mud Chlorides 
 MDES.     Inversion Oil/Synthetic:  Mud Desc 
 DFD .sg                  1.52:  Mud Density 
 MDMN.sg                  1.52:  Dens Mud Min 
 MDMX.sg                  1.52:  Dens Mud Max 
 MOIL.                      70:  Run Mud Oil % 
 MOWR.                   70:30:  Run Mud OWR 
 MSND.                     0.2:  Run Mud Sand % 
 MSOL.                      22:  Run Mud Solids% 
 DFV .spqt               77.00:  Mud Viscosity 
 MWOD.in                  6.75:  MWD Tool OD 
 MWSI.                      No:  Serv Intrp, MWD 
 OTIM.hr                151.01:  Time Operating 
 PCON.          Wear / Scratch:  Pad Condition 
 PMAX.psia            11296.93:  Press Op, Max 
 PV  .cP                 37.00:  Mud PV 
 RUN .                     500:  Run Number 
 ROPA.m/hr               25.00:  ROP Avg 
 ROPN.m/hr                9.00:  ROP Min 
 ROPX.m/hr               28.00:  ROP Max 
 RPMA.rpm               140.00:  RPM Surface Avg 
 RPMN.rpm                90.00:  RPM Surface Min 
 RPMX.rpm               140.00:  RPM Surface Max 
 RRUN.                    0500:  Rig Run Number 
 SAZI.deg               172.17:  Azm, Start 
 SDEP.m                3248.00:  Start Depth 
 SIDD.                      No:  Serv Intrp, DD 
 SINC.deg                57.86:  Inc, Start 
 SPPA.psig             5620.00:  SPP Avg 
 SPPN.psig             5190.00:  SPP Min 
 SPPX.psig             6050.00:  SPP Max 
 STIM.      16.00.00 23-May-21:  Start Time 
 SVCS.                 DD, MWD:  Services 
 SVER.                    9.20:  Sperry Version 
 TDAT.m                 806.00:  Tot Depth Attmp 
 TDDF.                      No:  Trip for DD 
 TDLG.m                 806.00:  Tot Depth Loggd 
 TFF .                      No:  Trip for Fail 
 TQAA.f-kp               12.00:  Torque Abs Avg 
 TQAN.f-kp                8.00:  Torque Abs Min 
 TQAX.f-kp               15.00:  Torque Abs Max 
 TRRT.°/30m               0.30:  Turn Rotating 
 MRT .                  EWR-M5:  Maximum Recorded Temperature 
 TTMX.degC               93.00:  Max Tool Temp 
 VS01.                90649155:  Virtual Str1 SN 
 VS02.                90642264:  Virtual Str2 SN 
 VS03.                90642266:  Virtual Str3 SN 
 VS04.                90642261:  Virtual Str4 SN 
 WBMN.klb                 0.00:  WOB Min 
 WITN.             Anar Khalil:  Customer Rep 
 WITN.           Murad Guliyev:  Customer Rep 2 
 WOBA.klb                13.00:  WOB Avg 
 WOBX.klb                25.00:  WOB Max 
 YP  .lhf2               32.00:  Yield Point 
~Curve Information Block
#MNEM.UNIT                 API CODE     Curve Description
#---------               -----------    ---------------------------
 TIME.HHMMSS            00 000 000 000:  GT Time & Date
 GTDEPTH.m              00 000 000 000:  GT Depth
 GTPQH.psia             00 000 000 000:  GT HR Quartz Pressure
 GTTQ.degC              00 000 000 000:  GT Quartz Temperature
 GTTN.NONE              00 000 000 000:  GT Test Number
 GTET.sec               00 000 000 000:  GT Elapsed Test Time
 GTTVD.m                00 000 000 000:  GT True Vertical Depth
#Other Information
#
#WARRANTY: Halliburton will use its best efforts to furnish customers with 
#accurate information and interpretations that are part of, and incident to, the services 
#provided.  However, Halliburton cannot and does not warrant the accuracy 
#or correctness of such information and interpretations.  Under no circumstances should any 
#such information or interpretation be relied upon as the sole basis for any drilling, 
#completion, production, or financial decision or any procedure involving any risk to the 
#safety of any drilling venture, drilling rig or its crew or any other third party.  The 
#Customer has full responsibility for all drilling, completion and production operation.  
#Halliburton makes no representations or warranties, either expressed or 
#implied, including, but not limited to, the implied warranties of merchantability or fitness 
#for a particular purpose, with respect to the services rendered.  In no event will 
#Halliburton be liable for failure to obtain any particular results or for 
#any damages, including, but not limited to, indirect, special or consequential damages, 
#resulting from the use of any information or interpretation provided by Halliburton.
#
~A           TIME           GTDEPTH  GTPQH  GTTQ  GTTN  GTET   GTTVD  
# ...
   00:17:49.000.28-May-2021 3671.00 3177.77 84.49 4.00  69.00 2661.36
   00:17:49.200.28-May-2021 3671.00 3177.77 84.49 4.00  69.20 2661.36
   00:17:49.400.28-May-2021 3671.00 3177.79 84.49 4.00  69.40 2661.36
   00:17:49.600.28-May-2021 3671.00 3177.81 84.49 4.00  69.60 2661.36
   00:17:49.800.28-May-2021 3671.00 3177.83 84.49 4.00  69.80 2661.36
   00:17:50.000.28-May-2021 3671.00 3177.82 84.49 4.00  70.00 2661.36
   00:17:50.200.28-May-2021 3671.00 3177.82 84.49 4.00  70.20 2661.36
   00:17:50.400.28-May-2021 3671.00 3177.72 84.49 4.00  70.40 2661.36
   00:17:50.600.28-May-2021 3671.00 3177.60 84.49 4.00  70.60 2661.36
   00:17:50.800.28-May-2021 3671.00 3177.69 84.49 4.00  70.80 2661.36
   00:17:51.000.28-May-2021 3671.00 3177.75 84.49 4.00  71.00 2661.36
   00:17:51.200.28-May-2021 3671.00 3177.75 84.49 4.00  71.20 2661.36
   00:17:51.400.28-May-2021 3671.00 3177.78 84.49 4.00  71.40 2661.36
   00:17:51.600.28-May-2021 3671.00 3177.84 84.49 4.00  71.60 2661.36
   00:17:51.800.28-May-2021 3671.00 3177.85 84.49 4.00  71.80 2661.36
   00:17:52.000.28-May-2021 3671.00 3177.88 84.49 4.00  72.00 2661.36
   00:17:52.200.28-May-2021 3671.00 3177.88 84.49 4.00  72.20 2661.36
   00:17:52.400.28-May-2021 3671.00 3177.89 84.49 4.00  72.40 2661.36
   00:17:52.600.28-May-2021 3671.00 3177.92 84.49 4.00  72.60 2661.36
   00:17:52.800.28-May-2021 3671.00 3177.92 84.49 4.00  72.80 2661.36
   00:17:53.000.28-May-2021 3671.00 3177.78 84.49 4.00  73.00 2661.36
   00:17:53.200.28-May-2021 3671.00 3177.78 84.49 4.00  73.20 2661.36
   00:17:53.400.28-May-2021 3671.00 3177.77 84.49 4.00  73.40 2661.36
   00:17:53.600.28-May-2021 3671.00 3177.81 84.49 4.00  73.60 2661.36
   00:17:53.800.28-May-2021 3671.00 3177.71 84.49 4.00  73.80 2661.36
   00:17:54.000.28-May-2021 3671.00 3177.78 84.49 4.00  74.00 2661.36
   00:17:54.200.28-May-2021 3671.00 3177.78 84.49 4.00  74.20 2661.36
   00:17:54.400.28-May-2021 3671.00 3177.82 84.49 4.00  74.40 2661.36
   00:17:54.600.28-May-2021 3671.00 3177.84 84.49 4.00  74.60 2661.36
   00:17:54.800.28-May-2021 3671.00 3177.81 84.49 4.00  74.80 2661.36
   00:17:55.000.28-May-2021 3671.00 3177.72 84.49 4.00  75.00 2661.36
   00:17:55.200.28-May-2021 3671.00 3177.72 84.49 4.00  75.20 2661.36
   00:17:55.400.28-May-2021 3671.00 3177.78 84.49 4.00  75.40 2661.36
   00:17:55.600.28-May-2021 3671.00 3177.73 84.49 4.00  75.60 2661.36
   00:17:55.800.28-May-2021 3671.00 3177.80 84.49 4.00  75.80 2661.36
   00:17:56.000.28-May-2021 3671.00 3177.85 84.49 4.00  76.00 2661.36
   00:17:56.200.28-May-2021 3671.00 3177.85 84.49 4.00  76.20 2661.36
   00:17:56.400.28-May-2021 3671.00 3177.91 84.49 4.00  76.40 2661.36
   00:17:56.600.28-May-2021 3671.00 3177.95 84.49 4.00  76.60 2661.36
   00:17:56.800.28-May-2021 3671.00 3177.96 84.49 4.00  76.80 2661.36
   00:17:57.000.28-May-2021 3671.00 3177.98 84.50 4.00  77.00 2661.36
   00:17:57.200.28-May-2021 3671.00 3177.98 84.50 4.00  77.20 2661.36
   00:17:57.400.28-May-2021 3671.00 3178.02 84.50 4.00  77.40 2661.36
   00:17:57.600.28-May-2021 3671.00 3178.02 84.50 4.00  77.60 2661.36
   00:17:57.800.28-May-2021 3671.00 3178.03 84.50 4.00  77.80 2661.36
   00:17:58.000.28-May-2021 3671.00 3177.93 84.50 4.00  78.00 2661.36
   00:17:58.200.28-May-2021 3671.00 3177.93 84.50 4.00  78.20 2661.36
   00:17:58.400.28-May-2021 3671.00 3177.88 84.50 4.00  78.40 2661.36
   00:17:58.600.28-May-2021 3671.00 3177.93 84.50 4.00  78.60 2661.36
   00:17:58.800.28-May-2021 3671.00 3177.94 84.50 4.00  78.80 2661.36
   00:17:59.000.28-May-2021 3671.00 3177.99 84.50 4.00  79.00 2661.36
   00:17:59.200.28-May-2021 3671.00 3177.99 84.50 4.00  79.20 2661.36
   00:17:59.400.28-May-2021 3671.00 3178.02 84.50 4.00  79.40 2661.36
   00:17:59.600.28-May-2021 3671.00 3178.05 84.50 4.00  79.60 2661.36
   00:17:59.800.28-May-2021 3671.00 3178.07 84.50 4.00  79.80 2661.36
   00:18:00.000.28-May-2021 3671.00 3178.07 84.50 4.00  80.00 2661.36
   00:18:00.200.28-May-2021 3671.00 3178.07 84.50 4.00  80.20 2661.36
   00:18:00.400.28-May-2021 3671.00 3178.10 84.50 4.00  80.40 2661.36
   00:18:00.600.28-May-2021 3671.00 3177.96 84.50 4.00  80.60 2661.36
   00:18:00.800.28-May-2021 3671.00 3177.86 84.50 4.00  80.80 2661.36
   00:18:01.000.28-May-2021 3671.00 3177.94 84.50 4.00  81.00 2661.36
   00:18:01.200.28-May-2021 3671.00 3177.94 84.50 4.00  81.20 2661.36
   00:18:01.400.28-May-2021 3671.00 3177.87 84.50 4.00  81.40 2661.36
   00:18:01.600.28-May-2021 3671.00 3177.96 84.50 4.00  81.60 2661.36
   00:18:01.800.28-May-2021 3671.00 3177.91 84.50 4.00  81.80 2661.36
   00:18:02.000.28-May-2021 3671.00 3177.96 84.50 4.00  82.00 2661.36
   00:18:02.200.28-May-2021 3671.00 3177.96 84.50 4.00  82.20 2661.36
   00:18:02.400.28-May-2021 3671.00 3177.95 84.50 4.00  82.40 2661.36
   00:18:02.600.28-May-2021 3671.00 3177.88 84.50 4.00  82.60 2661.36
   00:18:02.800.28-May-2021 3671.00 3177.93 84.50 4.00  82.80 2661.36
   00:18:03.000.28-May-2021 3671.00 3177.96 84.50 4.00  83.00 2661.36
   00:18:03.200.28-May-2021 3671.00 3177.96 84.50 4.00  83.20 2661.36
   00:18:03.400.28-May-2021 3671.00 3177.93 84.50 4.00  83.40 2661.36
   00:18:03.600.28-May-2021 3671.00 3177.98 84.50 4.00  83.60 2661.36
   00:18:03.800.28-May-2021 3671.00 3178.01 84.50 4.00  83.80 2661.36
   00:18:04.000.28-May-2021 3671.00 3178.02 84.50 4.00  84.00 2661.36
   00:18:04.200.28-May-2021 3671.00 3178.02 84.50 4.00  84.20 2661.36
   00:18:04.400.28-May-2021 3671.00 3178.07 84.50 4.00  84.40 2661.36
   00:18:04.600.28-May-2021 3671.00 3178.09 84.50 4.00  84.60 2661.36
   00:18:04.800.28-May-2021 3671.00 3178.11 84.50 4.00  84.80 2661.36
   00:18:05.000.28-May-2021 3671.00 3178.13 84.50 4.00  85.00 2661.36
   00:18:05.200.28-May-2021 3671.00 3178.13 84.50 4.00  85.20 2661.36
   00:18:05.400.28-May-2021 3671.00 3178.15 84.50 4.00  85.40 2661.36
   00:18:05.600.28-May-2021 3671.00 3178.06 84.50 4.00  85.60 2661.36
   00:18:05.800.28-May-2021 3671.00 3177.93 84.50 4.00  85.80 2661.36
   00:18:06.000.28-May-2021 3671.00 3177.99 84.50 4.00  86.00 2661.36
   00:18:06.200.28-May-2021 3671.00 3177.99 84.50 4.00  86.20 2661.36
   00:18:06.400.28-May-2021 3671.00 3178.05 84.50 4.00  86.40 2661.36
   00:18:06.600.28-May-2021 3671.00 3178.08 84.50 4.00  86.60 2661.36
   00:18:06.800.28-May-2021 3671.00 3178.11 84.50 4.00  86.80 2661.36
   00:18:07.000.28-May-2021 3671.00 3178.12 84.50 4.00  87.00 2661.36
   00:18:07.200.28-May-2021 3671.00 3178.12 84.50 4.00  87.20 2661.36
   00:18:07.400.28-May-2021 3671.00 3178.14 84.50 4.00  87.40 2661.36
   00:18:07.600.28-May-2021 3671.00 3178.16 84.50 4.00  87.60 2661.36
   00:18:07.800.28-May-2021 3671.00 3178.18 84.50 4.00  87.80 2661.36
   00:18:08.000.28-May-2021 3671.00 3178.20 84.50 4.00  88.00 2661.36
   00:18:08.200.28-May-2021 3671.00 3178.20 84.50 4.00  88.20 2661.36
   00:18:08.400.28-May-2021 3671.00 3177.96 84.50 4.00  88.40 2661.36
   00:18:08.600.28-May-2021 3671.00 3178.04 84.50 4.00  88.60 2661.36
   00:18:08.800.28-May-2021 3671.00 3178.06 84.50 4.00  88.80 2661.36
   00:18:09.000.28-May-2021 3671.00 3177.83 84.50 4.00  89.00 2661.36
   00:18:09.200.28-May-2021 3671.00 3177.83 84.50 4.00  89.20 2661.36
   00:18:09.400.28-May-2021 3671.00 3178.02 84.50 4.00  89.40 2661.36
   00:18:09.600.28-May-2021 3671.00 3178.06 84.50 4.00  89.60 2661.36
   00:18:09.800.28-May-2021 3671.00 3178.05 84.50 4.00  89.80 2661.36
   00:18:10.000.28-May-2021 3671.00 3178.06 84.50 4.00  90.00 2661.36
   00:18:10.200.28-May-2021 3671.00 3178.06 84.50 4.00  90.20 2661.36
   00:18:10.400.28-May-2021 3671.00 3178.03 84.50 4.00  90.40 2661.36
   00:18:10.600.28-May-2021 3671.00 3178.05 84.50 4.00  90.60 2661.36
   00:18:10.800.28-May-2021 3671.00 3177.98 84.50 4.00  90.80 2661.36
   00:18:11.000.28-May-2021 3671.00 3178.08 84.50 4.00  91.00 2661.36
   00:18:11.200.28-May-2021 3671.00 3178.08 84.50 4.00  91.20 2661.36
   00:18:11.400.28-May-2021 3671.00 3178.06 84.50 4.00  91.40 2661.36
   00:18:11.600.28-May-2021 3671.00 3178.06 84.50 4.00  91.60 2661.36
   00:18:11.800.28-May-2021 3671.00 3178.09 84.50 4.00  91.80 2661.36
