~Version Information
 VERS.                  2.0:   CWLS log ASCII Standard -VERSION 2.0
 WRAP.                   NO:   One line per depth step
~Well Information Block
#MNEM.UNIT     VALUE/NAME     DESCRIPTION
#---------     -----------    ---------------------------
 STRT.S             06:06:39 28-May-21: START TIME 06:06:39 28-May-21
 STOP.S             06:13:42 28-May-21: STOP TIME  06:13:42 28-May-21
 STEP.S                   0.00: STEP TIME
 NULL.                 -999.25: NULL VALUE
 UWI .                     N/A:  UNIQUE WELL IDENTIFIER
 API .                     N/A:  API NUMBER
 UNIT.                     N/A:  LOGGING EQUIPMENT ID
 DCON.         Sperry Drilling:  DIRECTNL CONTR
 DOE .                     N/A:  DOE NUMBER
 MWDS.                    Baku:  MWD SHOP
 SRVC.     Turan Drilling and Engineering:  CONTRACTOR
 CTRY.              Azerbaijan:  COUNTRY NAME
 PROV.                    Baku:  PROVINCE
 STAT.                    Baku:  STATE NAME
 REGN.                   EESSA:  REGION
 BASE.              Azerbaijan:  LOGGING EQUIPMENT BASE LOCATION
 WTYP.                Deviated:  WELL TYPE
 RIG .              East Azeri:  RIG NAME
 WELL.                    D02y:  WELL NAME
 FLD .                     ACG:  FIELD NAME
 COMP.     BP Exploration (Caspian Sea) Ltd.:  COMPANY
 PDAT.          Mean Sea Level:  PERMANENT DATUM
 MDS .        Operator Entered:  MAG DATA SOURCE
 SON .        AZ-XX-0906997291:  JOB NUMBER
 FTOP.          Formation Tops:  FORM TOPS DESC
 ILTD.               Lithology:  INTERP LTH DESC
 SVYD.                  Survey:  SURVEY DESC
 DMOD.             Drill Model:  DRILL MOD DESC
 HPTY.       Minimum Curvature:  HOLE POS TYPE
 NREF.                    Grid:  NORTH REFERENCE
 SPUD.               05-May-21:  SPUD DATE
 DATE.      09.27.28 12-Jun-21:  END TIME
 STIM.      09.27.28 12-May-21:  START TIME
 DMF .             Drill Floor:  DRILL MEAS FROM
 DFST.                        :  DIST FSL TEXT
 DFWT.                        :  DIST FWL TEXT
 CNTY.                        :  COUNTY
 LOC .                        :  LOCATION
 LMF .             Drill Floor:  LOG MEASURED FROM
 DEP .m                2806.40:  DEPTH
 AGAP.m                  43.60:  AIR GAP
 VSNS.m                  -4.42:  VERT SEC N/S
 VSEW.m                  -7.31:  VERT SEC E/W
 APD .m                  43.60:  DEPTH ABOVE PD
 WDMS.m                 151.80:  WD ELEV
 EGL .m                   0.00:  GROUND ELEVATION
 EPD .m                   0.00:  ELEVATION
 AZTC.deg                 6.18:  AZM TOTAL CORR
 GRDC.deg                 0.29:  GRID CORRECTION
 MDEC.deg                 6.47:  MAGNETIC DECL
 MDIP.deg                59.50:  MAGNETIC DIP
 MFLD.nT              50350.00:  MAGNETIC FIELD
 GVFD.g                   1.00:  GRAVITY FIELD
 VSDR.deg               179.08:  VERT SEC DIRECT
 TDD .m                4300.00:  TOTAL DEPTH (DRILLER)
 SDEP.m                2800.00:  START DEPTH
 DFSL.m                   0.00:  DISTANCE FSL
 DFWL.m                   0.00:  DISTANCE FWL
 UTMY.m             4431871.34:  UTM Y
 UTMX.m              538762.90:  UTM X
 WHEW.m                  -7.31:  WELL HEAD E/W
 WHNS.m                  -4.42:  WELL HEAD N/S
 LONG.deg                51.45:  LONGITUDE
 LATI.deg                40.02:  LATITUDE
 TVDS.m                  43.60:  TVDSS CORRECTN
 EKB .m                  43.60:  KB ELEVATION
 EDF .m                  43.60:  DF ELEVATION
 TDL .m                 806.00:  TOTAL DEPTH (LOGGER)
 MAGU.                 1851231:  MAGUTM CHECKSUM
 VSC .                       0:  VS TO CLOSURE
~Parameter Information Block
#MNEM.UNIT       Value        Description
#---------     -----------    ---------------------------
 AV  .mps                 1.60:  Ann Velocity 
 AVMX.mps                 2.00:  Max Ann Veloc 
 AZIF.deg               140.24:  Azm, Final 
 BHAT.        Rotary Steerable:  BHA Type 
 BROT.°/30m               0.50:  Build Rotating 
 BS  .in                  8.50:  Bit Size 
 BTPL.psig              619.00:  Bit Press Loss 
 CABU.                     Yes:  Customer Abuse 
 CGEO.          Ilgar Gurbanov:  Customer Geo 
 COMM.                     ´.T:  Run Comments 1 
 TCS .hr                 85.88:  Time Ciculation Ended 
 CV  .mps                 3.30:  Crit Velocity 
 CVMX.mps                 3.50:  Max Crit Veloc 
 DD1 .           Hamid Axmedov:  Direct Drillr 1 
 DD2 .           Teymur Aliyev:  Direct Drillr 2 
 DDSV.               Geo-Pilot:  DD Service 
 DEFF.%                 100.00:  % Det Eff 
 DLRX.°/30m               0.00:  Dogleg Rot Max 
 DLSO.°/30m               1.80:  Dogleg Oriented 
 DLSX.°/30m               3.34:  Dogleg Str Max 
 DRET.      11.50.00 27-May-21:  Drill End Time 
 DRST.      21.13.00 24-May-21:  Drill Start Tim 
 DTIM.hr                 45.11:  Time Drilling 
 EDEP.m                4054.00:  End Depth 
 ENG1.         Almaz Almadatov:  Engineer 1 
 ENG2.           Amrah Tahirov:  Engineer 2 
 ENG3.      Bakhtiyar Jabbarli:  Engineer 3 
 ENG4.          Nazrin Asgarli:  Engineer 4 
 ETIM.      10.00.00 30-May-21:  End Time 
 FLOI.gpm               530.00:  Flow In 
 FLON.gpm               400.00:  Flow In Min 
 FLOS.cptm                0.00:  Fluid Loss 
 FLOX.gpm               560.00:  Flow In Max 
 DFT .        Mineral Oil Base:  Mud Type 
 FTRO.       Formation Presure:  FTWD Run Obj 
 HFLO.                      No:  High Flow 
 HPRE.                      No:  High Pressure 
 HTEM.                      No:  High Temp 
 HYDO.m                   1.80:  Hydro Offset 
 IFIN.deg                73.83:  Inc, Final 
 IMAX.deg                73.83:  Inc Max 
 IMIN.deg                57.86:  Inc Min 
 IMND.m                3259.27:  Inc Min Depth 
 IMXD.m                4045.58:  Inc Max Depth 
 JARR.                     Yes:  Jarring 
 LETM.      11.50.00 27-May-21:  Log End Time 
 LOST.hr                     0:  Lost Rig Time 
 LSTM.      21.13.00 24-May-21:  Log Start Time 
 MDCL.ppm             42500.00:  Mud Chlorides 
 MDES.     Inversion Oil/Synthetic:  Mud Desc 
 DFD .sg                  1.52:  Mud Density 
 MDMN.sg                  1.52:  Dens Mud Min 
 MDMX.sg                  1.52:  Dens Mud Max 
 MOIL.                      70:  Run Mud Oil % 
 MOWR.                   70:30:  Run Mud OWR 
 MSND.                     0.2:  Run Mud Sand % 
 MSOL.                      22:  Run Mud Solids% 
 DFV .spqt               77.00:  Mud Viscosity 
 MWOD.in                  6.75:  MWD Tool OD 
 MWSI.                      No:  Serv Intrp, MWD 
 OTIM.hr                151.01:  Time Operating 
 PCON.          Wear / Scratch:  Pad Condition 
 PMAX.psia            11296.93:  Press Op, Max 
 PV  .cP                 37.00:  Mud PV 
 RUN .                     500:  Run Number 
 ROPA.m/hr               25.00:  ROP Avg 
 ROPN.m/hr                9.00:  ROP Min 
 ROPX.m/hr               28.00:  ROP Max 
 RPMA.rpm               140.00:  RPM Surface Avg 
 RPMN.rpm                90.00:  RPM Surface Min 
 RPMX.rpm               140.00:  RPM Surface Max 
 RRUN.                    0500:  Rig Run Number 
 SAZI.deg               172.17:  Azm, Start 
 SDEP.m                3248.00:  Start Depth 
 SIDD.                      No:  Serv Intrp, DD 
 SINC.deg                57.86:  Inc, Start 
 SPPA.psig             5620.00:  SPP Avg 
 SPPN.psig             5190.00:  SPP Min 
 SPPX.psig             6050.00:  SPP Max 
 STIM.      16.00.00 23-May-21:  Start Time 
 SVCS.                 DD, MWD:  Services 
 SVER.                    9.20:  Sperry Version 
 TDAT.m                 806.00:  Tot Depth Attmp 
 TDDF.                      No:  Trip for DD 
 TDLG.m                 806.00:  Tot Depth Loggd 
 TFF .                      No:  Trip for Fail 
 TQAA.f-kp               12.00:  Torque Abs Avg 
 TQAN.f-kp                8.00:  Torque Abs Min 
 TQAX.f-kp               15.00:  Torque Abs Max 
 TRRT.°/30m               0.30:  Turn Rotating 
 MRT .                  EWR-M5:  Maximum Recorded Temperature 
 TTMX.degC               93.00:  Max Tool Temp 
 VS01.                90649155:  Virtual Str1 SN 
 VS02.                90642264:  Virtual Str2 SN 
 VS03.                90642266:  Virtual Str3 SN 
 VS04.                90642261:  Virtual Str4 SN 
 WBMN.klb                 0.00:  WOB Min 
 WITN.             Anar Khalil:  Customer Rep 
 WITN.           Murad Guliyev:  Customer Rep 2 
 WOBA.klb                13.00:  WOB Avg 
 WOBX.klb                25.00:  WOB Max 
 YP  .lhf2               32.00:  Yield Point 
~Curve Information Block
#MNEM.UNIT                 API CODE     Curve Description
#---------               -----------    ---------------------------
 TIME.HHMMSS            00 000 000 000:  GT Time & Date
 GTDEPTH.m              00 000 000 000:  GT Depth
 GTPQH.psia             00 000 000 000:  GT HR Quartz Pressure
 GTTQ.degC              00 000 000 000:  GT Quartz Temperature
 GTTN.NONE              00 000 000 000:  GT Test Number
 GTET.sec               00 000 000 000:  GT Elapsed Test Time
 GTTVD.m                00 000 000 000:  GT True Vertical Depth
#Other Information
#
#WARRANTY: Halliburton will use its best efforts to furnish customers with 
#accurate information and interpretations that are part of, and incident to, the services 
#provided.  However, Halliburton cannot and does not warrant the accuracy 
#or correctness of such information and interpretations.  Under no circumstances should any 
#such information or interpretation be relied upon as the sole basis for any drilling, 
#completion, production, or financial decision or any procedure involving any risk to the 
#safety of any drilling venture, drilling rig or its crew or any other third party.  The 
#Customer has full responsibility for all drilling, completion and production operation.  
#Halliburton makes no representations or warranties, either expressed or 
#implied, including, but not limited to, the implied warranties of merchantability or fitness 
#for a particular purpose, with respect to the services rendered.  In no event will 
#Halliburton be liable for failure to obtain any particular results or for 
#any damages, including, but not limited to, indirect, special or consequential damages, 
#resulting from the use of any information or interpretation provided by Halliburton.
#
~A           TIME           GTDEPTH  GTPQH  GTTQ  GTTN   GTET   GTTVD  
# ...
   06:11:33.153.28-May-2021 3440.00 4242.45 83.30 12.00 293.92 2569.12
   06:11:33.353.28-May-2021 3440.00 4242.43 83.30 12.00 294.12 2569.12
   06:11:33.553.28-May-2021 3440.00 4242.43 83.30 12.00 294.32 2569.12
   06:11:33.753.28-May-2021 3440.00 4242.34 83.30 12.00 294.52 2569.12
   06:11:33.953.28-May-2021 3440.00 4242.58 83.30 12.00 294.72 2569.12
   06:11:34.153.28-May-2021 3440.00 4242.44 83.30 12.00 294.92 2569.12
   06:11:34.353.28-May-2021 3440.00 4242.48 83.30 12.00 295.12 2569.12
   06:11:34.553.28-May-2021 3440.00 4242.48 83.30 12.00 295.32 2569.12
   06:11:34.754.28-May-2021 3440.00 4242.45 83.30 12.00 295.52 2569.12
   06:11:34.954.28-May-2021 3440.00 4242.49 83.30 12.00 295.72 2569.12
   06:11:35.154.28-May-2021 3440.00 4242.43 83.30 12.00 295.92 2569.12
   06:11:35.354.28-May-2021 3440.00 4242.18 83.30 12.00 296.12 2569.12
   06:11:35.554.28-May-2021 3440.00 4242.18 83.30 12.00 296.32 2569.12
   06:11:35.754.28-May-2021 3440.00 4242.47 83.30 12.00 296.52 2569.12
   06:11:35.954.28-May-2021 3440.00 4242.44 83.30 12.00 296.72 2569.12
   06:11:36.154.28-May-2021 3440.00 4242.20 83.30 12.00 296.92 2569.12
   06:11:36.354.28-May-2021 3440.00 4242.72 83.30 12.00 297.12 2569.12
   06:11:36.554.28-May-2021 3440.00 4242.72 83.30 12.00 297.32 2569.12
   06:11:36.754.28-May-2021 3440.00 4242.44 83.30 12.00 297.52 2569.12
   06:11:36.954.28-May-2021 3440.00 4242.49 83.30 12.00 297.72 2569.12
   06:11:37.155.28-May-2021 3440.00 4242.45 83.30 12.00 297.92 2569.12
   06:11:37.355.28-May-2021 3440.00 4242.48 83.30 12.00 298.12 2569.12
   06:11:37.555.28-May-2021 3440.00 4242.48 83.30 12.00 298.32 2569.12
   06:11:37.755.28-May-2021 3440.00 4242.49 83.30 12.00 298.52 2569.12
   06:11:37.955.28-May-2021 3440.00 4242.46 83.30 12.00 298.72 2569.12
   06:11:38.155.28-May-2021 3440.00 4242.46 83.30 12.00 298.92 2569.12
   06:11:38.355.28-May-2021 3440.00 4242.48 83.30 12.00 299.13 2569.12
   06:11:38.555.28-May-2021 3440.00 4242.48 83.30 12.00 299.33 2569.12
   06:11:38.755.28-May-2021 3440.00 4242.02 83.30 12.00 299.53 2569.12
   06:11:38.955.28-May-2021 3440.00 4242.92 83.30 12.00 299.73 2569.12
   06:11:39.155.28-May-2021 3440.00 4242.48 83.30 12.00 299.93 2569.12
   06:11:39.355.28-May-2021 3440.00 4242.50 83.30 12.00 300.13 2569.12
   06:11:39.556.28-May-2021 3440.00 4242.50 83.30 12.00 300.33 2569.12
   06:11:39.756.28-May-2021 3440.00 4242.47 83.30 12.00 300.53 2569.12
   06:11:39.956.28-May-2021 3440.00 4242.48 83.30 12.00 300.73 2569.12
   06:11:40.156.28-May-2021 3440.00 4242.48 83.30 12.00 300.93 2569.12
   06:11:40.356.28-May-2021 3440.00 4242.49 83.30 12.00 301.13 2569.12
   06:11:40.556.28-May-2021 3440.00 4242.49 83.30 12.00 301.33 2569.12
   06:11:40.756.28-May-2021 3440.00 4242.49 83.30 12.00 301.53 2569.12
   06:11:40.956.28-May-2021 3440.00 4242.48 83.30 12.00 301.73 2569.12
   06:11:41.156.28-May-2021 3440.00 4242.48 83.30 12.00 301.93 2569.12
   06:11:41.356.28-May-2021 3440.00 4242.20 83.30 12.00 302.13 2569.12
   06:11:41.556.28-May-2021 3440.00 4242.20 83.30 12.00 302.33 2569.12
   06:11:41.756.28-May-2021 3440.00 4242.49 83.30 12.00 302.53 2569.12
   06:11:41.957.28-May-2021 3440.00 4242.47 83.30 12.00 302.73 2569.12
   06:11:42.157.28-May-2021 3440.00 4242.49 83.30 12.00 302.93 2569.12
   06:11:42.357.28-May-2021 3440.00 4242.04 83.30 12.00 303.13 2569.12
   06:11:42.557.28-May-2021 3440.00 4242.04 83.30 12.00 303.33 2569.12
   06:11:42.757.28-May-2021 3440.00 4242.47 83.30 12.00 303.53 2569.12
   06:11:42.957.28-May-2021 3440.00 4242.50 83.30 12.00 303.73 2569.12
   06:11:43.157.28-May-2021 3440.00 4242.07 83.30 12.00 303.93 2569.12
   06:11:43.357.28-May-2021 3440.00 4242.88 83.30 12.00 304.13 2569.12
   06:11:43.557.28-May-2021 3440.00 4242.88 83.30 12.00 304.33 2569.12
   06:11:43.757.28-May-2021 3440.00 4242.52 83.30 12.00 304.53 2569.12
   06:11:43.957.28-May-2021 3440.00 4242.02 83.30 12.00 304.73 2569.12
   06:11:44.157.28-May-2021 3440.00 4242.90 83.30 12.00 304.93 2569.12
   06:11:44.358.28-May-2021 3440.00 4242.50 83.31 12.00 305.13 2569.12
   06:11:44.558.28-May-2021 3440.00 4242.50 83.31 12.00 305.33 2569.12
   06:11:44.758.28-May-2021 3440.00 4242.47 83.31 12.00 305.53 2569.12
   06:11:44.958.28-May-2021 3440.00 4242.49 83.31 12.00 305.73 2569.12
   06:11:45.158.28-May-2021 3440.00 4242.48 83.31 12.00 305.93 2569.12
   06:11:45.358.28-May-2021 3440.00 4242.51 83.31 12.00 306.13 2569.12
   06:11:45.558.28-May-2021 3440.00 4242.51 83.31 12.00 306.33 2569.12
   06:11:45.758.28-May-2021 3440.00 4242.48 83.31 12.00 306.53 2569.12
   06:11:45.958.28-May-2021 3440.00 4242.51 83.31 12.00 306.73 2569.12
   06:11:46.158.28-May-2021 3440.00 4242.49 83.31 12.00 306.93 2569.12
   06:11:46.358.28-May-2021 3440.00 4242.48 83.31 12.00 307.13 2569.12
   06:11:46.558.28-May-2021 3440.00 4242.48 83.31 12.00 307.33 2569.12
   06:11:46.759.28-May-2021 3440.00 4242.51 83.31 12.00 307.53 2569.12
   06:11:46.959.28-May-2021 3440.00 4242.46 83.31 12.00 307.73 2569.12
   06:11:47.159.28-May-2021 3440.00 4242.53 83.31 12.00 307.93 2569.12
   06:11:47.359.28-May-2021 3440.00 4242.50 83.31 12.00 308.13 2569.12
   06:11:47.559.28-May-2021 3440.00 4242.50 83.31 12.00 308.33 2569.12
   06:11:47.759.28-May-2021 3440.00 4242.50 83.31 12.00 308.53 2569.12
   06:11:47.959.28-May-2021 3440.00 4242.51 83.31 12.00 308.73 2569.12
   06:11:48.159.28-May-2021 3440.00 4242.51 83.31 12.00 308.93 2569.12
   06:11:48.359.28-May-2021 3440.00 4242.51 83.31 12.00 309.13 2569.12
   06:11:48.559.28-May-2021 3440.00 4242.51 83.31 12.00 309.33 2569.12
   06:11:48.759.28-May-2021 3440.00 4242.50 83.31 12.00 309.53 2569.12
   06:11:48.959.28-May-2021 3440.00 4242.52 83.31 12.00 309.73 2569.12
   06:11:49.160.28-May-2021 3440.00 4242.08 83.31 12.00 309.93 2569.12
   06:11:49.360.28-May-2021 3440.00 4242.92 83.31 12.00 310.13 2569.12
   06:11:49.560.28-May-2021 3440.00 4242.92 83.31 12.00 310.33 2569.12
   06:11:49.760.28-May-2021 3440.00 4242.53 83.31 12.00 310.53 2569.12
   06:11:49.960.28-May-2021 3440.00 4242.46 83.31 12.00 310.73 2569.12
   06:11:50.160.28-May-2021 3440.00 4242.39 83.31 12.00 310.93 2569.12
   06:11:50.360.28-May-2021 3440.00 4242.63 83.31 12.00 311.13 2569.12
   06:11:50.560.28-May-2021 3440.00 4242.63 83.31 12.00 311.33 2569.12
   06:11:50.760.28-May-2021 3440.00 4242.55 83.31 12.00 311.53 2569.12
   06:11:50.960.28-May-2021 3440.00 4242.49 83.31 12.00 311.73 2569.12
   06:11:51.160.28-May-2021 3440.00 4242.50 83.31 12.00 311.93 2569.12
   06:11:51.360.28-May-2021 3440.00 4242.49 83.31 12.00 312.13 2569.12
   06:11:51.561.28-May-2021 3440.00 4242.49 83.31 12.00 312.33 2569.12
   06:11:51.761.28-May-2021 3440.00 4242.51 83.31 12.00 312.53 2569.12
   06:11:51.961.28-May-2021 3440.00 4242.54 83.31 12.00 312.73 2569.12
   06:11:52.161.28-May-2021 3440.00 4242.46 83.31 12.00 312.93 2569.12
   06:11:52.361.28-May-2021 3440.00 4242.54 83.31 12.00 313.13 2569.12
   06:11:52.561.28-May-2021 3440.00 4242.54 83.31 12.00 313.33 2569.12
   06:11:52.761.28-May-2021 3440.00 4242.49 83.31 12.00 313.53 2569.12
   06:11:52.961.28-May-2021 3440.00 4242.51 83.31 12.00 313.73 2569.12
   06:11:53.161.28-May-2021 3440.00 4242.52 83.31 12.00 313.93 2569.12
   06:11:53.361.28-May-2021 3440.00 4242.50 83.31 12.00 314.13 2569.12
   06:11:53.561.28-May-2021 3440.00 4242.50 83.31 12.00 314.33 2569.12
   06:11:53.761.28-May-2021 3440.00 4242.53 83.31 12.00 314.53 2569.12
   06:11:53.962.28-May-2021 3440.00 4242.51 83.31 12.00 314.73 2569.12
   06:11:54.162.28-May-2021 3440.00 4242.09 83.31 12.00 314.93 2569.12
   06:11:54.362.28-May-2021 3440.00 4242.96 83.31 12.00 315.13 2569.12
   06:11:54.562.28-May-2021 3440.00 4242.96 83.31 12.00 315.33 2569.12
   06:11:54.762.28-May-2021 3440.00 4242.54 83.31 12.00 315.53 2569.12
   06:11:54.962.28-May-2021 3440.00 4242.52 83.31 12.00 315.73 2569.12
   06:11:55.162.28-May-2021 3440.00 4242.49 83.31 12.00 315.93 2569.12
   06:11:55.362.28-May-2021 3440.00 4242.53 83.31 12.00 316.13 2569.12
   06:11:55.562.28-May-2021 3440.00 4242.53 83.31 12.00 316.33 2569.12
