~Version Information
 VERS.                  2.0:   CWLS log ASCII Standard -VERSION 2.0
 WRAP.                   NO:   One line per depth step
~Well Information Block
#MNEM.UNIT     VALUE/NAME     DESCRIPTION
#---------     -----------    ---------------------------
 STRT.S             00:59:34 28-May-21: START TIME 00:59:34 28-May-21
 STOP.S             01:06:40 28-May-21: STOP TIME  01:06:40 28-May-21
 STEP.S                   0.00: STEP TIME
 NULL.                 -999.25: NULL VALUE
 UWI .                     N/A:  UNIQUE WELL IDENTIFIER
 API .                     N/A:  API NUMBER
 UNIT.                     N/A:  LOGGING EQUIPMENT ID
 DCON.         Sperry Drilling:  DIRECTNL CONTR
 DOE .                     N/A:  DOE NUMBER
 MWDS.                    Baku:  MWD SHOP
 SRVC.     Turan Drilling and Engineering:  CONTRACTOR
 CTRY.              Azerbaijan:  COUNTRY NAME
 PROV.                    Baku:  PROVINCE
 STAT.                    Baku:  STATE NAME
 REGN.                   EESSA:  REGION
 BASE.              Azerbaijan:  LOGGING EQUIPMENT BASE LOCATION
 WTYP.                Deviated:  WELL TYPE
 RIG .              East Azeri:  RIG NAME
 WELL.                    D02y:  WELL NAME
 FLD .                     ACG:  FIELD NAME
 COMP.     BP Exploration (Caspian Sea) Ltd.:  COMPANY
 PDAT.          Mean Sea Level:  PERMANENT DATUM
 MDS .        Operator Entered:  MAG DATA SOURCE
 SON .        AZ-XX-0906997291:  JOB NUMBER
 FTOP.          Formation Tops:  FORM TOPS DESC
 ILTD.               Lithology:  INTERP LTH DESC
 SVYD.                  Survey:  SURVEY DESC
 DMOD.             Drill Model:  DRILL MOD DESC
 HPTY.       Minimum Curvature:  HOLE POS TYPE
 NREF.                    Grid:  NORTH REFERENCE
 SPUD.               05-May-21:  SPUD DATE
 DATE.      09.27.28 12-Jun-21:  END TIME
 STIM.      09.27.28 12-May-21:  START TIME
 DMF .             Drill Floor:  DRILL MEAS FROM
 DFST.                        :  DIST FSL TEXT
 DFWT.                        :  DIST FWL TEXT
 CNTY.                        :  COUNTY
 LOC .                        :  LOCATION
 LMF .             Drill Floor:  LOG MEASURED FROM
 DEP .m                2806.40:  DEPTH
 AGAP.m                  43.60:  AIR GAP
 VSNS.m                  -4.42:  VERT SEC N/S
 VSEW.m                  -7.31:  VERT SEC E/W
 APD .m                  43.60:  DEPTH ABOVE PD
 WDMS.m                 151.80:  WD ELEV
 EGL .m                   0.00:  GROUND ELEVATION
 EPD .m                   0.00:  ELEVATION
 AZTC.deg                 6.18:  AZM TOTAL CORR
 GRDC.deg                 0.29:  GRID CORRECTION
 MDEC.deg                 6.47:  MAGNETIC DECL
 MDIP.deg                59.50:  MAGNETIC DIP
 MFLD.nT              50350.00:  MAGNETIC FIELD
 GVFD.g                   1.00:  GRAVITY FIELD
 VSDR.deg               179.08:  VERT SEC DIRECT
 TDD .m                4300.00:  TOTAL DEPTH (DRILLER)
 SDEP.m                2800.00:  START DEPTH
 DFSL.m                   0.00:  DISTANCE FSL
 DFWL.m                   0.00:  DISTANCE FWL
 UTMY.m             4431871.34:  UTM Y
 UTMX.m              538762.90:  UTM X
 WHEW.m                  -7.31:  WELL HEAD E/W
 WHNS.m                  -4.42:  WELL HEAD N/S
 LONG.deg                51.45:  LONGITUDE
 LATI.deg                40.02:  LATITUDE
 TVDS.m                  43.60:  TVDSS CORRECTN
 EKB .m                  43.60:  KB ELEVATION
 EDF .m                  43.60:  DF ELEVATION
 TDL .m                 806.00:  TOTAL DEPTH (LOGGER)
 MAGU.                 1851231:  MAGUTM CHECKSUM
 VSC .                       0:  VS TO CLOSURE
~Parameter Information Block
#MNEM.UNIT       Value        Description
#---------     -----------    ---------------------------
 AV  .mps                 1.60:  Ann Velocity 
 AVMX.mps                 2.00:  Max Ann Veloc 
 AZIF.deg               140.24:  Azm, Final 
 BHAT.        Rotary Steerable:  BHA Type 
 BROT.°/30m               0.50:  Build Rotating 
 BS  .in                  8.50:  Bit Size 
 BTPL.psig              619.00:  Bit Press Loss 
 CABU.                     Yes:  Customer Abuse 
 CGEO.          Ilgar Gurbanov:  Customer Geo 
 COMM.                     ô:r:  Run Comments 1 
 TCS .hr                 85.88:  Time Ciculation Ended 
 CV  .mps                 3.30:  Crit Velocity 
 CVMX.mps                 3.50:  Max Crit Veloc 
 DD1 .           Hamid Axmedov:  Direct Drillr 1 
 DD2 .           Teymur Aliyev:  Direct Drillr 2 
 DDSV.               Geo-Pilot:  DD Service 
 DEFF.%                 100.00:  % Det Eff 
 DLRX.°/30m               0.00:  Dogleg Rot Max 
 DLSO.°/30m               1.80:  Dogleg Oriented 
 DLSX.°/30m               3.34:  Dogleg Str Max 
 DRET.      11.50.00 27-May-21:  Drill End Time 
 DRST.      21.13.00 24-May-21:  Drill Start Tim 
 DTIM.hr                 45.11:  Time Drilling 
 EDEP.m                4054.00:  End Depth 
 ENG1.         Almaz Almadatov:  Engineer 1 
 ENG2.           Amrah Tahirov:  Engineer 2 
 ENG3.      Bakhtiyar Jabbarli:  Engineer 3 
 ENG4.          Nazrin Asgarli:  Engineer 4 
 ETIM.      10.00.00 30-May-21:  End Time 
 FLOI.gpm               530.00:  Flow In 
 FLON.gpm               400.00:  Flow In Min 
 FLOS.cptm                0.00:  Fluid Loss 
 FLOX.gpm               560.00:  Flow In Max 
 DFT .        Mineral Oil Base:  Mud Type 
 FTRO.       Formation Presure:  FTWD Run Obj 
 HFLO.                      No:  High Flow 
 HPRE.                      No:  High Pressure 
 HTEM.                      No:  High Temp 
 HYDO.m                   1.80:  Hydro Offset 
 IFIN.deg                73.83:  Inc, Final 
 IMAX.deg                73.83:  Inc Max 
 IMIN.deg                57.86:  Inc Min 
 IMND.m                3259.27:  Inc Min Depth 
 IMXD.m                4045.58:  Inc Max Depth 
 JARR.                     Yes:  Jarring 
 LETM.      11.50.00 27-May-21:  Log End Time 
 LOST.hr                     0:  Lost Rig Time 
 LSTM.      21.13.00 24-May-21:  Log Start Time 
 MDCL.ppm             42500.00:  Mud Chlorides 
 MDES.     Inversion Oil/Synthetic:  Mud Desc 
 DFD .sg                  1.52:  Mud Density 
 MDMN.sg                  1.52:  Dens Mud Min 
 MDMX.sg                  1.52:  Dens Mud Max 
 MOIL.                      70:  Run Mud Oil % 
 MOWR.                   70:30:  Run Mud OWR 
 MSND.                     0.2:  Run Mud Sand % 
 MSOL.                      22:  Run Mud Solids% 
 DFV .spqt               77.00:  Mud Viscosity 
 MWOD.in                  6.75:  MWD Tool OD 
 MWSI.                      No:  Serv Intrp, MWD 
 OTIM.hr                151.01:  Time Operating 
 PCON.          Wear / Scratch:  Pad Condition 
 PMAX.psia            11296.93:  Press Op, Max 
 PV  .cP                 37.00:  Mud PV 
 RUN .                     500:  Run Number 
 ROPA.m/hr               25.00:  ROP Avg 
 ROPN.m/hr                9.00:  ROP Min 
 ROPX.m/hr               28.00:  ROP Max 
 RPMA.rpm               140.00:  RPM Surface Avg 
 RPMN.rpm                90.00:  RPM Surface Min 
 RPMX.rpm               140.00:  RPM Surface Max 
 RRUN.                    0500:  Rig Run Number 
 SAZI.deg               172.17:  Azm, Start 
 SDEP.m                3248.00:  Start Depth 
 SIDD.                      No:  Serv Intrp, DD 
 SINC.deg                57.86:  Inc, Start 
 SPPA.psig             5620.00:  SPP Avg 
 SPPN.psig             5190.00:  SPP Min 
 SPPX.psig             6050.00:  SPP Max 
 STIM.      16.00.00 23-May-21:  Start Time 
 SVCS.                 DD, MWD:  Services 
 SVER.                    9.20:  Sperry Version 
 TDAT.m                 806.00:  Tot Depth Attmp 
 TDDF.                      No:  Trip for DD 
 TDLG.m                 806.00:  Tot Depth Loggd 
 TFF .                      No:  Trip for Fail 
 TQAA.f-kp               12.00:  Torque Abs Avg 
 TQAN.f-kp                8.00:  Torque Abs Min 
 TQAX.f-kp               15.00:  Torque Abs Max 
 TRRT.°/30m               0.30:  Turn Rotating 
 MRT .                  EWR-M5:  Maximum Recorded Temperature 
 TTMX.degC               93.00:  Max Tool Temp 
 VS01.                90649155:  Virtual Str1 SN 
 VS02.                90642264:  Virtual Str2 SN 
 VS03.                90642266:  Virtual Str3 SN 
 VS04.                90642261:  Virtual Str4 SN 
 WBMN.klb                 0.00:  WOB Min 
 WITN.             Anar Khalil:  Customer Rep 
 WITN.           Murad Guliyev:  Customer Rep 2 
 WOBA.klb                13.00:  WOB Avg 
 WOBX.klb                25.00:  WOB Max 
 YP  .lhf2               32.00:  Yield Point 
~Curve Information Block
#MNEM.UNIT                 API CODE     Curve Description
#---------               -----------    ---------------------------
 TIME.HHMMSS            00 000 000 000:  GT Time & Date
 GTDEPTH.m              00 000 000 000:  GT Depth
 GTPQH.psia             00 000 000 000:  GT HR Quartz Pressure
 GTTQ.degC              00 000 000 000:  GT Quartz Temperature
 GTTN.NONE              00 000 000 000:  GT Test Number
 GTET.sec               00 000 000 000:  GT Elapsed Test Time
 GTTVD.m                00 000 000 000:  GT True Vertical Depth
#Other Information
#
#WARRANTY: Halliburton will use its best efforts to furnish customers with 
#accurate information and interpretations that are part of, and incident to, the services 
#provided.  However, Halliburton cannot and does not warrant the accuracy 
#or correctness of such information and interpretations.  Under no circumstances should any 
#such information or interpretation be relied upon as the sole basis for any drilling, 
#completion, production, or financial decision or any procedure involving any risk to the 
#safety of any drilling venture, drilling rig or its crew or any other third party.  The 
#Customer has full responsibility for all drilling, completion and production operation.  
#Halliburton makes no representations or warranties, either expressed or 
#implied, including, but not limited to, the implied warranties of merchantability or fitness 
#for a particular purpose, with respect to the services rendered.  In no event will 
#Halliburton be liable for failure to obtain any particular results or for 
#any damages, including, but not limited to, indirect, special or consequential damages, 
#resulting from the use of any information or interpretation provided by Halliburton.
#
~A           TIME           GTDEPTH  GTPQH  GTTQ  GTTN  GTET   GTTVD  
# ...
   01:03:25.191.28-May-2021 3649.00 3165.52 84.93 5.00 230.24 2653.32
   01:03:25.391.28-May-2021 3649.00 3165.52 84.93 5.00 230.44 2653.32
   01:03:25.591.28-May-2021 3649.00 3165.52 84.93 5.00 230.64 2653.32
   01:03:25.791.28-May-2021 3649.00 3165.53 84.93 5.00 230.84 2653.32
   01:03:25.992.28-May-2021 3649.00 3165.53 84.93 5.00 231.04 2653.32
   01:03:26.192.28-May-2021 3649.00 3165.53 84.93 5.00 231.24 2653.32
   01:03:26.392.28-May-2021 3649.00 3165.53 84.93 5.00 231.44 2653.32
   01:03:26.592.28-May-2021 3649.00 3165.53 84.93 5.00 231.64 2653.32
   01:03:26.793.28-May-2021 3649.00 3165.53 84.93 5.00 231.84 2653.32
   01:03:26.993.28-May-2021 3649.00 3165.52 84.93 5.00 232.04 2653.32
   01:03:27.193.28-May-2021 3649.00 3165.52 84.93 5.00 232.24 2653.32
   01:03:27.393.28-May-2021 3649.00 3165.52 84.93 5.00 232.44 2653.32
   01:03:27.593.28-May-2021 3649.00 3165.52 84.93 5.00 232.64 2653.32
   01:03:27.794.28-May-2021 3649.00 3165.52 84.93 5.00 232.84 2653.32
   01:03:27.994.28-May-2021 3649.00 3165.52 84.93 5.00 233.04 2653.32
   01:03:28.194.28-May-2021 3649.00 3165.53 84.93 5.00 233.24 2653.32
   01:03:28.394.28-May-2021 3649.00 3165.53 84.93 5.00 233.44 2653.32
   01:03:28.594.28-May-2021 3649.00 3165.52 84.93 5.00 233.64 2653.32
   01:03:28.795.28-May-2021 3649.00 3165.51 84.93 5.00 233.84 2653.32
   01:03:28.995.28-May-2021 3649.00 3165.53 84.93 5.00 234.04 2653.32
   01:03:29.195.28-May-2021 3649.00 3165.52 84.93 5.00 234.24 2653.32
   01:03:29.395.28-May-2021 3649.00 3165.52 84.93 5.00 234.44 2653.32
   01:03:29.595.28-May-2021 3649.00 3165.53 84.93 5.00 234.64 2653.32
   01:03:29.796.28-May-2021 3649.00 3165.52 84.93 5.00 234.84 2653.32
   01:03:29.996.28-May-2021 3649.00 3165.51 84.93 5.00 235.04 2653.32
   01:03:30.196.28-May-2021 3649.00 3165.52 84.93 5.00 235.24 2653.32
   01:03:30.396.28-May-2021 3649.00 3165.52 84.93 5.00 235.44 2653.32
   01:03:30.596.28-May-2021 3649.00 3165.52 84.93 5.00 235.65 2653.32
   01:03:30.797.28-May-2021 3649.00 3165.52 84.93 5.00 235.85 2653.32
   01:03:30.997.28-May-2021 3649.00 3165.52 84.93 5.00 236.05 2653.32
   01:03:31.197.28-May-2021 3649.00 3165.52 84.93 5.00 236.25 2653.32
   01:03:31.397.28-May-2021 3649.00 3165.52 84.93 5.00 236.45 2653.32
   01:03:31.598.28-May-2021 3649.00 3165.53 84.93 5.00 236.65 2653.32
   01:03:31.798.28-May-2021 3649.00 3165.51 84.93 5.00 236.85 2653.32
   01:03:31.998.28-May-2021 3649.00 3165.50 84.93 5.00 237.05 2653.32
   01:03:32.198.28-May-2021 3649.00 3165.54 84.93 5.00 237.25 2653.32
   01:03:32.398.28-May-2021 3649.00 3165.54 84.93 5.00 237.45 2653.32
   01:03:32.599.28-May-2021 3649.00 3165.52 84.93 5.00 237.65 2653.32
   01:03:32.799.28-May-2021 3649.00 3165.51 84.93 5.00 237.85 2653.32
   01:03:32.999.28-May-2021 3649.00 3165.52 84.93 5.00 238.05 2653.32
   01:03:33.199.28-May-2021 3649.00 3165.51 84.93 5.00 238.25 2653.32
   01:03:33.399.28-May-2021 3649.00 3165.51 84.93 5.00 238.45 2653.32
   01:03:33.600.28-May-2021 3649.00 3165.52 84.93 5.00 238.65 2653.32
   01:03:33.800.28-May-2021 3649.00 3165.51 84.93 5.00 238.85 2653.32
   01:03:34.000.28-May-2021 3649.00 3165.52 84.93 5.00 239.05 2653.32
   01:03:34.200.28-May-2021 3649.00 3165.51 84.93 5.00 239.25 2653.32
   01:03:34.400.28-May-2021 3649.00 3165.51 84.93 5.00 239.45 2653.32
   01:03:34.601.28-May-2021 3649.00 3165.50 84.93 5.00 239.65 2653.32
   01:03:34.801.28-May-2021 3649.00 3165.53 84.93 5.00 239.85 2653.32
   01:03:35.001.28-May-2021 3649.00 3165.51 84.93 5.00 240.05 2653.32
   01:03:35.201.28-May-2021 3649.00 3165.51 84.93 5.00 240.25 2653.32
   01:03:35.401.28-May-2021 3649.00 3165.51 84.93 5.00 240.45 2653.32
   01:03:35.602.28-May-2021 3649.00 3165.50 84.93 5.00 240.65 2653.32
   01:03:35.802.28-May-2021 3649.00 3165.51 84.93 5.00 240.85 2653.32
   01:03:36.002.28-May-2021 3649.00 3165.51 84.93 5.00 241.05 2653.32
   01:03:36.202.28-May-2021 3649.00 3165.52 84.93 5.00 241.25 2653.32
   01:03:36.403.28-May-2021 3649.00 3165.52 84.93 5.00 241.45 2653.32
   01:03:36.603.28-May-2021 3649.00 3165.52 84.93 5.00 241.65 2653.32
   01:03:36.803.28-May-2021 3649.00 3165.51 84.93 5.00 241.85 2653.32
   01:03:37.003.28-May-2021 3649.00 3165.50 84.93 5.00 242.05 2653.32
   01:03:37.203.28-May-2021 3649.00 3165.52 84.93 5.00 242.25 2653.32
   01:03:37.404.28-May-2021 3649.00 3165.52 84.93 5.00 242.45 2653.32
   01:03:37.604.28-May-2021 3649.00 3165.50 84.93 5.00 242.65 2653.32
   01:03:37.804.28-May-2021 3649.00 3165.52 84.93 5.00 242.85 2653.32
   01:03:38.004.28-May-2021 3649.00 3165.50 84.93 5.00 243.05 2653.32
   01:03:38.204.28-May-2021 3649.00 3165.52 84.93 5.00 243.25 2653.32
   01:03:38.405.28-May-2021 3649.00 3165.52 84.93 5.00 243.45 2653.32
   01:03:38.605.28-May-2021 3649.00 3165.50 84.93 5.00 243.65 2653.32
   01:03:38.805.28-May-2021 3649.00 3165.51 84.93 5.00 243.85 2653.32
   01:03:39.005.28-May-2021 3649.00 3165.50 84.93 5.00 244.05 2653.32
   01:03:39.205.28-May-2021 3649.00 3165.52 84.93 5.00 244.25 2653.32
   01:03:39.406.28-May-2021 3649.00 3165.52 84.93 5.00 244.45 2653.32
   01:03:39.606.28-May-2021 3649.00 3165.50 84.93 5.00 244.65 2653.32
   01:03:39.806.28-May-2021 3649.00 3165.51 84.93 5.00 244.85 2653.32
   01:03:40.006.28-May-2021 3649.00 3165.51 84.93 5.00 245.05 2653.32
   01:03:40.206.28-May-2021 3649.00 3165.49 84.93 5.00 245.26 2653.32
   01:03:40.407.28-May-2021 3649.00 3165.49 84.93 5.00 245.46 2653.32
   01:03:40.607.28-May-2021 3649.00 3165.50 84.93 5.00 245.66 2653.32
   01:03:40.807.28-May-2021 3649.00 3165.51 84.93 5.00 245.86 2653.32
   01:03:41.007.28-May-2021 3649.00 3165.50 84.93 5.00 246.06 2653.32
   01:03:41.208.28-May-2021 3649.00 3165.51 84.93 5.00 246.26 2653.32
   01:03:41.408.28-May-2021 3649.00 3165.51 84.93 5.00 246.46 2653.32
   01:03:41.608.28-May-2021 3649.00 3165.51 84.93 5.00 246.66 2653.32
   01:03:41.808.28-May-2021 3649.00 3165.51 84.93 5.00 246.86 2653.32
   01:03:42.008.28-May-2021 3649.00 3165.51 84.93 5.00 247.06 2653.32
   01:03:42.209.28-May-2021 3649.00 3165.52 84.93 5.00 247.26 2653.32
   01:03:42.409.28-May-2021 3649.00 3165.52 84.93 5.00 247.46 2653.32
   01:03:42.609.28-May-2021 3649.00 3165.50 84.93 5.00 247.66 2653.32
   01:03:42.809.28-May-2021 3649.00 3165.50 84.93 5.00 247.86 2653.32
   01:03:43.009.28-May-2021 3649.00 3165.53 84.93 5.00 248.06 2653.32
   01:03:43.210.28-May-2021 3649.00 3165.50 84.93 5.00 248.26 2653.32
   01:03:43.410.28-May-2021 3649.00 3165.50 84.93 5.00 248.46 2653.32
   01:03:43.610.28-May-2021 3649.00 3165.51 84.93 5.00 248.66 2653.32
   01:03:43.810.28-May-2021 3649.00 3165.50 84.93 5.00 248.86 2653.32
   01:03:44.010.28-May-2021 3649.00 3165.49 84.93 5.00 249.06 2653.32
   01:03:44.211.28-May-2021 3649.00 3165.50 84.93 5.00 249.26 2653.32
   01:03:44.411.28-May-2021 3649.00 3165.50 84.93 5.00 249.46 2653.32
   01:03:44.611.28-May-2021 3649.00 3165.50 84.93 5.00 249.66 2653.32
   01:03:44.811.28-May-2021 3649.00 3165.51 84.93 5.00 249.86 2653.32
   01:03:45.011.28-May-2021 3649.00 3165.49 84.93 5.00 250.06 2653.32
   01:03:45.212.28-May-2021 3649.00 3165.49 84.93 5.00 250.26 2653.32
   01:03:45.412.28-May-2021 3649.00 3165.49 84.93 5.00 250.46 2653.32
   01:03:45.612.28-May-2021 3649.00 3165.51 84.93 5.00 250.66 2653.32
   01:03:45.812.28-May-2021 3649.00 3165.48 84.93 5.00 250.86 2653.32
   01:03:46.013.28-May-2021 3649.00 3165.53 84.93 5.00 251.06 2653.32
   01:03:46.213.28-May-2021 3649.00 3165.50 84.93 5.00 251.26 2653.32
   01:03:46.413.28-May-2021 3649.00 3165.50 84.93 5.00 251.46 2653.32
   01:03:46.613.28-May-2021 3649.00 3165.50 84.93 5.00 251.66 2653.32
   01:03:46.813.28-May-2021 3649.00 3165.51 84.93 5.00 251.86 2653.32
   01:03:47.014.28-May-2021 3649.00 3165.50 84.93 5.00 252.06 2653.32
   01:03:47.214.28-May-2021 3649.00 3165.50 84.93 5.00 252.26 2653.32
   01:03:47.414.28-May-2021 3649.00 3165.50 84.93 5.00 252.46 2653.32
   01:03:47.614.28-May-2021 3649.00 3165.50 84.93 5.00 252.66 2653.32
   01:03:47.814.28-May-2021 3649.00 3165.50 84.93 5.00 252.86 2653.32
   01:03:48.015.28-May-2021 3649.00 3165.50 84.93 5.00 253.06 2653.32
