~Version Information
 VERS.                  2.0:   CWLS log ASCII Standard -VERSION 2.0
 WRAP.                   NO:   One line per depth step
~Well Information Block
#MNEM.UNIT     VALUE/NAME     DESCRIPTION
#---------     -----------    ---------------------------
 STRT.S             09:05:41 28-May-21: START TIME 09:05:41 28-May-21
 STOP.S             09:12:44 28-May-21: STOP TIME  09:12:44 28-May-21
 STEP.S                   0.00: STEP TIME
 NULL.                 -999.25: NULL VALUE
 UWI .                     N/A:  UNIQUE WELL IDENTIFIER
 API .                     N/A:  API NUMBER
 UNIT.                     N/A:  LOGGING EQUIPMENT ID
 DCON.         Sperry Drilling:  DIRECTNL CONTR
 DOE .                     N/A:  DOE NUMBER
 MWDS.                    Baku:  MWD SHOP
 SRVC.     Turan Drilling and Engineering:  CONTRACTOR
 CTRY.              Azerbaijan:  COUNTRY NAME
 PROV.                    Baku:  PROVINCE
 STAT.                    Baku:  STATE NAME
 REGN.                   EESSA:  REGION
 BASE.              Azerbaijan:  LOGGING EQUIPMENT BASE LOCATION
 WTYP.                Deviated:  WELL TYPE
 RIG .              East Azeri:  RIG NAME
 WELL.                    D02y:  WELL NAME
 FLD .                     ACG:  FIELD NAME
 COMP.     BP Exploration (Caspian Sea) Ltd.:  COMPANY
 PDAT.          Mean Sea Level:  PERMANENT DATUM
 MDS .        Operator Entered:  MAG DATA SOURCE
 SON .        AZ-XX-0906997291:  JOB NUMBER
 FTOP.          Formation Tops:  FORM TOPS DESC
 ILTD.               Lithology:  INTERP LTH DESC
 SVYD.                  Survey:  SURVEY DESC
 DMOD.             Drill Model:  DRILL MOD DESC
 HPTY.       Minimum Curvature:  HOLE POS TYPE
 NREF.                    Grid:  NORTH REFERENCE
 SPUD.               05-May-21:  SPUD DATE
 DATE.      09.27.28 12-Jun-21:  END TIME
 STIM.      09.27.28 12-May-21:  START TIME
 DMF .             Drill Floor:  DRILL MEAS FROM
 DFST.                        :  DIST FSL TEXT
 DFWT.                        :  DIST FWL TEXT
 CNTY.                        :  COUNTY
 LOC .                        :  LOCATION
 LMF .             Drill Floor:  LOG MEASURED FROM
 DEP .m                2806.40:  DEPTH
 AGAP.m                  43.60:  AIR GAP
 VSNS.m                  -4.42:  VERT SEC N/S
 VSEW.m                  -7.31:  VERT SEC E/W
 APD .m                  43.60:  DEPTH ABOVE PD
 WDMS.m                 151.80:  WD ELEV
 EGL .m                   0.00:  GROUND ELEVATION
 EPD .m                   0.00:  ELEVATION
 AZTC.deg                 6.18:  AZM TOTAL CORR
 GRDC.deg                 0.29:  GRID CORRECTION
 MDEC.deg                 6.47:  MAGNETIC DECL
 MDIP.deg                59.50:  MAGNETIC DIP
 MFLD.nT              50350.00:  MAGNETIC FIELD
 GVFD.g                   1.00:  GRAVITY FIELD
 VSDR.deg               179.08:  VERT SEC DIRECT
 TDD .m                4300.00:  TOTAL DEPTH (DRILLER)
 SDEP.m                2800.00:  START DEPTH
 DFSL.m                   0.00:  DISTANCE FSL
 DFWL.m                   0.00:  DISTANCE FWL
 UTMY.m             4431871.34:  UTM Y
 UTMX.m              538762.90:  UTM X
 WHEW.m                  -7.31:  WELL HEAD E/W
 WHNS.m                  -4.42:  WELL HEAD N/S
 LONG.deg                51.45:  LONGITUDE
 LATI.deg                40.02:  LATITUDE
 TVDS.m                  43.60:  TVDSS CORRECTN
 EKB .m                  43.60:  KB ELEVATION
 EDF .m                  43.60:  DF ELEVATION
 TDL .m                 806.00:  TOTAL DEPTH (LOGGER)
 MAGU.                 1851231:  MAGUTM CHECKSUM
 VSC .                       0:  VS TO CLOSURE
~Parameter Information Block
#MNEM.UNIT       Value        Description
#---------     -----------    ---------------------------
 AV  .mps                 1.60:  Ann Velocity 
 AVMX.mps                 2.00:  Max Ann Veloc 
 AZIF.deg               140.24:  Azm, Final 
 BHAT.        Rotary Steerable:  BHA Type 
 BROT.°/30m               0.50:  Build Rotating 
 BS  .in                  8.50:  Bit Size 
 BTPL.psig              619.00:  Bit Press Loss 
 CABU.                     Yes:  Customer Abuse 
 CGEO.          Ilgar Gurbanov:  Customer Geo 
 COMM.                     ÜøQ:  Run Comments 1 
 TCS .hr                 85.88:  Time Ciculation Ended 
 CV  .mps                 3.30:  Crit Velocity 
 CVMX.mps                 3.50:  Max Crit Veloc 
 DD1 .           Hamid Axmedov:  Direct Drillr 1 
 DD2 .           Teymur Aliyev:  Direct Drillr 2 
 DDSV.               Geo-Pilot:  DD Service 
 DEFF.%                 100.00:  % Det Eff 
 DLRX.°/30m               0.00:  Dogleg Rot Max 
 DLSO.°/30m               1.80:  Dogleg Oriented 
 DLSX.°/30m               3.34:  Dogleg Str Max 
 DRET.      11.50.00 27-May-21:  Drill End Time 
 DRST.      21.13.00 24-May-21:  Drill Start Tim 
 DTIM.hr                 45.11:  Time Drilling 
 EDEP.m                4054.00:  End Depth 
 ENG1.         Almaz Almadatov:  Engineer 1 
 ENG2.           Amrah Tahirov:  Engineer 2 
 ENG3.      Bakhtiyar Jabbarli:  Engineer 3 
 ENG4.          Nazrin Asgarli:  Engineer 4 
 ETIM.      10.00.00 30-May-21:  End Time 
 FLOI.gpm               530.00:  Flow In 
 FLON.gpm               400.00:  Flow In Min 
 FLOS.cptm                0.00:  Fluid Loss 
 FLOX.gpm               560.00:  Flow In Max 
 DFT .        Mineral Oil Base:  Mud Type 
 FTRO.       Formation Presure:  FTWD Run Obj 
 HFLO.                      No:  High Flow 
 HPRE.                      No:  High Pressure 
 HTEM.                      No:  High Temp 
 HYDO.m                   1.80:  Hydro Offset 
 IFIN.deg                73.83:  Inc, Final 
 IMAX.deg                73.83:  Inc Max 
 IMIN.deg                57.86:  Inc Min 
 IMND.m                3259.27:  Inc Min Depth 
 IMXD.m                4045.58:  Inc Max Depth 
 JARR.                     Yes:  Jarring 
 LETM.      11.50.00 27-May-21:  Log End Time 
 LOST.hr                     0:  Lost Rig Time 
 LSTM.      21.13.00 24-May-21:  Log Start Time 
 MDCL.ppm             42500.00:  Mud Chlorides 
 MDES.     Inversion Oil/Synthetic:  Mud Desc 
 DFD .sg                  1.52:  Mud Density 
 MDMN.sg                  1.52:  Dens Mud Min 
 MDMX.sg                  1.52:  Dens Mud Max 
 MOIL.                      70:  Run Mud Oil % 
 MOWR.                   70:30:  Run Mud OWR 
 MSND.                     0.2:  Run Mud Sand % 
 MSOL.                      22:  Run Mud Solids% 
 DFV .spqt               77.00:  Mud Viscosity 
 MWOD.in                  6.75:  MWD Tool OD 
 MWSI.                      No:  Serv Intrp, MWD 
 OTIM.hr                151.01:  Time Operating 
 PCON.          Wear / Scratch:  Pad Condition 
 PMAX.psia            11296.93:  Press Op, Max 
 PV  .cP                 37.00:  Mud PV 
 RUN .                     500:  Run Number 
 ROPA.m/hr               25.00:  ROP Avg 
 ROPN.m/hr                9.00:  ROP Min 
 ROPX.m/hr               28.00:  ROP Max 
 RPMA.rpm               140.00:  RPM Surface Avg 
 RPMN.rpm                90.00:  RPM Surface Min 
 RPMX.rpm               140.00:  RPM Surface Max 
 RRUN.                    0500:  Rig Run Number 
 SAZI.deg               172.17:  Azm, Start 
 SDEP.m                3248.00:  Start Depth 
 SIDD.                      No:  Serv Intrp, DD 
 SINC.deg                57.86:  Inc, Start 
 SPPA.psig             5620.00:  SPP Avg 
 SPPN.psig             5190.00:  SPP Min 
 SPPX.psig             6050.00:  SPP Max 
 STIM.      16.00.00 23-May-21:  Start Time 
 SVCS.                 DD, MWD:  Services 
 SVER.                    9.20:  Sperry Version 
 TDAT.m                 806.00:  Tot Depth Attmp 
 TDDF.                      No:  Trip for DD 
 TDLG.m                 806.00:  Tot Depth Loggd 
 TFF .                      No:  Trip for Fail 
 TQAA.f-kp               12.00:  Torque Abs Avg 
 TQAN.f-kp                8.00:  Torque Abs Min 
 TQAX.f-kp               15.00:  Torque Abs Max 
 TRRT.°/30m               0.30:  Turn Rotating 
 MRT .                  EWR-M5:  Maximum Recorded Temperature 
 TTMX.degC               93.00:  Max Tool Temp 
 VS01.                90649155:  Virtual Str1 SN 
 VS02.                90642264:  Virtual Str2 SN 
 VS03.                90642266:  Virtual Str3 SN 
 VS04.                90642261:  Virtual Str4 SN 
 WBMN.klb                 0.00:  WOB Min 
 WITN.             Anar Khalil:  Customer Rep 
 WITN.           Murad Guliyev:  Customer Rep 2 
 WOBA.klb                13.00:  WOB Avg 
 WOBX.klb                25.00:  WOB Max 
 YP  .lhf2               32.00:  Yield Point 
~Curve Information Block
#MNEM.UNIT                 API CODE     Curve Description
#---------               -----------    ---------------------------
 TIME.HHMMSS            00 000 000 000:  GT Time & Date
 GTDEPTH.m              00 000 000 000:  GT Depth
 GTPQH.psia             00 000 000 000:  GT HR Quartz Pressure
 GTTQ.degC              00 000 000 000:  GT Quartz Temperature
 GTTN.NONE              00 000 000 000:  GT Test Number
 GTET.sec               00 000 000 000:  GT Elapsed Test Time
 GTTVD.m                00 000 000 000:  GT True Vertical Depth
#Other Information
#
#WARRANTY: Halliburton will use its best efforts to furnish customers with 
#accurate information and interpretations that are part of, and incident to, the services 
#provided.  However, Halliburton cannot and does not warrant the accuracy 
#or correctness of such information and interpretations.  Under no circumstances should any 
#such information or interpretation be relied upon as the sole basis for any drilling, 
#completion, production, or financial decision or any procedure involving any risk to the 
#safety of any drilling venture, drilling rig or its crew or any other third party.  The 
#Customer has full responsibility for all drilling, completion and production operation.  
#Halliburton makes no representations or warranties, either expressed or 
#implied, including, but not limited to, the implied warranties of merchantability or fitness 
#for a particular purpose, with respect to the services rendered.  In no event will 
#Halliburton be liable for failure to obtain any particular results or for 
#any damages, including, but not limited to, indirect, special or consequential damages, 
#resulting from the use of any information or interpretation provided by Halliburton.
#
~A           TIME           GTDEPTH  GTPQH  GTTQ  GTTN   GTET   GTTVD  
# ...
   09:06:26.326.28-May-2021 3286.00 5875.53 82.35 15.00  45.21 2493.81
   09:06:26.526.28-May-2021 3286.00 5855.59 82.35 15.00  45.41 2493.81
   09:06:26.726.28-May-2021 3286.00 5845.96 82.35 15.00  45.61 2493.81
   09:06:26.926.28-May-2021 3286.00 5834.81 82.35 15.00  45.81 2493.81
   09:06:27.126.28-May-2021 3286.00 5822.75 82.35 15.00  46.01 2493.81
   09:06:27.326.28-May-2021 3286.00 5822.75 82.35 15.00  46.21 2493.81
   09:06:27.526.28-May-2021 3286.00 5811.53 82.35 15.00  46.41 2493.81
   09:06:27.726.28-May-2021 3286.00 5688.21 82.35 15.00  46.61 2493.81
   09:06:27.926.28-May-2021 3286.00 5458.82 82.35 15.00  46.81 2493.81
   09:06:28.126.28-May-2021 3286.00 5036.32 82.35 15.00  47.01 2493.81
   09:06:28.326.28-May-2021 3286.00 5036.32 82.35 15.00  47.21 2493.81
   09:06:28.526.28-May-2021 3286.00 4114.59 82.35 15.00  47.41 2493.81
   09:06:28.726.28-May-2021 3286.00 3938.84 82.35 15.00  47.61 2493.81
   09:06:28.926.28-May-2021 3286.00 3872.93 82.34 15.00  47.81 2493.81
   09:06:29.126.28-May-2021 3286.00 3667.47 82.34 15.00  48.01 2493.81
   09:06:29.327.28-May-2021 3286.00 3667.47 82.34 15.00  48.21 2493.81
   09:06:29.527.28-May-2021 3286.00 3485.59 82.34 15.00  48.41 2493.81
   09:06:29.727.28-May-2021 3286.00 3474.67 82.34 15.00  48.61 2493.81
   09:06:29.927.28-May-2021 3286.00 3470.79 82.34 15.00  48.81 2493.81
   09:06:30.127.28-May-2021 3286.00 3464.78 82.34 15.00  49.01 2493.81
   09:06:30.327.28-May-2021 3286.00 3464.78 82.34 15.00  49.21 2493.81
   09:06:30.527.28-May-2021 3286.00 3462.30 82.33 15.00  49.41 2493.81
   09:06:30.727.28-May-2021 3286.00 3462.65 82.33 15.00  49.61 2493.81
   09:06:30.927.28-May-2021 3286.00 3459.83 82.33 15.00  49.81 2493.81
   09:06:31.127.28-May-2021 3286.00 3466.41 82.33 15.00  50.01 2493.81
   09:06:31.327.28-May-2021 3286.00 3466.41 82.33 15.00  50.21 2493.81
   09:06:31.527.28-May-2021 3286.00 3461.16 82.33 15.00  50.41 2493.81
   09:06:31.727.28-May-2021 3286.00 3468.96 82.32 15.00  50.61 2493.81
   09:06:31.927.28-May-2021 3286.00 3469.35 82.32 15.00  50.81 2493.81
   09:06:32.127.28-May-2021 3286.00 3469.63 82.32 15.00  51.01 2493.81
   09:06:32.327.28-May-2021 3286.00 3469.63 82.32 15.00  51.21 2493.81
   09:06:32.527.28-May-2021 3286.00 3468.44 82.31 15.00  51.41 2493.81
   09:06:32.727.28-May-2021 3286.00 3467.47 82.31 15.00  51.61 2493.81
   09:06:32.927.28-May-2021 3286.00 3464.54 82.31 15.00  51.81 2493.81
   09:06:33.127.28-May-2021 3286.00 3472.12 82.31 15.00  52.01 2493.81
   09:06:33.327.28-May-2021 3286.00 3472.12 82.31 15.00  52.21 2493.81
   09:06:33.527.28-May-2021 3286.00 3474.55 82.30 15.00  52.41 2493.81
   09:06:33.727.28-May-2021 3286.00 3473.84 82.30 15.00  52.61 2493.81
   09:06:33.927.28-May-2021 3286.00 3475.44 82.30 15.00  52.81 2493.81
   09:06:34.127.28-May-2021 3286.00 3477.20 82.30 15.00  53.01 2493.81
   09:06:34.327.28-May-2021 3286.00 3477.20 82.30 15.00  53.21 2493.81
   09:06:34.527.28-May-2021 3286.00 3473.78 82.29 15.00  53.41 2493.81
   09:06:34.727.28-May-2021 3286.00 3472.78 82.29 15.00  53.61 2493.81
   09:06:34.927.28-May-2021 3286.00 3476.74 82.29 15.00  53.81 2493.81
   09:06:35.127.28-May-2021 3286.00 3479.67 82.29 15.00  54.01 2493.81
   09:06:35.327.28-May-2021 3286.00 3479.67 82.29 15.00  54.21 2493.81
   09:06:35.527.28-May-2021 3286.00 3475.19 82.29 15.00  54.41 2493.81
   09:06:35.727.28-May-2021 3286.00 3477.50 82.29 15.00  54.61 2493.81
   09:06:35.927.28-May-2021 3286.00 3479.07 82.28 15.00  54.81 2493.81
   09:06:36.127.28-May-2021 3286.00 3480.10 82.28 15.00  55.01 2493.81
   09:06:36.327.28-May-2021 3286.00 3480.10 82.28 15.00  55.21 2493.81
   09:06:36.527.28-May-2021 3286.00 3473.06 82.28 15.00  55.41 2493.81
   09:06:36.727.28-May-2021 3286.00 3474.68 82.28 15.00  55.61 2493.81
   09:06:36.928.28-May-2021 3286.00 3476.66 82.28 15.00  55.81 2493.81
   09:06:37.128.28-May-2021 3286.00 3479.13 82.28 15.00  56.01 2493.81
   09:06:37.328.28-May-2021 3286.00 3479.13 82.28 15.00  56.21 2493.81
   09:06:37.528.28-May-2021 3286.00 3716.48 82.28 15.00  56.41 2493.81
   09:06:37.728.28-May-2021 3286.00 3931.37 82.28 15.00  56.61 2493.81
   09:06:37.928.28-May-2021 3286.00 3993.63 82.28 15.00  56.81 2493.81
   09:06:38.128.28-May-2021 3286.00 4009.29 82.27 15.00  57.01 2493.81
   09:06:38.328.28-May-2021 3286.00 4009.29 82.27 15.00  57.21 2493.81
   09:06:38.528.28-May-2021 3286.00 4014.14 82.27 15.00  57.41 2493.81
   09:06:38.728.28-May-2021 3286.00 4014.61 82.27 15.00  57.61 2493.81
   09:06:38.928.28-May-2021 3286.00 4014.94 82.27 15.00  57.81 2493.81
   09:06:39.128.28-May-2021 3286.00 4015.18 82.27 15.00  58.01 2493.81
   09:06:39.328.28-May-2021 3286.00 4015.18 82.27 15.00  58.21 2493.81
   09:06:39.528.28-May-2021 3286.00 4015.41 82.27 15.00  58.41 2493.81
   09:06:39.728.28-May-2021 3286.00 4015.05 82.27 15.00  58.61 2493.81
   09:06:39.928.28-May-2021 3286.00 4016.53 82.27 15.00  58.81 2493.81
   09:06:40.128.28-May-2021 3286.00 4016.48 82.27 15.00  59.01 2493.81
   09:06:40.328.28-May-2021 3286.00 4016.48 82.27 15.00  59.21 2493.81
   09:06:40.528.28-May-2021 3286.00 4017.26 82.27 15.00  59.41 2493.81
   09:06:40.728.28-May-2021 3286.00 4016.87 82.27 15.00  59.61 2493.81
   09:06:40.928.28-May-2021 3286.00 4016.99 82.27 15.00  59.81 2493.81
   09:06:41.128.28-May-2021 3286.00 4017.01 82.27 15.00  60.01 2493.81
   09:06:41.328.28-May-2021 3286.00 4017.01 82.27 15.00  60.21 2493.81
   09:06:41.528.28-May-2021 3286.00 4016.49 82.27 15.00  60.41 2493.81
   09:06:41.728.28-May-2021 3286.00 4017.11 82.27 15.00  60.61 2493.81
   09:06:41.928.28-May-2021 3286.00 4017.17 82.27 15.00  60.81 2493.81
   09:06:42.128.28-May-2021 3286.00 4016.82 82.27 15.00  61.01 2493.81
   09:06:42.328.28-May-2021 3286.00 4016.82 82.27 15.00  61.21 2493.81
   09:06:42.528.28-May-2021 3286.00 4017.26 82.27 15.00  61.41 2493.81
   09:06:42.728.28-May-2021 3286.00 4017.30 82.27 15.00  61.61 2493.81
   09:06:42.928.28-May-2021 3286.00 4017.38 82.27 15.00  61.81 2493.81
   09:06:43.128.28-May-2021 3286.00 4017.42 82.27 15.00  62.01 2493.81
   09:06:43.328.28-May-2021 3286.00 4017.42 82.27 15.00  62.21 2493.81
   09:06:43.528.28-May-2021 3286.00 4017.45 82.27 15.00  62.41 2493.81
   09:06:43.728.28-May-2021 3286.00 4017.53 82.27 15.00  62.61 2493.81
   09:06:43.928.28-May-2021 3286.00 4017.56 82.27 15.00  62.81 2493.81
   09:06:44.128.28-May-2021 3286.00 4017.59 82.27 15.00  63.01 2493.81
   09:06:44.329.28-May-2021 3286.00 4017.59 82.27 15.00  63.21 2493.81
   09:06:44.529.28-May-2021 3286.00 4017.62 82.27 15.00  63.41 2493.81
   09:06:44.729.28-May-2021 3286.00 4017.64 82.27 15.00  63.61 2493.81
   09:06:44.929.28-May-2021 3286.00 4016.89 82.27 15.00  63.81 2493.81
   09:06:45.129.28-May-2021 3286.00 4017.49 82.27 15.00  64.01 2493.81
   09:06:45.329.28-May-2021 3286.00 4017.49 82.27 15.00  64.21 2493.81
   09:06:45.529.28-May-2021 3286.00 4017.57 82.27 15.00  64.41 2493.81
   09:06:45.729.28-May-2021 3286.00 4017.59 82.27 15.00  64.61 2493.81
   09:06:45.929.28-May-2021 3286.00 4017.63 82.27 15.00  64.81 2493.81
   09:06:46.129.28-May-2021 3286.00 4017.65 82.27 15.00  65.01 2493.81
   09:06:46.329.28-May-2021 3286.00 4017.65 82.27 15.00  65.21 2493.81
   09:06:46.529.28-May-2021 3286.00 4017.71 82.27 15.00  65.41 2493.81
   09:06:46.729.28-May-2021 3286.00 4017.73 82.27 15.00  65.61 2493.81
   09:06:46.929.28-May-2021 3286.00 4017.75 82.27 15.00  65.81 2493.81
   09:06:47.129.28-May-2021 3286.00 4017.77 82.27 15.00  66.01 2493.81
   09:06:47.329.28-May-2021 3286.00 4017.77 82.27 15.00  66.21 2493.81
   09:06:47.529.28-May-2021 3286.00 4017.75 82.27 15.00  66.41 2493.81
   09:06:47.729.28-May-2021 3286.00 4017.91 82.27 15.00  66.61 2493.81
   09:06:47.929.28-May-2021 3286.00 4017.61 82.27 15.00  66.81 2493.81
   09:06:48.129.28-May-2021 3286.00 4017.24 82.27 15.00  67.01 2493.81
   09:06:48.329.28-May-2021 3286.00 4017.24 82.27 15.00  67.21 2493.81
   09:06:48.529.28-May-2021 3286.00 4017.64 82.27 15.00  67.41 2493.81
   09:06:48.729.28-May-2021 3286.00 4017.64 82.27 15.00  67.61 2493.81
