~Version Information
 VERS.                  2.0:   CWLS log ASCII Standard -VERSION 2.0
 WRAP.                   NO:   One line per depth step
~Well Information Block
#MNEM.UNIT     VALUE/NAME     DESCRIPTION
#---------     -----------    ---------------------------
 STRT.S             04:01:58 28-May-21: START TIME 04:01:58 28-May-21
 STOP.S             04:09:02 28-May-21: STOP TIME  04:09:02 28-May-21
 STEP.S                   0.00: STEP TIME
 NULL.                 -999.25: NULL VALUE
 UWI .                     N/A:  UNIQUE WELL IDENTIFIER
 API .                     N/A:  API NUMBER
 UNIT.                     N/A:  LOGGING EQUIPMENT ID
 DCON.         Sperry Drilling:  DIRECTNL CONTR
 DOE .                     N/A:  DOE NUMBER
 MWDS.                    Baku:  MWD SHOP
 SRVC.     Turan Drilling and Engineering:  CONTRACTOR
 CTRY.              Azerbaijan:  COUNTRY NAME
 PROV.                    Baku:  PROVINCE
 STAT.                    Baku:  STATE NAME
 REGN.                   EESSA:  REGION
 BASE.              Azerbaijan:  LOGGING EQUIPMENT BASE LOCATION
 WTYP.                Deviated:  WELL TYPE
 RIG .              East Azeri:  RIG NAME
 WELL.                    D02y:  WELL NAME
 FLD .                     ACG:  FIELD NAME
 COMP.     BP Exploration (Caspian Sea) Ltd.:  COMPANY
 PDAT.          Mean Sea Level:  PERMANENT DATUM
 MDS .        Operator Entered:  MAG DATA SOURCE
 SON .        AZ-XX-0906997291:  JOB NUMBER
 FTOP.          Formation Tops:  FORM TOPS DESC
 ILTD.               Lithology:  INTERP LTH DESC
 SVYD.                  Survey:  SURVEY DESC
 DMOD.             Drill Model:  DRILL MOD DESC
 HPTY.       Minimum Curvature:  HOLE POS TYPE
 NREF.                    Grid:  NORTH REFERENCE
 SPUD.               05-May-21:  SPUD DATE
 DATE.      09.27.28 12-Jun-21:  END TIME
 STIM.      09.27.28 12-May-21:  START TIME
 DMF .             Drill Floor:  DRILL MEAS FROM
 DFST.                        :  DIST FSL TEXT
 DFWT.                        :  DIST FWL TEXT
 CNTY.                        :  COUNTY
 LOC .                        :  LOCATION
 LMF .             Drill Floor:  LOG MEASURED FROM
 DEP .m                2806.40:  DEPTH
 AGAP.m                  43.60:  AIR GAP
 VSNS.m                  -4.42:  VERT SEC N/S
 VSEW.m                  -7.31:  VERT SEC E/W
 APD .m                  43.60:  DEPTH ABOVE PD
 WDMS.m                 151.80:  WD ELEV
 EGL .m                   0.00:  GROUND ELEVATION
 EPD .m                   0.00:  ELEVATION
 AZTC.deg                 6.18:  AZM TOTAL CORR
 GRDC.deg                 0.29:  GRID CORRECTION
 MDEC.deg                 6.47:  MAGNETIC DECL
 MDIP.deg                59.50:  MAGNETIC DIP
 MFLD.nT              50350.00:  MAGNETIC FIELD
 GVFD.g                   1.00:  GRAVITY FIELD
 VSDR.deg               179.08:  VERT SEC DIRECT
 TDD .m                4300.00:  TOTAL DEPTH (DRILLER)
 SDEP.m                2800.00:  START DEPTH
 DFSL.m                   0.00:  DISTANCE FSL
 DFWL.m                   0.00:  DISTANCE FWL
 UTMY.m             4431871.34:  UTM Y
 UTMX.m              538762.90:  UTM X
 WHEW.m                  -7.31:  WELL HEAD E/W
 WHNS.m                  -4.42:  WELL HEAD N/S
 LONG.deg                51.45:  LONGITUDE
 LATI.deg                40.02:  LATITUDE
 TVDS.m                  43.60:  TVDSS CORRECTN
 EKB .m                  43.60:  KB ELEVATION
 EDF .m                  43.60:  DF ELEVATION
 TDL .m                 806.00:  TOTAL DEPTH (LOGGER)
 MAGU.                 1851231:  MAGUTM CHECKSUM
 VSC .                       0:  VS TO CLOSURE
~Parameter Information Block
#MNEM.UNIT       Value        Description
#---------     -----------    ---------------------------
 AV  .mps                 1.60:  Ann Velocity 
 AVMX.mps                 2.00:  Max Ann Veloc 
 AZIF.deg               140.24:  Azm, Final 
 BHAT.        Rotary Steerable:  BHA Type 
 BROT.°/30m               0.50:  Build Rotating 
 BS  .in                  8.50:  Bit Size 
 BTPL.psig              619.00:  Bit Press Loss 
 CABU.                     Yes:  Customer Abuse 
 CGEO.          Ilgar Gurbanov:  Customer Geo 
 COMM.                     4`:  Run Comments 1 
 TCS .hr                 85.88:  Time Ciculation Ended 
 CV  .mps                 3.30:  Crit Velocity 
 CVMX.mps                 3.50:  Max Crit Veloc 
 DD1 .           Hamid Axmedov:  Direct Drillr 1 
 DD2 .           Teymur Aliyev:  Direct Drillr 2 
 DDSV.               Geo-Pilot:  DD Service 
 DEFF.%                 100.00:  % Det Eff 
 DLRX.°/30m               0.00:  Dogleg Rot Max 
 DLSO.°/30m               1.80:  Dogleg Oriented 
 DLSX.°/30m               3.34:  Dogleg Str Max 
 DRET.      11.50.00 27-May-21:  Drill End Time 
 DRST.      21.13.00 24-May-21:  Drill Start Tim 
 DTIM.hr                 45.11:  Time Drilling 
 EDEP.m                4054.00:  End Depth 
 ENG1.         Almaz Almadatov:  Engineer 1 
 ENG2.           Amrah Tahirov:  Engineer 2 
 ENG3.      Bakhtiyar Jabbarli:  Engineer 3 
 ENG4.          Nazrin Asgarli:  Engineer 4 
 ETIM.      10.00.00 30-May-21:  End Time 
 FLOI.gpm               530.00:  Flow In 
 FLON.gpm               400.00:  Flow In Min 
 FLOS.cptm                0.00:  Fluid Loss 
 FLOX.gpm               560.00:  Flow In Max 
 DFT .        Mineral Oil Base:  Mud Type 
 FTRO.       Formation Presure:  FTWD Run Obj 
 HFLO.                      No:  High Flow 
 HPRE.                      No:  High Pressure 
 HTEM.                      No:  High Temp 
 HYDO.m                   1.80:  Hydro Offset 
 IFIN.deg                73.83:  Inc, Final 
 IMAX.deg                73.83:  Inc Max 
 IMIN.deg                57.86:  Inc Min 
 IMND.m                3259.27:  Inc Min Depth 
 IMXD.m                4045.58:  Inc Max Depth 
 JARR.                     Yes:  Jarring 
 LETM.      11.50.00 27-May-21:  Log End Time 
 LOST.hr                     0:  Lost Rig Time 
 LSTM.      21.13.00 24-May-21:  Log Start Time 
 MDCL.ppm             42500.00:  Mud Chlorides 
 MDES.     Inversion Oil/Synthetic:  Mud Desc 
 DFD .sg                  1.52:  Mud Density 
 MDMN.sg                  1.52:  Dens Mud Min 
 MDMX.sg                  1.52:  Dens Mud Max 
 MOIL.                      70:  Run Mud Oil % 
 MOWR.                   70:30:  Run Mud OWR 
 MSND.                     0.2:  Run Mud Sand % 
 MSOL.                      22:  Run Mud Solids% 
 DFV .spqt               77.00:  Mud Viscosity 
 MWOD.in                  6.75:  MWD Tool OD 
 MWSI.                      No:  Serv Intrp, MWD 
 OTIM.hr                151.01:  Time Operating 
 PCON.          Wear / Scratch:  Pad Condition 
 PMAX.psia            11296.93:  Press Op, Max 
 PV  .cP                 37.00:  Mud PV 
 RUN .                     500:  Run Number 
 ROPA.m/hr               25.00:  ROP Avg 
 ROPN.m/hr                9.00:  ROP Min 
 ROPX.m/hr               28.00:  ROP Max 
 RPMA.rpm               140.00:  RPM Surface Avg 
 RPMN.rpm                90.00:  RPM Surface Min 
 RPMX.rpm               140.00:  RPM Surface Max 
 RRUN.                    0500:  Rig Run Number 
 SAZI.deg               172.17:  Azm, Start 
 SDEP.m                3248.00:  Start Depth 
 SIDD.                      No:  Serv Intrp, DD 
 SINC.deg                57.86:  Inc, Start 
 SPPA.psig             5620.00:  SPP Avg 
 SPPN.psig             5190.00:  SPP Min 
 SPPX.psig             6050.00:  SPP Max 
 STIM.      16.00.00 23-May-21:  Start Time 
 SVCS.                 DD, MWD:  Services 
 SVER.                    9.20:  Sperry Version 
 TDAT.m                 806.00:  Tot Depth Attmp 
 TDDF.                      No:  Trip for DD 
 TDLG.m                 806.00:  Tot Depth Loggd 
 TFF .                      No:  Trip for Fail 
 TQAA.f-kp               12.00:  Torque Abs Avg 
 TQAN.f-kp                8.00:  Torque Abs Min 
 TQAX.f-kp               15.00:  Torque Abs Max 
 TRRT.°/30m               0.30:  Turn Rotating 
 MRT .                  EWR-M5:  Maximum Recorded Temperature 
 TTMX.degC               93.00:  Max Tool Temp 
 VS01.                90649155:  Virtual Str1 SN 
 VS02.                90642264:  Virtual Str2 SN 
 VS03.                90642266:  Virtual Str3 SN 
 VS04.                90642261:  Virtual Str4 SN 
 WBMN.klb                 0.00:  WOB Min 
 WITN.             Anar Khalil:  Customer Rep 
 WITN.           Murad Guliyev:  Customer Rep 2 
 WOBA.klb                13.00:  WOB Avg 
 WOBX.klb                25.00:  WOB Max 
 YP  .lhf2               32.00:  Yield Point 
~Curve Information Block
#MNEM.UNIT                 API CODE     Curve Description
#---------               -----------    ---------------------------
 TIME.HHMMSS            00 000 000 000:  GT Time & Date
 GTDEPTH.m              00 000 000 000:  GT Depth
 GTPQH.psia             00 000 000 000:  GT HR Quartz Pressure
 GTTQ.degC              00 000 000 000:  GT Quartz Temperature
 GTTN.NONE              00 000 000 000:  GT Test Number
 GTET.sec               00 000 000 000:  GT Elapsed Test Time
 GTTVD.m                00 000 000 000:  GT True Vertical Depth
#Other Information
#
#WARRANTY: Halliburton will use its best efforts to furnish customers with 
#accurate information and interpretations that are part of, and incident to, the services 
#provided.  However, Halliburton cannot and does not warrant the accuracy 
#or correctness of such information and interpretations.  Under no circumstances should any 
#such information or interpretation be relied upon as the sole basis for any drilling, 
#completion, production, or financial decision or any procedure involving any risk to the 
#safety of any drilling venture, drilling rig or its crew or any other third party.  The 
#Customer has full responsibility for all drilling, completion and production operation.  
#Halliburton makes no representations or warranties, either expressed or 
#implied, including, but not limited to, the implied warranties of merchantability or fitness 
#for a particular purpose, with respect to the services rendered.  In no event will 
#Halliburton be liable for failure to obtain any particular results or for 
#any damages, including, but not limited to, indirect, special or consequential damages, 
#resulting from the use of any information or interpretation provided by Halliburton.
#
~A           TIME           GTDEPTH  GTPQH  GTTQ  GTTN  GTET   GTTVD  
# ...
   04:06:34.435.28-May-2021 3493.50 4216.71 83.05 8.00 276.09 2592.27
   04:06:34.635.28-May-2021 3493.50 4216.71 83.05 8.00 276.29 2592.27
   04:06:34.835.28-May-2021 3493.50 4216.71 83.05 8.00 276.49 2592.27
   04:06:35.035.28-May-2021 3493.50 4216.69 83.05 8.00 276.69 2592.27
   04:06:35.235.28-May-2021 3493.50 4216.71 83.05 8.00 276.89 2592.27
   04:06:35.435.28-May-2021 3493.50 4216.70 83.05 8.00 277.09 2592.27
   04:06:35.635.28-May-2021 3493.50 4216.70 83.05 8.00 277.29 2592.27
   04:06:35.835.28-May-2021 3493.50 4216.71 83.05 8.00 277.49 2592.27
   04:06:36.035.28-May-2021 3493.50 4216.70 83.05 8.00 277.69 2592.27
   04:06:36.235.28-May-2021 3493.50 4216.70 83.05 8.00 277.89 2592.27
   04:06:36.435.28-May-2021 3493.50 4216.75 83.05 8.00 278.09 2592.27
   04:06:36.635.28-May-2021 3493.50 4216.75 83.05 8.00 278.29 2592.27
   04:06:36.835.28-May-2021 3493.50 4216.68 83.05 8.00 278.49 2592.27
   04:06:37.035.28-May-2021 3493.50 4216.75 83.05 8.00 278.69 2592.27
   04:06:37.236.28-May-2021 3493.50 4216.79 83.05 8.00 278.89 2592.27
   04:06:37.436.28-May-2021 3493.50 4216.69 83.05 8.00 279.09 2592.27
   04:06:37.636.28-May-2021 3493.50 4216.69 83.05 8.00 279.29 2592.27
   04:06:37.836.28-May-2021 3493.50 4216.56 83.05 8.00 279.49 2592.27
   04:06:38.036.28-May-2021 3493.50 4216.96 83.05 8.00 279.69 2592.27
   04:06:38.236.28-May-2021 3493.50 4216.76 83.05 8.00 279.89 2592.27
   04:06:38.436.28-May-2021 3493.50 4216.80 83.05 8.00 280.09 2592.27
   04:06:38.636.28-May-2021 3493.50 4216.80 83.05 8.00 280.29 2592.27
   04:06:38.836.28-May-2021 3493.50 4216.44 83.05 8.00 280.49 2592.27
   04:06:39.036.28-May-2021 3493.50 4217.07 83.05 8.00 280.69 2592.27
   04:06:39.236.28-May-2021 3493.50 4216.78 83.05 8.00 280.89 2592.27
   04:06:39.436.28-May-2021 3493.50 4216.79 83.05 8.00 281.09 2592.27
   04:06:39.636.28-May-2021 3493.50 4216.79 83.05 8.00 281.29 2592.27
   04:06:39.836.28-May-2021 3493.50 4216.78 83.05 8.00 281.49 2592.27
   04:06:40.036.28-May-2021 3493.50 4216.77 83.05 8.00 281.69 2592.27
   04:06:40.236.28-May-2021 3493.50 4216.76 83.05 8.00 281.89 2592.27
   04:06:40.437.28-May-2021 3493.50 4216.77 83.05 8.00 282.09 2592.27
   04:06:40.637.28-May-2021 3493.50 4216.77 83.05 8.00 282.29 2592.27
   04:06:40.837.28-May-2021 3493.50 4216.77 83.05 8.00 282.49 2592.27
   04:06:41.037.28-May-2021 3493.50 4216.76 83.05 8.00 282.69 2592.27
   04:06:41.237.28-May-2021 3493.50 4216.75 83.05 8.00 282.89 2592.27
   04:06:41.437.28-May-2021 3493.50 4216.55 83.05 8.00 283.09 2592.27
   04:06:41.637.28-May-2021 3493.50 4216.55 83.05 8.00 283.29 2592.27
   04:06:41.837.28-May-2021 3493.50 4216.78 83.05 8.00 283.49 2592.27
   04:06:42.037.28-May-2021 3493.50 4216.80 83.05 8.00 283.69 2592.27
   04:06:42.237.28-May-2021 3493.50 4216.76 83.05 8.00 283.89 2592.27
   04:06:42.437.28-May-2021 3493.50 4216.77 83.05 8.00 284.09 2592.27
   04:06:42.637.28-May-2021 3493.50 4216.77 83.05 8.00 284.29 2592.27
   04:06:42.837.28-May-2021 3493.50 4216.76 83.05 8.00 284.49 2592.27
   04:06:43.037.28-May-2021 3493.50 4216.78 83.05 8.00 284.69 2592.27
   04:06:43.237.28-May-2021 3493.50 4216.77 83.05 8.00 284.89 2592.27
   04:06:43.438.28-May-2021 3493.50 4216.76 83.05 8.00 285.09 2592.27
   04:06:43.638.28-May-2021 3493.50 4216.76 83.05 8.00 285.29 2592.27
   04:06:43.838.28-May-2021 3493.50 4216.76 83.05 8.00 285.49 2592.27
   04:06:44.038.28-May-2021 3493.50 4216.43 83.05 8.00 285.69 2592.27
   04:06:44.238.28-May-2021 3493.50 4217.07 83.05 8.00 285.89 2592.27
   04:06:44.438.28-May-2021 3493.50 4216.79 83.05 8.00 286.09 2592.27
   04:06:44.638.28-May-2021 3493.50 4216.79 83.05 8.00 286.29 2592.27
   04:06:44.838.28-May-2021 3493.50 4216.79 83.04 8.00 286.49 2592.27
   04:06:45.038.28-May-2021 3493.50 4216.83 83.04 8.00 286.69 2592.27
   04:06:45.238.28-May-2021 3493.50 4216.79 83.04 8.00 286.89 2592.27
   04:06:45.438.28-May-2021 3493.50 4216.76 83.04 8.00 287.09 2592.27
   04:06:45.638.28-May-2021 3493.50 4216.76 83.04 8.00 287.29 2592.27
   04:06:45.838.28-May-2021 3493.50 4216.78 83.04 8.00 287.49 2592.27
   04:06:46.038.28-May-2021 3493.50 4216.51 83.04 8.00 287.69 2592.27
   04:06:46.238.28-May-2021 3493.50 4217.04 83.04 8.00 287.89 2592.27
   04:06:46.438.28-May-2021 3493.50 4216.81 83.04 8.00 288.09 2592.27
   04:06:46.639.28-May-2021 3493.50 4216.81 83.04 8.00 288.29 2592.27
   04:06:46.839.28-May-2021 3493.50 4216.77 83.04 8.00 288.49 2592.27
   04:06:47.039.28-May-2021 3493.50 4216.58 83.04 8.00 288.69 2592.27
   04:06:47.239.28-May-2021 3493.50 4216.98 83.04 8.00 288.89 2592.27
   04:06:47.439.28-May-2021 3493.50 4216.79 83.04 8.00 289.09 2592.27
   04:06:47.639.28-May-2021 3493.50 4216.79 83.04 8.00 289.29 2592.27
   04:06:47.839.28-May-2021 3493.50 4216.78 83.04 8.00 289.49 2592.27
   04:06:48.039.28-May-2021 3493.50 4216.79 83.04 8.00 289.69 2592.27
   04:06:48.239.28-May-2021 3493.50 4216.80 83.04 8.00 289.89 2592.27
   04:06:48.439.28-May-2021 3493.50 4216.79 83.04 8.00 290.09 2592.27
   04:06:48.639.28-May-2021 3493.50 4216.79 83.04 8.00 290.29 2592.27
   04:06:48.839.28-May-2021 3493.50 4216.79 83.04 8.00 290.49 2592.27
   04:06:49.039.28-May-2021 3493.50 4216.78 83.04 8.00 290.69 2592.27
   04:06:49.239.28-May-2021 3493.50 4216.77 83.04 8.00 290.89 2592.27
   04:06:49.439.28-May-2021 3493.50 4216.70 83.04 8.00 291.09 2592.27
   04:06:49.640.28-May-2021 3493.50 4216.70 83.04 8.00 291.29 2592.27
   04:06:49.840.28-May-2021 3493.50 4216.80 83.04 8.00 291.49 2592.27
   04:06:50.040.28-May-2021 3493.50 4216.77 83.04 8.00 291.69 2592.27
   04:06:50.240.28-May-2021 3493.50 4216.80 83.04 8.00 291.89 2592.27
   04:06:50.440.28-May-2021 3493.50 4216.79 83.04 8.00 292.09 2592.27
   04:06:50.640.28-May-2021 3493.50 4216.79 83.04 8.00 292.29 2592.27
   04:06:50.840.28-May-2021 3493.50 4216.79 83.04 8.00 292.49 2592.27
   04:06:51.040.28-May-2021 3493.50 4216.78 83.04 8.00 292.69 2592.27
   04:06:51.240.28-May-2021 3493.50 4216.78 83.04 8.00 292.89 2592.27
   04:06:51.440.28-May-2021 3493.50 4216.78 83.04 8.00 293.09 2592.27
   04:06:51.640.28-May-2021 3493.50 4216.78 83.04 8.00 293.29 2592.27
   04:06:51.840.28-May-2021 3493.50 4216.77 83.04 8.00 293.49 2592.27
   04:06:52.040.28-May-2021 3493.50 4216.76 83.04 8.00 293.69 2592.27
   04:06:52.240.28-May-2021 3493.50 4216.56 83.04 8.00 293.89 2592.27
   04:06:52.440.28-May-2021 3493.50 4216.97 83.04 8.00 294.09 2592.27
   04:06:52.640.28-May-2021 3493.50 4216.97 83.04 8.00 294.29 2592.27
   04:06:52.841.28-May-2021 3493.50 4216.97 83.04 8.00 294.49 2592.27
   04:06:53.041.28-May-2021 3493.50 4216.49 83.04 8.00 294.69 2592.27
   04:06:53.241.28-May-2021 3493.50 4217.04 83.04 8.00 294.89 2592.27
   04:06:53.441.28-May-2021 3493.50 4216.79 83.04 8.00 295.10 2592.27
   04:06:53.641.28-May-2021 3493.50 4216.79 83.04 8.00 295.30 2592.27
   04:06:53.841.28-May-2021 3493.50 4216.78 83.04 8.00 295.50 2592.27
   04:06:54.041.28-May-2021 3493.50 4216.72 83.04 8.00 295.70 2592.27
   04:06:54.241.28-May-2021 3493.50 4216.85 83.04 8.00 295.90 2592.27
   04:06:54.441.28-May-2021 3493.50 4216.79 83.04 8.00 296.10 2592.27
   04:06:54.641.28-May-2021 3493.50 4216.79 83.04 8.00 296.30 2592.27
   04:06:54.841.28-May-2021 3493.50 4216.79 83.04 8.00 296.50 2592.27
   04:06:55.041.28-May-2021 3493.50 4216.79 83.04 8.00 296.70 2592.27
   04:06:55.241.28-May-2021 3493.50 4216.84 83.04 8.00 296.90 2592.27
   04:06:55.441.28-May-2021 3493.50 4216.74 83.04 8.00 297.10 2592.27
   04:06:55.641.28-May-2021 3493.50 4216.74 83.04 8.00 297.30 2592.27
   04:06:55.841.28-May-2021 3493.50 4216.79 83.04 8.00 297.50 2592.27
   04:06:56.042.28-May-2021 3493.50 4216.80 83.04 8.00 297.70 2592.27
   04:06:56.242.28-May-2021 3493.50 4216.78 83.04 8.00 297.90 2592.27
   04:06:56.442.28-May-2021 3493.50 4216.79 83.04 8.00 298.10 2592.27
   04:06:56.642.28-May-2021 3493.50 4216.79 83.04 8.00 298.30 2592.27
   04:06:56.842.28-May-2021 3493.50 4216.79 83.04 8.00 298.50 2592.27
   04:06:57.042.28-May-2021 3493.50 4216.78 83.04 8.00 298.70 2592.27
   04:06:57.242.28-May-2021 3493.50 4216.78 83.04 8.00 298.90 2592.27
