~Version Information
 VERS.                  2.0:   CWLS log ASCII Standard -VERSION 2.0
 WRAP.                   NO:   One line per depth step
~Well Information Block
#MNEM.UNIT     VALUE/NAME     DESCRIPTION
#---------     -----------    ---------------------------
 STRT.S             04:01:58 28-May-21: START TIME 04:01:58 28-May-21
 STOP.S             04:09:02 28-May-21: STOP TIME  04:09:02 28-May-21
 STEP.S                   0.00: STEP TIME
 NULL.                 -999.25: NULL VALUE
 UWI .                     N/A:  UNIQUE WELL IDENTIFIER
 API .                     N/A:  API NUMBER
 UNIT.                     N/A:  LOGGING EQUIPMENT ID
 DCON.         Sperry Drilling:  DIRECTNL CONTR
 DOE .                     N/A:  DOE NUMBER
 MWDS.                    Baku:  MWD SHOP
 SRVC.     Turan Drilling and Engineering:  CONTRACTOR
 CTRY.              Azerbaijan:  COUNTRY NAME
 PROV.                    Baku:  PROVINCE
 STAT.                    Baku:  STATE NAME
 REGN.                   EESSA:  REGION
 BASE.              Azerbaijan:  LOGGING EQUIPMENT BASE LOCATION
 WTYP.                Deviated:  WELL TYPE
 RIG .              East Azeri:  RIG NAME
 WELL.                    D02y:  WELL NAME
 FLD .                     ACG:  FIELD NAME
 COMP.     BP Exploration (Caspian Sea) Ltd.:  COMPANY
 PDAT.          Mean Sea Level:  PERMANENT DATUM
 MDS .        Operator Entered:  MAG DATA SOURCE
 SON .        AZ-XX-0906997291:  JOB NUMBER
 FTOP.          Formation Tops:  FORM TOPS DESC
 ILTD.               Lithology:  INTERP LTH DESC
 SVYD.                  Survey:  SURVEY DESC
 DMOD.             Drill Model:  DRILL MOD DESC
 HPTY.       Minimum Curvature:  HOLE POS TYPE
 NREF.                    Grid:  NORTH REFERENCE
 SPUD.               05-May-21:  SPUD DATE
 DATE.      09.27.28 12-Jun-21:  END TIME
 STIM.      09.27.28 12-May-21:  START TIME
 DMF .             Drill Floor:  DRILL MEAS FROM
 DFST.                        :  DIST FSL TEXT
 DFWT.                        :  DIST FWL TEXT
 CNTY.                        :  COUNTY
 LOC .                        :  LOCATION
 LMF .             Drill Floor:  LOG MEASURED FROM
 DEP .m                2806.40:  DEPTH
 AGAP.m                  43.60:  AIR GAP
 VSNS.m                  -4.42:  VERT SEC N/S
 VSEW.m                  -7.31:  VERT SEC E/W
 APD .m                  43.60:  DEPTH ABOVE PD
 WDMS.m                 151.80:  WD ELEV
 EGL .m                   0.00:  GROUND ELEVATION
 EPD .m                   0.00:  ELEVATION
 AZTC.deg                 6.18:  AZM TOTAL CORR
 GRDC.deg                 0.29:  GRID CORRECTION
 MDEC.deg                 6.47:  MAGNETIC DECL
 MDIP.deg                59.50:  MAGNETIC DIP
 MFLD.nT              50350.00:  MAGNETIC FIELD
 GVFD.g                   1.00:  GRAVITY FIELD
 VSDR.deg               179.08:  VERT SEC DIRECT
 TDD .m                4300.00:  TOTAL DEPTH (DRILLER)
 SDEP.m                2800.00:  START DEPTH
 DFSL.m                   0.00:  DISTANCE FSL
 DFWL.m                   0.00:  DISTANCE FWL
 UTMY.m             4431871.34:  UTM Y
 UTMX.m              538762.90:  UTM X
 WHEW.m                  -7.31:  WELL HEAD E/W
 WHNS.m                  -4.42:  WELL HEAD N/S
 LONG.deg                51.45:  LONGITUDE
 LATI.deg                40.02:  LATITUDE
 TVDS.m                  43.60:  TVDSS CORRECTN
 EKB .m                  43.60:  KB ELEVATION
 EDF .m                  43.60:  DF ELEVATION
 TDL .m                 806.00:  TOTAL DEPTH (LOGGER)
 MAGU.                 1851231:  MAGUTM CHECKSUM
 VSC .                       0:  VS TO CLOSURE
~Parameter Information Block
#MNEM.UNIT       Value        Description
#---------     -----------    ---------------------------
 AV  .mps                 1.60:  Ann Velocity 
 AVMX.mps                 2.00:  Max Ann Veloc 
 AZIF.deg               140.24:  Azm, Final 
 BHAT.        Rotary Steerable:  BHA Type 
 BROT.°/30m               0.50:  Build Rotating 
 BS  .in                  8.50:  Bit Size 
 BTPL.psig              619.00:  Bit Press Loss 
 CABU.                     Yes:  Customer Abuse 
 CGEO.          Ilgar Gurbanov:  Customer Geo 
 COMM.                     4`:  Run Comments 1 
 TCS .hr                 85.88:  Time Ciculation Ended 
 CV  .mps                 3.30:  Crit Velocity 
 CVMX.mps                 3.50:  Max Crit Veloc 
 DD1 .           Hamid Axmedov:  Direct Drillr 1 
 DD2 .           Teymur Aliyev:  Direct Drillr 2 
 DDSV.               Geo-Pilot:  DD Service 
 DEFF.%                 100.00:  % Det Eff 
 DLRX.°/30m               0.00:  Dogleg Rot Max 
 DLSO.°/30m               1.80:  Dogleg Oriented 
 DLSX.°/30m               3.34:  Dogleg Str Max 
 DRET.      11.50.00 27-May-21:  Drill End Time 
 DRST.      21.13.00 24-May-21:  Drill Start Tim 
 DTIM.hr                 45.11:  Time Drilling 
 EDEP.m                4054.00:  End Depth 
 ENG1.         Almaz Almadatov:  Engineer 1 
 ENG2.           Amrah Tahirov:  Engineer 2 
 ENG3.      Bakhtiyar Jabbarli:  Engineer 3 
 ENG4.          Nazrin Asgarli:  Engineer 4 
 ETIM.      10.00.00 30-May-21:  End Time 
 FLOI.gpm               530.00:  Flow In 
 FLON.gpm               400.00:  Flow In Min 
 FLOS.cptm                0.00:  Fluid Loss 
 FLOX.gpm               560.00:  Flow In Max 
 DFT .        Mineral Oil Base:  Mud Type 
 FTRO.       Formation Presure:  FTWD Run Obj 
 HFLO.                      No:  High Flow 
 HPRE.                      No:  High Pressure 
 HTEM.                      No:  High Temp 
 HYDO.m                   1.80:  Hydro Offset 
 IFIN.deg                73.83:  Inc, Final 
 IMAX.deg                73.83:  Inc Max 
 IMIN.deg                57.86:  Inc Min 
 IMND.m                3259.27:  Inc Min Depth 
 IMXD.m                4045.58:  Inc Max Depth 
 JARR.                     Yes:  Jarring 
 LETM.      11.50.00 27-May-21:  Log End Time 
 LOST.hr                     0:  Lost Rig Time 
 LSTM.      21.13.00 24-May-21:  Log Start Time 
 MDCL.ppm             42500.00:  Mud Chlorides 
 MDES.     Inversion Oil/Synthetic:  Mud Desc 
 DFD .sg                  1.52:  Mud Density 
 MDMN.sg                  1.52:  Dens Mud Min 
 MDMX.sg                  1.52:  Dens Mud Max 
 MOIL.                      70:  Run Mud Oil % 
 MOWR.                   70:30:  Run Mud OWR 
 MSND.                     0.2:  Run Mud Sand % 
 MSOL.                      22:  Run Mud Solids% 
 DFV .spqt               77.00:  Mud Viscosity 
 MWOD.in                  6.75:  MWD Tool OD 
 MWSI.                      No:  Serv Intrp, MWD 
 OTIM.hr                151.01:  Time Operating 
 PCON.          Wear / Scratch:  Pad Condition 
 PMAX.psia            11296.93:  Press Op, Max 
 PV  .cP                 37.00:  Mud PV 
 RUN .                     500:  Run Number 
 ROPA.m/hr               25.00:  ROP Avg 
 ROPN.m/hr                9.00:  ROP Min 
 ROPX.m/hr               28.00:  ROP Max 
 RPMA.rpm               140.00:  RPM Surface Avg 
 RPMN.rpm                90.00:  RPM Surface Min 
 RPMX.rpm               140.00:  RPM Surface Max 
 RRUN.                    0500:  Rig Run Number 
 SAZI.deg               172.17:  Azm, Start 
 SDEP.m                3248.00:  Start Depth 
 SIDD.                      No:  Serv Intrp, DD 
 SINC.deg                57.86:  Inc, Start 
 SPPA.psig             5620.00:  SPP Avg 
 SPPN.psig             5190.00:  SPP Min 
 SPPX.psig             6050.00:  SPP Max 
 STIM.      16.00.00 23-May-21:  Start Time 
 SVCS.                 DD, MWD:  Services 
 SVER.                    9.20:  Sperry Version 
 TDAT.m                 806.00:  Tot Depth Attmp 
 TDDF.                      No:  Trip for DD 
 TDLG.m                 806.00:  Tot Depth Loggd 
 TFF .                      No:  Trip for Fail 
 TQAA.f-kp               12.00:  Torque Abs Avg 
 TQAN.f-kp                8.00:  Torque Abs Min 
 TQAX.f-kp               15.00:  Torque Abs Max 
 TRRT.°/30m               0.30:  Turn Rotating 
 MRT .                  EWR-M5:  Maximum Recorded Temperature 
 TTMX.degC               93.00:  Max Tool Temp 
 VS01.                90649155:  Virtual Str1 SN 
 VS02.                90642264:  Virtual Str2 SN 
 VS03.                90642266:  Virtual Str3 SN 
 VS04.                90642261:  Virtual Str4 SN 
 WBMN.klb                 0.00:  WOB Min 
 WITN.             Anar Khalil:  Customer Rep 
 WITN.           Murad Guliyev:  Customer Rep 2 
 WOBA.klb                13.00:  WOB Avg 
 WOBX.klb                25.00:  WOB Max 
 YP  .lhf2               32.00:  Yield Point 
~Curve Information Block
#MNEM.UNIT                 API CODE     Curve Description
#---------               -----------    ---------------------------
 TIME.HHMMSS            00 000 000 000:  GT Time & Date
 GTDEPTH.m              00 000 000 000:  GT Depth
 GTPQH.psia             00 000 000 000:  GT HR Quartz Pressure
 GTTQ.degC              00 000 000 000:  GT Quartz Temperature
 GTTN.NONE              00 000 000 000:  GT Test Number
 GTET.sec               00 000 000 000:  GT Elapsed Test Time
 GTTVD.m                00 000 000 000:  GT True Vertical Depth
#Other Information
#
#WARRANTY: Halliburton will use its best efforts to furnish customers with 
#accurate information and interpretations that are part of, and incident to, the services 
#provided.  However, Halliburton cannot and does not warrant the accuracy 
#or correctness of such information and interpretations.  Under no circumstances should any 
#such information or interpretation be relied upon as the sole basis for any drilling, 
#completion, production, or financial decision or any procedure involving any risk to the 
#safety of any drilling venture, drilling rig or its crew or any other third party.  The 
#Customer has full responsibility for all drilling, completion and production operation.  
#Halliburton makes no representations or warranties, either expressed or 
#implied, including, but not limited to, the implied warranties of merchantability or fitness 
#for a particular purpose, with respect to the services rendered.  In no event will 
#Halliburton be liable for failure to obtain any particular results or for 
#any damages, including, but not limited to, indirect, special or consequential damages, 
#resulting from the use of any information or interpretation provided by Halliburton.
#
~A           TIME           GTDEPTH  GTPQH  GTTQ  GTTN  GTET   GTTVD  
# ...
   04:03:07.368.28-May-2021 3493.50 4216.78 83.20 8.00  69.02 2592.27
   04:03:07.568.28-May-2021 3493.50 4216.78 83.20 8.00  69.22 2592.27
   04:03:07.768.28-May-2021 3493.50 4217.04 83.20 8.00  69.42 2592.27
   04:03:07.968.28-May-2021 3493.50 4216.76 83.20 8.00  69.62 2592.27
   04:03:08.168.28-May-2021 3493.50 4216.81 83.20 8.00  69.82 2592.27
   04:03:08.368.28-May-2021 3493.50 4216.79 83.20 8.00  70.02 2592.27
   04:03:08.568.28-May-2021 3493.50 4216.79 83.20 8.00  70.22 2592.27
   04:03:08.768.28-May-2021 3493.50 4216.72 83.20 8.00  70.42 2592.27
   04:03:08.968.28-May-2021 3493.50 4216.78 83.20 8.00  70.62 2592.27
   04:03:09.169.28-May-2021 3493.50 4216.79 83.20 8.00  70.82 2592.27
   04:03:09.369.28-May-2021 3493.50 4216.83 83.20 8.00  71.02 2592.27
   04:03:09.569.28-May-2021 3493.50 4216.83 83.20 8.00  71.22 2592.27
   04:03:09.769.28-May-2021 3493.50 4216.86 83.20 8.00  71.42 2592.27
   04:03:09.969.28-May-2021 3493.50 4216.89 83.20 8.00  71.62 2592.27
   04:03:10.169.28-May-2021 3493.50 4216.90 83.20 8.00  71.82 2592.27
   04:03:10.369.28-May-2021 3493.50 4216.92 83.20 8.00  72.02 2592.27
   04:03:10.569.28-May-2021 3493.50 4216.92 83.20 8.00  72.22 2592.27
   04:03:10.769.28-May-2021 3493.50 4216.94 83.20 8.00  72.42 2592.27
   04:03:10.969.28-May-2021 3493.50 4216.95 83.20 8.00  72.62 2592.27
   04:03:11.169.28-May-2021 3493.50 4216.64 83.20 8.00  72.82 2592.27
   04:03:11.369.28-May-2021 3493.50 4217.01 83.20 8.00  73.02 2592.27
   04:03:11.569.28-May-2021 3493.50 4217.01 83.20 8.00  73.22 2592.27
   04:03:11.769.28-May-2021 3493.50 4216.88 83.20 8.00  73.42 2592.27
   04:03:11.969.28-May-2021 3493.50 4216.85 83.20 8.00  73.62 2592.27
   04:03:12.169.28-May-2021 3493.50 4216.94 83.20 8.00  73.82 2592.27
   04:03:12.370.28-May-2021 3493.50 4216.91 83.20 8.00  74.02 2592.27
   04:03:12.570.28-May-2021 3493.50 4216.91 83.20 8.00  74.22 2592.27
   04:03:12.770.28-May-2021 3493.50 4216.94 83.20 8.00  74.42 2592.27
   04:03:12.970.28-May-2021 3493.50 4216.96 83.20 8.00  74.62 2592.27
   04:03:13.170.28-May-2021 3493.50 4216.97 83.20 8.00  74.82 2592.27
   04:03:13.370.28-May-2021 3493.50 4216.98 83.20 8.00  75.02 2592.27
   04:03:13.570.28-May-2021 3493.50 4216.98 83.20 8.00  75.22 2592.27
   04:03:13.770.28-May-2021 3493.50 4216.91 83.20 8.00  75.42 2592.27
   04:03:13.970.28-May-2021 3493.50 4216.92 83.20 8.00  75.62 2592.27
   04:03:14.170.28-May-2021 3493.50 4216.86 83.20 8.00  75.82 2592.27
   04:03:14.370.28-May-2021 3493.50 4216.87 83.20 8.00  76.02 2592.27
   04:03:14.570.28-May-2021 3493.50 4216.87 83.20 8.00  76.22 2592.27
   04:03:14.770.28-May-2021 3493.50 4216.93 83.20 8.00  76.42 2592.27
   04:03:14.970.28-May-2021 3493.50 4216.76 83.20 8.00  76.62 2592.27
   04:03:15.170.28-May-2021 3493.50 4216.88 83.20 8.00  76.82 2592.27
   04:03:15.371.28-May-2021 3493.50 4216.90 83.20 8.00  77.02 2592.27
   04:03:15.571.28-May-2021 3493.50 4216.90 83.20 8.00  77.22 2592.27
   04:03:15.771.28-May-2021 3493.50 4216.65 83.20 8.00  77.42 2592.27
   04:03:15.971.28-May-2021 3493.50 4217.10 83.20 8.00  77.62 2592.27
   04:03:16.171.28-May-2021 3493.50 4216.89 83.20 8.00  77.83 2592.27
   04:03:16.371.28-May-2021 3493.50 4216.93 83.20 8.00  78.03 2592.27
   04:03:16.571.28-May-2021 3493.50 4216.93 83.20 8.00  78.23 2592.27
   04:03:16.771.28-May-2021 3493.50 4216.55 83.20 8.00  78.43 2592.27
   04:03:16.971.28-May-2021 3493.50 4217.21 83.20 8.00  78.63 2592.27
   04:03:17.171.28-May-2021 3493.50 4216.90 83.20 8.00  78.83 2592.27
   04:03:17.371.28-May-2021 3493.50 4216.93 83.20 8.00  79.03 2592.27
   04:03:17.571.28-May-2021 3493.50 4216.93 83.20 8.00  79.23 2592.27
   04:03:17.771.28-May-2021 3493.50 4216.93 83.20 8.00  79.43 2592.27
   04:03:17.971.28-May-2021 3493.50 4216.95 83.19 8.00  79.63 2592.27
   04:03:18.171.28-May-2021 3493.50 4216.95 83.19 8.00  79.83 2592.27
   04:03:18.371.28-May-2021 3493.50 4216.97 83.19 8.00  80.03 2592.27
   04:03:18.572.28-May-2021 3493.50 4216.97 83.19 8.00  80.23 2592.27
   04:03:18.772.28-May-2021 3493.50 4216.97 83.19 8.00  80.43 2592.27
   04:03:18.972.28-May-2021 3493.50 4217.01 83.19 8.00  80.63 2592.27
   04:03:19.172.28-May-2021 3493.50 4217.00 83.19 8.00  80.83 2592.27
   04:03:19.372.28-May-2021 3493.50 4216.79 83.19 8.00  81.03 2592.27
   04:03:19.572.28-May-2021 3493.50 4216.79 83.19 8.00  81.23 2592.27
   04:03:19.772.28-May-2021 3493.50 4216.94 83.19 8.00  81.43 2592.27
   04:03:19.972.28-May-2021 3493.50 4216.96 83.19 8.00  81.63 2592.27
   04:03:20.172.28-May-2021 3493.50 4216.95 83.19 8.00  81.83 2592.27
   04:03:20.372.28-May-2021 3493.50 4216.97 83.19 8.00  82.03 2592.27
   04:03:20.572.28-May-2021 3493.50 4216.97 83.19 8.00  82.23 2592.27
   04:03:20.772.28-May-2021 3493.50 4216.98 83.19 8.00  82.43 2592.27
   04:03:20.972.28-May-2021 3493.50 4217.01 83.19 8.00  82.63 2592.27
   04:03:21.172.28-May-2021 3493.50 4217.01 83.19 8.00  82.83 2592.27
   04:03:21.372.28-May-2021 3493.50 4217.02 83.19 8.00  83.03 2592.27
   04:03:21.573.28-May-2021 3493.50 4217.02 83.19 8.00  83.23 2592.27
   04:03:21.773.28-May-2021 3493.50 4217.07 83.19 8.00  83.43 2592.27
   04:03:21.973.28-May-2021 3493.50 4216.66 83.19 8.00  83.63 2592.27
   04:03:22.173.28-May-2021 3493.50 4217.26 83.19 8.00  83.83 2592.27
   04:03:22.373.28-May-2021 3493.50 4216.96 83.19 8.00  84.03 2592.27
   04:03:22.573.28-May-2021 3493.50 4216.96 83.19 8.00  84.23 2592.27
   04:03:22.773.28-May-2021 3493.50 4216.87 83.19 8.00  84.43 2592.27
   04:03:22.973.28-May-2021 3493.50 4217.00 83.19 8.00  84.63 2592.27
   04:03:23.173.28-May-2021 3493.50 4216.94 83.19 8.00  84.83 2592.27
   04:03:23.373.28-May-2021 3493.50 4216.94 83.19 8.00  85.03 2592.27
   04:03:23.573.28-May-2021 3493.50 4216.94 83.19 8.00  85.23 2592.27
   04:03:23.773.28-May-2021 3493.50 4216.98 83.19 8.00  85.43 2592.27
   04:03:23.973.28-May-2021 3493.50 4216.79 83.19 8.00  85.63 2592.27
   04:03:24.173.28-May-2021 3493.50 4217.07 83.19 8.00  85.83 2592.27
   04:03:24.373.28-May-2021 3493.50 4216.96 83.19 8.00  86.03 2592.27
   04:03:24.573.28-May-2021 3493.50 4216.96 83.19 8.00  86.23 2592.27
   04:03:24.774.28-May-2021 3493.50 4217.01 83.19 8.00  86.43 2592.27
   04:03:24.974.28-May-2021 3493.50 4216.70 83.19 8.00  86.63 2592.27
   04:03:25.174.28-May-2021 3493.50 4217.17 83.19 8.00  86.83 2592.27
   04:03:25.374.28-May-2021 3493.50 4216.97 83.19 8.00  87.03 2592.27
   04:03:25.574.28-May-2021 3493.50 4216.97 83.19 8.00  87.23 2592.27
   04:03:25.774.28-May-2021 3493.50 4216.95 83.19 8.00  87.43 2592.27
   04:03:25.974.28-May-2021 3493.50 4217.00 83.19 8.00  87.63 2592.27
   04:03:26.174.28-May-2021 3493.50 4216.99 83.19 8.00  87.83 2592.27
   04:03:26.374.28-May-2021 3493.50 4217.01 83.19 8.00  88.03 2592.27
   04:03:26.574.28-May-2021 3493.50 4217.01 83.19 8.00  88.23 2592.27
   04:03:26.774.28-May-2021 3493.50 4217.02 83.19 8.00  88.43 2592.27
   04:03:26.974.28-May-2021 3493.50 4217.03 83.19 8.00  88.63 2592.27
   04:03:27.174.28-May-2021 3493.50 4217.03 83.19 8.00  88.83 2592.27
   04:03:27.374.28-May-2021 3493.50 4217.04 83.19 8.00  89.03 2592.27
   04:03:27.574.28-May-2021 3493.50 4217.04 83.19 8.00  89.23 2592.27
   04:03:27.775.28-May-2021 3493.50 4216.87 83.19 8.00  89.43 2592.27
   04:03:27.975.28-May-2021 3493.50 4216.97 83.19 8.00  89.63 2592.27
   04:03:28.175.28-May-2021 3493.50 4217.00 83.19 8.00  89.83 2592.27
   04:03:28.375.28-May-2021 3493.50 4217.01 83.19 8.00  90.03 2592.27
   04:03:28.575.28-May-2021 3493.50 4217.01 83.19 8.00  90.23 2592.27
   04:03:28.775.28-May-2021 3493.50 4217.02 83.19 8.00  90.43 2592.27
   04:03:28.975.28-May-2021 3493.50 4217.02 83.19 8.00  90.63 2592.27
   04:03:29.175.28-May-2021 3493.50 4217.04 83.19 8.00  90.83 2592.27
   04:03:29.375.28-May-2021 3493.50 4217.04 83.19 8.00  91.03 2592.27
   04:03:29.575.28-May-2021 3493.50 4217.04 83.19 8.00  91.23 2592.27
   04:03:29.775.28-May-2021 3493.50 4217.05 83.19 8.00  91.43 2592.27
   04:03:29.975.28-May-2021 3493.50 4217.06 83.19 8.00  91.63 2592.27
   04:03:30.175.28-May-2021 3493.50 4216.75 83.19 8.00  91.83 2592.27
