~Version Information
 VERS.                  2.0:   CWLS log ASCII Standard -VERSION 2.0
 WRAP.                   NO:   One line per depth step
~Well Information Block
#MNEM.UNIT     VALUE/NAME     DESCRIPTION
#---------     -----------    ---------------------------
 STRT.S             09:05:41 28-May-21: START TIME 09:05:41 28-May-21
 STOP.S             09:12:44 28-May-21: STOP TIME  09:12:44 28-May-21
 STEP.S                   0.00: STEP TIME
 NULL.                 -999.25: NULL VALUE
 UWI .                     N/A:  UNIQUE WELL IDENTIFIER
 API .                     N/A:  API NUMBER
 UNIT.                     N/A:  LOGGING EQUIPMENT ID
 DCON.         Sperry Drilling:  DIRECTNL CONTR
 DOE .                     N/A:  DOE NUMBER
 MWDS.                    Baku:  MWD SHOP
 SRVC.     Turan Drilling and Engineering:  CONTRACTOR
 CTRY.              Azerbaijan:  COUNTRY NAME
 PROV.                    Baku:  PROVINCE
 STAT.                    Baku:  STATE NAME
 REGN.                   EESSA:  REGION
 BASE.              Azerbaijan:  LOGGING EQUIPMENT BASE LOCATION
 WTYP.                Deviated:  WELL TYPE
 RIG .              East Azeri:  RIG NAME
 WELL.                    D02y:  WELL NAME
 FLD .                     ACG:  FIELD NAME
 COMP.     BP Exploration (Caspian Sea) Ltd.:  COMPANY
 PDAT.          Mean Sea Level:  PERMANENT DATUM
 MDS .        Operator Entered:  MAG DATA SOURCE
 SON .        AZ-XX-0906997291:  JOB NUMBER
 FTOP.          Formation Tops:  FORM TOPS DESC
 ILTD.               Lithology:  INTERP LTH DESC
 SVYD.                  Survey:  SURVEY DESC
 DMOD.             Drill Model:  DRILL MOD DESC
 HPTY.       Minimum Curvature:  HOLE POS TYPE
 NREF.                    Grid:  NORTH REFERENCE
 SPUD.               05-May-21:  SPUD DATE
 DATE.      09.27.28 12-Jun-21:  END TIME
 STIM.      09.27.28 12-May-21:  START TIME
 DMF .             Drill Floor:  DRILL MEAS FROM
 DFST.                        :  DIST FSL TEXT
 DFWT.                        :  DIST FWL TEXT
 CNTY.                        :  COUNTY
 LOC .                        :  LOCATION
 LMF .             Drill Floor:  LOG MEASURED FROM
 DEP .m                2806.40:  DEPTH
 AGAP.m                  43.60:  AIR GAP
 VSNS.m                  -4.42:  VERT SEC N/S
 VSEW.m                  -7.31:  VERT SEC E/W
 APD .m                  43.60:  DEPTH ABOVE PD
 WDMS.m                 151.80:  WD ELEV
 EGL .m                   0.00:  GROUND ELEVATION
 EPD .m                   0.00:  ELEVATION
 AZTC.deg                 6.18:  AZM TOTAL CORR
 GRDC.deg                 0.29:  GRID CORRECTION
 MDEC.deg                 6.47:  MAGNETIC DECL
 MDIP.deg                59.50:  MAGNETIC DIP
 MFLD.nT              50350.00:  MAGNETIC FIELD
 GVFD.g                   1.00:  GRAVITY FIELD
 VSDR.deg               179.08:  VERT SEC DIRECT
 TDD .m                4300.00:  TOTAL DEPTH (DRILLER)
 SDEP.m                2800.00:  START DEPTH
 DFSL.m                   0.00:  DISTANCE FSL
 DFWL.m                   0.00:  DISTANCE FWL
 UTMY.m             4431871.34:  UTM Y
 UTMX.m              538762.90:  UTM X
 WHEW.m                  -7.31:  WELL HEAD E/W
 WHNS.m                  -4.42:  WELL HEAD N/S
 LONG.deg                51.45:  LONGITUDE
 LATI.deg                40.02:  LATITUDE
 TVDS.m                  43.60:  TVDSS CORRECTN
 EKB .m                  43.60:  KB ELEVATION
 EDF .m                  43.60:  DF ELEVATION
 TDL .m                 806.00:  TOTAL DEPTH (LOGGER)
 MAGU.                 1851231:  MAGUTM CHECKSUM
 VSC .                       0:  VS TO CLOSURE
~Parameter Information Block
#MNEM.UNIT       Value        Description
#---------     -----------    ---------------------------
 AV  .mps                 1.60:  Ann Velocity 
 AVMX.mps                 2.00:  Max Ann Veloc 
 AZIF.deg               140.24:  Azm, Final 
 BHAT.        Rotary Steerable:  BHA Type 
 BROT.°/30m               0.50:  Build Rotating 
 BS  .in                  8.50:  Bit Size 
 BTPL.psig              619.00:  Bit Press Loss 
 CABU.                     Yes:  Customer Abuse 
 CGEO.          Ilgar Gurbanov:  Customer Geo 
 COMM.                     ÜøQ:  Run Comments 1 
 TCS .hr                 85.88:  Time Ciculation Ended 
 CV  .mps                 3.30:  Crit Velocity 
 CVMX.mps                 3.50:  Max Crit Veloc 
 DD1 .           Hamid Axmedov:  Direct Drillr 1 
 DD2 .           Teymur Aliyev:  Direct Drillr 2 
 DDSV.               Geo-Pilot:  DD Service 
 DEFF.%                 100.00:  % Det Eff 
 DLRX.°/30m               0.00:  Dogleg Rot Max 
 DLSO.°/30m               1.80:  Dogleg Oriented 
 DLSX.°/30m               3.34:  Dogleg Str Max 
 DRET.      11.50.00 27-May-21:  Drill End Time 
 DRST.      21.13.00 24-May-21:  Drill Start Tim 
 DTIM.hr                 45.11:  Time Drilling 
 EDEP.m                4054.00:  End Depth 
 ENG1.         Almaz Almadatov:  Engineer 1 
 ENG2.           Amrah Tahirov:  Engineer 2 
 ENG3.      Bakhtiyar Jabbarli:  Engineer 3 
 ENG4.          Nazrin Asgarli:  Engineer 4 
 ETIM.      10.00.00 30-May-21:  End Time 
 FLOI.gpm               530.00:  Flow In 
 FLON.gpm               400.00:  Flow In Min 
 FLOS.cptm                0.00:  Fluid Loss 
 FLOX.gpm               560.00:  Flow In Max 
 DFT .        Mineral Oil Base:  Mud Type 
 FTRO.       Formation Presure:  FTWD Run Obj 
 HFLO.                      No:  High Flow 
 HPRE.                      No:  High Pressure 
 HTEM.                      No:  High Temp 
 HYDO.m                   1.80:  Hydro Offset 
 IFIN.deg                73.83:  Inc, Final 
 IMAX.deg                73.83:  Inc Max 
 IMIN.deg                57.86:  Inc Min 
 IMND.m                3259.27:  Inc Min Depth 
 IMXD.m                4045.58:  Inc Max Depth 
 JARR.                     Yes:  Jarring 
 LETM.      11.50.00 27-May-21:  Log End Time 
 LOST.hr                     0:  Lost Rig Time 
 LSTM.      21.13.00 24-May-21:  Log Start Time 
 MDCL.ppm             42500.00:  Mud Chlorides 
 MDES.     Inversion Oil/Synthetic:  Mud Desc 
 DFD .sg                  1.52:  Mud Density 
 MDMN.sg                  1.52:  Dens Mud Min 
 MDMX.sg                  1.52:  Dens Mud Max 
 MOIL.                      70:  Run Mud Oil % 
 MOWR.                   70:30:  Run Mud OWR 
 MSND.                     0.2:  Run Mud Sand % 
 MSOL.                      22:  Run Mud Solids% 
 DFV .spqt               77.00:  Mud Viscosity 
 MWOD.in                  6.75:  MWD Tool OD 
 MWSI.                      No:  Serv Intrp, MWD 
 OTIM.hr                151.01:  Time Operating 
 PCON.          Wear / Scratch:  Pad Condition 
 PMAX.psia            11296.93:  Press Op, Max 
 PV  .cP                 37.00:  Mud PV 
 RUN .                     500:  Run Number 
 ROPA.m/hr               25.00:  ROP Avg 
 ROPN.m/hr                9.00:  ROP Min 
 ROPX.m/hr               28.00:  ROP Max 
 RPMA.rpm               140.00:  RPM Surface Avg 
 RPMN.rpm                90.00:  RPM Surface Min 
 RPMX.rpm               140.00:  RPM Surface Max 
 RRUN.                    0500:  Rig Run Number 
 SAZI.deg               172.17:  Azm, Start 
 SDEP.m                3248.00:  Start Depth 
 SIDD.                      No:  Serv Intrp, DD 
 SINC.deg                57.86:  Inc, Start 
 SPPA.psig             5620.00:  SPP Avg 
 SPPN.psig             5190.00:  SPP Min 
 SPPX.psig             6050.00:  SPP Max 
 STIM.      16.00.00 23-May-21:  Start Time 
 SVCS.                 DD, MWD:  Services 
 SVER.                    9.20:  Sperry Version 
 TDAT.m                 806.00:  Tot Depth Attmp 
 TDDF.                      No:  Trip for DD 
 TDLG.m                 806.00:  Tot Depth Loggd 
 TFF .                      No:  Trip for Fail 
 TQAA.f-kp               12.00:  Torque Abs Avg 
 TQAN.f-kp                8.00:  Torque Abs Min 
 TQAX.f-kp               15.00:  Torque Abs Max 
 TRRT.°/30m               0.30:  Turn Rotating 
 MRT .                  EWR-M5:  Maximum Recorded Temperature 
 TTMX.degC               93.00:  Max Tool Temp 
 VS01.                90649155:  Virtual Str1 SN 
 VS02.                90642264:  Virtual Str2 SN 
 VS03.                90642266:  Virtual Str3 SN 
 VS04.                90642261:  Virtual Str4 SN 
 WBMN.klb                 0.00:  WOB Min 
 WITN.             Anar Khalil:  Customer Rep 
 WITN.           Murad Guliyev:  Customer Rep 2 
 WOBA.klb                13.00:  WOB Avg 
 WOBX.klb                25.00:  WOB Max 
 YP  .lhf2               32.00:  Yield Point 
~Curve Information Block
#MNEM.UNIT                 API CODE     Curve Description
#---------               -----------    ---------------------------
 TIME.HHMMSS            00 000 000 000:  GT Time & Date
 GTDEPTH.m              00 000 000 000:  GT Depth
 GTPQH.psia             00 000 000 000:  GT HR Quartz Pressure
 GTTQ.degC              00 000 000 000:  GT Quartz Temperature
 GTTN.NONE              00 000 000 000:  GT Test Number
 GTET.sec               00 000 000 000:  GT Elapsed Test Time
 GTTVD.m                00 000 000 000:  GT True Vertical Depth
#Other Information
#
#WARRANTY: Halliburton will use its best efforts to furnish customers with 
#accurate information and interpretations that are part of, and incident to, the services 
#provided.  However, Halliburton cannot and does not warrant the accuracy 
#or correctness of such information and interpretations.  Under no circumstances should any 
#such information or interpretation be relied upon as the sole basis for any drilling, 
#completion, production, or financial decision or any procedure involving any risk to the 
#safety of any drilling venture, drilling rig or its crew or any other third party.  The 
#Customer has full responsibility for all drilling, completion and production operation.  
#Halliburton makes no representations or warranties, either expressed or 
#implied, including, but not limited to, the implied warranties of merchantability or fitness 
#for a particular purpose, with respect to the services rendered.  In no event will 
#Halliburton be liable for failure to obtain any particular results or for 
#any damages, including, but not limited to, indirect, special or consequential damages, 
#resulting from the use of any information or interpretation provided by Halliburton.
#
~A           TIME           GTDEPTH  GTPQH  GTTQ  GTTN   GTET   GTTVD  
# ...
   09:10:57.563.28-May-2021 3286.00 4018.18 82.10 15.00 316.44 2493.81
   09:10:57.763.28-May-2021 3286.00 4017.79 82.10 15.00 316.64 2493.81
   09:10:57.963.28-May-2021 3286.00 4017.76 82.10 15.00 316.84 2493.81
   09:10:58.163.28-May-2021 3286.00 4017.71 82.10 15.00 317.04 2493.81
   09:10:58.363.28-May-2021 3286.00 4017.71 82.10 15.00 317.24 2493.81
   09:10:58.563.28-May-2021 3286.00 4017.70 82.10 15.00 317.44 2493.81
   09:10:58.763.28-May-2021 3286.00 4017.68 82.10 15.00 317.64 2493.81
   09:10:58.963.28-May-2021 3286.00 4017.66 82.10 15.00 317.84 2493.81
   09:10:59.163.28-May-2021 3286.00 4017.66 82.10 15.00 318.04 2493.81
   09:10:59.363.28-May-2021 3286.00 4017.66 82.10 15.00 318.24 2493.81
   09:10:59.563.28-May-2021 3286.00 4017.66 82.10 15.00 318.44 2493.81
   09:10:59.763.28-May-2021 3286.00 4017.65 82.10 15.00 318.64 2493.81
   09:10:59.963.28-May-2021 3286.00 4016.96 82.10 15.00 318.84 2493.81
   09:11:00.163.28-May-2021 3286.00 4017.93 82.10 15.00 319.04 2493.81
   09:11:00.363.28-May-2021 3286.00 4017.93 82.10 15.00 319.24 2493.81
   09:11:00.563.28-May-2021 3286.00 4017.75 82.10 15.00 319.44 2493.81
   09:11:00.763.28-May-2021 3286.00 4017.71 82.10 15.00 319.64 2493.81
   09:11:00.963.28-May-2021 3286.00 4017.70 82.10 15.00 319.84 2493.81
   09:11:01.163.28-May-2021 3286.00 4017.19 82.10 15.00 320.04 2493.81
   09:11:01.363.28-May-2021 3286.00 4017.19 82.10 15.00 320.24 2493.81
   09:11:01.563.28-May-2021 3286.00 4017.76 82.10 15.00 320.44 2493.81
   09:11:01.763.28-May-2021 3286.00 4017.74 82.10 15.00 320.64 2493.81
   09:11:01.963.28-May-2021 3286.00 4017.20 82.10 15.00 320.84 2493.81
   09:11:02.163.28-May-2021 3286.00 4017.90 82.10 15.00 321.04 2493.81
   09:11:02.363.28-May-2021 3286.00 4017.90 82.10 15.00 321.24 2493.81
   09:11:02.563.28-May-2021 3286.00 4017.75 82.10 15.00 321.44 2493.81
   09:11:02.763.28-May-2021 3286.00 4017.71 82.10 15.00 321.64 2493.81
   09:11:02.963.28-May-2021 3286.00 4017.20 82.10 15.00 321.84 2493.81
   09:11:03.163.28-May-2021 3286.00 4017.90 82.10 15.00 322.04 2493.81
   09:11:03.363.28-May-2021 3286.00 4017.90 82.10 15.00 322.24 2493.81
   09:11:03.564.28-May-2021 3286.00 4017.77 82.10 15.00 322.44 2493.81
   09:11:03.764.28-May-2021 3286.00 4017.72 82.10 15.00 322.64 2493.81
   09:11:03.964.28-May-2021 3286.00 4017.70 82.10 15.00 322.84 2493.81
   09:11:04.164.28-May-2021 3286.00 4017.69 82.10 15.00 323.04 2493.81
   09:11:04.364.28-May-2021 3286.00 4017.69 82.10 15.00 323.24 2493.81
   09:11:04.564.28-May-2021 3286.00 4017.68 82.10 15.00 323.44 2493.81
   09:11:04.764.28-May-2021 3286.00 4017.68 82.10 15.00 323.64 2493.81
   09:11:04.964.28-May-2021 3286.00 4017.66 82.10 15.00 323.84 2493.81
   09:11:05.164.28-May-2021 3286.00 4017.67 82.10 15.00 324.04 2493.81
   09:11:05.364.28-May-2021 3286.00 4017.67 82.10 15.00 324.24 2493.81
   09:11:05.564.28-May-2021 3286.00 4016.91 82.10 15.00 324.44 2493.81
   09:11:05.764.28-May-2021 3286.00 4018.10 82.10 15.00 324.64 2493.81
   09:11:05.964.28-May-2021 3286.00 4017.76 82.10 15.00 324.84 2493.81
   09:11:06.164.28-May-2021 3286.00 4017.76 82.10 15.00 325.04 2493.81
   09:11:06.364.28-May-2021 3286.00 4017.76 82.10 15.00 325.24 2493.81
   09:11:06.564.28-May-2021 3286.00 4017.69 82.10 15.00 325.44 2493.81
   09:11:06.764.28-May-2021 3286.00 4017.69 82.10 15.00 325.64 2493.81
   09:11:06.964.28-May-2021 3286.00 4017.67 82.10 15.00 325.84 2493.81
   09:11:07.164.28-May-2021 3286.00 4017.66 82.10 15.00 326.04 2493.81
   09:11:07.364.28-May-2021 3286.00 4017.66 82.10 15.00 326.24 2493.81
   09:11:07.564.28-May-2021 3286.00 4017.66 82.10 15.00 326.44 2493.81
   09:11:07.764.28-May-2021 3286.00 4017.65 82.10 15.00 326.64 2493.81
   09:11:07.964.28-May-2021 3286.00 4017.63 82.10 15.00 326.84 2493.81
   09:11:08.164.28-May-2021 3286.00 4016.81 82.10 15.00 327.04 2493.81
   09:11:08.364.28-May-2021 3286.00 4016.81 82.10 15.00 327.24 2493.81
   09:11:08.564.28-May-2021 3286.00 4017.78 82.10 15.00 327.44 2493.81
   09:11:08.764.28-May-2021 3286.00 4017.75 82.10 15.00 327.64 2493.81
   09:11:08.964.28-May-2021 3286.00 4017.69 82.10 15.00 327.84 2493.81
   09:11:09.164.28-May-2021 3286.00 4017.41 82.10 15.00 328.04 2493.81
   09:11:09.364.28-May-2021 3286.00 4017.41 82.10 15.00 328.24 2493.81
   09:11:09.564.28-May-2021 3286.00 4017.86 82.10 15.00 328.44 2493.81
   09:11:09.764.28-May-2021 3286.00 4017.74 82.10 15.00 328.64 2493.81
   09:11:09.964.28-May-2021 3286.00 4017.47 82.10 15.00 328.84 2493.81
   09:11:10.164.28-May-2021 3286.00 4017.53 82.10 15.00 329.04 2493.81
   09:11:10.364.28-May-2021 3286.00 4017.53 82.10 15.00 329.24 2493.81
   09:11:10.564.28-May-2021 3286.00 4017.74 82.10 15.00 329.44 2493.81
   09:11:10.764.28-May-2021 3286.00 4017.74 82.10 15.00 329.64 2493.81
   09:11:10.964.28-May-2021 3286.00 4017.44 82.10 15.00 329.84 2493.81
   09:11:11.165.28-May-2021 3286.00 4017.53 82.10 15.00 330.04 2493.81
   09:11:11.365.28-May-2021 3286.00 4017.53 82.10 15.00 330.24 2493.81
   09:11:11.565.28-May-2021 3286.00 4017.87 82.10 15.00 330.44 2493.81
   09:11:11.765.28-May-2021 3286.00 4017.75 82.10 15.00 330.64 2493.81
   09:11:11.965.28-May-2021 3286.00 4017.70 82.10 15.00 330.84 2493.81
   09:11:12.165.28-May-2021 3286.00 4017.70 82.10 15.00 331.04 2493.81
   09:11:12.365.28-May-2021 3286.00 4017.70 82.10 15.00 331.24 2493.81
   09:11:12.565.28-May-2021 3286.00 4017.68 82.09 15.00 331.44 2493.81
   09:11:12.765.28-May-2021 3286.00 4017.67 82.10 15.00 331.64 2493.81
   09:11:12.965.28-May-2021 3286.00 4017.67 82.09 15.00 331.84 2493.81
   09:11:13.165.28-May-2021 3286.00 4017.66 82.09 15.00 332.04 2493.81
   09:11:13.365.28-May-2021 3286.00 4017.66 82.09 15.00 332.24 2493.81
   09:11:13.565.28-May-2021 3286.00 4017.65 82.09 15.00 332.44 2493.81
   09:11:13.765.28-May-2021 3286.00 4017.18 82.09 15.00 332.64 2493.81
   09:11:13.965.28-May-2021 3286.00 4017.88 82.09 15.00 332.84 2493.81
   09:11:14.165.28-May-2021 3286.00 4017.74 82.09 15.00 333.04 2493.81
   09:11:14.365.28-May-2021 3286.00 4017.74 82.09 15.00 333.24 2493.81
   09:11:14.565.28-May-2021 3286.00 4017.71 82.09 15.00 333.44 2493.81
   09:11:14.765.28-May-2021 3286.00 4017.68 82.09 15.00 333.65 2493.81
   09:11:14.965.28-May-2021 3286.00 4017.69 82.09 15.00 333.85 2493.81
   09:11:15.165.28-May-2021 3286.00 4017.67 82.09 15.00 334.05 2493.81
   09:11:15.365.28-May-2021 3286.00 4017.67 82.09 15.00 334.25 2493.81
   09:11:15.565.28-May-2021 3286.00 4017.66 82.09 15.00 334.45 2493.81
   09:11:15.765.28-May-2021 3286.00 4017.66 82.09 15.00 334.65 2493.81
   09:11:15.965.28-May-2021 3286.00 4017.64 82.09 15.00 334.85 2493.81
   09:11:16.165.28-May-2021 3286.00 4017.64 82.09 15.00 335.05 2493.81
   09:11:16.365.28-May-2021 3286.00 4017.64 82.09 15.00 335.25 2493.81
   09:11:16.565.28-May-2021 3286.00 4018.09 82.09 15.00 335.45 2493.81
   09:11:16.765.28-May-2021 3286.00 4017.77 82.09 15.00 335.65 2493.81
   09:11:16.965.28-May-2021 3286.00 4017.75 82.09 15.00 335.85 2493.81
   09:11:17.165.28-May-2021 3286.00 4017.67 82.09 15.00 336.05 2493.81
   09:11:17.365.28-May-2021 3286.00 4017.67 82.09 15.00 336.25 2493.81
   09:11:17.565.28-May-2021 3286.00 4017.52 82.09 15.00 336.45 2493.81
   09:11:17.765.28-May-2021 3286.00 4017.85 82.09 15.00 336.65 2493.81
   09:11:17.965.28-May-2021 3286.00 4017.73 82.09 15.00 336.85 2493.81
   09:11:18.165.28-May-2021 3286.00 4017.07 82.09 15.00 337.05 2493.81
   09:11:18.365.28-May-2021 3286.00 4017.07 82.09 15.00 337.25 2493.81
   09:11:18.566.28-May-2021 3286.00 4017.82 82.09 15.00 337.45 2493.81
   09:11:18.766.28-May-2021 3286.00 4017.75 82.09 15.00 337.65 2493.81
   09:11:18.966.28-May-2021 3286.00 4017.71 82.09 15.00 337.85 2493.81
   09:11:19.166.28-May-2021 3286.00 4017.70 82.09 15.00 338.05 2493.81
   09:11:19.366.28-May-2021 3286.00 4017.70 82.09 15.00 338.25 2493.81
   09:11:19.566.28-May-2021 3286.00 4017.21 82.09 15.00 338.45 2493.81
   09:11:19.766.28-May-2021 3286.00 4017.75 82.09 15.00 338.65 2493.81
   09:11:19.966.28-May-2021 3286.00 4017.74 82.09 15.00 338.85 2493.81
