~Version Information
 VERS.                  2.0:   CWLS log ASCII Standard -VERSION 2.0
 WRAP.                   NO:   One line per depth step
~Well Information Block
#MNEM.UNIT     VALUE/NAME     DESCRIPTION
#---------     -----------    ---------------------------
 STRT.S             00:59:34 28-May-21: START TIME 00:59:34 28-May-21
 STOP.S             01:06:40 28-May-21: STOP TIME  01:06:40 28-May-21
 STEP.S                   0.00: STEP TIME
 NULL.                 -999.25: NULL VALUE
 UWI .                     N/A:  UNIQUE WELL IDENTIFIER
 API .                     N/A:  API NUMBER
 UNIT.                     N/A:  LOGGING EQUIPMENT ID
 DCON.         Sperry Drilling:  DIRECTNL CONTR
 DOE .                     N/A:  DOE NUMBER
 MWDS.                    Baku:  MWD SHOP
 SRVC.     Turan Drilling and Engineering:  CONTRACTOR
 CTRY.              Azerbaijan:  COUNTRY NAME
 PROV.                    Baku:  PROVINCE
 STAT.                    Baku:  STATE NAME
 REGN.                   EESSA:  REGION
 BASE.              Azerbaijan:  LOGGING EQUIPMENT BASE LOCATION
 WTYP.                Deviated:  WELL TYPE
 RIG .              East Azeri:  RIG NAME
 WELL.                    D02y:  WELL NAME
 FLD .                     ACG:  FIELD NAME
 COMP.     BP Exploration (Caspian Sea) Ltd.:  COMPANY
 PDAT.          Mean Sea Level:  PERMANENT DATUM
 MDS .        Operator Entered:  MAG DATA SOURCE
 SON .        AZ-XX-0906997291:  JOB NUMBER
 FTOP.          Formation Tops:  FORM TOPS DESC
 ILTD.               Lithology:  INTERP LTH DESC
 SVYD.                  Survey:  SURVEY DESC
 DMOD.             Drill Model:  DRILL MOD DESC
 HPTY.       Minimum Curvature:  HOLE POS TYPE
 NREF.                    Grid:  NORTH REFERENCE
 SPUD.               05-May-21:  SPUD DATE
 DATE.      09.27.28 12-Jun-21:  END TIME
 STIM.      09.27.28 12-May-21:  START TIME
 DMF .             Drill Floor:  DRILL MEAS FROM
 DFST.                        :  DIST FSL TEXT
 DFWT.                        :  DIST FWL TEXT
 CNTY.                        :  COUNTY
 LOC .                        :  LOCATION
 LMF .             Drill Floor:  LOG MEASURED FROM
 DEP .m                2806.40:  DEPTH
 AGAP.m                  43.60:  AIR GAP
 VSNS.m                  -4.42:  VERT SEC N/S
 VSEW.m                  -7.31:  VERT SEC E/W
 APD .m                  43.60:  DEPTH ABOVE PD
 WDMS.m                 151.80:  WD ELEV
 EGL .m                   0.00:  GROUND ELEVATION
 EPD .m                   0.00:  ELEVATION
 AZTC.deg                 6.18:  AZM TOTAL CORR
 GRDC.deg                 0.29:  GRID CORRECTION
 MDEC.deg                 6.47:  MAGNETIC DECL
 MDIP.deg                59.50:  MAGNETIC DIP
 MFLD.nT              50350.00:  MAGNETIC FIELD
 GVFD.g                   1.00:  GRAVITY FIELD
 VSDR.deg               179.08:  VERT SEC DIRECT
 TDD .m                4300.00:  TOTAL DEPTH (DRILLER)
 SDEP.m                2800.00:  START DEPTH
 DFSL.m                   0.00:  DISTANCE FSL
 DFWL.m                   0.00:  DISTANCE FWL
 UTMY.m             4431871.34:  UTM Y
 UTMX.m              538762.90:  UTM X
 WHEW.m                  -7.31:  WELL HEAD E/W
 WHNS.m                  -4.42:  WELL HEAD N/S
 LONG.deg                51.45:  LONGITUDE
 LATI.deg                40.02:  LATITUDE
 TVDS.m                  43.60:  TVDSS CORRECTN
 EKB .m                  43.60:  KB ELEVATION
 EDF .m                  43.60:  DF ELEVATION
 TDL .m                 806.00:  TOTAL DEPTH (LOGGER)
 MAGU.                 1851231:  MAGUTM CHECKSUM
 VSC .                       0:  VS TO CLOSURE
~Parameter Information Block
#MNEM.UNIT       Value        Description
#---------     -----------    ---------------------------
 AV  .mps                 1.60:  Ann Velocity 
 AVMX.mps                 2.00:  Max Ann Veloc 
 AZIF.deg               140.24:  Azm, Final 
 BHAT.        Rotary Steerable:  BHA Type 
 BROT.°/30m               0.50:  Build Rotating 
 BS  .in                  8.50:  Bit Size 
 BTPL.psig              619.00:  Bit Press Loss 
 CABU.                     Yes:  Customer Abuse 
 CGEO.          Ilgar Gurbanov:  Customer Geo 
 COMM.                     ô:r:  Run Comments 1 
 TCS .hr                 85.88:  Time Ciculation Ended 
 CV  .mps                 3.30:  Crit Velocity 
 CVMX.mps                 3.50:  Max Crit Veloc 
 DD1 .           Hamid Axmedov:  Direct Drillr 1 
 DD2 .           Teymur Aliyev:  Direct Drillr 2 
 DDSV.               Geo-Pilot:  DD Service 
 DEFF.%                 100.00:  % Det Eff 
 DLRX.°/30m               0.00:  Dogleg Rot Max 
 DLSO.°/30m               1.80:  Dogleg Oriented 
 DLSX.°/30m               3.34:  Dogleg Str Max 
 DRET.      11.50.00 27-May-21:  Drill End Time 
 DRST.      21.13.00 24-May-21:  Drill Start Tim 
 DTIM.hr                 45.11:  Time Drilling 
 EDEP.m                4054.00:  End Depth 
 ENG1.         Almaz Almadatov:  Engineer 1 
 ENG2.           Amrah Tahirov:  Engineer 2 
 ENG3.      Bakhtiyar Jabbarli:  Engineer 3 
 ENG4.          Nazrin Asgarli:  Engineer 4 
 ETIM.      10.00.00 30-May-21:  End Time 
 FLOI.gpm               530.00:  Flow In 
 FLON.gpm               400.00:  Flow In Min 
 FLOS.cptm                0.00:  Fluid Loss 
 FLOX.gpm               560.00:  Flow In Max 
 DFT .        Mineral Oil Base:  Mud Type 
 FTRO.       Formation Presure:  FTWD Run Obj 
 HFLO.                      No:  High Flow 
 HPRE.                      No:  High Pressure 
 HTEM.                      No:  High Temp 
 HYDO.m                   1.80:  Hydro Offset 
 IFIN.deg                73.83:  Inc, Final 
 IMAX.deg                73.83:  Inc Max 
 IMIN.deg                57.86:  Inc Min 
 IMND.m                3259.27:  Inc Min Depth 
 IMXD.m                4045.58:  Inc Max Depth 
 JARR.                     Yes:  Jarring 
 LETM.      11.50.00 27-May-21:  Log End Time 
 LOST.hr                     0:  Lost Rig Time 
 LSTM.      21.13.00 24-May-21:  Log Start Time 
 MDCL.ppm             42500.00:  Mud Chlorides 
 MDES.     Inversion Oil/Synthetic:  Mud Desc 
 DFD .sg                  1.52:  Mud Density 
 MDMN.sg                  1.52:  Dens Mud Min 
 MDMX.sg                  1.52:  Dens Mud Max 
 MOIL.                      70:  Run Mud Oil % 
 MOWR.                   70:30:  Run Mud OWR 
 MSND.                     0.2:  Run Mud Sand % 
 MSOL.                      22:  Run Mud Solids% 
 DFV .spqt               77.00:  Mud Viscosity 
 MWOD.in                  6.75:  MWD Tool OD 
 MWSI.                      No:  Serv Intrp, MWD 
 OTIM.hr                151.01:  Time Operating 
 PCON.          Wear / Scratch:  Pad Condition 
 PMAX.psia            11296.93:  Press Op, Max 
 PV  .cP                 37.00:  Mud PV 
 RUN .                     500:  Run Number 
 ROPA.m/hr               25.00:  ROP Avg 
 ROPN.m/hr                9.00:  ROP Min 
 ROPX.m/hr               28.00:  ROP Max 
 RPMA.rpm               140.00:  RPM Surface Avg 
 RPMN.rpm                90.00:  RPM Surface Min 
 RPMX.rpm               140.00:  RPM Surface Max 
 RRUN.                    0500:  Rig Run Number 
 SAZI.deg               172.17:  Azm, Start 
 SDEP.m                3248.00:  Start Depth 
 SIDD.                      No:  Serv Intrp, DD 
 SINC.deg                57.86:  Inc, Start 
 SPPA.psig             5620.00:  SPP Avg 
 SPPN.psig             5190.00:  SPP Min 
 SPPX.psig             6050.00:  SPP Max 
 STIM.      16.00.00 23-May-21:  Start Time 
 SVCS.                 DD, MWD:  Services 
 SVER.                    9.20:  Sperry Version 
 TDAT.m                 806.00:  Tot Depth Attmp 
 TDDF.                      No:  Trip for DD 
 TDLG.m                 806.00:  Tot Depth Loggd 
 TFF .                      No:  Trip for Fail 
 TQAA.f-kp               12.00:  Torque Abs Avg 
 TQAN.f-kp                8.00:  Torque Abs Min 
 TQAX.f-kp               15.00:  Torque Abs Max 
 TRRT.°/30m               0.30:  Turn Rotating 
 MRT .                  EWR-M5:  Maximum Recorded Temperature 
 TTMX.degC               93.00:  Max Tool Temp 
 VS01.                90649155:  Virtual Str1 SN 
 VS02.                90642264:  Virtual Str2 SN 
 VS03.                90642266:  Virtual Str3 SN 
 VS04.                90642261:  Virtual Str4 SN 
 WBMN.klb                 0.00:  WOB Min 
 WITN.             Anar Khalil:  Customer Rep 
 WITN.           Murad Guliyev:  Customer Rep 2 
 WOBA.klb                13.00:  WOB Avg 
 WOBX.klb                25.00:  WOB Max 
 YP  .lhf2               32.00:  Yield Point 
~Curve Information Block
#MNEM.UNIT                 API CODE     Curve Description
#---------               -----------    ---------------------------
 TIME.HHMMSS            00 000 000 000:  GT Time & Date
 GTDEPTH.m              00 000 000 000:  GT Depth
 GTPQH.psia             00 000 000 000:  GT HR Quartz Pressure
 GTTQ.degC              00 000 000 000:  GT Quartz Temperature
 GTTN.NONE              00 000 000 000:  GT Test Number
 GTET.sec               00 000 000 000:  GT Elapsed Test Time
 GTTVD.m                00 000 000 000:  GT True Vertical Depth
#Other Information
#
#WARRANTY: Halliburton will use its best efforts to furnish customers with 
#accurate information and interpretations that are part of, and incident to, the services 
#provided.  However, Halliburton cannot and does not warrant the accuracy 
#or correctness of such information and interpretations.  Under no circumstances should any 
#such information or interpretation be relied upon as the sole basis for any drilling, 
#completion, production, or financial decision or any procedure involving any risk to the 
#safety of any drilling venture, drilling rig or its crew or any other third party.  The 
#Customer has full responsibility for all drilling, completion and production operation.  
#Halliburton makes no representations or warranties, either expressed or 
#implied, including, but not limited to, the implied warranties of merchantability or fitness 
#for a particular purpose, with respect to the services rendered.  In no event will 
#Halliburton be liable for failure to obtain any particular results or for 
#any damages, including, but not limited to, indirect, special or consequential damages, 
#resulting from the use of any information or interpretation provided by Halliburton.
#
~A           TIME           GTDEPTH  GTPQH  GTTQ  GTTN  GTET   GTTVD  
# ...
   01:00:44.023.28-May-2021 3649.00 3165.16 84.93 5.00  69.07 2653.32
   01:00:44.223.28-May-2021 3649.00 3165.16 84.93 5.00  69.27 2653.32
   01:00:44.424.28-May-2021 3649.00 3165.27 84.93 5.00  69.47 2653.32
   01:00:44.624.28-May-2021 3649.00 3165.30 84.93 5.00  69.67 2653.32
   01:00:44.824.28-May-2021 3649.00 3165.22 84.93 5.00  69.87 2653.32
   01:00:45.024.28-May-2021 3649.00 3165.12 84.93 5.00  70.07 2653.32
   01:00:45.224.28-May-2021 3649.00 3165.12 84.93 5.00  70.27 2653.32
   01:00:45.425.28-May-2021 3649.00 3165.27 84.93 5.00  70.47 2653.32
   01:00:45.625.28-May-2021 3649.00 3165.31 84.93 5.00  70.67 2653.32
   01:00:45.825.28-May-2021 3649.00 3165.33 84.93 5.00  70.87 2653.32
   01:00:46.025.28-May-2021 3649.00 3165.26 84.93 5.00  71.07 2653.32
   01:00:46.225.28-May-2021 3649.00 3165.26 84.93 5.00  71.27 2653.32
   01:00:46.426.28-May-2021 3649.00 3165.25 84.93 5.00  71.47 2653.32
   01:00:46.626.28-May-2021 3649.00 3165.31 84.93 5.00  71.67 2653.32
   01:00:46.826.28-May-2021 3649.00 3165.34 84.93 5.00  71.87 2653.32
   01:00:47.026.28-May-2021 3649.00 3165.37 84.93 5.00  72.07 2653.32
   01:00:47.227.28-May-2021 3649.00 3165.37 84.93 5.00  72.28 2653.32
   01:00:47.427.28-May-2021 3649.00 3165.40 84.93 5.00  72.48 2653.32
   01:00:47.627.28-May-2021 3649.00 3165.41 84.93 5.00  72.68 2653.32
   01:00:47.827.28-May-2021 3649.00 3165.42 84.93 5.00  72.88 2653.32
   01:00:48.027.28-May-2021 3649.00 3165.43 84.93 5.00  73.08 2653.32
   01:00:48.228.28-May-2021 3649.00 3165.43 84.93 5.00  73.28 2653.32
   01:00:48.428.28-May-2021 3649.00 3165.44 84.93 5.00  73.48 2653.32
   01:00:48.628.28-May-2021 3649.00 3165.35 84.93 5.00  73.68 2653.32
   01:00:48.828.28-May-2021 3649.00 3165.23 84.93 5.00  73.88 2653.32
   01:00:49.028.28-May-2021 3649.00 3165.31 84.93 5.00  74.08 2653.32
   01:00:49.229.28-May-2021 3649.00 3165.31 84.93 5.00  74.28 2653.32
   01:00:49.429.28-May-2021 3649.00 3165.40 84.93 5.00  74.48 2653.32
   01:00:49.629.28-May-2021 3649.00 3165.44 84.93 5.00  74.68 2653.32
   01:00:49.829.28-May-2021 3649.00 3165.46 84.93 5.00  74.88 2653.32
   01:00:50.029.28-May-2021 3649.00 3165.47 84.94 5.00  75.08 2653.32
   01:00:50.230.28-May-2021 3649.00 3165.47 84.94 5.00  75.28 2653.32
   01:00:50.430.28-May-2021 3649.00 3165.49 84.94 5.00  75.48 2653.32
   01:00:50.630.28-May-2021 3649.00 3165.50 84.94 5.00  75.68 2653.32
   01:00:50.830.28-May-2021 3649.00 3165.50 84.94 5.00  75.88 2653.32
   01:00:51.030.28-May-2021 3649.00 3165.50 84.94 5.00  76.08 2653.32
   01:00:51.231.28-May-2021 3649.00 3165.50 84.94 5.00  76.28 2653.32
   01:00:51.431.28-May-2021 3649.00 3165.30 84.94 5.00  76.48 2653.32
   01:00:51.631.28-May-2021 3649.00 3165.37 84.94 5.00  76.68 2653.32
   01:00:51.831.28-May-2021 3649.00 3165.38 84.94 5.00  76.88 2653.32
   01:00:52.032.28-May-2021 3649.00 3165.34 84.94 5.00  77.08 2653.32
   01:00:52.232.28-May-2021 3649.00 3165.34 84.94 5.00  77.28 2653.32
   01:00:52.432.28-May-2021 3649.00 3165.41 84.94 5.00  77.48 2653.32
   01:00:52.632.28-May-2021 3649.00 3165.45 84.94 5.00  77.68 2653.32
   01:00:52.832.28-May-2021 3649.00 3165.49 84.94 5.00  77.88 2653.32
   01:00:53.033.28-May-2021 3649.00 3165.46 84.94 5.00  78.08 2653.32
   01:00:53.233.28-May-2021 3649.00 3165.46 84.94 5.00  78.28 2653.32
   01:00:53.433.28-May-2021 3649.00 3165.39 84.94 5.00  78.48 2653.32
   01:00:53.633.28-May-2021 3649.00 3165.45 84.94 5.00  78.68 2653.32
   01:00:53.833.28-May-2021 3649.00 3165.48 84.94 5.00  78.88 2653.32
   01:00:54.034.28-May-2021 3649.00 3165.53 84.94 5.00  79.08 2653.32
   01:00:54.234.28-May-2021 3649.00 3165.53 84.94 5.00  79.28 2653.32
   01:00:54.434.28-May-2021 3649.00 3165.37 84.94 5.00  79.48 2653.32
   01:00:54.634.28-May-2021 3649.00 3165.43 84.94 5.00  79.68 2653.32
   01:00:54.834.28-May-2021 3649.00 3165.49 84.94 5.00  79.88 2653.32
   01:00:55.035.28-May-2021 3649.00 3165.52 84.94 5.00  80.08 2653.32
   01:00:55.235.28-May-2021 3649.00 3165.52 84.94 5.00  80.28 2653.32
   01:00:55.435.28-May-2021 3649.00 3165.58 84.94 5.00  80.48 2653.32
   01:00:55.635.28-May-2021 3649.00 3165.59 84.94 5.00  80.68 2653.32
   01:00:55.835.28-May-2021 3649.00 3165.60 84.94 5.00  80.88 2653.32
   01:00:56.036.28-May-2021 3649.00 3165.62 84.94 5.00  81.08 2653.32
   01:00:56.236.28-May-2021 3649.00 3165.62 84.94 5.00  81.28 2653.32
   01:00:56.436.28-May-2021 3649.00 3165.63 84.94 5.00  81.48 2653.32
   01:00:56.636.28-May-2021 3649.00 3165.62 84.94 5.00  81.68 2653.32
   01:00:56.837.28-May-2021 3649.00 3165.54 84.94 5.00  81.89 2653.32
   01:00:57.037.28-May-2021 3649.00 3165.42 84.94 5.00  82.09 2653.32
   01:00:57.237.28-May-2021 3649.00 3165.42 84.94 5.00  82.29 2653.32
   01:00:57.437.28-May-2021 3649.00 3165.53 84.94 5.00  82.49 2653.32
   01:00:57.637.28-May-2021 3649.00 3165.56 84.94 5.00  82.69 2653.32
   01:00:57.838.28-May-2021 3649.00 3165.59 84.94 5.00  82.89 2653.32
   01:00:58.038.28-May-2021 3649.00 3165.62 84.94 5.00  83.09 2653.32
   01:00:58.238.28-May-2021 3649.00 3165.62 84.94 5.00  83.29 2653.32
   01:00:58.438.28-May-2021 3649.00 3165.65 84.94 5.00  83.49 2653.32
   01:00:58.638.28-May-2021 3649.00 3165.65 84.94 5.00  83.69 2653.32
   01:00:58.839.28-May-2021 3649.00 3165.67 84.94 5.00  83.89 2653.32
   01:00:59.039.28-May-2021 3649.00 3165.67 84.94 5.00  84.09 2653.32
   01:00:59.239.28-May-2021 3649.00 3165.67 84.94 5.00  84.29 2653.32
   01:00:59.439.28-May-2021 3649.00 3165.59 84.94 5.00  84.49 2653.32
   01:00:59.639.28-May-2021 3649.00 3165.47 84.94 5.00  84.69 2653.32
   01:00:59.840.28-May-2021 3649.00 3165.53 84.94 5.00  84.89 2653.32
   01:01:00.040.28-May-2021 3649.00 3165.53 84.94 5.00  85.09 2653.32
   01:01:00.240.28-May-2021 3649.00 3165.53 84.94 5.00  85.29 2653.32
   01:01:00.440.28-May-2021 3649.00 3165.50 84.94 5.00  85.49 2653.32
   01:01:00.640.28-May-2021 3649.00 3165.55 84.94 5.00  85.69 2653.32
   01:01:00.841.28-May-2021 3649.00 3165.58 84.94 5.00  85.89 2653.32
   01:01:01.041.28-May-2021 3649.00 3165.61 84.94 5.00  86.09 2653.32
   01:01:01.241.28-May-2021 3649.00 3165.61 84.94 5.00  86.29 2653.32
   01:01:01.441.28-May-2021 3649.00 3165.53 84.94 5.00  86.49 2653.32
   01:01:01.642.28-May-2021 3649.00 3165.53 84.94 5.00  86.69 2653.32
   01:01:01.842.28-May-2021 3649.00 3165.57 84.94 5.00  86.89 2653.32
   01:01:02.042.28-May-2021 3649.00 3165.60 84.94 5.00  87.09 2653.32
   01:01:02.242.28-May-2021 3649.00 3165.60 84.94 5.00  87.29 2653.32
   01:01:02.442.28-May-2021 3649.00 3165.60 84.94 5.00  87.49 2653.32
   01:01:02.643.28-May-2021 3649.00 3165.51 84.94 5.00  87.69 2653.32
   01:01:02.843.28-May-2021 3649.00 3165.56 84.94 5.00  87.89 2653.32
   01:01:03.043.28-May-2021 3649.00 3165.59 84.94 5.00  88.09 2653.32
   01:01:03.243.28-May-2021 3649.00 3165.59 84.94 5.00  88.29 2653.32
   01:01:03.443.28-May-2021 3649.00 3165.65 84.94 5.00  88.49 2653.32
   01:01:03.644.28-May-2021 3649.00 3165.68 84.94 5.00  88.69 2653.32
   01:01:03.844.28-May-2021 3649.00 3165.70 84.94 5.00  88.89 2653.32
   01:01:04.044.28-May-2021 3649.00 3165.71 84.94 5.00  89.09 2653.32
   01:01:04.244.28-May-2021 3649.00 3165.71 84.94 5.00  89.29 2653.32
   01:01:04.444.28-May-2021 3649.00 3165.74 84.94 5.00  89.49 2653.32
   01:01:04.645.28-May-2021 3649.00 3165.74 84.94 5.00  89.69 2653.32
   01:01:04.845.28-May-2021 3649.00 3165.75 84.94 5.00  89.89 2653.32
   01:01:05.045.28-May-2021 3649.00 3165.67 84.94 5.00  90.09 2653.32
   01:01:05.245.28-May-2021 3649.00 3165.67 84.94 5.00  90.29 2653.32
   01:01:05.445.28-May-2021 3649.00 3165.59 84.94 5.00  90.49 2653.32
   01:01:05.646.28-May-2021 3649.00 3165.63 84.94 5.00  90.69 2653.32
   01:01:05.846.28-May-2021 3649.00 3165.66 84.94 5.00  90.89 2653.32
   01:01:06.046.28-May-2021 3649.00 3165.68 84.94 5.00  91.09 2653.32
   01:01:06.246.28-May-2021 3649.00 3165.68 84.94 5.00  91.29 2653.32
   01:01:06.447.28-May-2021 3649.00 3165.73 84.94 5.00  91.50 2653.32
   01:01:06.647.28-May-2021 3649.00 3165.74 84.94 5.00  91.70 2653.32
   01:01:06.847.28-May-2021 3649.00 3165.76 84.94 5.00  91.90 2653.32
