~Version Information
 VERS.                  2.0:   CWLS log ASCII Standard -VERSION 2.0
 WRAP.                   NO:   One line per depth step
~Well Information Block
#MNEM.UNIT     VALUE/NAME     DESCRIPTION
#---------     -----------    ---------------------------
 STRT.S             05:48:37 28-May-21: START TIME 05:48:37 28-May-21
 STOP.S             05:55:44 28-May-21: STOP TIME  05:55:44 28-May-21
 STEP.S                   0.00: STEP TIME
 NULL.                 -999.25: NULL VALUE
 UWI .                     N/A:  UNIQUE WELL IDENTIFIER
 API .                     N/A:  API NUMBER
 UNIT.                     N/A:  LOGGING EQUIPMENT ID
 DCON.         Sperry Drilling:  DIRECTNL CONTR
 DOE .                     N/A:  DOE NUMBER
 MWDS.                    Baku:  MWD SHOP
 SRVC.     Turan Drilling and Engineering:  CONTRACTOR
 CTRY.              Azerbaijan:  COUNTRY NAME
 PROV.                    Baku:  PROVINCE
 STAT.                    Baku:  STATE NAME
 REGN.                   EESSA:  REGION
 BASE.              Azerbaijan:  LOGGING EQUIPMENT BASE LOCATION
 WTYP.                Deviated:  WELL TYPE
 RIG .              East Azeri:  RIG NAME
 WELL.                    D02y:  WELL NAME
 FLD .                     ACG:  FIELD NAME
 COMP.     BP Exploration (Caspian Sea) Ltd.:  COMPANY
 PDAT.          Mean Sea Level:  PERMANENT DATUM
 MDS .        Operator Entered:  MAG DATA SOURCE
 SON .        AZ-XX-0906997291:  JOB NUMBER
 FTOP.          Formation Tops:  FORM TOPS DESC
 ILTD.               Lithology:  INTERP LTH DESC
 SVYD.                  Survey:  SURVEY DESC
 DMOD.             Drill Model:  DRILL MOD DESC
 HPTY.       Minimum Curvature:  HOLE POS TYPE
 NREF.                    Grid:  NORTH REFERENCE
 SPUD.               05-May-21:  SPUD DATE
 DATE.      09.27.28 12-Jun-21:  END TIME
 STIM.      09.27.28 12-May-21:  START TIME
 DMF .             Drill Floor:  DRILL MEAS FROM
 DFST.                        :  DIST FSL TEXT
 DFWT.                        :  DIST FWL TEXT
 CNTY.                        :  COUNTY
 LOC .                        :  LOCATION
 LMF .             Drill Floor:  LOG MEASURED FROM
 DEP .m                2806.40:  DEPTH
 AGAP.m                  43.60:  AIR GAP
 VSNS.m                  -4.42:  VERT SEC N/S
 VSEW.m                  -7.31:  VERT SEC E/W
 APD .m                  43.60:  DEPTH ABOVE PD
 WDMS.m                 151.80:  WD ELEV
 EGL .m                   0.00:  GROUND ELEVATION
 EPD .m                   0.00:  ELEVATION
 AZTC.deg                 6.18:  AZM TOTAL CORR
 GRDC.deg                 0.29:  GRID CORRECTION
 MDEC.deg                 6.47:  MAGNETIC DECL
 MDIP.deg                59.50:  MAGNETIC DIP
 MFLD.nT              50350.00:  MAGNETIC FIELD
 GVFD.g                   1.00:  GRAVITY FIELD
 VSDR.deg               179.08:  VERT SEC DIRECT
 TDD .m                4300.00:  TOTAL DEPTH (DRILLER)
 SDEP.m                2800.00:  START DEPTH
 DFSL.m                   0.00:  DISTANCE FSL
 DFWL.m                   0.00:  DISTANCE FWL
 UTMY.m             4431871.34:  UTM Y
 UTMX.m              538762.90:  UTM X
 WHEW.m                  -7.31:  WELL HEAD E/W
 WHNS.m                  -4.42:  WELL HEAD N/S
 LONG.deg                51.45:  LONGITUDE
 LATI.deg                40.02:  LATITUDE
 TVDS.m                  43.60:  TVDSS CORRECTN
 EKB .m                  43.60:  KB ELEVATION
 EDF .m                  43.60:  DF ELEVATION
 TDL .m                 806.00:  TOTAL DEPTH (LOGGER)
 MAGU.                 1851231:  MAGUTM CHECKSUM
 VSC .                       0:  VS TO CLOSURE
~Parameter Information Block
#MNEM.UNIT       Value        Description
#---------     -----------    ---------------------------
 AV  .mps                 1.60:  Ann Velocity 
 AVMX.mps                 2.00:  Max Ann Veloc 
 AZIF.deg               140.24:  Azm, Final 
 BHAT.        Rotary Steerable:  BHA Type 
 BROT.°/30m               0.50:  Build Rotating 
 BS  .in                  8.50:  Bit Size 
 BTPL.psig              619.00:  Bit Press Loss 
 CABU.                     Yes:  Customer Abuse 
 CGEO.          Ilgar Gurbanov:  Customer Geo 
 COMM.                     dAY:  Run Comments 1 
 TCS .hr                 85.88:  Time Ciculation Ended 
 CV  .mps                 3.30:  Crit Velocity 
 CVMX.mps                 3.50:  Max Crit Veloc 
 DD1 .           Hamid Axmedov:  Direct Drillr 1 
 DD2 .           Teymur Aliyev:  Direct Drillr 2 
 DDSV.               Geo-Pilot:  DD Service 
 DEFF.%                 100.00:  % Det Eff 
 DLRX.°/30m               0.00:  Dogleg Rot Max 
 DLSO.°/30m               1.80:  Dogleg Oriented 
 DLSX.°/30m               3.34:  Dogleg Str Max 
 DRET.      11.50.00 27-May-21:  Drill End Time 
 DRST.      21.13.00 24-May-21:  Drill Start Tim 
 DTIM.hr                 45.11:  Time Drilling 
 EDEP.m                4054.00:  End Depth 
 ENG1.         Almaz Almadatov:  Engineer 1 
 ENG2.           Amrah Tahirov:  Engineer 2 
 ENG3.      Bakhtiyar Jabbarli:  Engineer 3 
 ENG4.          Nazrin Asgarli:  Engineer 4 
 ETIM.      10.00.00 30-May-21:  End Time 
 FLOI.gpm               530.00:  Flow In 
 FLON.gpm               400.00:  Flow In Min 
 FLOS.cptm                0.00:  Fluid Loss 
 FLOX.gpm               560.00:  Flow In Max 
 DFT .        Mineral Oil Base:  Mud Type 
 FTRO.       Formation Presure:  FTWD Run Obj 
 HFLO.                      No:  High Flow 
 HPRE.                      No:  High Pressure 
 HTEM.                      No:  High Temp 
 HYDO.m                   1.80:  Hydro Offset 
 IFIN.deg                73.83:  Inc, Final 
 IMAX.deg                73.83:  Inc Max 
 IMIN.deg                57.86:  Inc Min 
 IMND.m                3259.27:  Inc Min Depth 
 IMXD.m                4045.58:  Inc Max Depth 
 JARR.                     Yes:  Jarring 
 LETM.      11.50.00 27-May-21:  Log End Time 
 LOST.hr                     0:  Lost Rig Time 
 LSTM.      21.13.00 24-May-21:  Log Start Time 
 MDCL.ppm             42500.00:  Mud Chlorides 
 MDES.     Inversion Oil/Synthetic:  Mud Desc 
 DFD .sg                  1.52:  Mud Density 
 MDMN.sg                  1.52:  Dens Mud Min 
 MDMX.sg                  1.52:  Dens Mud Max 
 MOIL.                      70:  Run Mud Oil % 
 MOWR.                   70:30:  Run Mud OWR 
 MSND.                     0.2:  Run Mud Sand % 
 MSOL.                      22:  Run Mud Solids% 
 DFV .spqt               77.00:  Mud Viscosity 
 MWOD.in                  6.75:  MWD Tool OD 
 MWSI.                      No:  Serv Intrp, MWD 
 OTIM.hr                151.01:  Time Operating 
 PCON.          Wear / Scratch:  Pad Condition 
 PMAX.psia            11296.93:  Press Op, Max 
 PV  .cP                 37.00:  Mud PV 
 RUN .                     500:  Run Number 
 ROPA.m/hr               25.00:  ROP Avg 
 ROPN.m/hr                9.00:  ROP Min 
 ROPX.m/hr               28.00:  ROP Max 
 RPMA.rpm               140.00:  RPM Surface Avg 
 RPMN.rpm                90.00:  RPM Surface Min 
 RPMX.rpm               140.00:  RPM Surface Max 
 RRUN.                    0500:  Rig Run Number 
 SAZI.deg               172.17:  Azm, Start 
 SDEP.m                3248.00:  Start Depth 
 SIDD.                      No:  Serv Intrp, DD 
 SINC.deg                57.86:  Inc, Start 
 SPPA.psig             5620.00:  SPP Avg 
 SPPN.psig             5190.00:  SPP Min 
 SPPX.psig             6050.00:  SPP Max 
 STIM.      16.00.00 23-May-21:  Start Time 
 SVCS.                 DD, MWD:  Services 
 SVER.                    9.20:  Sperry Version 
 TDAT.m                 806.00:  Tot Depth Attmp 
 TDDF.                      No:  Trip for DD 
 TDLG.m                 806.00:  Tot Depth Loggd 
 TFF .                      No:  Trip for Fail 
 TQAA.f-kp               12.00:  Torque Abs Avg 
 TQAN.f-kp                8.00:  Torque Abs Min 
 TQAX.f-kp               15.00:  Torque Abs Max 
 TRRT.°/30m               0.30:  Turn Rotating 
 MRT .                  EWR-M5:  Maximum Recorded Temperature 
 TTMX.degC               93.00:  Max Tool Temp 
 VS01.                90649155:  Virtual Str1 SN 
 VS02.                90642264:  Virtual Str2 SN 
 VS03.                90642266:  Virtual Str3 SN 
 VS04.                90642261:  Virtual Str4 SN 
 WBMN.klb                 0.00:  WOB Min 
 WITN.             Anar Khalil:  Customer Rep 
 WITN.           Murad Guliyev:  Customer Rep 2 
 WOBA.klb                13.00:  WOB Avg 
 WOBX.klb                25.00:  WOB Max 
 YP  .lhf2               32.00:  Yield Point 
~Curve Information Block
#MNEM.UNIT                 API CODE     Curve Description
#---------               -----------    ---------------------------
 TIME.HHMMSS            00 000 000 000:  GT Time & Date
 GTDEPTH.m              00 000 000 000:  GT Depth
 GTPQH.psia             00 000 000 000:  GT HR Quartz Pressure
 GTTQ.degC              00 000 000 000:  GT Quartz Temperature
 GTTN.NONE              00 000 000 000:  GT Test Number
 GTET.sec               00 000 000 000:  GT Elapsed Test Time
 GTTVD.m                00 000 000 000:  GT True Vertical Depth
#Other Information
#
#WARRANTY: Halliburton will use its best efforts to furnish customers with 
#accurate information and interpretations that are part of, and incident to, the services 
#provided.  However, Halliburton cannot and does not warrant the accuracy 
#or correctness of such information and interpretations.  Under no circumstances should any 
#such information or interpretation be relied upon as the sole basis for any drilling, 
#completion, production, or financial decision or any procedure involving any risk to the 
#safety of any drilling venture, drilling rig or its crew or any other third party.  The 
#Customer has full responsibility for all drilling, completion and production operation.  
#Halliburton makes no representations or warranties, either expressed or 
#implied, including, but not limited to, the implied warranties of merchantability or fitness 
#for a particular purpose, with respect to the services rendered.  In no event will 
#Halliburton be liable for failure to obtain any particular results or for 
#any damages, including, but not limited to, indirect, special or consequential damages, 
#resulting from the use of any information or interpretation provided by Halliburton.
#
~A           TIME           GTDEPTH  GTPQH  GTTQ  GTTN   GTET   GTTVD  
# ...
   05:51:16.044.28-May-2021 3439.00 4266.14 82.94 11.00 158.27 2568.67
   05:51:16.244.28-May-2021 3439.00 4649.99 82.94 11.00 158.47 2568.67
   05:51:16.444.28-May-2021 3439.00 4544.03 82.94 11.00 158.67 2568.67
   05:51:16.644.28-May-2021 3439.00 4230.15 82.94 11.00 158.87 2568.67
   05:51:16.845.28-May-2021 3439.00 3796.73 82.94 11.00 159.07 2568.67
   05:51:17.045.28-May-2021 3439.00 3796.73 82.94 11.00 159.27 2568.67
   05:51:17.245.28-May-2021 3439.00 3959.42 82.94 11.00 159.47 2568.67
   05:51:17.445.28-May-2021 3439.00 3924.89 82.94 11.00 159.67 2568.67
   05:51:17.645.28-May-2021 3439.00 4669.64 82.94 11.00 159.87 2568.67
   05:51:17.845.28-May-2021 3439.00 4185.92 82.94 11.00 160.07 2568.67
   05:51:18.045.28-May-2021 3439.00 4185.92 82.94 11.00 160.27 2568.67
   05:51:18.245.28-May-2021 3439.00 3979.37 82.94 11.00 160.47 2568.67
   05:51:18.445.28-May-2021 3439.00 4428.70 82.94 11.00 160.67 2568.67
   05:51:18.645.28-May-2021 3439.00 4339.21 82.94 11.00 160.87 2568.67
   05:51:18.845.28-May-2021 3439.00 4279.34 82.94 11.00 161.07 2568.67
   05:51:19.045.28-May-2021 3439.00 4279.34 82.94 11.00 161.27 2568.67
   05:51:19.246.28-May-2021 3439.00 4197.15 82.93 11.00 161.47 2568.67
   05:51:19.446.28-May-2021 3439.00 3957.63 82.93 11.00 161.67 2568.67
   05:51:19.646.28-May-2021 3439.00 4189.75 82.93 11.00 161.87 2568.67
   05:51:19.846.28-May-2021 3439.00 4322.62 82.93 11.00 162.07 2568.67
   05:51:20.046.28-May-2021 3439.00 4322.62 82.93 11.00 162.27 2568.67
   05:51:20.246.28-May-2021 3439.00 3807.82 82.93 11.00 162.47 2568.67
   05:51:20.446.28-May-2021 3439.00 4169.87 82.93 11.00 162.67 2568.67
   05:51:20.646.28-May-2021 3439.00 4107.77 82.93 11.00 162.87 2568.67
   05:51:20.846.28-May-2021 3439.00 4361.56 82.93 11.00 163.07 2568.67
   05:51:21.046.28-May-2021 3439.00 4361.56 82.93 11.00 163.27 2568.67
   05:51:21.246.28-May-2021 3439.00 4347.34 82.93 11.00 163.47 2568.67
   05:51:21.446.28-May-2021 3439.00 4025.28 82.93 11.00 163.67 2568.67
   05:51:21.647.28-May-2021 3439.00 4610.20 82.93 11.00 163.87 2568.67
   05:51:21.847.28-May-2021 3439.00 4074.40 82.93 11.00 164.07 2568.67
   05:51:22.047.28-May-2021 3439.00 4074.40 82.93 11.00 164.27 2568.67
   05:51:22.247.28-May-2021 3439.00 4124.01 82.93 11.00 164.47 2568.67
   05:51:22.447.28-May-2021 3439.00 4313.94 82.93 11.00 164.67 2568.67
   05:51:22.647.28-May-2021 3439.00 4615.22 82.93 11.00 164.87 2568.67
   05:51:22.847.28-May-2021 3439.00 3967.56 82.93 11.00 165.07 2568.67
   05:51:23.047.28-May-2021 3439.00 3967.56 82.93 11.00 165.27 2568.67
   05:51:23.247.28-May-2021 3439.00 3668.14 82.92 11.00 165.47 2568.67
   05:51:23.447.28-May-2021 3439.00 3658.53 82.92 11.00 165.67 2568.67
   05:51:23.647.28-May-2021 3439.00 4011.10 82.92 11.00 165.87 2568.67
   05:51:23.847.28-May-2021 3439.00 3814.56 82.92 11.00 166.07 2568.67
   05:51:24.048.28-May-2021 3439.00 3814.56 82.92 11.00 166.27 2568.67
   05:51:24.248.28-May-2021 3439.00 4345.66 82.92 11.00 166.47 2568.67
   05:51:24.448.28-May-2021 3439.00 3786.71 82.92 11.00 166.67 2568.67
   05:51:24.648.28-May-2021 3439.00 3636.58 82.92 11.00 166.87 2568.67
   05:51:24.848.28-May-2021 3439.00 3154.93 82.92 11.00 167.07 2568.67
   05:51:25.048.28-May-2021 3439.00 3154.93 82.92 11.00 167.27 2568.67
   05:51:25.248.28-May-2021 3439.00 4156.00 82.92 11.00 167.47 2568.67
   05:51:25.448.28-May-2021 3439.00 4150.88 82.92 11.00 167.67 2568.67
   05:51:25.648.28-May-2021 3439.00 4148.52 82.92 11.00 167.87 2568.67
   05:51:25.848.28-May-2021 3439.00 4147.63 82.92 11.00 168.07 2568.67
   05:51:26.048.28-May-2021 3439.00 4147.63 82.92 11.00 168.27 2568.67
   05:51:26.248.28-May-2021 3439.00 4146.54 82.92 11.00 168.47 2568.67
   05:51:26.449.28-May-2021 3439.00 4146.16 82.92 11.00 168.67 2568.67
   05:51:26.649.28-May-2021 3439.00 4145.82 82.92 11.00 168.87 2568.67
   05:51:26.849.28-May-2021 3439.00 4145.54 82.92 11.00 169.07 2568.67
   05:51:27.049.28-May-2021 3439.00 4145.54 82.92 11.00 169.27 2568.67
   05:51:27.249.28-May-2021 3439.00 4145.04 82.92 11.00 169.47 2568.67
   05:51:27.449.28-May-2021 3439.00 4144.84 82.92 11.00 169.67 2568.67
   05:51:27.649.28-May-2021 3439.00 4144.63 82.92 11.00 169.87 2568.67
   05:51:27.849.28-May-2021 3439.00 4143.94 82.92 11.00 170.07 2568.67
   05:51:28.049.28-May-2021 3439.00 4143.94 82.92 11.00 170.27 2568.67
   05:51:28.249.28-May-2021 3439.00 4144.57 82.92 11.00 170.47 2568.67
   05:51:28.449.28-May-2021 3439.00 4144.45 82.92 11.00 170.67 2568.67
   05:51:28.649.28-May-2021 3439.00 4144.49 82.92 11.00 170.87 2568.67
   05:51:28.850.28-May-2021 3439.00 4144.36 82.92 11.00 171.07 2568.67
   05:51:29.050.28-May-2021 3439.00 4144.36 82.92 11.00 171.27 2568.67
   05:51:29.250.28-May-2021 3439.00 4144.25 82.92 11.00 171.47 2568.67
   05:51:29.450.28-May-2021 3439.00 4144.20 82.92 11.00 171.67 2568.67
   05:51:29.650.28-May-2021 3439.00 4144.12 82.92 11.00 171.87 2568.67
   05:51:29.850.28-May-2021 3439.00 4144.06 82.92 11.00 172.07 2568.67
   05:51:30.050.28-May-2021 3439.00 4144.06 82.92 11.00 172.27 2568.67
   05:51:30.250.28-May-2021 3439.00 4143.96 82.92 11.00 172.47 2568.67
   05:51:30.450.28-May-2021 3439.00 4143.33 82.92 11.00 172.67 2568.67
   05:51:30.650.28-May-2021 3439.00 4142.83 82.92 11.00 172.87 2568.67
   05:51:30.850.28-May-2021 3439.00 4143.51 82.92 11.00 173.07 2568.67
   05:51:31.050.28-May-2021 3439.00 4143.51 82.92 11.00 173.27 2568.67
   05:51:31.251.28-May-2021 3439.00 4143.57 82.92 11.00 173.47 2568.67
   05:51:31.451.28-May-2021 3439.00 4143.48 82.92 11.00 173.67 2568.67
   05:51:31.651.28-May-2021 3439.00 4142.14 82.92 11.00 173.87 2568.67
   05:51:31.851.28-May-2021 3439.00 4143.32 82.92 11.00 174.07 2568.67
   05:51:32.051.28-May-2021 3439.00 4143.32 82.92 11.00 174.27 2568.67
   05:51:32.251.28-May-2021 3439.00 4143.42 82.92 11.00 174.47 2568.67
   05:51:32.451.28-May-2021 3439.00 4143.35 82.92 11.00 174.67 2568.67
   05:51:32.651.28-May-2021 3439.00 4143.39 82.92 11.00 174.87 2568.67
   05:51:32.851.28-May-2021 3439.00 4142.01 82.92 11.00 175.07 2568.67
   05:51:33.051.28-May-2021 3439.00 4142.01 82.92 11.00 175.27 2568.67
   05:51:33.251.28-May-2021 3439.00 4143.21 82.92 11.00 175.47 2568.67
   05:51:33.451.28-May-2021 3439.00 4143.36 82.92 11.00 175.67 2568.67
   05:51:33.652.28-May-2021 3439.00 4143.29 82.92 11.00 175.87 2568.67
   05:51:33.852.28-May-2021 3439.00 4142.00 82.92 11.00 176.07 2568.67
   05:51:34.052.28-May-2021 3439.00 4142.00 82.92 11.00 176.27 2568.67
   05:51:34.252.28-May-2021 3439.00 4143.19 82.92 11.00 176.47 2568.67
   05:51:34.452.28-May-2021 3439.00 4143.37 82.92 11.00 176.67 2568.67
   05:51:34.652.28-May-2021 3439.00 4143.32 82.92 11.00 176.87 2568.67
   05:51:34.852.28-May-2021 3439.00 4143.36 82.92 11.00 177.07 2568.67
   05:51:35.052.28-May-2021 3439.00 4143.36 82.92 11.00 177.27 2568.67
   05:51:35.252.28-May-2021 3439.00 4143.43 82.92 11.00 177.47 2568.67
   05:51:35.452.28-May-2021 3439.00 4143.43 82.92 11.00 177.67 2568.67
   05:51:35.652.28-May-2021 3439.00 4143.49 82.92 11.00 177.87 2568.67
   05:51:35.852.28-May-2021 3439.00 4143.50 82.92 11.00 178.07 2568.67
   05:51:36.053.28-May-2021 3439.00 4143.50 82.92 11.00 178.27 2568.67
   05:51:36.253.28-May-2021 3439.00 4142.51 82.92 11.00 178.47 2568.67
   05:51:36.453.28-May-2021 3439.00 4143.14 82.92 11.00 178.67 2568.67
   05:51:36.653.28-May-2021 3439.00 4143.38 82.92 11.00 178.87 2568.67
   05:51:36.853.28-May-2021 3439.00 4143.42 82.92 11.00 179.07 2568.67
   05:51:37.053.28-May-2021 3439.00 4143.42 82.92 11.00 179.27 2568.67
   05:51:37.253.28-May-2021 3439.00 4143.50 82.92 11.00 179.48 2568.67
   05:51:37.453.28-May-2021 3439.00 4143.57 82.92 11.00 179.68 2568.67
   05:51:37.653.28-May-2021 3439.00 4143.60 82.92 11.00 179.88 2568.67
   05:51:37.853.28-May-2021 3439.00 4143.63 82.92 11.00 180.08 2568.67
   05:51:38.053.28-May-2021 3439.00 4143.63 82.92 11.00 180.28 2568.67
   05:51:38.253.28-May-2021 3439.00 4143.71 82.92 11.00 180.48 2568.67
   05:51:38.454.28-May-2021 3439.00 4143.73 82.92 11.00 180.68 2568.67
