~Version Information
 VERS.                  2.0:   CWLS log ASCII Standard -VERSION 2.0
 WRAP.                   NO:   One line per depth step
~Well Information Block
#MNEM.UNIT     VALUE/NAME     DESCRIPTION
#---------     -----------    ---------------------------
 STRT.S             04:01:58 28-May-21: START TIME 04:01:58 28-May-21
 STOP.S             04:09:02 28-May-21: STOP TIME  04:09:02 28-May-21
 STEP.S                   0.00: STEP TIME
 NULL.                 -999.25: NULL VALUE
 UWI .                     N/A:  UNIQUE WELL IDENTIFIER
 API .                     N/A:  API NUMBER
 UNIT.                     N/A:  LOGGING EQUIPMENT ID
 DCON.         Sperry Drilling:  DIRECTNL CONTR
 DOE .                     N/A:  DOE NUMBER
 MWDS.                    Baku:  MWD SHOP
 SRVC.     Turan Drilling and Engineering:  CONTRACTOR
 CTRY.              Azerbaijan:  COUNTRY NAME
 PROV.                    Baku:  PROVINCE
 STAT.                    Baku:  STATE NAME
 REGN.                   EESSA:  REGION
 BASE.              Azerbaijan:  LOGGING EQUIPMENT BASE LOCATION
 WTYP.                Deviated:  WELL TYPE
 RIG .              East Azeri:  RIG NAME
 WELL.                    D02y:  WELL NAME
 FLD .                     ACG:  FIELD NAME
 COMP.     BP Exploration (Caspian Sea) Ltd.:  COMPANY
 PDAT.          Mean Sea Level:  PERMANENT DATUM
 MDS .        Operator Entered:  MAG DATA SOURCE
 SON .        AZ-XX-0906997291:  JOB NUMBER
 FTOP.          Formation Tops:  FORM TOPS DESC
 ILTD.               Lithology:  INTERP LTH DESC
 SVYD.                  Survey:  SURVEY DESC
 DMOD.             Drill Model:  DRILL MOD DESC
 HPTY.       Minimum Curvature:  HOLE POS TYPE
 NREF.                    Grid:  NORTH REFERENCE
 SPUD.               05-May-21:  SPUD DATE
 DATE.      09.27.28 12-Jun-21:  END TIME
 STIM.      09.27.28 12-May-21:  START TIME
 DMF .             Drill Floor:  DRILL MEAS FROM
 DFST.                        :  DIST FSL TEXT
 DFWT.                        :  DIST FWL TEXT
 CNTY.                        :  COUNTY
 LOC .                        :  LOCATION
 LMF .             Drill Floor:  LOG MEASURED FROM
 DEP .m                2806.40:  DEPTH
 AGAP.m                  43.60:  AIR GAP
 VSNS.m                  -4.42:  VERT SEC N/S
 VSEW.m                  -7.31:  VERT SEC E/W
 APD .m                  43.60:  DEPTH ABOVE PD
 WDMS.m                 151.80:  WD ELEV
 EGL .m                   0.00:  GROUND ELEVATION
 EPD .m                   0.00:  ELEVATION
 AZTC.deg                 6.18:  AZM TOTAL CORR
 GRDC.deg                 0.29:  GRID CORRECTION
 MDEC.deg                 6.47:  MAGNETIC DECL
 MDIP.deg                59.50:  MAGNETIC DIP
 MFLD.nT              50350.00:  MAGNETIC FIELD
 GVFD.g                   1.00:  GRAVITY FIELD
 VSDR.deg               179.08:  VERT SEC DIRECT
 TDD .m                4300.00:  TOTAL DEPTH (DRILLER)
 SDEP.m                2800.00:  START DEPTH
 DFSL.m                   0.00:  DISTANCE FSL
 DFWL.m                   0.00:  DISTANCE FWL
 UTMY.m             4431871.34:  UTM Y
 UTMX.m              538762.90:  UTM X
 WHEW.m                  -7.31:  WELL HEAD E/W
 WHNS.m                  -4.42:  WELL HEAD N/S
 LONG.deg                51.45:  LONGITUDE
 LATI.deg                40.02:  LATITUDE
 TVDS.m                  43.60:  TVDSS CORRECTN
 EKB .m                  43.60:  KB ELEVATION
 EDF .m                  43.60:  DF ELEVATION
 TDL .m                 806.00:  TOTAL DEPTH (LOGGER)
 MAGU.                 1851231:  MAGUTM CHECKSUM
 VSC .                       0:  VS TO CLOSURE
~Parameter Information Block
#MNEM.UNIT       Value        Description
#---------     -----------    ---------------------------
 AV  .mps                 1.60:  Ann Velocity 
 AVMX.mps                 2.00:  Max Ann Veloc 
 AZIF.deg               140.24:  Azm, Final 
 BHAT.        Rotary Steerable:  BHA Type 
 BROT.°/30m               0.50:  Build Rotating 
 BS  .in                  8.50:  Bit Size 
 BTPL.psig              619.00:  Bit Press Loss 
 CABU.                     Yes:  Customer Abuse 
 CGEO.          Ilgar Gurbanov:  Customer Geo 
 COMM.                     4`:  Run Comments 1 
 TCS .hr                 85.88:  Time Ciculation Ended 
 CV  .mps                 3.30:  Crit Velocity 
 CVMX.mps                 3.50:  Max Crit Veloc 
 DD1 .           Hamid Axmedov:  Direct Drillr 1 
 DD2 .           Teymur Aliyev:  Direct Drillr 2 
 DDSV.               Geo-Pilot:  DD Service 
 DEFF.%                 100.00:  % Det Eff 
 DLRX.°/30m               0.00:  Dogleg Rot Max 
 DLSO.°/30m               1.80:  Dogleg Oriented 
 DLSX.°/30m               3.34:  Dogleg Str Max 
 DRET.      11.50.00 27-May-21:  Drill End Time 
 DRST.      21.13.00 24-May-21:  Drill Start Tim 
 DTIM.hr                 45.11:  Time Drilling 
 EDEP.m                4054.00:  End Depth 
 ENG1.         Almaz Almadatov:  Engineer 1 
 ENG2.           Amrah Tahirov:  Engineer 2 
 ENG3.      Bakhtiyar Jabbarli:  Engineer 3 
 ENG4.          Nazrin Asgarli:  Engineer 4 
 ETIM.      10.00.00 30-May-21:  End Time 
 FLOI.gpm               530.00:  Flow In 
 FLON.gpm               400.00:  Flow In Min 
 FLOS.cptm                0.00:  Fluid Loss 
 FLOX.gpm               560.00:  Flow In Max 
 DFT .        Mineral Oil Base:  Mud Type 
 FTRO.       Formation Presure:  FTWD Run Obj 
 HFLO.                      No:  High Flow 
 HPRE.                      No:  High Pressure 
 HTEM.                      No:  High Temp 
 HYDO.m                   1.80:  Hydro Offset 
 IFIN.deg                73.83:  Inc, Final 
 IMAX.deg                73.83:  Inc Max 
 IMIN.deg                57.86:  Inc Min 
 IMND.m                3259.27:  Inc Min Depth 
 IMXD.m                4045.58:  Inc Max Depth 
 JARR.                     Yes:  Jarring 
 LETM.      11.50.00 27-May-21:  Log End Time 
 LOST.hr                     0:  Lost Rig Time 
 LSTM.      21.13.00 24-May-21:  Log Start Time 
 MDCL.ppm             42500.00:  Mud Chlorides 
 MDES.     Inversion Oil/Synthetic:  Mud Desc 
 DFD .sg                  1.52:  Mud Density 
 MDMN.sg                  1.52:  Dens Mud Min 
 MDMX.sg                  1.52:  Dens Mud Max 
 MOIL.                      70:  Run Mud Oil % 
 MOWR.                   70:30:  Run Mud OWR 
 MSND.                     0.2:  Run Mud Sand % 
 MSOL.                      22:  Run Mud Solids% 
 DFV .spqt               77.00:  Mud Viscosity 
 MWOD.in                  6.75:  MWD Tool OD 
 MWSI.                      No:  Serv Intrp, MWD 
 OTIM.hr                151.01:  Time Operating 
 PCON.          Wear / Scratch:  Pad Condition 
 PMAX.psia            11296.93:  Press Op, Max 
 PV  .cP                 37.00:  Mud PV 
 RUN .                     500:  Run Number 
 ROPA.m/hr               25.00:  ROP Avg 
 ROPN.m/hr                9.00:  ROP Min 
 ROPX.m/hr               28.00:  ROP Max 
 RPMA.rpm               140.00:  RPM Surface Avg 
 RPMN.rpm                90.00:  RPM Surface Min 
 RPMX.rpm               140.00:  RPM Surface Max 
 RRUN.                    0500:  Rig Run Number 
 SAZI.deg               172.17:  Azm, Start 
 SDEP.m                3248.00:  Start Depth 
 SIDD.                      No:  Serv Intrp, DD 
 SINC.deg                57.86:  Inc, Start 
 SPPA.psig             5620.00:  SPP Avg 
 SPPN.psig             5190.00:  SPP Min 
 SPPX.psig             6050.00:  SPP Max 
 STIM.      16.00.00 23-May-21:  Start Time 
 SVCS.                 DD, MWD:  Services 
 SVER.                    9.20:  Sperry Version 
 TDAT.m                 806.00:  Tot Depth Attmp 
 TDDF.                      No:  Trip for DD 
 TDLG.m                 806.00:  Tot Depth Loggd 
 TFF .                      No:  Trip for Fail 
 TQAA.f-kp               12.00:  Torque Abs Avg 
 TQAN.f-kp                8.00:  Torque Abs Min 
 TQAX.f-kp               15.00:  Torque Abs Max 
 TRRT.°/30m               0.30:  Turn Rotating 
 MRT .                  EWR-M5:  Maximum Recorded Temperature 
 TTMX.degC               93.00:  Max Tool Temp 
 VS01.                90649155:  Virtual Str1 SN 
 VS02.                90642264:  Virtual Str2 SN 
 VS03.                90642266:  Virtual Str3 SN 
 VS04.                90642261:  Virtual Str4 SN 
 WBMN.klb                 0.00:  WOB Min 
 WITN.             Anar Khalil:  Customer Rep 
 WITN.           Murad Guliyev:  Customer Rep 2 
 WOBA.klb                13.00:  WOB Avg 
 WOBX.klb                25.00:  WOB Max 
 YP  .lhf2               32.00:  Yield Point 
~Curve Information Block
#MNEM.UNIT                 API CODE     Curve Description
#---------               -----------    ---------------------------
 TIME.HHMMSS            00 000 000 000:  GT Time & Date
 GTDEPTH.m              00 000 000 000:  GT Depth
 GTPQH.psia             00 000 000 000:  GT HR Quartz Pressure
 GTTQ.degC              00 000 000 000:  GT Quartz Temperature
 GTTN.NONE              00 000 000 000:  GT Test Number
 GTET.sec               00 000 000 000:  GT Elapsed Test Time
 GTTVD.m                00 000 000 000:  GT True Vertical Depth
#Other Information
#
#WARRANTY: Halliburton will use its best efforts to furnish customers with 
#accurate information and interpretations that are part of, and incident to, the services 
#provided.  However, Halliburton cannot and does not warrant the accuracy 
#or correctness of such information and interpretations.  Under no circumstances should any 
#such information or interpretation be relied upon as the sole basis for any drilling, 
#completion, production, or financial decision or any procedure involving any risk to the 
#safety of any drilling venture, drilling rig or its crew or any other third party.  The 
#Customer has full responsibility for all drilling, completion and production operation.  
#Halliburton makes no representations or warranties, either expressed or 
#implied, including, but not limited to, the implied warranties of merchantability or fitness 
#for a particular purpose, with respect to the services rendered.  In no event will 
#Halliburton be liable for failure to obtain any particular results or for 
#any damages, including, but not limited to, indirect, special or consequential damages, 
#resulting from the use of any information or interpretation provided by Halliburton.
#
~A           TIME           GTDEPTH  GTPQH  GTTQ  GTTN  GTET   GTTVD  
# ...
   04:02:21.353.28-May-2021 3493.50 6057.16 83.31 8.00  23.01 2592.27
   04:02:21.553.28-May-2021 3493.50 6057.16 83.31 8.00  23.21 2592.27
   04:02:21.753.28-May-2021 3493.50 6063.44 83.31 8.00  23.41 2592.27
   04:02:21.953.28-May-2021 3493.50 6055.25 83.31 8.00  23.61 2592.27
   04:02:22.153.28-May-2021 3493.50 6057.62 83.31 8.00  23.81 2592.27
   04:02:22.353.28-May-2021 3493.50 6057.19 83.31 8.00  24.01 2592.27
   04:02:22.554.28-May-2021 3493.50 6057.19 83.31 8.00  24.21 2592.27
   04:02:22.754.28-May-2021 3493.50 6056.91 83.31 8.00  24.41 2592.27
   04:02:22.954.28-May-2021 3493.50 6057.15 83.31 8.00  24.61 2592.27
   04:02:23.154.28-May-2021 3493.50 6057.28 83.31 8.00  24.81 2592.27
   04:02:23.354.28-May-2021 3493.50 6057.91 83.31 8.00  25.01 2592.27
   04:02:23.554.28-May-2021 3493.50 6057.91 83.31 8.00  25.21 2592.27
   04:02:23.754.28-May-2021 3493.50 6058.21 83.31 8.00  25.41 2592.27
   04:02:23.954.28-May-2021 3493.50 6058.22 83.31 8.00  25.61 2592.27
   04:02:24.154.28-May-2021 3493.50 6058.15 83.31 8.00  25.81 2592.27
   04:02:24.354.28-May-2021 3493.50 6058.09 83.31 8.00  26.01 2592.27
   04:02:24.554.28-May-2021 3493.50 6058.09 83.31 8.00  26.21 2592.27
   04:02:24.754.28-May-2021 3493.50 6056.40 83.31 8.00  26.41 2592.27
   04:02:24.954.28-May-2021 3493.50 6058.86 83.31 8.00  26.61 2592.27
   04:02:25.154.28-May-2021 3493.50 6058.35 83.31 8.00  26.81 2592.27
   04:02:25.354.28-May-2021 3493.50 6058.37 83.31 8.00  27.01 2592.27
   04:02:25.554.28-May-2021 3493.50 6058.37 83.31 8.00  27.21 2592.27
   04:02:25.755.28-May-2021 3493.50 6062.21 83.31 8.00  27.41 2592.27
   04:02:25.955.28-May-2021 3493.50 6059.26 83.31 8.00  27.61 2592.27
   04:02:26.155.28-May-2021 3493.50 6059.20 83.31 8.00  27.81 2592.27
   04:02:26.355.28-May-2021 3493.50 6065.33 83.31 8.00  28.01 2592.27
   04:02:26.555.28-May-2021 3493.50 6065.33 83.31 8.00  28.21 2592.27
   04:02:26.755.28-May-2021 3493.50 6059.24 83.30 8.00  28.41 2592.27
   04:02:26.955.28-May-2021 3493.50 6059.37 83.30 8.00  28.61 2592.27
   04:02:27.155.28-May-2021 3493.50 6062.75 83.30 8.00  28.81 2592.27
   04:02:27.355.28-May-2021 3493.50 6059.95 83.30 8.00  29.01 2592.27
   04:02:27.555.28-May-2021 3493.50 6059.95 83.30 8.00  29.21 2592.27
   04:02:27.755.28-May-2021 3493.50 6059.69 83.30 8.00  29.41 2592.27
   04:02:27.955.28-May-2021 3493.50 6059.94 83.30 8.00  29.61 2592.27
   04:02:28.155.28-May-2021 3493.50 6060.07 83.30 8.00  29.81 2592.27
   04:02:28.355.28-May-2021 3493.50 6059.77 83.30 8.00  30.01 2592.27
   04:02:28.555.28-May-2021 3493.50 6059.77 83.30 8.00  30.21 2592.27
   04:02:28.756.28-May-2021 3493.50 6060.37 83.30 8.00  30.41 2592.27
   04:02:28.956.28-May-2021 3493.50 6060.57 83.30 8.00  30.61 2592.27
   04:02:29.156.28-May-2021 3493.50 6060.43 83.30 8.00  30.81 2592.27
   04:02:29.356.28-May-2021 3493.50 6060.41 83.30 8.00  31.01 2592.27
   04:02:29.556.28-May-2021 3493.50 6060.41 83.30 8.00  31.21 2592.27
   04:02:29.756.28-May-2021 3493.50 6066.52 83.30 8.00  31.41 2592.27
   04:02:29.956.28-May-2021 3493.50 6058.39 83.30 8.00  31.61 2592.27
   04:02:30.156.28-May-2021 3493.50 6061.05 83.30 8.00  31.81 2592.27
   04:02:30.356.28-May-2021 3493.50 6060.85 83.30 8.00  32.01 2592.27
   04:02:30.556.28-May-2021 3493.50 6060.85 83.30 8.00  32.21 2592.27
   04:02:30.756.28-May-2021 3493.50 6060.84 83.30 8.00  32.41 2592.27
   04:02:30.956.28-May-2021 3493.50 6061.06 83.30 8.00  32.61 2592.27
   04:02:31.156.28-May-2021 3493.50 6061.16 83.30 8.00  32.81 2592.27
   04:02:31.356.28-May-2021 3493.50 6061.75 83.30 8.00  33.01 2592.27
   04:02:31.556.28-May-2021 3493.50 6061.75 83.30 8.00  33.21 2592.27
   04:02:31.756.28-May-2021 3493.50 6061.74 83.30 8.00  33.41 2592.27
   04:02:31.957.28-May-2021 3493.50 6061.78 83.30 8.00  33.61 2592.27
   04:02:32.157.28-May-2021 3493.50 6061.56 83.30 8.00  33.81 2592.27
   04:02:32.357.28-May-2021 3493.50 6061.40 83.30 8.00  34.01 2592.27
   04:02:32.557.28-May-2021 3493.50 6061.40 83.30 8.00  34.21 2592.27
   04:02:32.757.28-May-2021 3493.50 6061.40 83.30 8.00  34.41 2592.27
   04:02:32.957.28-May-2021 3493.50 6061.84 83.30 8.00  34.61 2592.27
   04:02:33.157.28-May-2021 3493.50 6061.50 83.29 8.00  34.81 2592.27
   04:02:33.357.28-May-2021 3493.50 6061.21 83.29 8.00  35.01 2592.27
   04:02:33.557.28-May-2021 3493.50 6061.21 83.29 8.00  35.21 2592.27
   04:02:33.757.28-May-2021 3493.50 6068.81 83.29 8.00  35.41 2592.27
   04:02:33.957.28-May-2021 3493.50 6058.77 83.29 8.00  35.61 2592.27
   04:02:34.157.28-May-2021 3493.50 6062.32 83.29 8.00  35.81 2592.27
   04:02:34.357.28-May-2021 3493.50 6068.61 83.29 8.00  36.01 2592.27
   04:02:34.557.28-May-2021 3493.50 6068.61 83.29 8.00  36.21 2592.27
   04:02:34.757.28-May-2021 3493.50 6062.38 83.29 8.00  36.41 2592.27
   04:02:34.958.28-May-2021 3493.50 6062.41 83.29 8.00  36.61 2592.27
   04:02:35.158.28-May-2021 3493.50 6061.85 83.29 8.00  36.81 2592.27
   04:02:35.358.28-May-2021 3493.50 6068.55 83.29 8.00  37.01 2592.27
   04:02:35.558.28-May-2021 3493.50 6068.55 83.29 8.00  37.21 2592.27
   04:02:35.758.28-May-2021 3493.50 6062.86 83.29 8.00  37.41 2592.27
   04:02:35.958.28-May-2021 3493.50 6063.10 83.29 8.00  37.61 2592.27
   04:02:36.158.28-May-2021 3493.50 6062.94 83.29 8.00  37.81 2592.27
   04:02:36.358.28-May-2021 3493.50 6062.77 83.29 8.00  38.01 2592.27
   04:02:36.558.28-May-2021 3493.50 6062.77 83.29 8.00  38.21 2592.27
   04:02:36.758.28-May-2021 3493.50 6063.05 83.29 8.00  38.41 2592.27
   04:02:36.958.28-May-2021 3493.50 6063.44 83.29 8.00  38.61 2592.27
   04:02:37.158.28-May-2021 3493.50 6063.49 83.29 8.00  38.81 2592.27
   04:02:37.358.28-May-2021 3493.50 6063.20 83.29 8.00  39.01 2592.27
   04:02:37.558.28-May-2021 3493.50 6063.20 83.29 8.00  39.21 2592.27
   04:02:37.758.28-May-2021 3493.50 6063.00 83.29 8.00  39.41 2592.27
   04:02:37.958.28-May-2021 3493.50 6063.02 83.29 8.00  39.61 2592.27
   04:02:38.159.28-May-2021 3493.50 6053.82 83.29 8.00  39.81 2592.27
   04:02:38.359.28-May-2021 3493.50 6018.42 83.29 8.00  40.01 2592.27
   04:02:38.559.28-May-2021 3493.50 6018.42 83.29 8.00  40.21 2592.27
   04:02:38.759.28-May-2021 3493.50 6098.32 83.29 8.00  40.41 2592.27
   04:02:38.959.28-May-2021 3493.50 6115.49 83.29 8.00  40.61 2592.27
   04:02:39.159.28-May-2021 3493.50 6125.89 83.29 8.00  40.81 2592.27
   04:02:39.359.28-May-2021 3493.50 6134.06 83.29 8.00  41.01 2592.27
   04:02:39.559.28-May-2021 3493.50 6134.06 83.29 8.00  41.21 2592.27
   04:02:39.759.28-May-2021 3493.50 6149.79 83.29 8.00  41.41 2592.27
   04:02:39.959.28-May-2021 3493.50 6157.65 83.28 8.00  41.61 2592.27
   04:02:40.159.28-May-2021 3493.50 6160.06 83.28 8.00  41.81 2592.27
   04:02:40.359.28-May-2021 3493.50 6155.30 83.28 8.00  42.01 2592.27
   04:02:40.559.28-May-2021 3493.50 6155.30 83.28 8.00  42.21 2592.27
   04:02:40.759.28-May-2021 3493.50 6151.25 83.28 8.00  42.41 2592.27
   04:02:40.959.28-May-2021 3493.50 6148.13 83.28 8.00  42.61 2592.27
   04:02:41.160.28-May-2021 3493.50 6138.74 83.28 8.00  42.81 2592.27
   04:02:41.360.28-May-2021 3493.50 6137.03 83.28 8.00  43.01 2592.27
   04:02:41.560.28-May-2021 3493.50 6137.03 83.28 8.00  43.21 2592.27
   04:02:41.760.28-May-2021 3493.50 6127.91 83.28 8.00  43.41 2592.27
   04:02:41.960.28-May-2021 3493.50 6126.78 83.28 8.00  43.61 2592.27
   04:02:42.160.28-May-2021 3493.50 6117.29 83.28 8.00  43.81 2592.27
   04:02:42.360.28-May-2021 3493.50 6116.60 83.28 8.00  44.01 2592.27
   04:02:42.560.28-May-2021 3493.50 6116.60 83.28 8.00  44.21 2592.27
   04:02:42.760.28-May-2021 3493.50 6107.79 83.28 8.00  44.41 2592.27
   04:02:42.960.28-May-2021 3493.50 6106.09 83.28 8.00  44.61 2592.27
   04:02:43.160.28-May-2021 3493.50 6099.95 83.28 8.00  44.81 2592.27
   04:02:43.360.28-May-2021 3493.50 6097.04 83.28 8.00  45.01 2592.27
   04:02:43.560.28-May-2021 3493.50 6097.04 83.28 8.00  45.21 2592.27
   04:02:43.760.28-May-2021 3493.50 6090.00 83.28 8.00  45.41 2592.27
   04:02:43.960.28-May-2021 3493.50 6083.70 83.28 8.00  45.61 2592.27
   04:02:44.160.28-May-2021 3493.50 6080.78 83.28 8.00  45.81 2592.27
