~Version Information
 VERS.                  2.0:   CWLS log ASCII Standard -VERSION 2.0
 WRAP.                   NO:   One line per depth step
~Well Information Block
#MNEM.UNIT     VALUE/NAME     DESCRIPTION
#---------     -----------    ---------------------------
 STRT.S             00:59:34 28-May-21: START TIME 00:59:34 28-May-21
 STOP.S             01:06:40 28-May-21: STOP TIME  01:06:40 28-May-21
 STEP.S                   0.00: STEP TIME
 NULL.                 -999.25: NULL VALUE
 UWI .                     N/A:  UNIQUE WELL IDENTIFIER
 API .                     N/A:  API NUMBER
 UNIT.                     N/A:  LOGGING EQUIPMENT ID
 DCON.         Sperry Drilling:  DIRECTNL CONTR
 DOE .                     N/A:  DOE NUMBER
 MWDS.                    Baku:  MWD SHOP
 SRVC.     Turan Drilling and Engineering:  CONTRACTOR
 CTRY.              Azerbaijan:  COUNTRY NAME
 PROV.                    Baku:  PROVINCE
 STAT.                    Baku:  STATE NAME
 REGN.                   EESSA:  REGION
 BASE.              Azerbaijan:  LOGGING EQUIPMENT BASE LOCATION
 WTYP.                Deviated:  WELL TYPE
 RIG .              East Azeri:  RIG NAME
 WELL.                    D02y:  WELL NAME
 FLD .                     ACG:  FIELD NAME
 COMP.     BP Exploration (Caspian Sea) Ltd.:  COMPANY
 PDAT.          Mean Sea Level:  PERMANENT DATUM
 MDS .        Operator Entered:  MAG DATA SOURCE
 SON .        AZ-XX-0906997291:  JOB NUMBER
 FTOP.          Formation Tops:  FORM TOPS DESC
 ILTD.               Lithology:  INTERP LTH DESC
 SVYD.                  Survey:  SURVEY DESC
 DMOD.             Drill Model:  DRILL MOD DESC
 HPTY.       Minimum Curvature:  HOLE POS TYPE
 NREF.                    Grid:  NORTH REFERENCE
 SPUD.               05-May-21:  SPUD DATE
 DATE.      09.27.28 12-Jun-21:  END TIME
 STIM.      09.27.28 12-May-21:  START TIME
 DMF .             Drill Floor:  DRILL MEAS FROM
 DFST.                        :  DIST FSL TEXT
 DFWT.                        :  DIST FWL TEXT
 CNTY.                        :  COUNTY
 LOC .                        :  LOCATION
 LMF .             Drill Floor:  LOG MEASURED FROM
 DEP .m                2806.40:  DEPTH
 AGAP.m                  43.60:  AIR GAP
 VSNS.m                  -4.42:  VERT SEC N/S
 VSEW.m                  -7.31:  VERT SEC E/W
 APD .m                  43.60:  DEPTH ABOVE PD
 WDMS.m                 151.80:  WD ELEV
 EGL .m                   0.00:  GROUND ELEVATION
 EPD .m                   0.00:  ELEVATION
 AZTC.deg                 6.18:  AZM TOTAL CORR
 GRDC.deg                 0.29:  GRID CORRECTION
 MDEC.deg                 6.47:  MAGNETIC DECL
 MDIP.deg                59.50:  MAGNETIC DIP
 MFLD.nT              50350.00:  MAGNETIC FIELD
 GVFD.g                   1.00:  GRAVITY FIELD
 VSDR.deg               179.08:  VERT SEC DIRECT
 TDD .m                4300.00:  TOTAL DEPTH (DRILLER)
 SDEP.m                2800.00:  START DEPTH
 DFSL.m                   0.00:  DISTANCE FSL
 DFWL.m                   0.00:  DISTANCE FWL
 UTMY.m             4431871.34:  UTM Y
 UTMX.m              538762.90:  UTM X
 WHEW.m                  -7.31:  WELL HEAD E/W
 WHNS.m                  -4.42:  WELL HEAD N/S
 LONG.deg                51.45:  LONGITUDE
 LATI.deg                40.02:  LATITUDE
 TVDS.m                  43.60:  TVDSS CORRECTN
 EKB .m                  43.60:  KB ELEVATION
 EDF .m                  43.60:  DF ELEVATION
 TDL .m                 806.00:  TOTAL DEPTH (LOGGER)
 MAGU.                 1851231:  MAGUTM CHECKSUM
 VSC .                       0:  VS TO CLOSURE
~Parameter Information Block
#MNEM.UNIT       Value        Description
#---------     -----------    ---------------------------
 AV  .mps                 1.60:  Ann Velocity 
 AVMX.mps                 2.00:  Max Ann Veloc 
 AZIF.deg               140.24:  Azm, Final 
 BHAT.        Rotary Steerable:  BHA Type 
 BROT.°/30m               0.50:  Build Rotating 
 BS  .in                  8.50:  Bit Size 
 BTPL.psig              619.00:  Bit Press Loss 
 CABU.                     Yes:  Customer Abuse 
 CGEO.          Ilgar Gurbanov:  Customer Geo 
 COMM.                     ô:r:  Run Comments 1 
 TCS .hr                 85.88:  Time Ciculation Ended 
 CV  .mps                 3.30:  Crit Velocity 
 CVMX.mps                 3.50:  Max Crit Veloc 
 DD1 .           Hamid Axmedov:  Direct Drillr 1 
 DD2 .           Teymur Aliyev:  Direct Drillr 2 
 DDSV.               Geo-Pilot:  DD Service 
 DEFF.%                 100.00:  % Det Eff 
 DLRX.°/30m               0.00:  Dogleg Rot Max 
 DLSO.°/30m               1.80:  Dogleg Oriented 
 DLSX.°/30m               3.34:  Dogleg Str Max 
 DRET.      11.50.00 27-May-21:  Drill End Time 
 DRST.      21.13.00 24-May-21:  Drill Start Tim 
 DTIM.hr                 45.11:  Time Drilling 
 EDEP.m                4054.00:  End Depth 
 ENG1.         Almaz Almadatov:  Engineer 1 
 ENG2.           Amrah Tahirov:  Engineer 2 
 ENG3.      Bakhtiyar Jabbarli:  Engineer 3 
 ENG4.          Nazrin Asgarli:  Engineer 4 
 ETIM.      10.00.00 30-May-21:  End Time 
 FLOI.gpm               530.00:  Flow In 
 FLON.gpm               400.00:  Flow In Min 
 FLOS.cptm                0.00:  Fluid Loss 
 FLOX.gpm               560.00:  Flow In Max 
 DFT .        Mineral Oil Base:  Mud Type 
 FTRO.       Formation Presure:  FTWD Run Obj 
 HFLO.                      No:  High Flow 
 HPRE.                      No:  High Pressure 
 HTEM.                      No:  High Temp 
 HYDO.m                   1.80:  Hydro Offset 
 IFIN.deg                73.83:  Inc, Final 
 IMAX.deg                73.83:  Inc Max 
 IMIN.deg                57.86:  Inc Min 
 IMND.m                3259.27:  Inc Min Depth 
 IMXD.m                4045.58:  Inc Max Depth 
 JARR.                     Yes:  Jarring 
 LETM.      11.50.00 27-May-21:  Log End Time 
 LOST.hr                     0:  Lost Rig Time 
 LSTM.      21.13.00 24-May-21:  Log Start Time 
 MDCL.ppm             42500.00:  Mud Chlorides 
 MDES.     Inversion Oil/Synthetic:  Mud Desc 
 DFD .sg                  1.52:  Mud Density 
 MDMN.sg                  1.52:  Dens Mud Min 
 MDMX.sg                  1.52:  Dens Mud Max 
 MOIL.                      70:  Run Mud Oil % 
 MOWR.                   70:30:  Run Mud OWR 
 MSND.                     0.2:  Run Mud Sand % 
 MSOL.                      22:  Run Mud Solids% 
 DFV .spqt               77.00:  Mud Viscosity 
 MWOD.in                  6.75:  MWD Tool OD 
 MWSI.                      No:  Serv Intrp, MWD 
 OTIM.hr                151.01:  Time Operating 
 PCON.          Wear / Scratch:  Pad Condition 
 PMAX.psia            11296.93:  Press Op, Max 
 PV  .cP                 37.00:  Mud PV 
 RUN .                     500:  Run Number 
 ROPA.m/hr               25.00:  ROP Avg 
 ROPN.m/hr                9.00:  ROP Min 
 ROPX.m/hr               28.00:  ROP Max 
 RPMA.rpm               140.00:  RPM Surface Avg 
 RPMN.rpm                90.00:  RPM Surface Min 
 RPMX.rpm               140.00:  RPM Surface Max 
 RRUN.                    0500:  Rig Run Number 
 SAZI.deg               172.17:  Azm, Start 
 SDEP.m                3248.00:  Start Depth 
 SIDD.                      No:  Serv Intrp, DD 
 SINC.deg                57.86:  Inc, Start 
 SPPA.psig             5620.00:  SPP Avg 
 SPPN.psig             5190.00:  SPP Min 
 SPPX.psig             6050.00:  SPP Max 
 STIM.      16.00.00 23-May-21:  Start Time 
 SVCS.                 DD, MWD:  Services 
 SVER.                    9.20:  Sperry Version 
 TDAT.m                 806.00:  Tot Depth Attmp 
 TDDF.                      No:  Trip for DD 
 TDLG.m                 806.00:  Tot Depth Loggd 
 TFF .                      No:  Trip for Fail 
 TQAA.f-kp               12.00:  Torque Abs Avg 
 TQAN.f-kp                8.00:  Torque Abs Min 
 TQAX.f-kp               15.00:  Torque Abs Max 
 TRRT.°/30m               0.30:  Turn Rotating 
 MRT .                  EWR-M5:  Maximum Recorded Temperature 
 TTMX.degC               93.00:  Max Tool Temp 
 VS01.                90649155:  Virtual Str1 SN 
 VS02.                90642264:  Virtual Str2 SN 
 VS03.                90642266:  Virtual Str3 SN 
 VS04.                90642261:  Virtual Str4 SN 
 WBMN.klb                 0.00:  WOB Min 
 WITN.             Anar Khalil:  Customer Rep 
 WITN.           Murad Guliyev:  Customer Rep 2 
 WOBA.klb                13.00:  WOB Avg 
 WOBX.klb                25.00:  WOB Max 
 YP  .lhf2               32.00:  Yield Point 
~Curve Information Block
#MNEM.UNIT                 API CODE     Curve Description
#---------               -----------    ---------------------------
 TIME.HHMMSS            00 000 000 000:  GT Time & Date
 GTDEPTH.m              00 000 000 000:  GT Depth
 GTPQH.psia             00 000 000 000:  GT HR Quartz Pressure
 GTTQ.degC              00 000 000 000:  GT Quartz Temperature
 GTTN.NONE              00 000 000 000:  GT Test Number
 GTET.sec               00 000 000 000:  GT Elapsed Test Time
 GTTVD.m                00 000 000 000:  GT True Vertical Depth
#Other Information
#
#WARRANTY: Halliburton will use its best efforts to furnish customers with 
#accurate information and interpretations that are part of, and incident to, the services 
#provided.  However, Halliburton cannot and does not warrant the accuracy 
#or correctness of such information and interpretations.  Under no circumstances should any 
#such information or interpretation be relied upon as the sole basis for any drilling, 
#completion, production, or financial decision or any procedure involving any risk to the 
#safety of any drilling venture, drilling rig or its crew or any other third party.  The 
#Customer has full responsibility for all drilling, completion and production operation.  
#Halliburton makes no representations or warranties, either expressed or 
#implied, including, but not limited to, the implied warranties of merchantability or fitness 
#for a particular purpose, with respect to the services rendered.  In no event will 
#Halliburton be liable for failure to obtain any particular results or for 
#any damages, including, but not limited to, indirect, special or consequential damages, 
#resulting from the use of any information or interpretation provided by Halliburton.
#
~A           TIME           GTDEPTH  GTPQH  GTTQ  GTTN  GTET   GTTVD  
# ...
   01:06:06.359.28-May-2021 3649.00 6210.75 84.99 5.00 391.41 2653.32
   01:06:06.559.28-May-2021 3649.00 6210.75 84.99 5.00 391.61 2653.32
   01:06:06.759.28-May-2021 3649.00 6210.52 84.99 5.00 391.81 2653.32
   01:06:06.959.28-May-2021 3649.00 6215.33 84.99 5.00 392.01 2653.32
   01:06:07.159.28-May-2021 3649.00 6209.91 84.99 5.00 392.21 2653.32
   01:06:07.360.28-May-2021 3649.00 6210.53 84.99 5.00 392.41 2653.32
   01:06:07.560.28-May-2021 3649.00 6210.53 84.99 5.00 392.61 2653.32
   01:06:07.760.28-May-2021 3649.00 6210.76 84.99 5.00 392.81 2653.32
   01:06:07.960.28-May-2021 3649.00 6210.50 84.99 5.00 393.01 2653.32
   01:06:08.160.28-May-2021 3649.00 6209.93 84.99 5.00 393.21 2653.32
   01:06:08.361.28-May-2021 3649.00 6209.87 84.99 5.00 393.41 2653.32
   01:06:08.561.28-May-2021 3649.00 6209.87 84.99 5.00 393.61 2653.32
   01:06:08.761.28-May-2021 3649.00 6210.07 84.99 5.00 393.81 2653.32
   01:06:08.961.28-May-2021 3649.00 6210.46 84.99 5.00 394.01 2653.32
   01:06:09.161.28-May-2021 3649.00 6210.64 84.99 5.00 394.21 2653.32
   01:06:09.362.28-May-2021 3649.00 6210.53 84.99 5.00 394.41 2653.32
   01:06:09.562.28-May-2021 3649.00 6210.53 84.99 5.00 394.61 2653.32
   01:06:09.762.28-May-2021 3649.00 6215.30 84.99 5.00 394.81 2653.32
   01:06:09.962.28-May-2021 3649.00 6209.84 84.99 5.00 395.01 2653.32
   01:06:10.162.28-May-2021 3649.00 6209.93 84.99 5.00 395.21 2653.32
   01:06:10.363.28-May-2021 3649.00 6217.72 84.99 5.00 395.41 2653.32
   01:06:10.563.28-May-2021 3649.00 6217.72 84.99 5.00 395.61 2653.32
   01:06:10.763.28-May-2021 3649.00 6209.46 84.99 5.00 395.81 2653.32
   01:06:10.963.28-May-2021 3649.00 6210.28 84.99 5.00 396.01 2653.32
   01:06:11.164.28-May-2021 3649.00 6210.48 84.99 5.00 396.21 2653.32
   01:06:11.364.28-May-2021 3649.00 6212.62 84.99 5.00 396.41 2653.32
   01:06:11.564.28-May-2021 3649.00 6212.62 84.99 5.00 396.61 2653.32
   01:06:11.764.28-May-2021 3649.00 6209.49 84.99 5.00 396.81 2653.32
   01:06:11.964.28-May-2021 3649.00 6210.90 84.99 5.00 397.01 2653.32
   01:06:12.165.28-May-2021 3649.00 6210.32 84.99 5.00 397.21 2653.32
   01:06:12.365.28-May-2021 3649.00 6217.47 84.99 5.00 397.41 2653.32
   01:06:12.565.28-May-2021 3649.00 6217.47 84.99 5.00 397.61 2653.32
   01:06:12.765.28-May-2021 3649.00 6209.95 84.99 5.00 397.81 2653.32
   01:06:12.965.28-May-2021 3649.00 6210.57 84.99 5.00 398.01 2653.32
   01:06:13.166.28-May-2021 3649.00 6210.25 84.99 5.00 398.21 2653.32
   01:06:13.366.28-May-2021 3649.00 6210.40 84.99 5.00 398.41 2653.32
   01:06:13.566.28-May-2021 3649.00 6210.40 84.99 5.00 398.61 2653.32
   01:06:13.766.28-May-2021 3649.00 6209.52 84.99 5.00 398.81 2653.32
   01:06:13.966.28-May-2021 3649.00 6209.96 84.99 5.00 399.02 2653.32
   01:06:14.167.28-May-2021 3649.00 6209.99 84.99 5.00 399.22 2653.32
   01:06:14.367.28-May-2021 3649.00 6210.29 84.99 5.00 399.42 2653.32
   01:06:14.567.28-May-2021 3649.00 6210.29 84.99 5.00 399.62 2653.32
   01:06:14.767.28-May-2021 3649.00 6210.07 84.99 5.00 399.82 2653.32
   01:06:14.967.28-May-2021 3649.00 6217.84 84.98 5.00 400.02 2653.32
   01:06:15.168.28-May-2021 3649.00 6207.91 84.98 5.00 400.22 2653.32
   01:06:15.368.28-May-2021 3649.00 6210.54 84.98 5.00 400.42 2653.32
   01:06:15.568.28-May-2021 3649.00 6210.54 84.98 5.00 400.62 2653.32
   01:06:15.768.28-May-2021 3649.00 6210.23 84.98 5.00 400.82 2653.32
   01:06:15.969.28-May-2021 3649.00 6210.27 84.98 5.00 401.02 2653.32
   01:06:16.169.28-May-2021 3649.00 6210.06 84.98 5.00 401.22 2653.32
   01:06:16.369.28-May-2021 3649.00 6209.67 84.98 5.00 401.42 2653.32
   01:06:16.569.28-May-2021 3649.00 6209.67 84.98 5.00 401.62 2653.32
   01:06:16.769.28-May-2021 3649.00 6210.16 84.98 5.00 401.82 2653.32
   01:06:16.970.28-May-2021 3649.00 6210.56 84.98 5.00 402.02 2653.32
   01:06:17.170.28-May-2021 3649.00 6210.39 84.98 5.00 402.22 2653.32
   01:06:17.370.28-May-2021 3649.00 6210.37 84.98 5.00 402.42 2653.32
   01:06:17.570.28-May-2021 3649.00 6210.37 84.98 5.00 402.62 2653.32
   01:06:17.770.28-May-2021 3649.00 6209.72 84.98 5.00 402.82 2653.32
   01:06:17.971.28-May-2021 3649.00 6210.25 84.98 5.00 403.02 2653.32
   01:06:18.171.28-May-2021 3649.00 6211.07 84.98 5.00 403.22 2653.32
   01:06:18.371.28-May-2021 3649.00 6213.26 84.98 5.00 403.42 2653.32
   01:06:18.571.28-May-2021 3649.00 6213.26 84.98 5.00 403.62 2653.32
   01:06:18.771.28-May-2021 3649.00 6209.24 84.98 5.00 403.82 2653.32
   01:06:18.972.28-May-2021 3649.00 6210.18 84.98 5.00 404.02 2653.32
   01:06:19.172.28-May-2021 3649.00 6216.90 84.98 5.00 404.22 2653.32
   01:06:19.372.28-May-2021 3649.00 6206.48 84.98 5.00 404.42 2653.32
   01:06:19.572.28-May-2021 3649.00 6206.48 84.98 5.00 404.62 2653.32
   01:06:19.772.28-May-2021 3649.00 6210.17 84.98 5.00 404.82 2653.32
   01:06:19.973.28-May-2021 3649.00 6210.03 84.98 5.00 405.02 2653.32
   01:06:20.173.28-May-2021 3649.00 6211.74 84.98 5.00 405.22 2653.32
   01:06:20.373.28-May-2021 3649.00 6213.44 84.98 5.00 405.42 2653.32
   01:06:20.573.28-May-2021 3649.00 6213.44 84.98 5.00 405.62 2653.32
   01:06:20.774.28-May-2021 3649.00 6210.26 84.98 5.00 405.82 2653.32
   01:06:20.974.28-May-2021 3649.00 6210.67 84.98 5.00 406.02 2653.32
   01:06:21.174.28-May-2021 3649.00 6210.80 84.98 5.00 406.22 2653.32
   01:06:21.374.28-May-2021 3649.00 6209.93 84.98 5.00 406.42 2653.32
   01:06:21.574.28-May-2021 3649.00 6209.93 84.98 5.00 406.62 2653.32
   01:06:21.775.28-May-2021 3649.00 6209.82 84.98 5.00 406.82 2653.32
   01:06:21.975.28-May-2021 3649.00 6210.05 84.98 5.00 407.02 2653.32
   01:06:22.175.28-May-2021 3649.00 6210.31 84.98 5.00 407.22 2653.32
   01:06:22.375.28-May-2021 3649.00 6210.63 84.98 5.00 407.42 2653.32
   01:06:22.575.28-May-2021 3649.00 6210.63 84.98 5.00 407.62 2653.32
   01:06:22.776.28-May-2021 3649.00 6211.42 84.98 5.00 407.82 2653.32
   01:06:22.976.28-May-2021 3649.00 6213.34 84.98 5.00 408.02 2653.32
   01:06:23.176.28-May-2021 3649.00 6210.47 84.98 5.00 408.22 2653.32
   01:06:23.376.28-May-2021 3649.00 6209.75 84.98 5.00 408.42 2653.32
   01:06:23.576.28-May-2021 3649.00 6209.75 84.98 5.00 408.63 2653.32
   01:06:23.777.28-May-2021 3649.00 6210.29 84.98 5.00 408.83 2653.32
   01:06:23.977.28-May-2021 3649.00 6209.59 84.98 5.00 409.03 2653.32
   01:06:24.177.28-May-2021 3649.00 6209.91 84.98 5.00 409.23 2653.32
   01:06:24.377.28-May-2021 3649.00 6209.68 84.98 5.00 409.43 2653.32
   01:06:24.577.28-May-2021 3649.00 6209.68 84.98 5.00 409.63 2653.32
   01:06:24.778.28-May-2021 3649.00 6210.36 84.98 5.00 409.83 2653.32
   01:06:24.978.28-May-2021 3649.00 6210.58 84.98 5.00 410.03 2653.32
   01:06:25.178.28-May-2021 3649.00 6210.41 84.98 5.00 410.23 2653.32
   01:06:25.378.28-May-2021 3649.00 6210.54 84.98 5.00 410.43 2653.32
   01:06:25.579.28-May-2021 3649.00 6210.54 84.98 5.00 410.63 2653.32
   01:06:25.779.28-May-2021 3649.00 6207.47 84.98 5.00 410.83 2653.32
   01:06:25.979.28-May-2021 3649.00 6210.24 84.98 5.00 411.03 2653.32
   01:06:26.179.28-May-2021 3649.00 6217.60 84.98 5.00 411.23 2653.32
   01:06:26.379.28-May-2021 3649.00 6207.00 84.98 5.00 411.43 2653.32
   01:06:26.580.28-May-2021 3649.00 6207.00 84.98 5.00 411.63 2653.32
   01:06:26.780.28-May-2021 3649.00 6209.98 84.98 5.00 411.83 2653.32
   01:06:26.980.28-May-2021 3649.00 6209.41 84.97 5.00 412.03 2653.32
   01:06:27.180.28-May-2021 3649.00 6214.99 84.97 5.00 412.23 2653.32
   01:06:27.380.28-May-2021 3649.00 6208.96 84.97 5.00 412.43 2653.32
   01:06:27.581.28-May-2021 3649.00 6208.96 84.97 5.00 412.63 2653.32
   01:06:27.781.28-May-2021 3649.00 6211.05 84.97 5.00 412.83 2653.32
   01:06:27.981.28-May-2021 3649.00 6209.99 84.97 5.00 413.03 2653.32
   01:06:28.181.28-May-2021 3649.00 6217.14 84.97 5.00 413.23 2653.32
   01:06:28.381.28-May-2021 3649.00 6207.81 84.97 5.00 413.43 2653.32
   01:06:28.582.28-May-2021 3649.00 6207.81 84.97 5.00 413.63 2653.32
   01:06:28.782.28-May-2021 3649.00 6210.48 84.97 5.00 413.83 2653.32
   01:06:28.982.28-May-2021 3649.00 6210.40 84.97 5.00 414.03 2653.32
   01:06:29.182.28-May-2021 3649.00 6210.66 84.97 5.00 414.23 2653.32
