~Version Information
 VERS.                  2.0:   CWLS log ASCII Standard -VERSION 2.0
 WRAP.                   NO:   One line per depth step
~Well Information Block
#MNEM.UNIT     VALUE/NAME     DESCRIPTION
#---------     -----------    ---------------------------
 STRT.S             05:31:02 28-May-21: START TIME 05:31:02 28-May-21
 STOP.S             05:38:03 28-May-21: STOP TIME  05:38:03 28-May-21
 STEP.S                   0.00: STEP TIME
 NULL.                 -999.25: NULL VALUE
 UWI .                     N/A:  UNIQUE WELL IDENTIFIER
 API .                     N/A:  API NUMBER
 UNIT.                     N/A:  LOGGING EQUIPMENT ID
 DCON.         Sperry Drilling:  DIRECTNL CONTR
 DOE .                     N/A:  DOE NUMBER
 MWDS.                    Baku:  MWD SHOP
 SRVC.     Turan Drilling and Engineering:  CONTRACTOR
 CTRY.              Azerbaijan:  COUNTRY NAME
 PROV.                    Baku:  PROVINCE
 STAT.                    Baku:  STATE NAME
 REGN.                   EESSA:  REGION
 BASE.              Azerbaijan:  LOGGING EQUIPMENT BASE LOCATION
 WTYP.                Deviated:  WELL TYPE
 RIG .              East Azeri:  RIG NAME
 WELL.                    D02y:  WELL NAME
 FLD .                     ACG:  FIELD NAME
 COMP.     BP Exploration (Caspian Sea) Ltd.:  COMPANY
 PDAT.          Mean Sea Level:  PERMANENT DATUM
 MDS .        Operator Entered:  MAG DATA SOURCE
 SON .        AZ-XX-0906997291:  JOB NUMBER
 FTOP.          Formation Tops:  FORM TOPS DESC
 ILTD.               Lithology:  INTERP LTH DESC
 SVYD.                  Survey:  SURVEY DESC
 DMOD.             Drill Model:  DRILL MOD DESC
 HPTY.       Minimum Curvature:  HOLE POS TYPE
 NREF.                    Grid:  NORTH REFERENCE
 SPUD.               05-May-21:  SPUD DATE
 DATE.      09.27.28 12-Jun-21:  END TIME
 STIM.      09.27.28 12-May-21:  START TIME
 DMF .             Drill Floor:  DRILL MEAS FROM
 DFST.                        :  DIST FSL TEXT
 DFWT.                        :  DIST FWL TEXT
 CNTY.                        :  COUNTY
 LOC .                        :  LOCATION
 LMF .             Drill Floor:  LOG MEASURED FROM
 DEP .m                2806.40:  DEPTH
 AGAP.m                  43.60:  AIR GAP
 VSNS.m                  -4.42:  VERT SEC N/S
 VSEW.m                  -7.31:  VERT SEC E/W
 APD .m                  43.60:  DEPTH ABOVE PD
 WDMS.m                 151.80:  WD ELEV
 EGL .m                   0.00:  GROUND ELEVATION
 EPD .m                   0.00:  ELEVATION
 AZTC.deg                 6.18:  AZM TOTAL CORR
 GRDC.deg                 0.29:  GRID CORRECTION
 MDEC.deg                 6.47:  MAGNETIC DECL
 MDIP.deg                59.50:  MAGNETIC DIP
 MFLD.nT              50350.00:  MAGNETIC FIELD
 GVFD.g                   1.00:  GRAVITY FIELD
 VSDR.deg               179.08:  VERT SEC DIRECT
 TDD .m                4300.00:  TOTAL DEPTH (DRILLER)
 SDEP.m                2800.00:  START DEPTH
 DFSL.m                   0.00:  DISTANCE FSL
 DFWL.m                   0.00:  DISTANCE FWL
 UTMY.m             4431871.34:  UTM Y
 UTMX.m              538762.90:  UTM X
 WHEW.m                  -7.31:  WELL HEAD E/W
 WHNS.m                  -4.42:  WELL HEAD N/S
 LONG.deg                51.45:  LONGITUDE
 LATI.deg                40.02:  LATITUDE
 TVDS.m                  43.60:  TVDSS CORRECTN
 EKB .m                  43.60:  KB ELEVATION
 EDF .m                  43.60:  DF ELEVATION
 TDL .m                 806.00:  TOTAL DEPTH (LOGGER)
 MAGU.                 1851231:  MAGUTM CHECKSUM
 VSC .                       0:  VS TO CLOSURE
~Parameter Information Block
#MNEM.UNIT       Value        Description
#---------     -----------    ---------------------------
 AV  .mps                 1.60:  Ann Velocity 
 AVMX.mps                 2.00:  Max Ann Veloc 
 AZIF.deg               140.24:  Azm, Final 
 BHAT.        Rotary Steerable:  BHA Type 
 BROT.°/30m               0.50:  Build Rotating 
 BS  .in                  8.50:  Bit Size 
 BTPL.psig              619.00:  Bit Press Loss 
 CABU.                     Yes:  Customer Abuse 
 CGEO.          Ilgar Gurbanov:  Customer Geo 
 COMM.                     LMh:  Run Comments 1 
 TCS .hr                 85.88:  Time Ciculation Ended 
 CV  .mps                 3.30:  Crit Velocity 
 CVMX.mps                 3.50:  Max Crit Veloc 
 DD1 .           Hamid Axmedov:  Direct Drillr 1 
 DD2 .           Teymur Aliyev:  Direct Drillr 2 
 DDSV.               Geo-Pilot:  DD Service 
 DEFF.%                 100.00:  % Det Eff 
 DLRX.°/30m               0.00:  Dogleg Rot Max 
 DLSO.°/30m               1.80:  Dogleg Oriented 
 DLSX.°/30m               3.34:  Dogleg Str Max 
 DRET.      11.50.00 27-May-21:  Drill End Time 
 DRST.      21.13.00 24-May-21:  Drill Start Tim 
 DTIM.hr                 45.11:  Time Drilling 
 EDEP.m                4054.00:  End Depth 
 ENG1.         Almaz Almadatov:  Engineer 1 
 ENG2.           Amrah Tahirov:  Engineer 2 
 ENG3.      Bakhtiyar Jabbarli:  Engineer 3 
 ENG4.          Nazrin Asgarli:  Engineer 4 
 ETIM.      10.00.00 30-May-21:  End Time 
 FLOI.gpm               530.00:  Flow In 
 FLON.gpm               400.00:  Flow In Min 
 FLOS.cptm                0.00:  Fluid Loss 
 FLOX.gpm               560.00:  Flow In Max 
 DFT .        Mineral Oil Base:  Mud Type 
 FTRO.       Formation Presure:  FTWD Run Obj 
 HFLO.                      No:  High Flow 
 HPRE.                      No:  High Pressure 
 HTEM.                      No:  High Temp 
 HYDO.m                   1.80:  Hydro Offset 
 IFIN.deg                73.83:  Inc, Final 
 IMAX.deg                73.83:  Inc Max 
 IMIN.deg                57.86:  Inc Min 
 IMND.m                3259.27:  Inc Min Depth 
 IMXD.m                4045.58:  Inc Max Depth 
 JARR.                     Yes:  Jarring 
 LETM.      11.50.00 27-May-21:  Log End Time 
 LOST.hr                     0:  Lost Rig Time 
 LSTM.      21.13.00 24-May-21:  Log Start Time 
 MDCL.ppm             42500.00:  Mud Chlorides 
 MDES.     Inversion Oil/Synthetic:  Mud Desc 
 DFD .sg                  1.52:  Mud Density 
 MDMN.sg                  1.52:  Dens Mud Min 
 MDMX.sg                  1.52:  Dens Mud Max 
 MOIL.                      70:  Run Mud Oil % 
 MOWR.                   70:30:  Run Mud OWR 
 MSND.                     0.2:  Run Mud Sand % 
 MSOL.                      22:  Run Mud Solids% 
 DFV .spqt               77.00:  Mud Viscosity 
 MWOD.in                  6.75:  MWD Tool OD 
 MWSI.                      No:  Serv Intrp, MWD 
 OTIM.hr                151.01:  Time Operating 
 PCON.          Wear / Scratch:  Pad Condition 
 PMAX.psia            11296.93:  Press Op, Max 
 PV  .cP                 37.00:  Mud PV 
 RUN .                     500:  Run Number 
 ROPA.m/hr               25.00:  ROP Avg 
 ROPN.m/hr                9.00:  ROP Min 
 ROPX.m/hr               28.00:  ROP Max 
 RPMA.rpm               140.00:  RPM Surface Avg 
 RPMN.rpm                90.00:  RPM Surface Min 
 RPMX.rpm               140.00:  RPM Surface Max 
 RRUN.                    0500:  Rig Run Number 
 SAZI.deg               172.17:  Azm, Start 
 SDEP.m                3248.00:  Start Depth 
 SIDD.                      No:  Serv Intrp, DD 
 SINC.deg                57.86:  Inc, Start 
 SPPA.psig             5620.00:  SPP Avg 
 SPPN.psig             5190.00:  SPP Min 
 SPPX.psig             6050.00:  SPP Max 
 STIM.      16.00.00 23-May-21:  Start Time 
 SVCS.                 DD, MWD:  Services 
 SVER.                    9.20:  Sperry Version 
 TDAT.m                 806.00:  Tot Depth Attmp 
 TDDF.                      No:  Trip for DD 
 TDLG.m                 806.00:  Tot Depth Loggd 
 TFF .                      No:  Trip for Fail 
 TQAA.f-kp               12.00:  Torque Abs Avg 
 TQAN.f-kp                8.00:  Torque Abs Min 
 TQAX.f-kp               15.00:  Torque Abs Max 
 TRRT.°/30m               0.30:  Turn Rotating 
 MRT .                  EWR-M5:  Maximum Recorded Temperature 
 TTMX.degC               93.00:  Max Tool Temp 
 VS01.                90649155:  Virtual Str1 SN 
 VS02.                90642264:  Virtual Str2 SN 
 VS03.                90642266:  Virtual Str3 SN 
 VS04.                90642261:  Virtual Str4 SN 
 WBMN.klb                 0.00:  WOB Min 
 WITN.             Anar Khalil:  Customer Rep 
 WITN.           Murad Guliyev:  Customer Rep 2 
 WOBA.klb                13.00:  WOB Avg 
 WOBX.klb                25.00:  WOB Max 
 YP  .lhf2               32.00:  Yield Point 
~Curve Information Block
#MNEM.UNIT                 API CODE     Curve Description
#---------               -----------    ---------------------------
 TIME.HHMMSS            00 000 000 000:  GT Time & Date
 GTDEPTH.m              00 000 000 000:  GT Depth
 GTPQH.psia             00 000 000 000:  GT HR Quartz Pressure
 GTTQ.degC              00 000 000 000:  GT Quartz Temperature
 GTTN.NONE              00 000 000 000:  GT Test Number
 GTET.sec               00 000 000 000:  GT Elapsed Test Time
 GTTVD.m                00 000 000 000:  GT True Vertical Depth
#Other Information
#
#WARRANTY: Halliburton will use its best efforts to furnish customers with 
#accurate information and interpretations that are part of, and incident to, the services 
#provided.  However, Halliburton cannot and does not warrant the accuracy 
#or correctness of such information and interpretations.  Under no circumstances should any 
#such information or interpretation be relied upon as the sole basis for any drilling, 
#completion, production, or financial decision or any procedure involving any risk to the 
#safety of any drilling venture, drilling rig or its crew or any other third party.  The 
#Customer has full responsibility for all drilling, completion and production operation.  
#Halliburton makes no representations or warranties, either expressed or 
#implied, including, but not limited to, the implied warranties of merchantability or fitness 
#for a particular purpose, with respect to the services rendered.  In no event will 
#Halliburton be liable for failure to obtain any particular results or for 
#any damages, including, but not limited to, indirect, special or consequential damages, 
#resulting from the use of any information or interpretation provided by Halliburton.
#
~A           TIME           GTDEPTH  GTPQH  GTTQ  GTTN   GTET   GTTVD  
# ...
   05:36:18.869.28-May-2021 3456.50 4230.65 82.93 10.00 316.53 2576.46
   05:36:19.069.28-May-2021 3456.50 4230.90 82.93 10.00 316.73 2576.46
   05:36:19.269.28-May-2021 3456.50 4230.77 82.93 10.00 316.93 2576.46
   05:36:19.469.28-May-2021 3456.50 4230.79 82.93 10.00 317.13 2576.46
   05:36:19.670.28-May-2021 3456.50 4230.79 82.93 10.00 317.33 2576.46
   05:36:19.870.28-May-2021 3456.50 4230.78 82.93 10.00 317.53 2576.46
   05:36:20.070.28-May-2021 3456.50 4230.78 82.93 10.00 317.73 2576.46
   05:36:20.270.28-May-2021 3456.50 4230.78 82.93 10.00 317.93 2576.46
   05:36:20.470.28-May-2021 3456.50 4230.77 82.93 10.00 318.13 2576.46
   05:36:20.670.28-May-2021 3456.50 4230.77 82.93 10.00 318.33 2576.46
   05:36:20.870.28-May-2021 3456.50 4230.78 82.93 10.00 318.53 2576.46
   05:36:21.070.28-May-2021 3456.50 4230.77 82.93 10.00 318.73 2576.46
   05:36:21.270.28-May-2021 3456.50 4230.77 82.93 10.00 318.93 2576.46
   05:36:21.470.28-May-2021 3456.50 4230.86 82.93 10.00 319.13 2576.46
   05:36:21.670.28-May-2021 3456.50 4230.86 82.93 10.00 319.33 2576.46
   05:36:21.870.28-May-2021 3456.50 4230.76 82.93 10.00 319.53 2576.46
   05:36:22.071.28-May-2021 3456.50 4230.77 82.93 10.00 319.73 2576.46
   05:36:22.271.28-May-2021 3456.50 4230.78 82.93 10.00 319.93 2576.46
   05:36:22.471.28-May-2021 3456.50 4230.77 82.93 10.00 320.13 2576.46
   05:36:22.671.28-May-2021 3456.50 4230.77 82.93 10.00 320.33 2576.46
   05:36:22.871.28-May-2021 3456.50 4230.77 82.93 10.00 320.53 2576.46
   05:36:23.071.28-May-2021 3456.50 4230.77 82.93 10.00 320.73 2576.46
   05:36:23.271.28-May-2021 3456.50 4230.79 82.93 10.00 320.93 2576.46
   05:36:23.471.28-May-2021 3456.50 4230.77 82.93 10.00 321.13 2576.46
   05:36:23.671.28-May-2021 3456.50 4230.77 82.93 10.00 321.33 2576.46
   05:36:23.871.28-May-2021 3456.50 4230.76 82.93 10.00 321.53 2576.46
   05:36:24.071.28-May-2021 3456.50 4230.66 82.93 10.00 321.73 2576.46
   05:36:24.271.28-May-2021 3456.50 4230.89 82.93 10.00 321.93 2576.46
   05:36:24.472.28-May-2021 3456.50 4230.77 82.93 10.00 322.13 2576.46
   05:36:24.672.28-May-2021 3456.50 4230.77 82.93 10.00 322.33 2576.46
   05:36:24.872.28-May-2021 3456.50 4230.77 82.93 10.00 322.53 2576.46
   05:36:25.072.28-May-2021 3456.50 4230.71 82.93 10.00 322.73 2576.46
   05:36:25.272.28-May-2021 3456.50 4230.84 82.93 10.00 322.93 2576.46
   05:36:25.472.28-May-2021 3456.50 4230.78 82.93 10.00 323.14 2576.46
   05:36:25.672.28-May-2021 3456.50 4230.78 82.93 10.00 323.34 2576.46
   05:36:25.872.28-May-2021 3456.50 4230.95 82.93 10.00 323.54 2576.46
   05:36:26.072.28-May-2021 3456.50 4230.77 82.93 10.00 323.74 2576.46
   05:36:26.272.28-May-2021 3456.50 4230.79 82.93 10.00 323.94 2576.46
   05:36:26.472.28-May-2021 3456.50 4230.78 82.93 10.00 324.14 2576.46
   05:36:26.672.28-May-2021 3456.50 4230.78 82.93 10.00 324.34 2576.46
   05:36:26.873.28-May-2021 3456.50 4230.89 82.93 10.00 324.54 2576.46
   05:36:27.073.28-May-2021 3456.50 4230.77 82.93 10.00 324.74 2576.46
   05:36:27.273.28-May-2021 3456.50 4230.79 82.93 10.00 324.94 2576.46
   05:36:27.473.28-May-2021 3456.50 4230.76 82.93 10.00 325.14 2576.46
   05:36:27.673.28-May-2021 3456.50 4230.76 82.93 10.00 325.34 2576.46
   05:36:27.873.28-May-2021 3456.50 4230.79 82.93 10.00 325.54 2576.46
   05:36:28.073.28-May-2021 3456.50 4230.77 82.93 10.00 325.74 2576.46
   05:36:28.273.28-May-2021 3456.50 4230.77 82.93 10.00 325.94 2576.46
   05:36:28.473.28-May-2021 3456.50 4230.78 82.93 10.00 326.14 2576.46
   05:36:28.673.28-May-2021 3456.50 4230.78 82.93 10.00 326.34 2576.46
   05:36:28.873.28-May-2021 3456.50 4230.78 82.93 10.00 326.54 2576.46
   05:36:29.073.28-May-2021 3456.50 4230.77 82.93 10.00 326.74 2576.46
   05:36:29.274.28-May-2021 3456.50 4230.85 82.93 10.00 326.94 2576.46
   05:36:29.474.28-May-2021 3456.50 4230.70 82.93 10.00 327.14 2576.46
   05:36:29.674.28-May-2021 3456.50 4230.70 82.93 10.00 327.34 2576.46
   05:36:29.874.28-May-2021 3456.50 4230.77 82.93 10.00 327.54 2576.46
   05:36:30.074.28-May-2021 3456.50 4230.79 82.93 10.00 327.74 2576.46
   05:36:30.274.28-May-2021 3456.50 4230.77 82.93 10.00 327.94 2576.46
   05:36:30.474.28-May-2021 3456.50 4230.77 82.93 10.00 328.14 2576.46
   05:36:30.674.28-May-2021 3456.50 4230.77 82.93 10.00 328.34 2576.46
   05:36:30.874.28-May-2021 3456.50 4230.77 82.93 10.00 328.54 2576.46
   05:36:31.074.28-May-2021 3456.50 4230.77 82.93 10.00 328.74 2576.46
   05:36:31.274.28-May-2021 3456.50 4230.78 82.93 10.00 328.94 2576.46
   05:36:31.474.28-May-2021 3456.50 4230.77 82.93 10.00 329.14 2576.46
   05:36:31.675.28-May-2021 3456.50 4230.77 82.93 10.00 329.34 2576.46
   05:36:31.875.28-May-2021 3456.50 4230.66 82.93 10.00 329.54 2576.46
   05:36:32.075.28-May-2021 3456.50 4230.88 82.93 10.00 329.74 2576.46
   05:36:32.275.28-May-2021 3456.50 4230.77 82.93 10.00 329.94 2576.46
   05:36:32.475.28-May-2021 3456.50 4230.79 82.93 10.00 330.14 2576.46
   05:36:32.675.28-May-2021 3456.50 4230.79 82.93 10.00 330.34 2576.46
   05:36:32.875.28-May-2021 3456.50 4230.70 82.93 10.00 330.54 2576.46
   05:36:33.075.28-May-2021 3456.50 4230.84 82.93 10.00 330.74 2576.46
   05:36:33.275.28-May-2021 3456.50 4230.77 82.93 10.00 330.94 2576.46
   05:36:33.475.28-May-2021 3456.50 4230.60 82.93 10.00 331.14 2576.46
   05:36:33.675.28-May-2021 3456.50 4230.60 82.93 10.00 331.34 2576.46
   05:36:33.875.28-May-2021 3456.50 4230.77 82.93 10.00 331.54 2576.46
   05:36:34.076.28-May-2021 3456.50 4230.78 82.93 10.00 331.74 2576.46
   05:36:34.276.28-May-2021 3456.50 4230.78 82.93 10.00 331.94 2576.46
   05:36:34.476.28-May-2021 3456.50 4230.65 82.93 10.00 332.14 2576.46
   05:36:34.676.28-May-2021 3456.50 4230.65 82.93 10.00 332.34 2576.46
   05:36:34.876.28-May-2021 3456.50 4230.78 82.93 10.00 332.54 2576.46
   05:36:35.076.28-May-2021 3456.50 4230.78 82.93 10.00 332.74 2576.46
   05:36:35.276.28-May-2021 3456.50 4230.76 82.93 10.00 332.94 2576.46
   05:36:35.476.28-May-2021 3456.50 4230.78 82.93 10.00 333.14 2576.46
   05:36:35.676.28-May-2021 3456.50 4230.78 82.93 10.00 333.34 2576.46
   05:36:35.876.28-May-2021 3456.50 4230.77 82.93 10.00 333.54 2576.46
   05:36:36.076.28-May-2021 3456.50 4230.78 82.93 10.00 333.74 2576.46
   05:36:36.276.28-May-2021 3456.50 4230.77 82.93 10.00 333.94 2576.46
   05:36:36.477.28-May-2021 3456.50 4230.77 82.93 10.00 334.14 2576.46
   05:36:36.677.28-May-2021 3456.50 4230.77 82.93 10.00 334.34 2576.46
   05:36:36.877.28-May-2021 3456.50 4230.77 82.93 10.00 334.54 2576.46
   05:36:37.077.28-May-2021 3456.50 4230.85 82.93 10.00 334.74 2576.46
   05:36:37.277.28-May-2021 3456.50 4230.69 82.93 10.00 334.94 2576.46
   05:36:37.477.28-May-2021 3456.50 4230.77 82.93 10.00 335.14 2576.46
   05:36:37.677.28-May-2021 3456.50 4230.77 82.93 10.00 335.34 2576.46
   05:36:37.877.28-May-2021 3456.50 4230.78 82.93 10.00 335.54 2576.46
   05:36:38.077.28-May-2021 3456.50 4230.77 82.93 10.00 335.74 2576.46
   05:36:38.277.28-May-2021 3456.50 4230.78 82.93 10.00 335.94 2576.46
   05:36:38.477.28-May-2021 3456.50 4230.78 82.93 10.00 336.14 2576.46
   05:36:38.677.28-May-2021 3456.50 4230.78 82.93 10.00 336.34 2576.46
   05:36:38.878.28-May-2021 3456.50 4230.77 82.93 10.00 336.54 2576.46
   05:36:39.078.28-May-2021 3456.50 4230.78 82.93 10.00 336.74 2576.46
   05:36:39.278.28-May-2021 3456.50 4230.77 82.93 10.00 336.94 2576.46
   05:36:39.478.28-May-2021 3456.50 4230.78 82.93 10.00 337.14 2576.46
   05:36:39.678.28-May-2021 3456.50 4230.78 82.93 10.00 337.34 2576.46
   05:36:39.878.28-May-2021 3456.50 4230.88 82.93 10.00 337.54 2576.46
   05:36:40.078.28-May-2021 3456.50 4230.78 82.93 10.00 337.74 2576.46
   05:36:40.278.28-May-2021 3456.50 4230.79 82.93 10.00 337.94 2576.46
   05:36:40.478.28-May-2021 3456.50 4230.76 82.93 10.00 338.14 2576.46
   05:36:40.678.28-May-2021 3456.50 4230.76 82.93 10.00 338.34 2576.46
   05:36:40.878.28-May-2021 3456.50 4230.84 82.93 10.00 338.54 2576.46
   05:36:41.078.28-May-2021 3456.50 4230.77 82.93 10.00 338.74 2576.46
   05:36:41.279.28-May-2021 3456.50 4230.60 82.93 10.00 338.94 2576.46
