~Version Information
 VERS.                  2.0:   CWLS log ASCII Standard -VERSION 2.0
 WRAP.                   NO:   One line per depth step
~Well Information Block
#MNEM.UNIT     VALUE/NAME     DESCRIPTION
#---------     -----------    ---------------------------
 STRT.S             05:31:02 28-May-21: START TIME 05:31:02 28-May-21
 STOP.S             05:38:03 28-May-21: STOP TIME  05:38:03 28-May-21
 STEP.S                   0.00: STEP TIME
 NULL.                 -999.25: NULL VALUE
 UWI .                     N/A:  UNIQUE WELL IDENTIFIER
 API .                     N/A:  API NUMBER
 UNIT.                     N/A:  LOGGING EQUIPMENT ID
 DCON.         Sperry Drilling:  DIRECTNL CONTR
 DOE .                     N/A:  DOE NUMBER
 MWDS.                    Baku:  MWD SHOP
 SRVC.     Turan Drilling and Engineering:  CONTRACTOR
 CTRY.              Azerbaijan:  COUNTRY NAME
 PROV.                    Baku:  PROVINCE
 STAT.                    Baku:  STATE NAME
 REGN.                   EESSA:  REGION
 BASE.              Azerbaijan:  LOGGING EQUIPMENT BASE LOCATION
 WTYP.                Deviated:  WELL TYPE
 RIG .              East Azeri:  RIG NAME
 WELL.                    D02y:  WELL NAME
 FLD .                     ACG:  FIELD NAME
 COMP.     BP Exploration (Caspian Sea) Ltd.:  COMPANY
 PDAT.          Mean Sea Level:  PERMANENT DATUM
 MDS .        Operator Entered:  MAG DATA SOURCE
 SON .        AZ-XX-0906997291:  JOB NUMBER
 FTOP.          Formation Tops:  FORM TOPS DESC
 ILTD.               Lithology:  INTERP LTH DESC
 SVYD.                  Survey:  SURVEY DESC
 DMOD.             Drill Model:  DRILL MOD DESC
 HPTY.       Minimum Curvature:  HOLE POS TYPE
 NREF.                    Grid:  NORTH REFERENCE
 SPUD.               05-May-21:  SPUD DATE
 DATE.      09.27.28 12-Jun-21:  END TIME
 STIM.      09.27.28 12-May-21:  START TIME
 DMF .             Drill Floor:  DRILL MEAS FROM
 DFST.                        :  DIST FSL TEXT
 DFWT.                        :  DIST FWL TEXT
 CNTY.                        :  COUNTY
 LOC .                        :  LOCATION
 LMF .             Drill Floor:  LOG MEASURED FROM
 DEP .m                2806.40:  DEPTH
 AGAP.m                  43.60:  AIR GAP
 VSNS.m                  -4.42:  VERT SEC N/S
 VSEW.m                  -7.31:  VERT SEC E/W
 APD .m                  43.60:  DEPTH ABOVE PD
 WDMS.m                 151.80:  WD ELEV
 EGL .m                   0.00:  GROUND ELEVATION
 EPD .m                   0.00:  ELEVATION
 AZTC.deg                 6.18:  AZM TOTAL CORR
 GRDC.deg                 0.29:  GRID CORRECTION
 MDEC.deg                 6.47:  MAGNETIC DECL
 MDIP.deg                59.50:  MAGNETIC DIP
 MFLD.nT              50350.00:  MAGNETIC FIELD
 GVFD.g                   1.00:  GRAVITY FIELD
 VSDR.deg               179.08:  VERT SEC DIRECT
 TDD .m                4300.00:  TOTAL DEPTH (DRILLER)
 SDEP.m                2800.00:  START DEPTH
 DFSL.m                   0.00:  DISTANCE FSL
 DFWL.m                   0.00:  DISTANCE FWL
 UTMY.m             4431871.34:  UTM Y
 UTMX.m              538762.90:  UTM X
 WHEW.m                  -7.31:  WELL HEAD E/W
 WHNS.m                  -4.42:  WELL HEAD N/S
 LONG.deg                51.45:  LONGITUDE
 LATI.deg                40.02:  LATITUDE
 TVDS.m                  43.60:  TVDSS CORRECTN
 EKB .m                  43.60:  KB ELEVATION
 EDF .m                  43.60:  DF ELEVATION
 TDL .m                 806.00:  TOTAL DEPTH (LOGGER)
 MAGU.                 1851231:  MAGUTM CHECKSUM
 VSC .                       0:  VS TO CLOSURE
~Parameter Information Block
#MNEM.UNIT       Value        Description
#---------     -----------    ---------------------------
 AV  .mps                 1.60:  Ann Velocity 
 AVMX.mps                 2.00:  Max Ann Veloc 
 AZIF.deg               140.24:  Azm, Final 
 BHAT.        Rotary Steerable:  BHA Type 
 BROT.°/30m               0.50:  Build Rotating 
 BS  .in                  8.50:  Bit Size 
 BTPL.psig              619.00:  Bit Press Loss 
 CABU.                     Yes:  Customer Abuse 
 CGEO.          Ilgar Gurbanov:  Customer Geo 
 COMM.                     LMh:  Run Comments 1 
 TCS .hr                 85.88:  Time Ciculation Ended 
 CV  .mps                 3.30:  Crit Velocity 
 CVMX.mps                 3.50:  Max Crit Veloc 
 DD1 .           Hamid Axmedov:  Direct Drillr 1 
 DD2 .           Teymur Aliyev:  Direct Drillr 2 
 DDSV.               Geo-Pilot:  DD Service 
 DEFF.%                 100.00:  % Det Eff 
 DLRX.°/30m               0.00:  Dogleg Rot Max 
 DLSO.°/30m               1.80:  Dogleg Oriented 
 DLSX.°/30m               3.34:  Dogleg Str Max 
 DRET.      11.50.00 27-May-21:  Drill End Time 
 DRST.      21.13.00 24-May-21:  Drill Start Tim 
 DTIM.hr                 45.11:  Time Drilling 
 EDEP.m                4054.00:  End Depth 
 ENG1.         Almaz Almadatov:  Engineer 1 
 ENG2.           Amrah Tahirov:  Engineer 2 
 ENG3.      Bakhtiyar Jabbarli:  Engineer 3 
 ENG4.          Nazrin Asgarli:  Engineer 4 
 ETIM.      10.00.00 30-May-21:  End Time 
 FLOI.gpm               530.00:  Flow In 
 FLON.gpm               400.00:  Flow In Min 
 FLOS.cptm                0.00:  Fluid Loss 
 FLOX.gpm               560.00:  Flow In Max 
 DFT .        Mineral Oil Base:  Mud Type 
 FTRO.       Formation Presure:  FTWD Run Obj 
 HFLO.                      No:  High Flow 
 HPRE.                      No:  High Pressure 
 HTEM.                      No:  High Temp 
 HYDO.m                   1.80:  Hydro Offset 
 IFIN.deg                73.83:  Inc, Final 
 IMAX.deg                73.83:  Inc Max 
 IMIN.deg                57.86:  Inc Min 
 IMND.m                3259.27:  Inc Min Depth 
 IMXD.m                4045.58:  Inc Max Depth 
 JARR.                     Yes:  Jarring 
 LETM.      11.50.00 27-May-21:  Log End Time 
 LOST.hr                     0:  Lost Rig Time 
 LSTM.      21.13.00 24-May-21:  Log Start Time 
 MDCL.ppm             42500.00:  Mud Chlorides 
 MDES.     Inversion Oil/Synthetic:  Mud Desc 
 DFD .sg                  1.52:  Mud Density 
 MDMN.sg                  1.52:  Dens Mud Min 
 MDMX.sg                  1.52:  Dens Mud Max 
 MOIL.                      70:  Run Mud Oil % 
 MOWR.                   70:30:  Run Mud OWR 
 MSND.                     0.2:  Run Mud Sand % 
 MSOL.                      22:  Run Mud Solids% 
 DFV .spqt               77.00:  Mud Viscosity 
 MWOD.in                  6.75:  MWD Tool OD 
 MWSI.                      No:  Serv Intrp, MWD 
 OTIM.hr                151.01:  Time Operating 
 PCON.          Wear / Scratch:  Pad Condition 
 PMAX.psia            11296.93:  Press Op, Max 
 PV  .cP                 37.00:  Mud PV 
 RUN .                     500:  Run Number 
 ROPA.m/hr               25.00:  ROP Avg 
 ROPN.m/hr                9.00:  ROP Min 
 ROPX.m/hr               28.00:  ROP Max 
 RPMA.rpm               140.00:  RPM Surface Avg 
 RPMN.rpm                90.00:  RPM Surface Min 
 RPMX.rpm               140.00:  RPM Surface Max 
 RRUN.                    0500:  Rig Run Number 
 SAZI.deg               172.17:  Azm, Start 
 SDEP.m                3248.00:  Start Depth 
 SIDD.                      No:  Serv Intrp, DD 
 SINC.deg                57.86:  Inc, Start 
 SPPA.psig             5620.00:  SPP Avg 
 SPPN.psig             5190.00:  SPP Min 
 SPPX.psig             6050.00:  SPP Max 
 STIM.      16.00.00 23-May-21:  Start Time 
 SVCS.                 DD, MWD:  Services 
 SVER.                    9.20:  Sperry Version 
 TDAT.m                 806.00:  Tot Depth Attmp 
 TDDF.                      No:  Trip for DD 
 TDLG.m                 806.00:  Tot Depth Loggd 
 TFF .                      No:  Trip for Fail 
 TQAA.f-kp               12.00:  Torque Abs Avg 
 TQAN.f-kp                8.00:  Torque Abs Min 
 TQAX.f-kp               15.00:  Torque Abs Max 
 TRRT.°/30m               0.30:  Turn Rotating 
 MRT .                  EWR-M5:  Maximum Recorded Temperature 
 TTMX.degC               93.00:  Max Tool Temp 
 VS01.                90649155:  Virtual Str1 SN 
 VS02.                90642264:  Virtual Str2 SN 
 VS03.                90642266:  Virtual Str3 SN 
 VS04.                90642261:  Virtual Str4 SN 
 WBMN.klb                 0.00:  WOB Min 
 WITN.             Anar Khalil:  Customer Rep 
 WITN.           Murad Guliyev:  Customer Rep 2 
 WOBA.klb                13.00:  WOB Avg 
 WOBX.klb                25.00:  WOB Max 
 YP  .lhf2               32.00:  Yield Point 
~Curve Information Block
#MNEM.UNIT                 API CODE     Curve Description
#---------               -----------    ---------------------------
 TIME.HHMMSS            00 000 000 000:  GT Time & Date
 GTDEPTH.m              00 000 000 000:  GT Depth
 GTPQH.psia             00 000 000 000:  GT HR Quartz Pressure
 GTTQ.degC              00 000 000 000:  GT Quartz Temperature
 GTTN.NONE              00 000 000 000:  GT Test Number
 GTET.sec               00 000 000 000:  GT Elapsed Test Time
 GTTVD.m                00 000 000 000:  GT True Vertical Depth
#Other Information
#
#WARRANTY: Halliburton will use its best efforts to furnish customers with 
#accurate information and interpretations that are part of, and incident to, the services 
#provided.  However, Halliburton cannot and does not warrant the accuracy 
#or correctness of such information and interpretations.  Under no circumstances should any 
#such information or interpretation be relied upon as the sole basis for any drilling, 
#completion, production, or financial decision or any procedure involving any risk to the 
#safety of any drilling venture, drilling rig or its crew or any other third party.  The 
#Customer has full responsibility for all drilling, completion and production operation.  
#Halliburton makes no representations or warranties, either expressed or 
#implied, including, but not limited to, the implied warranties of merchantability or fitness 
#for a particular purpose, with respect to the services rendered.  In no event will 
#Halliburton be liable for failure to obtain any particular results or for 
#any damages, including, but not limited to, indirect, special or consequential damages, 
#resulting from the use of any information or interpretation provided by Halliburton.
#
~A           TIME           GTDEPTH  GTPQH  GTTQ  GTTN   GTET   GTTVD  
# ...
   05:33:17.994.28-May-2021 3456.50 4231.02 82.97 10.00 135.66 2576.46
   05:33:18.194.28-May-2021 3456.50 4231.15 82.97 10.00 135.86 2576.46
   05:33:18.394.28-May-2021 3456.50 4231.07 82.97 10.00 136.06 2576.46
   05:33:18.594.28-May-2021 3456.50 4231.07 82.97 10.00 136.26 2576.46
   05:33:18.794.28-May-2021 3456.50 4231.30 82.97 10.00 136.46 2576.46
   05:33:18.994.28-May-2021 3456.50 4231.07 82.97 10.00 136.66 2576.46
   05:33:19.194.28-May-2021 3456.50 4231.09 82.97 10.00 136.86 2576.46
   05:33:19.394.28-May-2021 3456.50 4231.07 82.97 10.00 137.06 2576.46
   05:33:19.594.28-May-2021 3456.50 4231.07 82.97 10.00 137.26 2576.46
   05:33:19.794.28-May-2021 3456.50 4231.24 82.97 10.00 137.46 2576.46
   05:33:19.994.28-May-2021 3456.50 4231.07 82.97 10.00 137.66 2576.46
   05:33:20.195.28-May-2021 3456.50 4231.09 82.97 10.00 137.86 2576.46
   05:33:20.395.28-May-2021 3456.50 4231.07 82.97 10.00 138.06 2576.46
   05:33:20.595.28-May-2021 3456.50 4231.07 82.97 10.00 138.26 2576.46
   05:33:20.795.28-May-2021 3456.50 4231.09 82.97 10.00 138.46 2576.46
   05:33:20.995.28-May-2021 3456.50 4231.08 82.97 10.00 138.66 2576.46
   05:33:21.195.28-May-2021 3456.50 4231.08 82.97 10.00 138.86 2576.46
   05:33:21.395.28-May-2021 3456.50 4231.08 82.97 10.00 139.06 2576.46
   05:33:21.595.28-May-2021 3456.50 4231.08 82.97 10.00 139.26 2576.46
   05:33:21.795.28-May-2021 3456.50 4231.07 82.97 10.00 139.46 2576.46
   05:33:21.995.28-May-2021 3456.50 4231.08 82.97 10.00 139.66 2576.46
   05:33:22.195.28-May-2021 3456.50 4231.18 82.97 10.00 139.86 2576.46
   05:33:22.395.28-May-2021 3456.50 4230.97 82.97 10.00 140.06 2576.46
   05:33:22.596.28-May-2021 3456.50 4230.97 82.97 10.00 140.26 2576.46
   05:33:22.796.28-May-2021 3456.50 4231.06 82.97 10.00 140.46 2576.46
   05:33:22.996.28-May-2021 3456.50 4231.08 82.97 10.00 140.66 2576.46
   05:33:23.196.28-May-2021 3456.50 4231.07 82.97 10.00 140.86 2576.46
   05:33:23.396.28-May-2021 3456.50 4231.08 82.97 10.00 141.06 2576.46
   05:33:23.596.28-May-2021 3456.50 4231.08 82.97 10.00 141.26 2576.46
   05:33:23.796.28-May-2021 3456.50 4231.08 82.97 10.00 141.46 2576.46
   05:33:23.996.28-May-2021 3456.50 4231.08 82.97 10.00 141.66 2576.46
   05:33:24.196.28-May-2021 3456.50 4231.08 82.97 10.00 141.86 2576.46
   05:33:24.396.28-May-2021 3456.50 4231.08 82.97 10.00 142.06 2576.46
   05:33:24.596.28-May-2021 3456.50 4231.08 82.97 10.00 142.26 2576.46
   05:33:24.796.28-May-2021 3456.50 4230.92 82.97 10.00 142.46 2576.46
   05:33:24.997.28-May-2021 3456.50 4231.24 82.97 10.00 142.66 2576.46
   05:33:25.197.28-May-2021 3456.50 4231.08 82.97 10.00 142.86 2576.46
   05:33:25.397.28-May-2021 3456.50 4231.07 82.97 10.00 143.06 2576.46
   05:33:25.597.28-May-2021 3456.50 4231.07 82.97 10.00 143.26 2576.46
   05:33:25.797.28-May-2021 3456.50 4230.99 82.97 10.00 143.46 2576.46
   05:33:25.997.28-May-2021 3456.50 4231.17 82.97 10.00 143.66 2576.46
   05:33:26.197.28-May-2021 3456.50 4231.07 82.97 10.00 143.86 2576.46
   05:33:26.397.28-May-2021 3456.50 4231.01 82.97 10.00 144.06 2576.46
   05:33:26.597.28-May-2021 3456.50 4231.01 82.97 10.00 144.26 2576.46
   05:33:26.797.28-May-2021 3456.50 4231.07 82.97 10.00 144.46 2576.46
   05:33:26.997.28-May-2021 3456.50 4231.06 82.97 10.00 144.66 2576.46
   05:33:27.197.28-May-2021 3456.50 4231.07 82.97 10.00 144.86 2576.46
   05:33:27.398.28-May-2021 3456.50 4231.07 82.97 10.00 145.06 2576.46
   05:33:27.598.28-May-2021 3456.50 4231.07 82.97 10.00 145.26 2576.46
   05:33:27.798.28-May-2021 3456.50 4230.97 82.96 10.00 145.46 2576.46
   05:33:27.998.28-May-2021 3456.50 4231.06 82.96 10.00 145.66 2576.46
   05:33:28.198.28-May-2021 3456.50 4231.05 82.96 10.00 145.86 2576.46
   05:33:28.398.28-May-2021 3456.50 4231.07 82.96 10.00 146.06 2576.46
   05:33:28.598.28-May-2021 3456.50 4231.07 82.96 10.00 146.26 2576.46
   05:33:28.798.28-May-2021 3456.50 4231.07 82.96 10.00 146.46 2576.46
   05:33:28.998.28-May-2021 3456.50 4231.06 82.96 10.00 146.66 2576.46
   05:33:29.198.28-May-2021 3456.50 4231.07 82.96 10.00 146.86 2576.46
   05:33:29.398.28-May-2021 3456.50 4231.06 82.96 10.00 147.06 2576.46
   05:33:29.598.28-May-2021 3456.50 4231.06 82.96 10.00 147.26 2576.46
   05:33:29.799.28-May-2021 3456.50 4231.07 82.96 10.00 147.46 2576.46
   05:33:29.999.28-May-2021 3456.50 4230.82 82.96 10.00 147.66 2576.46
   05:33:30.199.28-May-2021 3456.50 4231.33 82.96 10.00 147.86 2576.46
   05:33:30.399.28-May-2021 3456.50 4231.05 82.96 10.00 148.06 2576.46
   05:33:30.599.28-May-2021 3456.50 4231.05 82.96 10.00 148.26 2576.46
   05:33:30.799.28-May-2021 3456.50 4231.05 82.96 10.00 148.46 2576.46
   05:33:30.999.28-May-2021 3456.50 4231.06 82.96 10.00 148.66 2576.46
   05:33:31.199.28-May-2021 3456.50 4231.06 82.96 10.00 148.86 2576.46
   05:33:31.399.28-May-2021 3456.50 4231.06 82.96 10.00 149.06 2576.46
   05:33:31.599.28-May-2021 3456.50 4231.06 82.96 10.00 149.26 2576.46
   05:33:31.799.28-May-2021 3456.50 4231.06 82.96 10.00 149.46 2576.46
   05:33:31.999.28-May-2021 3456.50 4231.47 82.96 10.00 149.66 2576.46
   05:33:32.200.28-May-2021 3456.50 4177.46 82.96 10.00 149.86 2576.46
   05:33:32.400.28-May-2021 3456.50 4165.03 82.96 10.00 150.06 2576.46
   05:33:32.600.28-May-2021 3456.50 4165.03 82.96 10.00 150.26 2576.46
   05:33:32.800.28-May-2021 3456.50 4163.58 82.96 10.00 150.46 2576.46
   05:33:33.000.28-May-2021 3456.50 4156.81 82.96 10.00 150.66 2576.46
   05:33:33.200.28-May-2021 3456.50 4155.08 82.96 10.00 150.86 2576.46
   05:33:33.400.28-May-2021 3456.50 4152.83 82.96 10.00 151.06 2576.46
   05:33:33.600.28-May-2021 3456.50 4152.83 82.96 10.00 151.26 2576.46
   05:33:33.800.28-May-2021 3456.50 4168.91 82.96 10.00 151.46 2576.46
   05:33:34.000.28-May-2021 3456.50 4152.60 82.96 10.00 151.66 2576.46
   05:33:34.200.28-May-2021 3456.50 4142.20 82.96 10.00 151.86 2576.46
   05:33:34.400.28-May-2021 3456.50 4137.82 82.96 10.00 152.06 2576.46
   05:33:34.601.28-May-2021 3456.50 4137.82 82.96 10.00 152.26 2576.46
   05:33:34.801.28-May-2021 3456.50 4134.02 82.96 10.00 152.46 2576.46
   05:33:35.001.28-May-2021 3456.50 4141.18 82.96 10.00 152.66 2576.46
   05:33:35.201.28-May-2021 3456.50 4131.04 82.96 10.00 152.86 2576.46
   05:33:35.401.28-May-2021 3456.50 4127.41 82.96 10.00 153.06 2576.46
   05:33:35.601.28-May-2021 3456.50 4127.41 82.96 10.00 153.26 2576.46
   05:33:35.801.28-May-2021 3456.50 4123.69 82.96 10.00 153.46 2576.46
   05:33:36.001.28-May-2021 3456.50 4121.32 82.96 10.00 153.66 2576.46
   05:33:36.201.28-May-2021 3456.50 4156.79 82.96 10.00 153.86 2576.46
   05:33:36.401.28-May-2021 3456.50 4160.34 82.96 10.00 154.06 2576.46
   05:33:36.601.28-May-2021 3456.50 4160.34 82.96 10.00 154.26 2576.46
   05:33:36.801.28-May-2021 3456.50 4160.34 82.96 10.00 154.46 2576.46
   05:33:37.002.28-May-2021 3456.50 4161.58 82.96 10.00 154.66 2576.46
   05:33:37.202.28-May-2021 3456.50 4153.44 82.96 10.00 154.86 2576.46
   05:33:37.402.28-May-2021 3456.50 4148.93 82.96 10.00 155.06 2576.46
   05:33:37.602.28-May-2021 3456.50 4148.93 82.96 10.00 155.26 2576.46
   05:33:37.802.28-May-2021 3456.50 4144.32 82.96 10.00 155.46 2576.46
   05:33:38.002.28-May-2021 3456.50 4116.87 82.96 10.00 155.67 2576.46
   05:33:38.202.28-May-2021 3456.50 4109.77 82.96 10.00 155.87 2576.46
   05:33:38.402.28-May-2021 3456.50 4106.89 82.96 10.00 156.07 2576.46
   05:33:38.602.28-May-2021 3456.50 4106.89 82.96 10.00 156.27 2576.46
   05:33:38.802.28-May-2021 3456.50 4101.73 82.96 10.00 156.47 2576.46
   05:33:39.002.28-May-2021 3456.50 4099.77 82.96 10.00 156.67 2576.46
   05:33:39.202.28-May-2021 3456.50 4094.08 82.96 10.00 156.87 2576.46
   05:33:39.403.28-May-2021 3456.50 4092.19 82.96 10.00 157.07 2576.46
   05:33:39.603.28-May-2021 3456.50 4092.19 82.96 10.00 157.27 2576.46
   05:33:39.803.28-May-2021 3456.50 4087.24 82.96 10.00 157.47 2576.46
   05:33:40.003.28-May-2021 3456.50 4087.08 82.96 10.00 157.67 2576.46
   05:33:40.203.28-May-2021 3456.50 4080.67 82.96 10.00 157.87 2576.46
   05:33:40.403.28-May-2021 3456.50 4078.01 82.96 10.00 158.07 2576.46
