~Version Information
 VERS.                  2.0:   CWLS log ASCII Standard -VERSION 2.0
 WRAP.                   NO:   One line per depth step
~Well Information Block
#MNEM.UNIT     VALUE/NAME     DESCRIPTION
#---------     -----------    ---------------------------
 STRT.S             06:06:39 28-May-21: START TIME 06:06:39 28-May-21
 STOP.S             06:13:42 28-May-21: STOP TIME  06:13:42 28-May-21
 STEP.S                   0.00: STEP TIME
 NULL.                 -999.25: NULL VALUE
 UWI .                     N/A:  UNIQUE WELL IDENTIFIER
 API .                     N/A:  API NUMBER
 UNIT.                     N/A:  LOGGING EQUIPMENT ID
 DCON.         Sperry Drilling:  DIRECTNL CONTR
 DOE .                     N/A:  DOE NUMBER
 MWDS.                    Baku:  MWD SHOP
 SRVC.     Turan Drilling and Engineering:  CONTRACTOR
 CTRY.              Azerbaijan:  COUNTRY NAME
 PROV.                    Baku:  PROVINCE
 STAT.                    Baku:  STATE NAME
 REGN.                   EESSA:  REGION
 BASE.              Azerbaijan:  LOGGING EQUIPMENT BASE LOCATION
 WTYP.                Deviated:  WELL TYPE
 RIG .              East Azeri:  RIG NAME
 WELL.                    D02y:  WELL NAME
 FLD .                     ACG:  FIELD NAME
 COMP.     BP Exploration (Caspian Sea) Ltd.:  COMPANY
 PDAT.          Mean Sea Level:  PERMANENT DATUM
 MDS .        Operator Entered:  MAG DATA SOURCE
 SON .        AZ-XX-0906997291:  JOB NUMBER
 FTOP.          Formation Tops:  FORM TOPS DESC
 ILTD.               Lithology:  INTERP LTH DESC
 SVYD.                  Survey:  SURVEY DESC
 DMOD.             Drill Model:  DRILL MOD DESC
 HPTY.       Minimum Curvature:  HOLE POS TYPE
 NREF.                    Grid:  NORTH REFERENCE
 SPUD.               05-May-21:  SPUD DATE
 DATE.      09.27.28 12-Jun-21:  END TIME
 STIM.      09.27.28 12-May-21:  START TIME
 DMF .             Drill Floor:  DRILL MEAS FROM
 DFST.                        :  DIST FSL TEXT
 DFWT.                        :  DIST FWL TEXT
 CNTY.                        :  COUNTY
 LOC .                        :  LOCATION
 LMF .             Drill Floor:  LOG MEASURED FROM
 DEP .m                2806.40:  DEPTH
 AGAP.m                  43.60:  AIR GAP
 VSNS.m                  -4.42:  VERT SEC N/S
 VSEW.m                  -7.31:  VERT SEC E/W
 APD .m                  43.60:  DEPTH ABOVE PD
 WDMS.m                 151.80:  WD ELEV
 EGL .m                   0.00:  GROUND ELEVATION
 EPD .m                   0.00:  ELEVATION
 AZTC.deg                 6.18:  AZM TOTAL CORR
 GRDC.deg                 0.29:  GRID CORRECTION
 MDEC.deg                 6.47:  MAGNETIC DECL
 MDIP.deg                59.50:  MAGNETIC DIP
 MFLD.nT              50350.00:  MAGNETIC FIELD
 GVFD.g                   1.00:  GRAVITY FIELD
 VSDR.deg               179.08:  VERT SEC DIRECT
 TDD .m                4300.00:  TOTAL DEPTH (DRILLER)
 SDEP.m                2800.00:  START DEPTH
 DFSL.m                   0.00:  DISTANCE FSL
 DFWL.m                   0.00:  DISTANCE FWL
 UTMY.m             4431871.34:  UTM Y
 UTMX.m              538762.90:  UTM X
 WHEW.m                  -7.31:  WELL HEAD E/W
 WHNS.m                  -4.42:  WELL HEAD N/S
 LONG.deg                51.45:  LONGITUDE
 LATI.deg                40.02:  LATITUDE
 TVDS.m                  43.60:  TVDSS CORRECTN
 EKB .m                  43.60:  KB ELEVATION
 EDF .m                  43.60:  DF ELEVATION
 TDL .m                 806.00:  TOTAL DEPTH (LOGGER)
 MAGU.                 1851231:  MAGUTM CHECKSUM
 VSC .                       0:  VS TO CLOSURE
~Parameter Information Block
#MNEM.UNIT       Value        Description
#---------     -----------    ---------------------------
 AV  .mps                 1.60:  Ann Velocity 
 AVMX.mps                 2.00:  Max Ann Veloc 
 AZIF.deg               140.24:  Azm, Final 
 BHAT.        Rotary Steerable:  BHA Type 
 BROT.°/30m               0.50:  Build Rotating 
 BS  .in                  8.50:  Bit Size 
 BTPL.psig              619.00:  Bit Press Loss 
 CABU.                     Yes:  Customer Abuse 
 CGEO.          Ilgar Gurbanov:  Customer Geo 
 COMM.                     ´.T:  Run Comments 1 
 TCS .hr                 85.88:  Time Ciculation Ended 
 CV  .mps                 3.30:  Crit Velocity 
 CVMX.mps                 3.50:  Max Crit Veloc 
 DD1 .           Hamid Axmedov:  Direct Drillr 1 
 DD2 .           Teymur Aliyev:  Direct Drillr 2 
 DDSV.               Geo-Pilot:  DD Service 
 DEFF.%                 100.00:  % Det Eff 
 DLRX.°/30m               0.00:  Dogleg Rot Max 
 DLSO.°/30m               1.80:  Dogleg Oriented 
 DLSX.°/30m               3.34:  Dogleg Str Max 
 DRET.      11.50.00 27-May-21:  Drill End Time 
 DRST.      21.13.00 24-May-21:  Drill Start Tim 
 DTIM.hr                 45.11:  Time Drilling 
 EDEP.m                4054.00:  End Depth 
 ENG1.         Almaz Almadatov:  Engineer 1 
 ENG2.           Amrah Tahirov:  Engineer 2 
 ENG3.      Bakhtiyar Jabbarli:  Engineer 3 
 ENG4.          Nazrin Asgarli:  Engineer 4 
 ETIM.      10.00.00 30-May-21:  End Time 
 FLOI.gpm               530.00:  Flow In 
 FLON.gpm               400.00:  Flow In Min 
 FLOS.cptm                0.00:  Fluid Loss 
 FLOX.gpm               560.00:  Flow In Max 
 DFT .        Mineral Oil Base:  Mud Type 
 FTRO.       Formation Presure:  FTWD Run Obj 
 HFLO.                      No:  High Flow 
 HPRE.                      No:  High Pressure 
 HTEM.                      No:  High Temp 
 HYDO.m                   1.80:  Hydro Offset 
 IFIN.deg                73.83:  Inc, Final 
 IMAX.deg                73.83:  Inc Max 
 IMIN.deg                57.86:  Inc Min 
 IMND.m                3259.27:  Inc Min Depth 
 IMXD.m                4045.58:  Inc Max Depth 
 JARR.                     Yes:  Jarring 
 LETM.      11.50.00 27-May-21:  Log End Time 
 LOST.hr                     0:  Lost Rig Time 
 LSTM.      21.13.00 24-May-21:  Log Start Time 
 MDCL.ppm             42500.00:  Mud Chlorides 
 MDES.     Inversion Oil/Synthetic:  Mud Desc 
 DFD .sg                  1.52:  Mud Density 
 MDMN.sg                  1.52:  Dens Mud Min 
 MDMX.sg                  1.52:  Dens Mud Max 
 MOIL.                      70:  Run Mud Oil % 
 MOWR.                   70:30:  Run Mud OWR 
 MSND.                     0.2:  Run Mud Sand % 
 MSOL.                      22:  Run Mud Solids% 
 DFV .spqt               77.00:  Mud Viscosity 
 MWOD.in                  6.75:  MWD Tool OD 
 MWSI.                      No:  Serv Intrp, MWD 
 OTIM.hr                151.01:  Time Operating 
 PCON.          Wear / Scratch:  Pad Condition 
 PMAX.psia            11296.93:  Press Op, Max 
 PV  .cP                 37.00:  Mud PV 
 RUN .                     500:  Run Number 
 ROPA.m/hr               25.00:  ROP Avg 
 ROPN.m/hr                9.00:  ROP Min 
 ROPX.m/hr               28.00:  ROP Max 
 RPMA.rpm               140.00:  RPM Surface Avg 
 RPMN.rpm                90.00:  RPM Surface Min 
 RPMX.rpm               140.00:  RPM Surface Max 
 RRUN.                    0500:  Rig Run Number 
 SAZI.deg               172.17:  Azm, Start 
 SDEP.m                3248.00:  Start Depth 
 SIDD.                      No:  Serv Intrp, DD 
 SINC.deg                57.86:  Inc, Start 
 SPPA.psig             5620.00:  SPP Avg 
 SPPN.psig             5190.00:  SPP Min 
 SPPX.psig             6050.00:  SPP Max 
 STIM.      16.00.00 23-May-21:  Start Time 
 SVCS.                 DD, MWD:  Services 
 SVER.                    9.20:  Sperry Version 
 TDAT.m                 806.00:  Tot Depth Attmp 
 TDDF.                      No:  Trip for DD 
 TDLG.m                 806.00:  Tot Depth Loggd 
 TFF .                      No:  Trip for Fail 
 TQAA.f-kp               12.00:  Torque Abs Avg 
 TQAN.f-kp                8.00:  Torque Abs Min 
 TQAX.f-kp               15.00:  Torque Abs Max 
 TRRT.°/30m               0.30:  Turn Rotating 
 MRT .                  EWR-M5:  Maximum Recorded Temperature 
 TTMX.degC               93.00:  Max Tool Temp 
 VS01.                90649155:  Virtual Str1 SN 
 VS02.                90642264:  Virtual Str2 SN 
 VS03.                90642266:  Virtual Str3 SN 
 VS04.                90642261:  Virtual Str4 SN 
 WBMN.klb                 0.00:  WOB Min 
 WITN.             Anar Khalil:  Customer Rep 
 WITN.           Murad Guliyev:  Customer Rep 2 
 WOBA.klb                13.00:  WOB Avg 
 WOBX.klb                25.00:  WOB Max 
 YP  .lhf2               32.00:  Yield Point 
~Curve Information Block
#MNEM.UNIT                 API CODE     Curve Description
#---------               -----------    ---------------------------
 TIME.HHMMSS            00 000 000 000:  GT Time & Date
 GTDEPTH.m              00 000 000 000:  GT Depth
 GTPQH.psia             00 000 000 000:  GT HR Quartz Pressure
 GTTQ.degC              00 000 000 000:  GT Quartz Temperature
 GTTN.NONE              00 000 000 000:  GT Test Number
 GTET.sec               00 000 000 000:  GT Elapsed Test Time
 GTTVD.m                00 000 000 000:  GT True Vertical Depth
#Other Information
#
#WARRANTY: Halliburton will use its best efforts to furnish customers with 
#accurate information and interpretations that are part of, and incident to, the services 
#provided.  However, Halliburton cannot and does not warrant the accuracy 
#or correctness of such information and interpretations.  Under no circumstances should any 
#such information or interpretation be relied upon as the sole basis for any drilling, 
#completion, production, or financial decision or any procedure involving any risk to the 
#safety of any drilling venture, drilling rig or its crew or any other third party.  The 
#Customer has full responsibility for all drilling, completion and production operation.  
#Halliburton makes no representations or warranties, either expressed or 
#implied, including, but not limited to, the implied warranties of merchantability or fitness 
#for a particular purpose, with respect to the services rendered.  In no event will 
#Halliburton be liable for failure to obtain any particular results or for 
#any damages, including, but not limited to, indirect, special or consequential damages, 
#resulting from the use of any information or interpretation provided by Halliburton.
#
~A           TIME           GTDEPTH  GTPQH  GTTQ  GTTN   GTET   GTTVD  
# ...
   06:10:25.325.28-May-2021 3440.00 4242.59 83.27 12.00 226.09 2569.12
   06:10:25.525.28-May-2021 3440.00 4242.59 83.27 12.00 226.29 2569.12
   06:10:25.725.28-May-2021 3440.00 4242.23 83.27 12.00 226.49 2569.12
   06:10:25.925.28-May-2021 3440.00 4242.96 83.27 12.00 226.69 2569.12
   06:10:26.125.28-May-2021 3440.00 4242.60 83.27 12.00 226.89 2569.12
   06:10:26.325.28-May-2021 3440.00 4242.62 83.27 12.00 227.09 2569.12
   06:10:26.525.28-May-2021 3440.00 4242.62 83.27 12.00 227.29 2569.12
   06:10:26.725.28-May-2021 3440.00 4242.97 83.27 12.00 227.50 2569.12
   06:10:26.925.28-May-2021 3440.00 4242.59 83.27 12.00 227.70 2569.12
   06:10:27.125.28-May-2021 3440.00 4242.58 83.27 12.00 227.90 2569.12
   06:10:27.325.28-May-2021 3440.00 4242.63 83.27 12.00 228.10 2569.12
   06:10:27.525.28-May-2021 3440.00 4242.63 83.27 12.00 228.30 2569.12
   06:10:27.726.28-May-2021 3440.00 4242.62 83.27 12.00 228.50 2569.12
   06:10:27.926.28-May-2021 3440.00 4242.62 83.27 12.00 228.70 2569.12
   06:10:28.126.28-May-2021 3440.00 4242.61 83.27 12.00 228.90 2569.12
   06:10:28.326.28-May-2021 3440.00 4242.61 83.27 12.00 229.10 2569.12
   06:10:28.526.28-May-2021 3440.00 4242.61 83.27 12.00 229.30 2569.12
   06:10:28.726.28-May-2021 3440.00 4242.61 83.27 12.00 229.50 2569.12
   06:10:28.926.28-May-2021 3440.00 4242.62 83.27 12.00 229.70 2569.12
   06:10:29.126.28-May-2021 3440.00 4242.27 83.27 12.00 229.90 2569.12
   06:10:29.326.28-May-2021 3440.00 4242.99 83.27 12.00 230.10 2569.12
   06:10:29.526.28-May-2021 3440.00 4242.99 83.27 12.00 230.30 2569.12
   06:10:29.726.28-May-2021 3440.00 4242.63 83.27 12.00 230.50 2569.12
   06:10:29.926.28-May-2021 3440.00 4242.58 83.27 12.00 230.70 2569.12
   06:10:30.127.28-May-2021 3440.00 4242.60 83.27 12.00 230.90 2569.12
   06:10:30.327.28-May-2021 3440.00 4242.62 83.27 12.00 231.10 2569.12
   06:10:30.527.28-May-2021 3440.00 4242.62 83.27 12.00 231.30 2569.12
   06:10:30.727.28-May-2021 3440.00 4242.62 83.27 12.00 231.50 2569.12
   06:10:30.927.28-May-2021 3440.00 4242.61 83.27 12.00 231.70 2569.12
   06:10:31.127.28-May-2021 3440.00 4242.61 83.27 12.00 231.90 2569.12
   06:10:31.327.28-May-2021 3440.00 4242.62 83.27 12.00 232.10 2569.12
   06:10:31.527.28-May-2021 3440.00 4242.62 83.27 12.00 232.30 2569.12
   06:10:31.727.28-May-2021 3440.00 4242.30 83.27 12.00 232.50 2569.12
   06:10:31.927.28-May-2021 3440.00 4242.97 83.27 12.00 232.70 2569.12
   06:10:32.127.28-May-2021 3440.00 4242.59 83.27 12.00 232.90 2569.12
   06:10:32.327.28-May-2021 3440.00 4242.56 83.27 12.00 233.10 2569.12
   06:10:32.528.28-May-2021 3440.00 4242.56 83.27 12.00 233.30 2569.12
   06:10:32.728.28-May-2021 3440.00 4242.22 83.27 12.00 233.50 2569.12
   06:10:32.928.28-May-2021 3440.00 4243.03 83.27 12.00 233.70 2569.12
   06:10:33.128.28-May-2021 3440.00 4242.59 83.27 12.00 233.90 2569.12
   06:10:33.328.28-May-2021 3440.00 4242.62 83.27 12.00 234.10 2569.12
   06:10:33.528.28-May-2021 3440.00 4242.62 83.27 12.00 234.30 2569.12
   06:10:33.728.28-May-2021 3440.00 4242.99 83.27 12.00 234.50 2569.12
   06:10:33.928.28-May-2021 3440.00 4242.61 83.27 12.00 234.70 2569.12
   06:10:34.128.28-May-2021 3440.00 4242.62 83.27 12.00 234.90 2569.12
   06:10:34.328.28-May-2021 3440.00 4242.26 83.28 12.00 235.10 2569.12
   06:10:34.528.28-May-2021 3440.00 4242.26 83.28 12.00 235.30 2569.12
   06:10:34.728.28-May-2021 3440.00 4242.59 83.28 12.00 235.50 2569.12
   06:10:34.929.28-May-2021 3440.00 4242.65 83.28 12.00 235.70 2569.12
   06:10:35.129.28-May-2021 3440.00 4242.58 83.28 12.00 235.90 2569.12
   06:10:35.329.28-May-2021 3440.00 4242.59 83.28 12.00 236.10 2569.12
   06:10:35.529.28-May-2021 3440.00 4242.59 83.28 12.00 236.30 2569.12
   06:10:35.729.28-May-2021 3440.00 4242.61 83.28 12.00 236.50 2569.12
   06:10:35.929.28-May-2021 3440.00 4242.62 83.28 12.00 236.70 2569.12
   06:10:36.129.28-May-2021 3440.00 4242.62 83.28 12.00 236.90 2569.12
   06:10:36.329.28-May-2021 3440.00 4242.61 83.28 12.00 237.10 2569.12
   06:10:36.529.28-May-2021 3440.00 4242.61 83.28 12.00 237.30 2569.12
   06:10:36.729.28-May-2021 3440.00 4242.63 83.28 12.00 237.50 2569.12
   06:10:36.929.28-May-2021 3440.00 4242.68 83.28 12.00 237.70 2569.12
   06:10:37.129.28-May-2021 3440.00 4242.58 83.28 12.00 237.90 2569.12
   06:10:37.330.28-May-2021 3440.00 4242.59 83.28 12.00 238.10 2569.12
   06:10:37.530.28-May-2021 3440.00 4242.59 83.28 12.00 238.30 2569.12
   06:10:37.730.28-May-2021 3440.00 4242.61 83.28 12.00 238.50 2569.12
   06:10:37.930.28-May-2021 3440.00 4242.64 83.28 12.00 238.70 2569.12
   06:10:38.130.28-May-2021 3440.00 4242.60 83.28 12.00 238.90 2569.12
   06:10:38.330.28-May-2021 3440.00 4242.64 83.28 12.00 239.10 2569.12
   06:10:38.530.28-May-2021 3440.00 4242.64 83.28 12.00 239.30 2569.12
   06:10:38.730.28-May-2021 3440.00 4242.62 83.28 12.00 239.50 2569.12
   06:10:38.930.28-May-2021 3440.00 4242.63 83.28 12.00 239.70 2569.12
   06:10:39.130.28-May-2021 3440.00 4242.63 83.28 12.00 239.90 2569.12
   06:10:39.330.28-May-2021 3440.00 4242.62 83.28 12.00 240.10 2569.12
   06:10:39.530.28-May-2021 3440.00 4242.62 83.28 12.00 240.30 2569.12
   06:10:39.731.28-May-2021 3440.00 4243.00 83.28 12.00 240.50 2569.12
   06:10:39.931.28-May-2021 3440.00 4242.59 83.28 12.00 240.70 2569.12
   06:10:40.131.28-May-2021 3440.00 4242.65 83.28 12.00 240.90 2569.12
   06:10:40.331.28-May-2021 3440.00 4242.59 83.28 12.00 241.10 2569.12
   06:10:40.531.28-May-2021 3440.00 4242.59 83.28 12.00 241.30 2569.12
   06:10:40.731.28-May-2021 3440.00 4242.66 83.28 12.00 241.50 2569.12
   06:10:40.931.28-May-2021 3440.00 4242.62 83.28 12.00 241.70 2569.12
   06:10:41.131.28-May-2021 3440.00 4242.62 83.28 12.00 241.90 2569.12
   06:10:41.331.28-May-2021 3440.00 4242.69 83.28 12.00 242.10 2569.12
   06:10:41.531.28-May-2021 3440.00 4242.69 83.28 12.00 242.30 2569.12
   06:10:41.731.28-May-2021 3440.00 4242.57 83.28 12.00 242.50 2569.12
   06:10:41.931.28-May-2021 3440.00 4242.63 83.28 12.00 242.70 2569.12
   06:10:42.132.28-May-2021 3440.00 4242.69 83.28 12.00 242.90 2569.12
   06:10:42.332.28-May-2021 3440.00 4242.58 83.28 12.00 243.10 2569.12
   06:10:42.532.28-May-2021 3440.00 4242.58 83.28 12.00 243.30 2569.12
   06:10:42.732.28-May-2021 3440.00 4242.64 83.28 12.00 243.50 2569.12
   06:10:42.932.28-May-2021 3440.00 4242.61 83.28 12.00 243.70 2569.12
   06:10:43.132.28-May-2021 3440.00 4242.62 83.28 12.00 243.90 2569.12
   06:10:43.332.28-May-2021 3440.00 4242.62 83.28 12.00 244.10 2569.12
   06:10:43.532.28-May-2021 3440.00 4242.62 83.28 12.00 244.30 2569.12
   06:10:43.732.28-May-2021 3440.00 4242.62 83.28 12.00 244.50 2569.12
   06:10:43.932.28-May-2021 3440.00 4242.62 83.28 12.00 244.70 2569.12
   06:10:44.132.28-May-2021 3440.00 4242.62 83.28 12.00 244.90 2569.12
   06:10:44.332.28-May-2021 3440.00 4242.63 83.28 12.00 245.10 2569.12
   06:10:44.533.28-May-2021 3440.00 4242.63 83.28 12.00 245.30 2569.12
   06:10:44.733.28-May-2021 3440.00 4243.02 83.28 12.00 245.50 2569.12
   06:10:44.933.28-May-2021 3440.00 4242.61 83.28 12.00 245.70 2569.12
   06:10:45.133.28-May-2021 3440.00 4242.62 83.28 12.00 245.90 2569.12
   06:10:45.333.28-May-2021 3440.00 4242.60 83.28 12.00 246.10 2569.12
   06:10:45.533.28-May-2021 3440.00 4242.60 83.28 12.00 246.30 2569.12
   06:10:45.733.28-May-2021 3440.00 4242.62 83.28 12.00 246.50 2569.12
   06:10:45.933.28-May-2021 3440.00 4242.60 83.28 12.00 246.70 2569.12
   06:10:46.133.28-May-2021 3440.00 4242.64 83.28 12.00 246.90 2569.12
   06:10:46.333.28-May-2021 3440.00 4242.62 83.28 12.00 247.10 2569.12
   06:10:46.533.28-May-2021 3440.00 4242.62 83.28 12.00 247.30 2569.12
   06:10:46.733.28-May-2021 3440.00 4242.64 83.28 12.00 247.50 2569.12
   06:10:46.934.28-May-2021 3440.00 4242.61 83.28 12.00 247.70 2569.12
   06:10:47.134.28-May-2021 3440.00 4242.63 83.28 12.00 247.90 2569.12
   06:10:47.334.28-May-2021 3440.00 4242.71 83.28 12.00 248.10 2569.12
   06:10:47.534.28-May-2021 3440.00 4242.71 83.28 12.00 248.30 2569.12
   06:10:47.734.28-May-2021 3440.00 4242.58 83.28 12.00 248.50 2569.12
