~Version Information
 VERS.                  2.0:   CWLS log ASCII Standard -VERSION 2.0
 WRAP.                   NO:   One line per depth step
~Well Information Block
#MNEM.UNIT     VALUE/NAME     DESCRIPTION
#---------     -----------    ---------------------------
 STRT.S             08:05:02 28-May-21: START TIME 08:05:02 28-May-21
 STOP.S             08:12:05 28-May-21: STOP TIME  08:12:05 28-May-21
 STEP.S                   0.00: STEP TIME
 NULL.                 -999.25: NULL VALUE
 UWI .                     N/A:  UNIQUE WELL IDENTIFIER
 API .                     N/A:  API NUMBER
 UNIT.                     N/A:  LOGGING EQUIPMENT ID
 DCON.         Sperry Drilling:  DIRECTNL CONTR
 DOE .                     N/A:  DOE NUMBER
 MWDS.                    Baku:  MWD SHOP
 SRVC.     Turan Drilling and Engineering:  CONTRACTOR
 CTRY.              Azerbaijan:  COUNTRY NAME
 PROV.                    Baku:  PROVINCE
 STAT.                    Baku:  STATE NAME
 REGN.                   EESSA:  REGION
 BASE.              Azerbaijan:  LOGGING EQUIPMENT BASE LOCATION
 WTYP.                Deviated:  WELL TYPE
 RIG .              East Azeri:  RIG NAME
 WELL.                    D02y:  WELL NAME
 FLD .                     ACG:  FIELD NAME
 COMP.     BP Exploration (Caspian Sea) Ltd.:  COMPANY
 PDAT.          Mean Sea Level:  PERMANENT DATUM
 MDS .        Operator Entered:  MAG DATA SOURCE
 SON .        AZ-XX-0906997291:  JOB NUMBER
 FTOP.          Formation Tops:  FORM TOPS DESC
 ILTD.               Lithology:  INTERP LTH DESC
 SVYD.                  Survey:  SURVEY DESC
 DMOD.             Drill Model:  DRILL MOD DESC
 HPTY.       Minimum Curvature:  HOLE POS TYPE
 NREF.                    Grid:  NORTH REFERENCE
 SPUD.               05-May-21:  SPUD DATE
 DATE.      09.27.28 12-Jun-21:  END TIME
 STIM.      09.27.28 12-May-21:  START TIME
 DMF .             Drill Floor:  DRILL MEAS FROM
 DFST.                        :  DIST FSL TEXT
 DFWT.                        :  DIST FWL TEXT
 CNTY.                        :  COUNTY
 LOC .                        :  LOCATION
 LMF .             Drill Floor:  LOG MEASURED FROM
 DEP .m                2806.40:  DEPTH
 AGAP.m                  43.60:  AIR GAP
 VSNS.m                  -4.42:  VERT SEC N/S
 VSEW.m                  -7.31:  VERT SEC E/W
 APD .m                  43.60:  DEPTH ABOVE PD
 WDMS.m                 151.80:  WD ELEV
 EGL .m                   0.00:  GROUND ELEVATION
 EPD .m                   0.00:  ELEVATION
 AZTC.deg                 6.18:  AZM TOTAL CORR
 GRDC.deg                 0.29:  GRID CORRECTION
 MDEC.deg                 6.47:  MAGNETIC DECL
 MDIP.deg                59.50:  MAGNETIC DIP
 MFLD.nT              50350.00:  MAGNETIC FIELD
 GVFD.g                   1.00:  GRAVITY FIELD
 VSDR.deg               179.08:  VERT SEC DIRECT
 TDD .m                4300.00:  TOTAL DEPTH (DRILLER)
 SDEP.m                2800.00:  START DEPTH
 DFSL.m                   0.00:  DISTANCE FSL
 DFWL.m                   0.00:  DISTANCE FWL
 UTMY.m             4431871.34:  UTM Y
 UTMX.m              538762.90:  UTM X
 WHEW.m                  -7.31:  WELL HEAD E/W
 WHNS.m                  -4.42:  WELL HEAD N/S
 LONG.deg                51.45:  LONGITUDE
 LATI.deg                40.02:  LATITUDE
 TVDS.m                  43.60:  TVDSS CORRECTN
 EKB .m                  43.60:  KB ELEVATION
 EDF .m                  43.60:  DF ELEVATION
 TDL .m                 806.00:  TOTAL DEPTH (LOGGER)
 MAGU.                 1851231:  MAGUTM CHECKSUM
 VSC .                       0:  VS TO CLOSURE
~Parameter Information Block
#MNEM.UNIT       Value        Description
#---------     -----------    ---------------------------
 AV  .mps                 1.60:  Ann Velocity 
 AVMX.mps                 2.00:  Max Ann Veloc 
 AZIF.deg               140.24:  Azm, Final 
 BHAT.        Rotary Steerable:  BHA Type 
 BROT.°/30m               0.50:  Build Rotating 
 BS  .in                  8.50:  Bit Size 
 BTPL.psig              619.00:  Bit Press Loss 
 CABU.                     Yes:  Customer Abuse 
 CGEO.          Ilgar Gurbanov:  Customer Geo 
 TCS .hr                 85.88:  Time Ciculation Ended 
 CV  .mps                 3.30:  Crit Velocity 
 CVMX.mps                 3.50:  Max Crit Veloc 
 DD1 .           Hamid Axmedov:  Direct Drillr 1 
 DD2 .           Teymur Aliyev:  Direct Drillr 2 
 DDSV.               Geo-Pilot:  DD Service 
 DEFF.%                 100.00:  % Det Eff 
 DLRX.°/30m               0.00:  Dogleg Rot Max 
 DLSO.°/30m               1.80:  Dogleg Oriented 
 DLSX.°/30m               3.34:  Dogleg Str Max 
 DRET.      11.50.00 27-May-21:  Drill End Time 
 DRST.      21.13.00 24-May-21:  Drill Start Tim 
 DTIM.hr                 45.11:  Time Drilling 
 EDEP.m                4054.00:  End Depth 
 ENG1.         Almaz Almadatov:  Engineer 1 
 ENG2.           Amrah Tahirov:  Engineer 2 
 ENG3.      Bakhtiyar Jabbarli:  Engineer 3 
 ENG4.          Nazrin Asgarli:  Engineer 4 
 ETIM.      10.00.00 30-May-21:  End Time 
 FLOI.gpm               530.00:  Flow In 
 FLON.gpm               400.00:  Flow In Min 
 FLOS.cptm                0.00:  Fluid Loss 
 FLOX.gpm               560.00:  Flow In Max 
 DFT .        Mineral Oil Base:  Mud Type 
 FTRO.       Formation Presure:  FTWD Run Obj 
 HFLO.                      No:  High Flow 
 HPRE.                      No:  High Pressure 
 HTEM.                      No:  High Temp 
 HYDO.m                   1.80:  Hydro Offset 
 IFIN.deg                73.83:  Inc, Final 
 IMAX.deg                73.83:  Inc Max 
 IMIN.deg                57.86:  Inc Min 
 IMND.m                3259.27:  Inc Min Depth 
 IMXD.m                4045.58:  Inc Max Depth 
 JARR.                     Yes:  Jarring 
 LETM.      11.50.00 27-May-21:  Log End Time 
 LOST.hr                     0:  Lost Rig Time 
 LSTM.      21.13.00 24-May-21:  Log Start Time 
 MDCL.ppm             42500.00:  Mud Chlorides 
 MDES.     Inversion Oil/Synthetic:  Mud Desc 
 DFD .sg                  1.52:  Mud Density 
 MDMN.sg                  1.52:  Dens Mud Min 
 MDMX.sg                  1.52:  Dens Mud Max 
 MOIL.                      70:  Run Mud Oil % 
 MOWR.                   70:30:  Run Mud OWR 
 MSND.                     0.2:  Run Mud Sand % 
 MSOL.                      22:  Run Mud Solids% 
 DFV .spqt               77.00:  Mud Viscosity 
 MWOD.in                  6.75:  MWD Tool OD 
 MWSI.                      No:  Serv Intrp, MWD 
 OTIM.hr                151.01:  Time Operating 
 PCON.          Wear / Scratch:  Pad Condition 
 PMAX.psia            11296.93:  Press Op, Max 
 PV  .cP                 37.00:  Mud PV 
 RUN .                     500:  Run Number 
 ROPA.m/hr               25.00:  ROP Avg 
 ROPN.m/hr                9.00:  ROP Min 
 ROPX.m/hr               28.00:  ROP Max 
 RPMA.rpm               140.00:  RPM Surface Avg 
 RPMN.rpm                90.00:  RPM Surface Min 
 RPMX.rpm               140.00:  RPM Surface Max 
 RRUN.                    0500:  Rig Run Number 
 SAZI.deg               172.17:  Azm, Start 
 SDEP.m                3248.00:  Start Depth 
 SIDD.                      No:  Serv Intrp, DD 
 SINC.deg                57.86:  Inc, Start 
 SPPA.psig             5620.00:  SPP Avg 
 SPPN.psig             5190.00:  SPP Min 
 SPPX.psig             6050.00:  SPP Max 
 STIM.      16.00.00 23-May-21:  Start Time 
 SVCS.                 DD, MWD:  Services 
 SVER.                    9.20:  Sperry Version 
 TDAT.m                 806.00:  Tot Depth Attmp 
 TDDF.                      No:  Trip for DD 
 TDLG.m                 806.00:  Tot Depth Loggd 
 TFF .                      No:  Trip for Fail 
 TQAA.f-kp               12.00:  Torque Abs Avg 
 TQAN.f-kp                8.00:  Torque Abs Min 
 TQAX.f-kp               15.00:  Torque Abs Max 
 TRRT.°/30m               0.30:  Turn Rotating 
 MRT .                  EWR-M5:  Maximum Recorded Temperature 
 TTMX.degC               93.00:  Max Tool Temp 
 VS01.                90649155:  Virtual Str1 SN 
 VS02.                90642264:  Virtual Str2 SN 
 VS03.                90642266:  Virtual Str3 SN 
 VS04.                90642261:  Virtual Str4 SN 
 WBMN.klb                 0.00:  WOB Min 
 WITN.             Anar Khalil:  Customer Rep 
 WITN.           Murad Guliyev:  Customer Rep 2 
 WOBA.klb                13.00:  WOB Avg 
 WOBX.klb                25.00:  WOB Max 
 YP  .lhf2               32.00:  Yield Point 
~Curve Information Block
#MNEM.UNIT                 API CODE     Curve Description
#---------               -----------    ---------------------------
 TIME.HHMMSS            00 000 000 000:  GT Time & Date
 GTDEPTH.m              00 000 000 000:  GT Depth
 GTPQH.psia             00 000 000 000:  GT HR Quartz Pressure
 GTTQ.degC              00 000 000 000:  GT Quartz Temperature
 GTTN.NONE              00 000 000 000:  GT Test Number
 GTET.sec               00 000 000 000:  GT Elapsed Test Time
 GTTVD.m                00 000 000 000:  GT True Vertical Depth
#Other Information
#
#WARRANTY: Halliburton will use its best efforts to furnish customers with 
#accurate information and interpretations that are part of, and incident to, the services 
#provided.  However, Halliburton cannot and does not warrant the accuracy 
#or correctness of such information and interpretations.  Under no circumstances should any 
#such information or interpretation be relied upon as the sole basis for any drilling, 
#completion, production, or financial decision or any procedure involving any risk to the 
#safety of any drilling venture, drilling rig or its crew or any other third party.  The 
#Customer has full responsibility for all drilling, completion and production operation.  
#Halliburton makes no representations or warranties, either expressed or 
#implied, including, but not limited to, the implied warranties of merchantability or fitness 
#for a particular purpose, with respect to the services rendered.  In no event will 
#Halliburton be liable for failure to obtain any particular results or for 
#any damages, including, but not limited to, indirect, special or consequential damages, 
#resulting from the use of any information or interpretation provided by Halliburton.
#
~A           TIME           GTDEPTH  GTPQH  GTTQ  GTTN   GTET   GTTVD  
# ...
   08:09:10.600.28-May-2021 3306.50 3714.08 82.16 14.00 248.60 2504.31
   08:09:10.800.28-May-2021 3306.50 3714.15 82.16 14.00 248.80 2504.31
   08:09:11.000.28-May-2021 3306.50 3714.14 82.16 14.00 249.00 2504.31
   08:09:11.200.28-May-2021 3306.50 3714.14 82.16 14.00 249.20 2504.31
   08:09:11.400.28-May-2021 3306.50 3714.24 82.16 14.00 249.40 2504.31
   08:09:11.600.28-May-2021 3306.50 3714.24 82.16 14.00 249.60 2504.31
   08:09:11.800.28-May-2021 3306.50 3714.31 82.16 14.00 249.80 2504.31
   08:09:12.000.28-May-2021 3306.50 3714.34 82.16 14.00 250.00 2504.31
   08:09:12.200.28-May-2021 3306.50 3714.34 82.16 14.00 250.20 2504.31
   08:09:12.400.28-May-2021 3306.50 3713.65 82.16 14.00 250.40 2504.31
   08:09:12.600.28-May-2021 3306.50 3714.40 82.16 14.00 250.60 2504.31
   08:09:12.800.28-May-2021 3306.50 3714.33 82.16 14.00 250.80 2504.31
   08:09:13.000.28-May-2021 3306.50 3714.54 82.16 14.00 251.00 2504.31
   08:09:13.200.28-May-2021 3306.50 3714.54 82.16 14.00 251.20 2504.31
   08:09:13.400.28-May-2021 3306.50 3714.53 82.16 14.00 251.40 2504.31
   08:09:13.600.28-May-2021 3306.50 3714.59 82.16 14.00 251.60 2504.31
   08:09:13.800.28-May-2021 3306.50 3714.63 82.16 14.00 251.80 2504.31
   08:09:14.000.28-May-2021 3306.50 3714.63 82.16 14.00 252.00 2504.31
   08:09:14.200.28-May-2021 3306.50 3714.63 82.16 14.00 252.20 2504.31
   08:09:14.400.28-May-2021 3306.50 3714.73 82.16 14.00 252.40 2504.31
   08:09:14.600.28-May-2021 3306.50 3714.73 82.16 14.00 252.60 2504.31
   08:09:14.800.28-May-2021 3306.50 3714.29 82.16 14.00 252.80 2504.31
   08:09:15.000.28-May-2021 3306.50 3714.04 82.16 14.00 253.00 2504.31
   08:09:15.200.28-May-2021 3306.50 3714.04 82.16 14.00 253.20 2504.31
   08:09:15.400.28-May-2021 3306.50 3714.82 82.16 14.00 253.40 2504.31
   08:09:15.600.28-May-2021 3306.50 3714.93 82.16 14.00 253.60 2504.31
   08:09:15.800.28-May-2021 3306.50 3713.49 82.16 14.00 253.80 2504.31
   08:09:16.000.28-May-2021 3306.50 3715.08 82.16 14.00 254.00 2504.31
   08:09:16.200.28-May-2021 3306.50 3715.08 82.16 14.00 254.20 2504.31
   08:09:16.400.28-May-2021 3306.50 3715.08 82.16 14.00 254.40 2504.31
   08:09:16.600.28-May-2021 3306.50 3714.73 82.16 14.00 254.60 2504.31
   08:09:16.800.28-May-2021 3306.50 3714.98 82.16 14.00 254.80 2504.31
   08:09:17.000.28-May-2021 3306.50 3715.03 82.16 14.00 255.00 2504.31
   08:09:17.200.28-May-2021 3306.50 3715.03 82.16 14.00 255.20 2504.31
   08:09:17.400.28-May-2021 3306.50 3714.63 82.16 14.00 255.40 2504.31
   08:09:17.600.28-May-2021 3306.50 3714.40 82.16 14.00 255.60 2504.31
   08:09:17.800.28-May-2021 3306.50 3715.21 82.16 14.00 255.80 2504.31
   08:09:18.000.28-May-2021 3306.50 3715.16 82.16 14.00 256.00 2504.31
   08:09:18.200.28-May-2021 3306.50 3715.16 82.16 14.00 256.20 2504.31
   08:09:18.400.28-May-2021 3306.50 3715.31 82.16 14.00 256.40 2504.31
   08:09:18.600.28-May-2021 3306.50 3715.35 82.16 14.00 256.60 2504.31
   08:09:18.800.28-May-2021 3306.50 3715.38 82.16 14.00 256.80 2504.31
   08:09:19.000.28-May-2021 3306.50 3715.44 82.16 14.00 257.00 2504.31
   08:09:19.200.28-May-2021 3306.50 3715.44 82.16 14.00 257.20 2504.31
   08:09:19.400.28-May-2021 3306.50 3715.48 82.16 14.00 257.40 2504.31
   08:09:19.600.28-May-2021 3306.50 3715.53 82.16 14.00 257.60 2504.31
   08:09:19.800.28-May-2021 3306.50 3715.53 82.16 14.00 257.80 2504.31
   08:09:20.000.28-May-2021 3306.50 3715.58 82.16 14.00 258.00 2504.31
   08:09:20.200.28-May-2021 3306.50 3715.58 82.16 14.00 258.20 2504.31
   08:09:20.400.28-May-2021 3306.50 3715.58 82.16 14.00 258.40 2504.31
   08:09:20.600.28-May-2021 3306.50 3715.64 82.16 14.00 258.60 2504.31
   08:09:20.800.28-May-2021 3306.50 3715.77 82.16 14.00 258.80 2504.31
   08:09:21.000.28-May-2021 3306.50 3715.73 82.16 14.00 259.00 2504.31
   08:09:21.200.28-May-2021 3306.50 3715.73 82.16 14.00 259.20 2504.31
   08:09:21.400.28-May-2021 3306.50 3715.85 82.16 14.00 259.40 2504.31
   08:09:21.600.28-May-2021 3306.50 3715.84 82.16 14.00 259.60 2504.31
   08:09:21.800.28-May-2021 3306.50 3715.90 82.16 14.00 259.80 2504.31
   08:09:22.000.28-May-2021 3306.50 3715.92 82.16 14.00 260.00 2504.31
   08:09:22.200.28-May-2021 3306.50 3715.92 82.16 14.00 260.20 2504.31
   08:09:22.400.28-May-2021 3306.50 3715.97 82.16 14.00 260.40 2504.31
   08:09:22.600.28-May-2021 3306.50 3598.88 82.16 14.00 260.60 2504.31
   08:09:22.800.28-May-2021 3306.50 3031.01 82.16 14.00 260.80 2504.31
   08:09:23.000.28-May-2021 3306.50 2701.29 82.16 14.00 261.00 2504.31
   08:09:23.200.28-May-2021 3306.50 2701.29 82.16 14.00 261.20 2504.31
   08:09:23.400.28-May-2021 3306.50 2934.56 82.16 14.00 261.40 2504.31
   08:09:23.600.28-May-2021 3306.50 2340.68 82.16 14.00 261.60 2504.31
   08:09:23.800.28-May-2021 3306.50 2904.39 82.16 14.00 261.80 2504.31
   08:09:24.000.28-May-2021 3306.50 3772.53 82.16 14.00 262.00 2504.31
   08:09:24.200.28-May-2021 3306.50 3772.53 82.16 14.00 262.20 2504.31
   08:09:24.400.28-May-2021 3306.50 4202.90 82.16 14.00 262.40 2504.31
   08:09:24.600.28-May-2021 3306.50 3603.58 82.16 14.00 262.60 2504.31
   08:09:24.800.28-May-2021 3306.50 3282.69 82.16 14.00 262.80 2504.31
   08:09:25.000.28-May-2021 3306.50 3645.27 82.16 14.00 263.00 2504.31
   08:09:25.200.28-May-2021 3306.50 3645.27 82.16 14.00 263.20 2504.31
   08:09:25.400.28-May-2021 3306.50 3498.03 82.16 14.00 263.40 2504.31
   08:09:25.600.28-May-2021 3306.50 2891.61 82.16 14.00 263.60 2504.31
   08:09:25.800.28-May-2021 3306.50 2312.81 82.16 14.00 263.80 2504.31
   08:09:26.000.28-May-2021 3306.50 3210.36 82.16 14.00 264.00 2504.31
   08:09:26.200.28-May-2021 3306.50 3210.36 82.16 14.00 264.20 2504.31
   08:09:26.400.28-May-2021 3306.50 2907.93 82.16 14.00 264.40 2504.31
   08:09:26.600.28-May-2021 3306.50 3665.61 82.16 14.00 264.60 2504.31
   08:09:26.800.28-May-2021 3306.50 3232.07 82.16 14.00 264.80 2504.31
   08:09:27.000.28-May-2021 3306.50 2659.54 82.16 14.00 265.00 2504.31
   08:09:27.200.28-May-2021 3306.50 2659.54 82.16 14.00 265.20 2504.31
   08:09:27.400.28-May-2021 3306.50 2333.37 82.16 14.00 265.40 2504.31
   08:09:27.600.28-May-2021 3306.50 3135.97 82.16 14.00 265.60 2504.31
   08:09:27.800.28-May-2021 3306.50 2526.47 82.16 14.00 265.80 2504.31
   08:09:28.000.28-May-2021 3306.50 1979.04 82.16 14.00 266.00 2504.31
   08:09:28.200.28-May-2021 3306.50 1979.04 82.16 14.00 266.20 2504.31
   08:09:28.400.28-May-2021 3306.50 2452.25 82.16 14.00 266.40 2504.31
   08:09:28.600.28-May-2021 3306.50 3115.92 82.16 14.00 266.60 2504.31
   08:09:28.800.28-May-2021 3306.50 2662.75 82.16 14.00 266.80 2504.31
   08:09:29.000.28-May-2021 3306.50 2128.83 82.16 14.00 267.00 2504.31
   08:09:29.200.28-May-2021 3306.50 2128.83 82.16 14.00 267.20 2504.31
   08:09:29.400.28-May-2021 3306.50 2828.03 82.15 14.00 267.40 2504.31
   08:09:29.600.28-May-2021 3306.50 3043.67 82.15 14.00 267.60 2504.31
   08:09:29.800.28-May-2021 3306.50 3820.01 82.15 14.00 267.80 2504.31
   08:09:30.000.28-May-2021 3306.50 3533.25 82.15 14.00 268.00 2504.31
   08:09:30.200.28-May-2021 3306.50 3533.25 82.15 14.00 268.20 2504.31
   08:09:30.400.28-May-2021 3306.50 2450.02 82.15 14.00 268.40 2504.31
   08:09:30.600.28-May-2021 3306.50 2427.31 82.15 14.00 268.60 2504.31
   08:09:30.800.28-May-2021 3306.50 2994.01 82.15 14.00 268.80 2504.31
   08:09:31.000.28-May-2021 3306.50 2470.50 82.15 14.00 269.00 2504.31
   08:09:31.200.28-May-2021 3306.50 2470.50 82.15 14.00 269.20 2504.31
   08:09:31.400.28-May-2021 3306.50 2094.29 82.15 14.00 269.40 2504.31
   08:09:31.600.28-May-2021 3306.50 2764.94 82.15 14.00 269.60 2504.31
   08:09:31.800.28-May-2021 3306.50 2197.81 82.15 14.00 269.80 2504.31
   08:09:32.000.28-May-2021 3306.50 1687.93 82.15 14.00 270.00 2504.31
   08:09:32.200.28-May-2021 3306.50 1687.93 82.15 14.00 270.20 2504.31
   08:09:32.400.28-May-2021 3306.50 3521.07 82.15 14.00 270.40 2504.31
   08:09:32.600.28-May-2021 3306.50 3040.54 82.15 14.00 270.60 2504.31
   08:09:32.800.28-May-2021 3306.50 2950.55 82.15 14.00 270.80 2504.31
   08:09:33.000.28-May-2021 3306.50 2950.33 82.15 14.00 271.00 2504.31
