~Version Information
 VERS.                  2.0:   CWLS log ASCII Standard -VERSION 2.0
 WRAP.                   NO:   One line per depth step
~Well Information Block
#MNEM.UNIT     VALUE/NAME     DESCRIPTION
#---------     -----------    ---------------------------
 STRT.S             22:21:57 27-May-21: START TIME 22:21:57 27-May-21
 STOP.S             22:28:58 27-May-21: STOP TIME  22:28:58 27-May-21
 STEP.S                   0.00: STEP TIME
 NULL.                 -999.25: NULL VALUE
 UWI .                     N/A:  UNIQUE WELL IDENTIFIER
 API .                     N/A:  API NUMBER
 UNIT.                     N/A:  LOGGING EQUIPMENT ID
 DCON.         Sperry Drilling:  DIRECTNL CONTR
 DOE .                     N/A:  DOE NUMBER
 MWDS.                    Baku:  MWD SHOP
 SRVC.     Turan Drilling and Engineering:  CONTRACTOR
 CTRY.              Azerbaijan:  COUNTRY NAME
 PROV.                    Baku:  PROVINCE
 STAT.                    Baku:  STATE NAME
 REGN.                   EESSA:  REGION
 BASE.              Azerbaijan:  LOGGING EQUIPMENT BASE LOCATION
 WTYP.                Deviated:  WELL TYPE
 RIG .              East Azeri:  RIG NAME
 WELL.                    D02y:  WELL NAME
 FLD .                     ACG:  FIELD NAME
 COMP.     BP Exploration (Caspian Sea) Ltd.:  COMPANY
 PDAT.          Mean Sea Level:  PERMANENT DATUM
 MDS .        Operator Entered:  MAG DATA SOURCE
 SON .        AZ-XX-0906997291:  JOB NUMBER
 FTOP.          Formation Tops:  FORM TOPS DESC
 ILTD.               Lithology:  INTERP LTH DESC
 SVYD.                  Survey:  SURVEY DESC
 DMOD.             Drill Model:  DRILL MOD DESC
 HPTY.       Minimum Curvature:  HOLE POS TYPE
 NREF.                    Grid:  NORTH REFERENCE
 SPUD.               05-May-21:  SPUD DATE
 DATE.      09.27.28 12-Jun-21:  END TIME
 STIM.      09.27.28 12-May-21:  START TIME
 DMF .             Drill Floor:  DRILL MEAS FROM
 DFST.                        :  DIST FSL TEXT
 DFWT.                        :  DIST FWL TEXT
 CNTY.                        :  COUNTY
 LOC .                        :  LOCATION
 LMF .             Drill Floor:  LOG MEASURED FROM
 DEP .m                2806.40:  DEPTH
 AGAP.m                  43.60:  AIR GAP
 VSNS.m                  -4.42:  VERT SEC N/S
 VSEW.m                  -7.31:  VERT SEC E/W
 APD .m                  43.60:  DEPTH ABOVE PD
 WDMS.m                 151.80:  WD ELEV
 EGL .m                   0.00:  GROUND ELEVATION
 EPD .m                   0.00:  ELEVATION
 AZTC.deg                 6.18:  AZM TOTAL CORR
 GRDC.deg                 0.29:  GRID CORRECTION
 MDEC.deg                 6.47:  MAGNETIC DECL
 MDIP.deg                59.50:  MAGNETIC DIP
 MFLD.nT              50350.00:  MAGNETIC FIELD
 GVFD.g                   1.00:  GRAVITY FIELD
 VSDR.deg               179.08:  VERT SEC DIRECT
 TDD .m                4300.00:  TOTAL DEPTH (DRILLER)
 SDEP.m                2800.00:  START DEPTH
 DFSL.m                   0.00:  DISTANCE FSL
 DFWL.m                   0.00:  DISTANCE FWL
 UTMY.m             4431871.34:  UTM Y
 UTMX.m              538762.90:  UTM X
 WHEW.m                  -7.31:  WELL HEAD E/W
 WHNS.m                  -4.42:  WELL HEAD N/S
 LONG.deg                51.45:  LONGITUDE
 LATI.deg                40.02:  LATITUDE
 TVDS.m                  43.60:  TVDSS CORRECTN
 EKB .m                  43.60:  KB ELEVATION
 EDF .m                  43.60:  DF ELEVATION
 TDL .m                 806.00:  TOTAL DEPTH (LOGGER)
 MAGU.                 1851231:  MAGUTM CHECKSUM
 VSC .                       0:  VS TO CLOSURE
~Parameter Information Block
#MNEM.UNIT       Value        Description
#---------     -----------    ---------------------------
 AV  .mps                 1.60:  Ann Velocity 
 AVMX.mps                 2.00:  Max Ann Veloc 
 AZIF.deg               140.24:  Azm, Final 
 BHAT.        Rotary Steerable:  BHA Type 
 BROT.°/30m               0.50:  Build Rotating 
 BS  .in                  8.50:  Bit Size 
 BTPL.psig              619.00:  Bit Press Loss 
 CABU.                     Yes:  Customer Abuse 
 CGEO.          Ilgar Gurbanov:  Customer Geo 
 COMM.                     ¼ƒj:  Run Comments 1 
 TCS .hr                 85.88:  Time Ciculation Ended 
 CV  .mps                 3.30:  Crit Velocity 
 CVMX.mps                 3.50:  Max Crit Veloc 
 DD1 .           Hamid Axmedov:  Direct Drillr 1 
 DD2 .           Teymur Aliyev:  Direct Drillr 2 
 DDSV.               Geo-Pilot:  DD Service 
 DEFF.%                 100.00:  % Det Eff 
 DLRX.°/30m               0.00:  Dogleg Rot Max 
 DLSO.°/30m               1.80:  Dogleg Oriented 
 DLSX.°/30m               3.34:  Dogleg Str Max 
 DRET.      11.50.00 27-May-21:  Drill End Time 
 DRST.      21.13.00 24-May-21:  Drill Start Tim 
 DTIM.hr                 45.11:  Time Drilling 
 EDEP.m                4054.00:  End Depth 
 ENG1.         Almaz Almadatov:  Engineer 1 
 ENG2.           Amrah Tahirov:  Engineer 2 
 ENG3.      Bakhtiyar Jabbarli:  Engineer 3 
 ENG4.          Nazrin Asgarli:  Engineer 4 
 ETIM.      10.00.00 30-May-21:  End Time 
 FLOI.gpm               530.00:  Flow In 
 FLON.gpm               400.00:  Flow In Min 
 FLOS.cptm                0.00:  Fluid Loss 
 FLOX.gpm               560.00:  Flow In Max 
 DFT .        Mineral Oil Base:  Mud Type 
 FTRO.       Formation Presure:  FTWD Run Obj 
 HFLO.                      No:  High Flow 
 HPRE.                      No:  High Pressure 
 HTEM.                      No:  High Temp 
 HYDO.m                   1.80:  Hydro Offset 
 IFIN.deg                73.83:  Inc, Final 
 IMAX.deg                73.83:  Inc Max 
 IMIN.deg                57.86:  Inc Min 
 IMND.m                3259.27:  Inc Min Depth 
 IMXD.m                4045.58:  Inc Max Depth 
 JARR.                     Yes:  Jarring 
 LETM.      11.50.00 27-May-21:  Log End Time 
 LOST.hr                     0:  Lost Rig Time 
 LSTM.      21.13.00 24-May-21:  Log Start Time 
 MDCL.ppm             42500.00:  Mud Chlorides 
 MDES.     Inversion Oil/Synthetic:  Mud Desc 
 DFD .sg                  1.52:  Mud Density 
 MDMN.sg                  1.52:  Dens Mud Min 
 MDMX.sg                  1.52:  Dens Mud Max 
 MOIL.                      70:  Run Mud Oil % 
 MOWR.                   70:30:  Run Mud OWR 
 MSND.                     0.2:  Run Mud Sand % 
 MSOL.                      22:  Run Mud Solids% 
 DFV .spqt               77.00:  Mud Viscosity 
 MWOD.in                  6.75:  MWD Tool OD 
 MWSI.                      No:  Serv Intrp, MWD 
 OTIM.hr                151.01:  Time Operating 
 PCON.          Wear / Scratch:  Pad Condition 
 PMAX.psia            11296.93:  Press Op, Max 
 PV  .cP                 37.00:  Mud PV 
 RUN .                     500:  Run Number 
 ROPA.m/hr               25.00:  ROP Avg 
 ROPN.m/hr                9.00:  ROP Min 
 ROPX.m/hr               28.00:  ROP Max 
 RPMA.rpm               140.00:  RPM Surface Avg 
 RPMN.rpm                90.00:  RPM Surface Min 
 RPMX.rpm               140.00:  RPM Surface Max 
 RRUN.                    0500:  Rig Run Number 
 SAZI.deg               172.17:  Azm, Start 
 SDEP.m                3248.00:  Start Depth 
 SIDD.                      No:  Serv Intrp, DD 
 SINC.deg                57.86:  Inc, Start 
 SPPA.psig             5620.00:  SPP Avg 
 SPPN.psig             5190.00:  SPP Min 
 SPPX.psig             6050.00:  SPP Max 
 STIM.      16.00.00 23-May-21:  Start Time 
 SVCS.                 DD, MWD:  Services 
 SVER.                    9.20:  Sperry Version 
 TDAT.m                 806.00:  Tot Depth Attmp 
 TDDF.                      No:  Trip for DD 
 TDLG.m                 806.00:  Tot Depth Loggd 
 TFF .                      No:  Trip for Fail 
 TQAA.f-kp               12.00:  Torque Abs Avg 
 TQAN.f-kp                8.00:  Torque Abs Min 
 TQAX.f-kp               15.00:  Torque Abs Max 
 TRRT.°/30m               0.30:  Turn Rotating 
 MRT .                  EWR-M5:  Maximum Recorded Temperature 
 TTMX.degC               93.00:  Max Tool Temp 
 VS01.                90649155:  Virtual Str1 SN 
 VS02.                90642264:  Virtual Str2 SN 
 VS03.                90642266:  Virtual Str3 SN 
 VS04.                90642261:  Virtual Str4 SN 
 WBMN.klb                 0.00:  WOB Min 
 WITN.             Anar Khalil:  Customer Rep 
 WITN.           Murad Guliyev:  Customer Rep 2 
 WOBA.klb                13.00:  WOB Avg 
 WOBX.klb                25.00:  WOB Max 
 YP  .lhf2               32.00:  Yield Point 
~Curve Information Block
#MNEM.UNIT                 API CODE     Curve Description
#---------               -----------    ---------------------------
 TIME.HHMMSS            00 000 000 000:  GT Time & Date
 GTDEPTH.m              00 000 000 000:  GT Depth
 GTPQH.psia             00 000 000 000:  GT HR Quartz Pressure
 GTTQ.degC              00 000 000 000:  GT Quartz Temperature
 GTTN.NONE              00 000 000 000:  GT Test Number
 GTET.sec               00 000 000 000:  GT Elapsed Test Time
 GTTVD.m                00 000 000 000:  GT True Vertical Depth
#Other Information
#
#WARRANTY: Halliburton will use its best efforts to furnish customers with 
#accurate information and interpretations that are part of, and incident to, the services 
#provided.  However, Halliburton cannot and does not warrant the accuracy 
#or correctness of such information and interpretations.  Under no circumstances should any 
#such information or interpretation be relied upon as the sole basis for any drilling, 
#completion, production, or financial decision or any procedure involving any risk to the 
#safety of any drilling venture, drilling rig or its crew or any other third party.  The 
#Customer has full responsibility for all drilling, completion and production operation.  
#Halliburton makes no representations or warranties, either expressed or 
#implied, including, but not limited to, the implied warranties of merchantability or fitness 
#for a particular purpose, with respect to the services rendered.  In no event will 
#Halliburton be liable for failure to obtain any particular results or for 
#any damages, including, but not limited to, indirect, special or consequential damages, 
#resulting from the use of any information or interpretation provided by Halliburton.
#
~A           TIME           GTDEPTH  GTPQH  GTTQ  GTTN  GTET   GTTVD  
# ...
   22:22:20.708.27-May-2021 3723.00 6232.86 84.39 1.00  23.00 2680.40
   22:22:20.908.27-May-2021 3723.00 6232.86 84.39 1.00  23.20 2680.40
   22:22:21.108.27-May-2021 3723.00 6227.79 84.39 1.00  23.40 2680.40
   22:22:21.308.27-May-2021 3723.00 6227.55 84.39 1.00  23.60 2680.40
   22:22:21.508.27-May-2021 3723.00 6232.10 84.39 1.00  23.80 2680.40
   22:22:21.709.27-May-2021 3723.00 6227.66 84.39 1.00  24.00 2680.40
   22:22:21.909.27-May-2021 3723.00 6227.66 84.39 1.00  24.20 2680.40
   22:22:22.109.27-May-2021 3723.00 6228.08 84.38 1.00  24.40 2680.40
   22:22:22.309.27-May-2021 3723.00 6227.60 84.38 1.00  24.60 2680.40
   22:22:22.509.27-May-2021 3723.00 6231.46 84.38 1.00  24.80 2680.40
   22:22:22.709.27-May-2021 3723.00 6227.89 84.38 1.00  25.00 2680.40
   22:22:22.909.27-May-2021 3723.00 6227.89 84.38 1.00  25.20 2680.40
   22:22:23.109.27-May-2021 3723.00 6231.69 84.38 1.00  25.40 2680.40
   22:22:23.309.27-May-2021 3723.00 6229.37 84.38 1.00  25.60 2680.40
   22:22:23.509.27-May-2021 3723.00 6228.74 84.38 1.00  25.80 2680.40
   22:22:23.709.27-May-2021 3723.00 6229.03 84.38 1.00  26.00 2680.40
   22:22:23.909.27-May-2021 3723.00 6229.03 84.38 1.00  26.20 2680.40
   22:22:24.109.27-May-2021 3723.00 6228.64 84.38 1.00  26.40 2680.40
   22:22:24.309.27-May-2021 3723.00 6228.80 84.38 1.00  26.60 2680.40
   22:22:24.509.27-May-2021 3723.00 6229.12 84.38 1.00  26.80 2680.40
   22:22:24.709.27-May-2021 3723.00 6229.14 84.38 1.00  27.00 2680.40
   22:22:24.909.27-May-2021 3723.00 6229.14 84.38 1.00  27.20 2680.40
   22:22:25.109.27-May-2021 3723.00 6229.50 84.38 1.00  27.40 2680.40
   22:22:25.309.27-May-2021 3723.00 6230.09 84.38 1.00  27.60 2680.40
   22:22:25.509.27-May-2021 3723.00 6230.18 84.38 1.00  27.80 2680.40
   22:22:25.709.27-May-2021 3723.00 6233.25 84.38 1.00  28.00 2680.40
   22:22:25.909.27-May-2021 3723.00 6233.25 84.38 1.00  28.20 2680.40
   22:22:26.109.27-May-2021 3723.00 6230.34 84.38 1.00  28.40 2680.40
   22:22:26.309.27-May-2021 3723.00 6230.18 84.38 1.00  28.60 2680.40
   22:22:26.509.27-May-2021 3723.00 6230.27 84.38 1.00  28.80 2680.40
   22:22:26.709.27-May-2021 3723.00 6229.79 84.38 1.00  29.00 2680.40
   22:22:26.909.27-May-2021 3723.00 6229.79 84.38 1.00  29.20 2680.40
   22:22:27.109.27-May-2021 3723.00 6230.00 84.38 1.00  29.40 2680.40
   22:22:27.309.27-May-2021 3723.00 6229.95 84.38 1.00  29.60 2680.40
   22:22:27.509.27-May-2021 3723.00 6230.27 84.38 1.00  29.80 2680.40
   22:22:27.709.27-May-2021 3723.00 6230.57 84.38 1.00  30.00 2680.40
   22:22:27.910.27-May-2021 3723.00 6230.57 84.38 1.00  30.20 2680.40
   22:22:28.110.27-May-2021 3723.00 6231.18 84.38 1.00  30.40 2680.40
   22:22:28.310.27-May-2021 3723.00 6231.43 84.38 1.00  30.60 2680.40
   22:22:28.510.27-May-2021 3723.00 6236.76 84.38 1.00  30.81 2680.40
   22:22:28.710.27-May-2021 3723.00 6230.37 84.38 1.00  31.01 2680.40
   22:22:28.910.27-May-2021 3723.00 6230.37 84.38 1.00  31.21 2680.40
   22:22:29.110.27-May-2021 3723.00 6238.20 84.38 1.00  31.41 2680.40
   22:22:29.310.27-May-2021 3723.00 6228.75 84.38 1.00  31.61 2680.40
   22:22:29.510.27-May-2021 3723.00 6231.48 84.38 1.00  31.81 2680.40
   22:22:29.710.27-May-2021 3723.00 6230.99 84.38 1.00  32.01 2680.40
   22:22:29.910.27-May-2021 3723.00 6230.99 84.38 1.00  32.21 2680.40
   22:22:30.110.27-May-2021 3723.00 6234.12 84.38 1.00  32.41 2680.40
   22:22:30.310.27-May-2021 3723.00 6231.97 84.38 1.00  32.61 2680.40
   22:22:30.510.27-May-2021 3723.00 6231.87 84.38 1.00  32.81 2680.40
   22:22:30.710.27-May-2021 3723.00 6232.10 84.38 1.00  33.01 2680.40
   22:22:30.910.27-May-2021 3723.00 6232.10 84.38 1.00  33.21 2680.40
   22:22:31.110.27-May-2021 3723.00 6230.50 84.38 1.00  33.41 2680.40
   22:22:31.310.27-May-2021 3723.00 6232.95 84.38 1.00  33.61 2680.40
   22:22:31.510.27-May-2021 3723.00 6232.78 84.38 1.00  33.81 2680.40
   22:22:31.710.27-May-2021 3723.00 6233.10 84.38 1.00  34.01 2680.40
   22:22:31.910.27-May-2021 3723.00 6233.10 84.38 1.00  34.21 2680.40
   22:22:32.110.27-May-2021 3723.00 6232.22 84.38 1.00  34.41 2680.40
   22:22:32.310.27-May-2021 3723.00 6232.99 84.38 1.00  34.61 2680.40
   22:22:32.510.27-May-2021 3723.00 6232.63 84.38 1.00  34.81 2680.40
   22:22:32.710.27-May-2021 3723.00 6233.14 84.38 1.00  35.01 2680.40
   22:22:32.910.27-May-2021 3723.00 6233.14 84.38 1.00  35.21 2680.40
   22:22:33.110.27-May-2021 3723.00 6233.81 84.38 1.00  35.41 2680.40
   22:22:33.310.27-May-2021 3723.00 6233.77 84.38 1.00  35.61 2680.40
   22:22:33.510.27-May-2021 3723.00 6233.94 84.38 1.00  35.81 2680.40
   22:22:33.710.27-May-2021 3723.00 6237.05 84.38 1.00  36.01 2680.40
   22:22:33.910.27-May-2021 3723.00 6237.05 84.38 1.00  36.21 2680.40
   22:22:34.111.27-May-2021 3723.00 6234.22 84.38 1.00  36.41 2680.40
   22:22:34.311.27-May-2021 3723.00 6233.98 84.38 1.00  36.61 2680.40
   22:22:34.511.27-May-2021 3723.00 6234.20 84.38 1.00  36.81 2680.40
   22:22:34.711.27-May-2021 3723.00 6233.74 84.38 1.00  37.01 2680.40
   22:22:34.911.27-May-2021 3723.00 6233.74 84.38 1.00  37.21 2680.40
   22:22:35.111.27-May-2021 3723.00 6233.97 84.38 1.00  37.41 2680.40
   22:22:35.311.27-May-2021 3723.00 6230.71 84.38 1.00  37.61 2680.40
   22:22:35.511.27-May-2021 3723.00 6205.82 84.38 1.00  37.81 2680.40
   22:22:35.711.27-May-2021 3723.00 6222.08 84.38 1.00  38.01 2680.40
   22:22:35.911.27-May-2021 3723.00 6222.08 84.38 1.00  38.21 2680.40
   22:22:36.111.27-May-2021 3723.00 6235.91 84.37 1.00  38.41 2680.40
   22:22:36.311.27-May-2021 3723.00 6236.23 84.37 1.00  38.61 2680.40
   22:22:36.511.27-May-2021 3723.00 6241.53 84.37 1.00  38.81 2680.40
   22:22:36.711.27-May-2021 3723.00 6238.02 84.37 1.00  39.01 2680.40
   22:22:36.911.27-May-2021 3723.00 6238.02 84.37 1.00  39.21 2680.40
   22:22:37.111.27-May-2021 3723.00 6270.08 84.37 1.00  39.41 2680.40
   22:22:37.311.27-May-2021 3723.00 6281.74 84.37 1.00  39.61 2680.40
   22:22:37.511.27-May-2021 3723.00 6292.76 84.37 1.00  39.81 2680.40
   22:22:37.711.27-May-2021 3723.00 6287.91 84.37 1.00  40.01 2680.40
   22:22:37.911.27-May-2021 3723.00 6287.91 84.37 1.00  40.21 2680.40
   22:22:38.111.27-May-2021 3723.00 6287.45 84.37 1.00  40.41 2680.40
   22:22:38.311.27-May-2021 3723.00 6283.33 84.37 1.00  40.61 2680.40
   22:22:38.511.27-May-2021 3723.00 6281.69 84.37 1.00  40.81 2680.40
   22:22:38.711.27-May-2021 3723.00 6273.81 84.37 1.00  41.01 2680.40
   22:22:38.911.27-May-2021 3723.00 6273.81 84.37 1.00  41.21 2680.40
   22:22:39.111.27-May-2021 3723.00 6263.26 84.37 1.00  41.41 2680.40
   22:22:39.311.27-May-2021 3723.00 6260.62 84.37 1.00  41.61 2680.40
   22:22:39.511.27-May-2021 3723.00 6254.21 84.37 1.00  41.81 2680.40
   22:22:39.711.27-May-2021 3723.00 6249.14 84.37 1.00  42.01 2680.40
   22:22:39.911.27-May-2021 3723.00 6249.14 84.37 1.00  42.21 2680.40
   22:22:40.111.27-May-2021 3723.00 6239.68 84.37 1.00  42.41 2680.40
   22:22:40.312.27-May-2021 3723.00 6230.74 84.37 1.00  42.61 2680.40
   22:22:40.512.27-May-2021 3723.00 6233.02 84.37 1.00  42.81 2680.40
   22:22:40.712.27-May-2021 3723.00 6231.62 84.37 1.00  43.01 2680.40
   22:22:40.912.27-May-2021 3723.00 6231.62 84.37 1.00  43.21 2680.40
   22:22:41.112.27-May-2021 3723.00 6222.94 84.37 1.00  43.41 2680.40
   22:22:41.312.27-May-2021 3723.00 6039.30 84.37 1.00  43.61 2680.40
   22:22:41.512.27-May-2021 3723.00 5817.36 84.37 1.00  43.81 2680.40
   22:22:41.712.27-May-2021 3723.00 5446.00 84.37 1.00  44.01 2680.40
   22:22:41.912.27-May-2021 3723.00 5446.00 84.37 1.00  44.21 2680.40
   22:22:42.112.27-May-2021 3723.00 4382.60 84.37 1.00  44.41 2680.40
   22:22:42.312.27-May-2021 3723.00 4019.22 84.37 1.00  44.61 2680.40
   22:22:42.512.27-May-2021 3723.00 3430.04 84.37 1.00  44.81 2680.40
   22:22:42.712.27-May-2021 3723.00 3098.69 84.37 1.00  45.01 2680.40
   22:22:42.912.27-May-2021 3723.00 3098.69 84.37 1.00  45.21 2680.40
   22:22:43.112.27-May-2021 3723.00 3068.37 84.37 1.00  45.41 2680.40
   22:22:43.312.27-May-2021 3723.00 3065.83 84.36 1.00  45.61 2680.40
   22:22:43.512.27-May-2021 3723.00 3059.17 84.36 1.00  45.81 2680.40
