~Version Information
 VERS.                  2.0:   CWLS log ASCII Standard -VERSION 2.0
 WRAP.                   NO:   One line per depth step
~Well Information Block
#MNEM.UNIT     VALUE/NAME     DESCRIPTION
#---------     -----------    ---------------------------
 STRT.S             22:21:57 27-May-21: START TIME 22:21:57 27-May-21
 STOP.S             22:28:58 27-May-21: STOP TIME  22:28:58 27-May-21
 STEP.S                   0.00: STEP TIME
 NULL.                 -999.25: NULL VALUE
 UWI .                     N/A:  UNIQUE WELL IDENTIFIER
 API .                     N/A:  API NUMBER
 UNIT.                     N/A:  LOGGING EQUIPMENT ID
 DCON.         Sperry Drilling:  DIRECTNL CONTR
 DOE .                     N/A:  DOE NUMBER
 MWDS.                    Baku:  MWD SHOP
 SRVC.     Turan Drilling and Engineering:  CONTRACTOR
 CTRY.              Azerbaijan:  COUNTRY NAME
 PROV.                    Baku:  PROVINCE
 STAT.                    Baku:  STATE NAME
 REGN.                   EESSA:  REGION
 BASE.              Azerbaijan:  LOGGING EQUIPMENT BASE LOCATION
 WTYP.                Deviated:  WELL TYPE
 RIG .              East Azeri:  RIG NAME
 WELL.                    D02y:  WELL NAME
 FLD .                     ACG:  FIELD NAME
 COMP.     BP Exploration (Caspian Sea) Ltd.:  COMPANY
 PDAT.          Mean Sea Level:  PERMANENT DATUM
 MDS .        Operator Entered:  MAG DATA SOURCE
 SON .        AZ-XX-0906997291:  JOB NUMBER
 FTOP.          Formation Tops:  FORM TOPS DESC
 ILTD.               Lithology:  INTERP LTH DESC
 SVYD.                  Survey:  SURVEY DESC
 DMOD.             Drill Model:  DRILL MOD DESC
 HPTY.       Minimum Curvature:  HOLE POS TYPE
 NREF.                    Grid:  NORTH REFERENCE
 SPUD.               05-May-21:  SPUD DATE
 DATE.      09.27.28 12-Jun-21:  END TIME
 STIM.      09.27.28 12-May-21:  START TIME
 DMF .             Drill Floor:  DRILL MEAS FROM
 DFST.                        :  DIST FSL TEXT
 DFWT.                        :  DIST FWL TEXT
 CNTY.                        :  COUNTY
 LOC .                        :  LOCATION
 LMF .             Drill Floor:  LOG MEASURED FROM
 DEP .m                2806.40:  DEPTH
 AGAP.m                  43.60:  AIR GAP
 VSNS.m                  -4.42:  VERT SEC N/S
 VSEW.m                  -7.31:  VERT SEC E/W
 APD .m                  43.60:  DEPTH ABOVE PD
 WDMS.m                 151.80:  WD ELEV
 EGL .m                   0.00:  GROUND ELEVATION
 EPD .m                   0.00:  ELEVATION
 AZTC.deg                 6.18:  AZM TOTAL CORR
 GRDC.deg                 0.29:  GRID CORRECTION
 MDEC.deg                 6.47:  MAGNETIC DECL
 MDIP.deg                59.50:  MAGNETIC DIP
 MFLD.nT              50350.00:  MAGNETIC FIELD
 GVFD.g                   1.00:  GRAVITY FIELD
 VSDR.deg               179.08:  VERT SEC DIRECT
 TDD .m                4300.00:  TOTAL DEPTH (DRILLER)
 SDEP.m                2800.00:  START DEPTH
 DFSL.m                   0.00:  DISTANCE FSL
 DFWL.m                   0.00:  DISTANCE FWL
 UTMY.m             4431871.34:  UTM Y
 UTMX.m              538762.90:  UTM X
 WHEW.m                  -7.31:  WELL HEAD E/W
 WHNS.m                  -4.42:  WELL HEAD N/S
 LONG.deg                51.45:  LONGITUDE
 LATI.deg                40.02:  LATITUDE
 TVDS.m                  43.60:  TVDSS CORRECTN
 EKB .m                  43.60:  KB ELEVATION
 EDF .m                  43.60:  DF ELEVATION
 TDL .m                 806.00:  TOTAL DEPTH (LOGGER)
 MAGU.                 1851231:  MAGUTM CHECKSUM
 VSC .                       0:  VS TO CLOSURE
~Parameter Information Block
#MNEM.UNIT       Value        Description
#---------     -----------    ---------------------------
 AV  .mps                 1.60:  Ann Velocity 
 AVMX.mps                 2.00:  Max Ann Veloc 
 AZIF.deg               140.24:  Azm, Final 
 BHAT.        Rotary Steerable:  BHA Type 
 BROT.°/30m               0.50:  Build Rotating 
 BS  .in                  8.50:  Bit Size 
 BTPL.psig              619.00:  Bit Press Loss 
 CABU.                     Yes:  Customer Abuse 
 CGEO.          Ilgar Gurbanov:  Customer Geo 
 COMM.                     ¼ƒj:  Run Comments 1 
 TCS .hr                 85.88:  Time Ciculation Ended 
 CV  .mps                 3.30:  Crit Velocity 
 CVMX.mps                 3.50:  Max Crit Veloc 
 DD1 .           Hamid Axmedov:  Direct Drillr 1 
 DD2 .           Teymur Aliyev:  Direct Drillr 2 
 DDSV.               Geo-Pilot:  DD Service 
 DEFF.%                 100.00:  % Det Eff 
 DLRX.°/30m               0.00:  Dogleg Rot Max 
 DLSO.°/30m               1.80:  Dogleg Oriented 
 DLSX.°/30m               3.34:  Dogleg Str Max 
 DRET.      11.50.00 27-May-21:  Drill End Time 
 DRST.      21.13.00 24-May-21:  Drill Start Tim 
 DTIM.hr                 45.11:  Time Drilling 
 EDEP.m                4054.00:  End Depth 
 ENG1.         Almaz Almadatov:  Engineer 1 
 ENG2.           Amrah Tahirov:  Engineer 2 
 ENG3.      Bakhtiyar Jabbarli:  Engineer 3 
 ENG4.          Nazrin Asgarli:  Engineer 4 
 ETIM.      10.00.00 30-May-21:  End Time 
 FLOI.gpm               530.00:  Flow In 
 FLON.gpm               400.00:  Flow In Min 
 FLOS.cptm                0.00:  Fluid Loss 
 FLOX.gpm               560.00:  Flow In Max 
 DFT .        Mineral Oil Base:  Mud Type 
 FTRO.       Formation Presure:  FTWD Run Obj 
 HFLO.                      No:  High Flow 
 HPRE.                      No:  High Pressure 
 HTEM.                      No:  High Temp 
 HYDO.m                   1.80:  Hydro Offset 
 IFIN.deg                73.83:  Inc, Final 
 IMAX.deg                73.83:  Inc Max 
 IMIN.deg                57.86:  Inc Min 
 IMND.m                3259.27:  Inc Min Depth 
 IMXD.m                4045.58:  Inc Max Depth 
 JARR.                     Yes:  Jarring 
 LETM.      11.50.00 27-May-21:  Log End Time 
 LOST.hr                     0:  Lost Rig Time 
 LSTM.      21.13.00 24-May-21:  Log Start Time 
 MDCL.ppm             42500.00:  Mud Chlorides 
 MDES.     Inversion Oil/Synthetic:  Mud Desc 
 DFD .sg                  1.52:  Mud Density 
 MDMN.sg                  1.52:  Dens Mud Min 
 MDMX.sg                  1.52:  Dens Mud Max 
 MOIL.                      70:  Run Mud Oil % 
 MOWR.                   70:30:  Run Mud OWR 
 MSND.                     0.2:  Run Mud Sand % 
 MSOL.                      22:  Run Mud Solids% 
 DFV .spqt               77.00:  Mud Viscosity 
 MWOD.in                  6.75:  MWD Tool OD 
 MWSI.                      No:  Serv Intrp, MWD 
 OTIM.hr                151.01:  Time Operating 
 PCON.          Wear / Scratch:  Pad Condition 
 PMAX.psia            11296.93:  Press Op, Max 
 PV  .cP                 37.00:  Mud PV 
 RUN .                     500:  Run Number 
 ROPA.m/hr               25.00:  ROP Avg 
 ROPN.m/hr                9.00:  ROP Min 
 ROPX.m/hr               28.00:  ROP Max 
 RPMA.rpm               140.00:  RPM Surface Avg 
 RPMN.rpm                90.00:  RPM Surface Min 
 RPMX.rpm               140.00:  RPM Surface Max 
 RRUN.                    0500:  Rig Run Number 
 SAZI.deg               172.17:  Azm, Start 
 SDEP.m                3248.00:  Start Depth 
 SIDD.                      No:  Serv Intrp, DD 
 SINC.deg                57.86:  Inc, Start 
 SPPA.psig             5620.00:  SPP Avg 
 SPPN.psig             5190.00:  SPP Min 
 SPPX.psig             6050.00:  SPP Max 
 STIM.      16.00.00 23-May-21:  Start Time 
 SVCS.                 DD, MWD:  Services 
 SVER.                    9.20:  Sperry Version 
 TDAT.m                 806.00:  Tot Depth Attmp 
 TDDF.                      No:  Trip for DD 
 TDLG.m                 806.00:  Tot Depth Loggd 
 TFF .                      No:  Trip for Fail 
 TQAA.f-kp               12.00:  Torque Abs Avg 
 TQAN.f-kp                8.00:  Torque Abs Min 
 TQAX.f-kp               15.00:  Torque Abs Max 
 TRRT.°/30m               0.30:  Turn Rotating 
 MRT .                  EWR-M5:  Maximum Recorded Temperature 
 TTMX.degC               93.00:  Max Tool Temp 
 VS01.                90649155:  Virtual Str1 SN 
 VS02.                90642264:  Virtual Str2 SN 
 VS03.                90642266:  Virtual Str3 SN 
 VS04.                90642261:  Virtual Str4 SN 
 WBMN.klb                 0.00:  WOB Min 
 WITN.             Anar Khalil:  Customer Rep 
 WITN.           Murad Guliyev:  Customer Rep 2 
 WOBA.klb                13.00:  WOB Avg 
 WOBX.klb                25.00:  WOB Max 
 YP  .lhf2               32.00:  Yield Point 
~Curve Information Block
#MNEM.UNIT                 API CODE     Curve Description
#---------               -----------    ---------------------------
 TIME.HHMMSS            00 000 000 000:  GT Time & Date
 GTDEPTH.m              00 000 000 000:  GT Depth
 GTPQH.psia             00 000 000 000:  GT HR Quartz Pressure
 GTTQ.degC              00 000 000 000:  GT Quartz Temperature
 GTTN.NONE              00 000 000 000:  GT Test Number
 GTET.sec               00 000 000 000:  GT Elapsed Test Time
 GTTVD.m                00 000 000 000:  GT True Vertical Depth
#Other Information
#
#WARRANTY: Halliburton will use its best efforts to furnish customers with 
#accurate information and interpretations that are part of, and incident to, the services 
#provided.  However, Halliburton cannot and does not warrant the accuracy 
#or correctness of such information and interpretations.  Under no circumstances should any 
#such information or interpretation be relied upon as the sole basis for any drilling, 
#completion, production, or financial decision or any procedure involving any risk to the 
#safety of any drilling venture, drilling rig or its crew or any other third party.  The 
#Customer has full responsibility for all drilling, completion and production operation.  
#Halliburton makes no representations or warranties, either expressed or 
#implied, including, but not limited to, the implied warranties of merchantability or fitness 
#for a particular purpose, with respect to the services rendered.  In no event will 
#Halliburton be liable for failure to obtain any particular results or for 
#any damages, including, but not limited to, indirect, special or consequential damages, 
#resulting from the use of any information or interpretation provided by Halliburton.
#
~A           TIME           GTDEPTH  GTPQH  GTTQ  GTTN  GTET   GTTVD  
# ...
   22:26:33.750.27-May-2021 3723.00 3141.21 84.31 1.00 276.04 2680.40
   22:26:33.950.27-May-2021 3723.00 3141.21 84.31 1.00 276.24 2680.40
   22:26:34.150.27-May-2021 3723.00 3141.23 84.31 1.00 276.44 2680.40
   22:26:34.350.27-May-2021 3723.00 3141.22 84.31 1.00 276.65 2680.40
   22:26:34.550.27-May-2021 3723.00 3141.23 84.31 1.00 276.85 2680.40
   22:26:34.750.27-May-2021 3723.00 3141.23 84.31 1.00 277.05 2680.40
   22:26:34.950.27-May-2021 3723.00 3141.23 84.31 1.00 277.25 2680.40
   22:26:35.150.27-May-2021 3723.00 3141.24 84.31 1.00 277.45 2680.40
   22:26:35.350.27-May-2021 3723.00 3141.24 84.31 1.00 277.65 2680.40
   22:26:35.550.27-May-2021 3723.00 3141.24 84.31 1.00 277.85 2680.40
   22:26:35.750.27-May-2021 3723.00 3141.24 84.31 1.00 278.05 2680.40
   22:26:35.950.27-May-2021 3723.00 3141.24 84.31 1.00 278.25 2680.40
   22:26:36.150.27-May-2021 3723.00 3141.24 84.31 1.00 278.45 2680.40
   22:26:36.350.27-May-2021 3723.00 3141.25 84.31 1.00 278.65 2680.40
   22:26:36.550.27-May-2021 3723.00 3141.23 84.31 1.00 278.85 2680.40
   22:26:36.750.27-May-2021 3723.00 3141.25 84.31 1.00 279.05 2680.40
   22:26:36.950.27-May-2021 3723.00 3141.25 84.31 1.00 279.25 2680.40
   22:26:37.150.27-May-2021 3723.00 3141.24 84.31 1.00 279.45 2680.40
   22:26:37.350.27-May-2021 3723.00 3141.24 84.31 1.00 279.65 2680.40
   22:26:37.550.27-May-2021 3723.00 3141.24 84.31 1.00 279.85 2680.40
   22:26:37.750.27-May-2021 3723.00 3141.24 84.31 1.00 280.05 2680.40
   22:26:37.950.27-May-2021 3723.00 3141.24 84.31 1.00 280.25 2680.40
   22:26:38.150.27-May-2021 3723.00 3141.24 84.31 1.00 280.45 2680.40
   22:26:38.350.27-May-2021 3723.00 3141.24 84.31 1.00 280.65 2680.40
   22:26:38.550.27-May-2021 3723.00 3141.25 84.31 1.00 280.85 2680.40
   22:26:38.750.27-May-2021 3723.00 3141.25 84.31 1.00 281.05 2680.40
   22:26:38.950.27-May-2021 3723.00 3141.25 84.31 1.00 281.25 2680.40
   22:26:39.150.27-May-2021 3723.00 3141.24 84.31 1.00 281.45 2680.40
   22:26:39.350.27-May-2021 3723.00 3141.24 84.31 1.00 281.65 2680.40
   22:26:39.550.27-May-2021 3723.00 3141.25 84.31 1.00 281.85 2680.40
   22:26:39.750.27-May-2021 3723.00 3141.26 84.31 1.00 282.05 2680.40
   22:26:39.951.27-May-2021 3723.00 3141.26 84.31 1.00 282.25 2680.40
   22:26:40.151.27-May-2021 3723.00 3141.25 84.31 1.00 282.45 2680.40
   22:26:40.351.27-May-2021 3723.00 3141.25 84.31 1.00 282.65 2680.40
   22:26:40.551.27-May-2021 3723.00 3141.24 84.31 1.00 282.85 2680.40
   22:26:40.751.27-May-2021 3723.00 3141.26 84.31 1.00 283.05 2680.40
   22:26:40.951.27-May-2021 3723.00 3141.26 84.31 1.00 283.25 2680.40
   22:26:41.151.27-May-2021 3723.00 3141.24 84.31 1.00 283.45 2680.40
   22:26:41.351.27-May-2021 3723.00 3141.25 84.31 1.00 283.65 2680.40
   22:26:41.551.27-May-2021 3723.00 3141.25 84.31 1.00 283.85 2680.40
   22:26:41.751.27-May-2021 3723.00 3141.24 84.31 1.00 284.05 2680.40
   22:26:41.951.27-May-2021 3723.00 3141.24 84.31 1.00 284.25 2680.40
   22:26:42.151.27-May-2021 3723.00 3141.25 84.31 1.00 284.45 2680.40
   22:26:42.351.27-May-2021 3723.00 3141.25 84.31 1.00 284.65 2680.40
   22:26:42.551.27-May-2021 3723.00 3141.25 84.31 1.00 284.85 2680.40
   22:26:42.751.27-May-2021 3723.00 3141.25 84.31 1.00 285.05 2680.40
   22:26:42.951.27-May-2021 3723.00 3141.25 84.31 1.00 285.25 2680.40
   22:26:43.151.27-May-2021 3723.00 3141.24 84.31 1.00 285.45 2680.40
   22:26:43.351.27-May-2021 3723.00 3141.25 84.31 1.00 285.65 2680.40
   22:26:43.551.27-May-2021 3723.00 3141.26 84.31 1.00 285.85 2680.40
   22:26:43.751.27-May-2021 3723.00 3141.26 84.31 1.00 286.05 2680.40
   22:26:43.951.27-May-2021 3723.00 3141.26 84.31 1.00 286.25 2680.40
   22:26:44.151.27-May-2021 3723.00 3141.25 84.31 1.00 286.45 2680.40
   22:26:44.351.27-May-2021 3723.00 3141.25 84.31 1.00 286.65 2680.40
   22:26:44.551.27-May-2021 3723.00 3141.25 84.31 1.00 286.85 2680.40
   22:26:44.751.27-May-2021 3723.00 3141.25 84.31 1.00 287.05 2680.40
   22:26:44.951.27-May-2021 3723.00 3141.25 84.31 1.00 287.25 2680.40
   22:26:45.151.27-May-2021 3723.00 3141.25 84.31 1.00 287.45 2680.40
   22:26:45.351.27-May-2021 3723.00 3141.26 84.31 1.00 287.65 2680.40
   22:26:45.551.27-May-2021 3723.00 3141.24 84.31 1.00 287.85 2680.40
   22:26:45.751.27-May-2021 3723.00 3141.23 84.31 1.00 288.05 2680.40
   22:26:45.951.27-May-2021 3723.00 3141.23 84.31 1.00 288.25 2680.40
   22:26:46.152.27-May-2021 3723.00 3141.25 84.31 1.00 288.45 2680.40
   22:26:46.352.27-May-2021 3723.00 3141.24 84.31 1.00 288.65 2680.40
   22:26:46.552.27-May-2021 3723.00 3141.26 84.31 1.00 288.85 2680.40
   22:26:46.752.27-May-2021 3723.00 3141.25 84.31 1.00 289.05 2680.40
   22:26:46.952.27-May-2021 3723.00 3141.25 84.31 1.00 289.25 2680.40
   22:26:47.152.27-May-2021 3723.00 3141.22 84.31 1.00 289.45 2680.40
   22:26:47.352.27-May-2021 3723.00 3141.25 84.31 1.00 289.65 2680.40
   22:26:47.552.27-May-2021 3723.00 3141.25 84.31 1.00 289.85 2680.40
   22:26:47.752.27-May-2021 3723.00 3141.26 84.31 1.00 290.05 2680.40
   22:26:47.952.27-May-2021 3723.00 3141.26 84.31 1.00 290.25 2680.40
   22:26:48.152.27-May-2021 3723.00 3141.40 84.31 1.00 290.45 2680.40
   22:26:48.352.27-May-2021 3723.00 3141.25 84.31 1.00 290.65 2680.40
   22:26:48.552.27-May-2021 3723.00 3141.26 84.31 1.00 290.85 2680.40
   22:26:48.752.27-May-2021 3723.00 3141.26 84.31 1.00 291.05 2680.40
   22:26:48.952.27-May-2021 3723.00 3141.26 84.31 1.00 291.25 2680.40
   22:26:49.152.27-May-2021 3723.00 3141.25 84.31 1.00 291.45 2680.40
   22:26:49.352.27-May-2021 3723.00 3141.26 84.31 1.00 291.65 2680.40
   22:26:49.552.27-May-2021 3723.00 3141.25 84.31 1.00 291.85 2680.40
   22:26:49.752.27-May-2021 3723.00 3141.26 84.31 1.00 292.05 2680.40
   22:26:49.952.27-May-2021 3723.00 3141.26 84.31 1.00 292.25 2680.40
   22:26:50.152.27-May-2021 3723.00 3141.25 84.31 1.00 292.45 2680.40
   22:26:50.352.27-May-2021 3723.00 3141.25 84.31 1.00 292.65 2680.40
   22:26:50.552.27-May-2021 3723.00 3141.12 84.31 1.00 292.85 2680.40
   22:26:50.752.27-May-2021 3723.00 3141.39 84.31 1.00 293.05 2680.40
   22:26:50.952.27-May-2021 3723.00 3141.39 84.31 1.00 293.25 2680.40
   22:26:51.152.27-May-2021 3723.00 3141.26 84.31 1.00 293.45 2680.40
   22:26:51.352.27-May-2021 3723.00 3141.25 84.31 1.00 293.65 2680.40
   22:26:51.552.27-May-2021 3723.00 3141.25 84.31 1.00 293.85 2680.40
   22:26:51.752.27-May-2021 3723.00 3141.26 84.31 1.00 294.05 2680.40
   22:26:51.952.27-May-2021 3723.00 3141.26 84.31 1.00 294.25 2680.40
   22:26:52.153.27-May-2021 3723.00 3141.26 84.31 1.00 294.45 2680.40
   22:26:52.353.27-May-2021 3723.00 3141.25 84.31 1.00 294.65 2680.40
   22:26:52.553.27-May-2021 3723.00 3141.25 84.31 1.00 294.85 2680.40
   22:26:52.753.27-May-2021 3723.00 3141.26 84.31 1.00 295.05 2680.40
   22:26:52.953.27-May-2021 3723.00 3141.26 84.31 1.00 295.25 2680.40
   22:26:53.153.27-May-2021 3723.00 3141.10 84.31 1.00 295.45 2680.40
   22:26:53.353.27-May-2021 3723.00 3141.41 84.31 1.00 295.65 2680.40
   22:26:53.553.27-May-2021 3723.00 3141.24 84.31 1.00 295.85 2680.40
   22:26:53.753.27-May-2021 3723.00 3141.11 84.31 1.00 296.05 2680.40
   22:26:53.953.27-May-2021 3723.00 3141.11 84.31 1.00 296.25 2680.40
   22:26:54.153.27-May-2021 3723.00 3141.23 84.31 1.00 296.45 2680.40
   22:26:54.353.27-May-2021 3723.00 3141.26 84.31 1.00 296.65 2680.40
   22:26:54.553.27-May-2021 3723.00 3141.26 84.31 1.00 296.85 2680.40
   22:26:54.753.27-May-2021 3723.00 3141.24 84.31 1.00 297.05 2680.40
   22:26:54.953.27-May-2021 3723.00 3141.24 84.31 1.00 297.25 2680.40
   22:26:55.153.27-May-2021 3723.00 3141.25 84.31 1.00 297.45 2680.40
   22:26:55.353.27-May-2021 3723.00 3141.23 84.31 1.00 297.65 2680.40
   22:26:55.553.27-May-2021 3723.00 3141.26 84.31 1.00 297.85 2680.40
   22:26:55.753.27-May-2021 3723.00 3141.26 84.31 1.00 298.05 2680.40
   22:26:55.953.27-May-2021 3723.00 3141.26 84.31 1.00 298.25 2680.40
   22:26:56.153.27-May-2021 3723.00 3141.38 84.31 1.00 298.45 2680.40
   22:26:56.353.27-May-2021 3723.00 3141.25 84.31 1.00 298.65 2680.40
   22:26:56.553.27-May-2021 3723.00 3141.26 84.31 1.00 298.85 2680.40
