~Version Information
 VERS.                  2.0:   CWLS log ASCII Standard -VERSION 2.0
 WRAP.                   NO:   One line per depth step
~Well Information Block
#MNEM.UNIT     VALUE/NAME     DESCRIPTION
#---------     -----------    ---------------------------
 STRT.S             08:05:02 28-May-21: START TIME 08:05:02 28-May-21
 STOP.S             08:12:05 28-May-21: STOP TIME  08:12:05 28-May-21
 STEP.S                   0.00: STEP TIME
 NULL.                 -999.25: NULL VALUE
 UWI .                     N/A:  UNIQUE WELL IDENTIFIER
 API .                     N/A:  API NUMBER
 UNIT.                     N/A:  LOGGING EQUIPMENT ID
 DCON.         Sperry Drilling:  DIRECTNL CONTR
 DOE .                     N/A:  DOE NUMBER
 MWDS.                    Baku:  MWD SHOP
 SRVC.     Turan Drilling and Engineering:  CONTRACTOR
 CTRY.              Azerbaijan:  COUNTRY NAME
 PROV.                    Baku:  PROVINCE
 STAT.                    Baku:  STATE NAME
 REGN.                   EESSA:  REGION
 BASE.              Azerbaijan:  LOGGING EQUIPMENT BASE LOCATION
 WTYP.                Deviated:  WELL TYPE
 RIG .              East Azeri:  RIG NAME
 WELL.                    D02y:  WELL NAME
 FLD .                     ACG:  FIELD NAME
 COMP.     BP Exploration (Caspian Sea) Ltd.:  COMPANY
 PDAT.          Mean Sea Level:  PERMANENT DATUM
 MDS .        Operator Entered:  MAG DATA SOURCE
 SON .        AZ-XX-0906997291:  JOB NUMBER
 FTOP.          Formation Tops:  FORM TOPS DESC
 ILTD.               Lithology:  INTERP LTH DESC
 SVYD.                  Survey:  SURVEY DESC
 DMOD.             Drill Model:  DRILL MOD DESC
 HPTY.       Minimum Curvature:  HOLE POS TYPE
 NREF.                    Grid:  NORTH REFERENCE
 SPUD.               05-May-21:  SPUD DATE
 DATE.      09.27.28 12-Jun-21:  END TIME
 STIM.      09.27.28 12-May-21:  START TIME
 DMF .             Drill Floor:  DRILL MEAS FROM
 DFST.                        :  DIST FSL TEXT
 DFWT.                        :  DIST FWL TEXT
 CNTY.                        :  COUNTY
 LOC .                        :  LOCATION
 LMF .             Drill Floor:  LOG MEASURED FROM
 DEP .m                2806.40:  DEPTH
 AGAP.m                  43.60:  AIR GAP
 VSNS.m                  -4.42:  VERT SEC N/S
 VSEW.m                  -7.31:  VERT SEC E/W
 APD .m                  43.60:  DEPTH ABOVE PD
 WDMS.m                 151.80:  WD ELEV
 EGL .m                   0.00:  GROUND ELEVATION
 EPD .m                   0.00:  ELEVATION
 AZTC.deg                 6.18:  AZM TOTAL CORR
 GRDC.deg                 0.29:  GRID CORRECTION
 MDEC.deg                 6.47:  MAGNETIC DECL
 MDIP.deg                59.50:  MAGNETIC DIP
 MFLD.nT              50350.00:  MAGNETIC FIELD
 GVFD.g                   1.00:  GRAVITY FIELD
 VSDR.deg               179.08:  VERT SEC DIRECT
 TDD .m                4300.00:  TOTAL DEPTH (DRILLER)
 SDEP.m                2800.00:  START DEPTH
 DFSL.m                   0.00:  DISTANCE FSL
 DFWL.m                   0.00:  DISTANCE FWL
 UTMY.m             4431871.34:  UTM Y
 UTMX.m              538762.90:  UTM X
 WHEW.m                  -7.31:  WELL HEAD E/W
 WHNS.m                  -4.42:  WELL HEAD N/S
 LONG.deg                51.45:  LONGITUDE
 LATI.deg                40.02:  LATITUDE
 TVDS.m                  43.60:  TVDSS CORRECTN
 EKB .m                  43.60:  KB ELEVATION
 EDF .m                  43.60:  DF ELEVATION
 TDL .m                 806.00:  TOTAL DEPTH (LOGGER)
 MAGU.                 1851231:  MAGUTM CHECKSUM
 VSC .                       0:  VS TO CLOSURE
~Parameter Information Block
#MNEM.UNIT       Value        Description
#---------     -----------    ---------------------------
 AV  .mps                 1.60:  Ann Velocity 
 AVMX.mps                 2.00:  Max Ann Veloc 
 AZIF.deg               140.24:  Azm, Final 
 BHAT.        Rotary Steerable:  BHA Type 
 BROT.°/30m               0.50:  Build Rotating 
 BS  .in                  8.50:  Bit Size 
 BTPL.psig              619.00:  Bit Press Loss 
 CABU.                     Yes:  Customer Abuse 
 CGEO.          Ilgar Gurbanov:  Customer Geo 
 TCS .hr                 85.88:  Time Ciculation Ended 
 CV  .mps                 3.30:  Crit Velocity 
 CVMX.mps                 3.50:  Max Crit Veloc 
 DD1 .           Hamid Axmedov:  Direct Drillr 1 
 DD2 .           Teymur Aliyev:  Direct Drillr 2 
 DDSV.               Geo-Pilot:  DD Service 
 DEFF.%                 100.00:  % Det Eff 
 DLRX.°/30m               0.00:  Dogleg Rot Max 
 DLSO.°/30m               1.80:  Dogleg Oriented 
 DLSX.°/30m               3.34:  Dogleg Str Max 
 DRET.      11.50.00 27-May-21:  Drill End Time 
 DRST.      21.13.00 24-May-21:  Drill Start Tim 
 DTIM.hr                 45.11:  Time Drilling 
 EDEP.m                4054.00:  End Depth 
 ENG1.         Almaz Almadatov:  Engineer 1 
 ENG2.           Amrah Tahirov:  Engineer 2 
 ENG3.      Bakhtiyar Jabbarli:  Engineer 3 
 ENG4.          Nazrin Asgarli:  Engineer 4 
 ETIM.      10.00.00 30-May-21:  End Time 
 FLOI.gpm               530.00:  Flow In 
 FLON.gpm               400.00:  Flow In Min 
 FLOS.cptm                0.00:  Fluid Loss 
 FLOX.gpm               560.00:  Flow In Max 
 DFT .        Mineral Oil Base:  Mud Type 
 FTRO.       Formation Presure:  FTWD Run Obj 
 HFLO.                      No:  High Flow 
 HPRE.                      No:  High Pressure 
 HTEM.                      No:  High Temp 
 HYDO.m                   1.80:  Hydro Offset 
 IFIN.deg                73.83:  Inc, Final 
 IMAX.deg                73.83:  Inc Max 
 IMIN.deg                57.86:  Inc Min 
 IMND.m                3259.27:  Inc Min Depth 
 IMXD.m                4045.58:  Inc Max Depth 
 JARR.                     Yes:  Jarring 
 LETM.      11.50.00 27-May-21:  Log End Time 
 LOST.hr                     0:  Lost Rig Time 
 LSTM.      21.13.00 24-May-21:  Log Start Time 
 MDCL.ppm             42500.00:  Mud Chlorides 
 MDES.     Inversion Oil/Synthetic:  Mud Desc 
 DFD .sg                  1.52:  Mud Density 
 MDMN.sg                  1.52:  Dens Mud Min 
 MDMX.sg                  1.52:  Dens Mud Max 
 MOIL.                      70:  Run Mud Oil % 
 MOWR.                   70:30:  Run Mud OWR 
 MSND.                     0.2:  Run Mud Sand % 
 MSOL.                      22:  Run Mud Solids% 
 DFV .spqt               77.00:  Mud Viscosity 
 MWOD.in                  6.75:  MWD Tool OD 
 MWSI.                      No:  Serv Intrp, MWD 
 OTIM.hr                151.01:  Time Operating 
 PCON.          Wear / Scratch:  Pad Condition 
 PMAX.psia            11296.93:  Press Op, Max 
 PV  .cP                 37.00:  Mud PV 
 RUN .                     500:  Run Number 
 ROPA.m/hr               25.00:  ROP Avg 
 ROPN.m/hr                9.00:  ROP Min 
 ROPX.m/hr               28.00:  ROP Max 
 RPMA.rpm               140.00:  RPM Surface Avg 
 RPMN.rpm                90.00:  RPM Surface Min 
 RPMX.rpm               140.00:  RPM Surface Max 
 RRUN.                    0500:  Rig Run Number 
 SAZI.deg               172.17:  Azm, Start 
 SDEP.m                3248.00:  Start Depth 
 SIDD.                      No:  Serv Intrp, DD 
 SINC.deg                57.86:  Inc, Start 
 SPPA.psig             5620.00:  SPP Avg 
 SPPN.psig             5190.00:  SPP Min 
 SPPX.psig             6050.00:  SPP Max 
 STIM.      16.00.00 23-May-21:  Start Time 
 SVCS.                 DD, MWD:  Services 
 SVER.                    9.20:  Sperry Version 
 TDAT.m                 806.00:  Tot Depth Attmp 
 TDDF.                      No:  Trip for DD 
 TDLG.m                 806.00:  Tot Depth Loggd 
 TFF .                      No:  Trip for Fail 
 TQAA.f-kp               12.00:  Torque Abs Avg 
 TQAN.f-kp                8.00:  Torque Abs Min 
 TQAX.f-kp               15.00:  Torque Abs Max 
 TRRT.°/30m               0.30:  Turn Rotating 
 MRT .                  EWR-M5:  Maximum Recorded Temperature 
 TTMX.degC               93.00:  Max Tool Temp 
 VS01.                90649155:  Virtual Str1 SN 
 VS02.                90642264:  Virtual Str2 SN 
 VS03.                90642266:  Virtual Str3 SN 
 VS04.                90642261:  Virtual Str4 SN 
 WBMN.klb                 0.00:  WOB Min 
 WITN.             Anar Khalil:  Customer Rep 
 WITN.           Murad Guliyev:  Customer Rep 2 
 WOBA.klb                13.00:  WOB Avg 
 WOBX.klb                25.00:  WOB Max 
 YP  .lhf2               32.00:  Yield Point 
~Curve Information Block
#MNEM.UNIT                 API CODE     Curve Description
#---------               -----------    ---------------------------
 TIME.HHMMSS            00 000 000 000:  GT Time & Date
 GTDEPTH.m              00 000 000 000:  GT Depth
 GTPQH.psia             00 000 000 000:  GT HR Quartz Pressure
 GTTQ.degC              00 000 000 000:  GT Quartz Temperature
 GTTN.NONE              00 000 000 000:  GT Test Number
 GTET.sec               00 000 000 000:  GT Elapsed Test Time
 GTTVD.m                00 000 000 000:  GT True Vertical Depth
#Other Information
#
#WARRANTY: Halliburton will use its best efforts to furnish customers with 
#accurate information and interpretations that are part of, and incident to, the services 
#provided.  However, Halliburton cannot and does not warrant the accuracy 
#or correctness of such information and interpretations.  Under no circumstances should any 
#such information or interpretation be relied upon as the sole basis for any drilling, 
#completion, production, or financial decision or any procedure involving any risk to the 
#safety of any drilling venture, drilling rig or its crew or any other third party.  The 
#Customer has full responsibility for all drilling, completion and production operation.  
#Halliburton makes no representations or warranties, either expressed or 
#implied, including, but not limited to, the implied warranties of merchantability or fitness 
#for a particular purpose, with respect to the services rendered.  In no event will 
#Halliburton be liable for failure to obtain any particular results or for 
#any damages, including, but not limited to, indirect, special or consequential damages, 
#resulting from the use of any information or interpretation provided by Halliburton.
#
~A           TIME           GTDEPTH  GTPQH  GTTQ  GTTN   GTET   GTTVD  
# ...
   08:11:03.600.28-May-2021 3306.50 2939.61 82.20 14.00 361.60 2504.31
   08:11:03.800.28-May-2021 3306.50 2939.55 82.20 14.00 361.80 2504.31
   08:11:04.000.28-May-2021 3306.50 2939.63 82.20 14.00 362.00 2504.31
   08:11:04.200.28-May-2021 3306.50 2939.63 82.20 14.00 362.20 2504.31
   08:11:04.400.28-May-2021 3306.50 2939.66 82.20 14.00 362.40 2504.31
   08:11:04.600.28-May-2021 3306.50 2939.70 82.20 14.00 362.60 2504.31
   08:11:04.800.28-May-2021 3306.50 2939.73 82.20 14.00 362.80 2504.31
   08:11:05.000.28-May-2021 3306.50 2939.72 82.20 14.00 363.00 2504.31
   08:11:05.200.28-May-2021 3306.50 2939.72 82.20 14.00 363.20 2504.31
   08:11:05.400.28-May-2021 3306.50 2938.76 82.20 14.00 363.40 2504.31
   08:11:05.600.28-May-2021 3306.50 2939.84 82.20 14.00 363.60 2504.31
   08:11:05.800.28-May-2021 3306.50 2939.79 82.20 14.00 363.80 2504.31
   08:11:06.000.28-May-2021 3306.50 2939.85 82.20 14.00 364.00 2504.31
   08:11:06.200.28-May-2021 3306.50 2939.85 82.20 14.00 364.20 2504.31
   08:11:06.400.28-May-2021 3306.50 2939.29 82.20 14.00 364.40 2504.31
   08:11:06.600.28-May-2021 3306.50 2939.89 82.20 14.00 364.60 2504.31
   08:11:06.800.28-May-2021 3306.50 2939.83 82.20 14.00 364.80 2504.31
   08:11:07.000.28-May-2021 3306.50 2939.99 82.20 14.00 365.00 2504.31
   08:11:07.200.28-May-2021 3306.50 2939.99 82.20 14.00 365.20 2504.31
   08:11:07.400.28-May-2021 3306.50 2938.99 82.20 14.00 365.40 2504.31
   08:11:07.600.28-May-2021 3306.50 2939.97 82.20 14.00 365.60 2504.31
   08:11:07.800.28-May-2021 3306.50 2939.97 82.20 14.00 365.80 2504.31
   08:11:08.000.28-May-2021 3306.50 2940.01 82.20 14.00 366.00 2504.31
   08:11:08.200.28-May-2021 3306.50 2940.01 82.20 14.00 366.20 2504.31
   08:11:08.400.28-May-2021 3306.50 2940.11 82.20 14.00 366.40 2504.31
   08:11:08.600.28-May-2021 3306.50 2940.05 82.20 14.00 366.60 2504.31
   08:11:08.800.28-May-2021 3306.50 2940.12 82.20 14.00 366.80 2504.31
   08:11:09.000.28-May-2021 3306.50 2940.11 82.20 14.00 367.00 2504.31
   08:11:09.200.28-May-2021 3306.50 2940.11 82.20 14.00 367.20 2504.31
   08:11:09.400.28-May-2021 3306.50 2942.19 82.20 14.00 367.40 2504.31
   08:11:09.600.28-May-2021 3306.50 3003.34 82.20 14.00 367.60 2504.31
   08:11:09.800.28-May-2021 3306.50 3290.78 82.20 14.00 367.80 2504.31
   08:11:10.000.28-May-2021 3306.50 5530.44 82.20 14.00 368.00 2504.31
   08:11:10.200.28-May-2021 3306.50 5530.44 82.20 14.00 368.20 2504.31
   08:11:10.400.28-May-2021 3306.50 5837.65 82.20 14.00 368.40 2504.31
   08:11:10.600.28-May-2021 3306.50 5837.39 82.20 14.00 368.60 2504.31
   08:11:10.800.28-May-2021 3306.50 5843.88 82.20 14.00 368.80 2504.31
   08:11:11.000.28-May-2021 3306.50 5836.74 82.21 14.00 369.00 2504.31
   08:11:11.200.28-May-2021 3306.50 5836.74 82.21 14.00 369.20 2504.31
   08:11:11.400.28-May-2021 3306.50 5839.85 82.21 14.00 369.40 2504.31
   08:11:11.600.28-May-2021 3306.50 5841.64 82.21 14.00 369.60 2504.31
   08:11:11.800.28-May-2021 3306.50 5841.12 82.21 14.00 369.80 2504.31
   08:11:12.000.28-May-2021 3306.50 5842.39 82.21 14.00 370.00 2504.31
   08:11:12.200.28-May-2021 3306.50 5842.39 82.21 14.00 370.20 2504.31
   08:11:12.400.28-May-2021 3306.50 5842.77 82.22 14.00 370.40 2504.31
   08:11:12.600.28-May-2021 3306.50 5842.85 82.22 14.00 370.60 2504.31
   08:11:12.800.28-May-2021 3306.50 5842.93 82.22 14.00 370.80 2504.31
   08:11:13.000.28-May-2021 3306.50 5843.18 82.23 14.00 371.00 2504.31
   08:11:13.200.28-May-2021 3306.50 5843.18 82.23 14.00 371.20 2504.31
   08:11:13.400.28-May-2021 3306.50 5851.73 82.23 14.00 371.40 2504.31
   08:11:13.600.28-May-2021 3306.50 5840.18 82.23 14.00 371.60 2504.31
   08:11:13.800.28-May-2021 3306.50 5845.69 82.24 14.00 371.80 2504.31
   08:11:14.000.28-May-2021 3306.50 5844.45 82.24 14.00 372.00 2504.31
   08:11:14.200.28-May-2021 3306.50 5844.45 82.24 14.00 372.20 2504.31
   08:11:14.400.28-May-2021 3306.50 5846.23 82.24 14.00 372.40 2504.31
   08:11:14.600.28-May-2021 3306.50 5846.18 82.25 14.00 372.60 2504.31
   08:11:14.800.28-May-2021 3306.50 5845.15 82.25 14.00 372.80 2504.31
   08:11:15.000.28-May-2021 3306.50 5846.08 82.25 14.00 373.00 2504.31
   08:11:15.200.28-May-2021 3306.50 5846.08 82.25 14.00 373.20 2504.31
   08:11:15.400.28-May-2021 3306.50 5853.64 82.25 14.00 373.40 2504.31
   08:11:15.600.28-May-2021 3306.50 5841.45 82.26 14.00 373.60 2504.31
   08:11:15.800.28-May-2021 3306.50 5846.74 82.26 14.00 373.80 2504.31
   08:11:16.000.28-May-2021 3306.50 5845.42 82.26 14.00 374.00 2504.31
   08:11:16.200.28-May-2021 3306.50 5845.42 82.26 14.00 374.20 2504.31
   08:11:16.400.28-May-2021 3306.50 5845.42 82.26 14.00 374.40 2504.31
   08:11:16.600.28-May-2021 3306.50 5847.23 82.26 14.00 374.60 2504.31
   08:11:16.800.28-May-2021 3306.50 5845.77 82.27 14.00 374.80 2504.31
   08:11:17.000.28-May-2021 3306.50 5846.53 82.27 14.00 375.00 2504.31
   08:11:17.200.28-May-2021 3306.50 5846.53 82.27 14.00 375.20 2504.31
   08:11:17.400.28-May-2021 3306.50 5846.46 82.27 14.00 375.40 2504.31
   08:11:17.600.28-May-2021 3306.50 5846.26 82.27 14.00 375.60 2504.31
   08:11:17.800.28-May-2021 3306.50 5846.10 82.27 14.00 375.80 2504.31
   08:11:18.000.28-May-2021 3306.50 5845.81 82.27 14.00 376.00 2504.31
   08:11:18.200.28-May-2021 3306.50 5845.81 82.27 14.00 376.20 2504.31
   08:11:18.400.28-May-2021 3306.50 5845.60 82.27 14.00 376.40 2504.31
   08:11:18.600.28-May-2021 3306.50 5845.51 82.28 14.00 376.60 2504.31
   08:11:18.800.28-May-2021 3306.50 5850.40 82.28 14.00 376.80 2504.31
   08:11:19.000.28-May-2021 3306.50 5845.90 82.28 14.00 377.00 2504.31
   08:11:19.200.28-May-2021 3306.50 5845.90 82.28 14.00 377.20 2504.31
   08:11:19.400.28-May-2021 3306.50 5846.50 82.28 14.00 377.40 2504.31
   08:11:19.600.28-May-2021 3306.50 5846.33 82.28 14.00 377.60 2504.31
   08:11:19.800.28-May-2021 3306.50 5846.78 82.28 14.00 377.80 2504.31
   08:11:20.000.28-May-2021 3306.50 5846.64 82.28 14.00 378.00 2504.31
   08:11:20.200.28-May-2021 3306.50 5846.64 82.28 14.00 378.20 2504.31
   08:11:20.400.28-May-2021 3306.50 5846.41 82.28 14.00 378.40 2504.31
   08:11:20.600.28-May-2021 3306.50 5846.18 82.28 14.00 378.60 2504.31
   08:11:20.800.28-May-2021 3306.50 5845.89 82.28 14.00 378.80 2504.31
   08:11:21.000.28-May-2021 3306.50 5845.77 82.28 14.00 379.00 2504.31
   08:11:21.200.28-May-2021 3306.50 5845.77 82.28 14.00 379.20 2504.31
   08:11:21.400.28-May-2021 3306.50 5848.28 82.29 14.00 379.40 2504.31
   08:11:21.600.28-May-2021 3306.50 5847.10 82.29 14.00 379.60 2504.31
   08:11:21.800.28-May-2021 3306.50 5846.90 82.29 14.00 379.80 2504.31
   08:11:22.000.28-May-2021 3306.50 5846.24 82.29 14.00 380.00 2504.31
   08:11:22.200.28-May-2021 3306.50 5846.24 82.29 14.00 380.20 2504.31
   08:11:22.400.28-May-2021 3306.50 5846.05 82.29 14.00 380.40 2504.31
   08:11:22.600.28-May-2021 3306.50 5851.09 82.29 14.00 380.60 2504.31
   08:11:22.800.28-May-2021 3306.50 5846.12 82.29 14.00 380.80 2504.31
   08:11:23.000.28-May-2021 3306.50 5846.98 82.29 14.00 381.00 2504.31
   08:11:23.200.28-May-2021 3306.50 5846.98 82.29 14.00 381.20 2504.31
   08:11:23.400.28-May-2021 3306.50 5846.33 82.29 14.00 381.40 2504.31
   08:11:23.600.28-May-2021 3306.50 5853.21 82.29 14.00 381.60 2504.31
   08:11:23.800.28-May-2021 3306.50 5844.08 82.29 14.00 381.80 2504.31
   08:11:24.000.28-May-2021 3306.50 5847.43 82.29 14.00 382.00 2504.31
   08:11:24.200.28-May-2021 3306.50 5847.43 82.29 14.00 382.20 2504.31
   08:11:24.400.28-May-2021 3306.50 5844.88 82.29 14.00 382.40 2504.31
   08:11:24.600.28-May-2021 3306.50 5848.10 82.29 14.00 382.60 2504.31
   08:11:24.800.28-May-2021 3306.50 5846.98 82.29 14.00 382.80 2504.31
   08:11:25.000.28-May-2021 3306.50 5847.93 82.29 14.00 383.00 2504.31
   08:11:25.200.28-May-2021 3306.50 5847.93 82.29 14.00 383.20 2504.31
   08:11:25.400.28-May-2021 3306.50 5847.43 82.29 14.00 383.40 2504.31
   08:11:25.600.28-May-2021 3306.50 5846.94 82.29 14.00 383.60 2504.31
   08:11:25.800.28-May-2021 3306.50 5846.74 82.29 14.00 383.80 2504.31
   08:11:26.000.28-May-2021 3306.50 5846.52 82.29 14.00 384.00 2504.31
