~Version Information
 VERS.                  2.0:   CWLS log ASCII Standard -VERSION 2.0
 WRAP.                   NO:   One line per depth step
~Well Information Block
#MNEM.UNIT     VALUE/NAME     DESCRIPTION
#---------     -----------    ---------------------------
 STRT.S             09:05:41 28-May-21: START TIME 09:05:41 28-May-21
 STOP.S             09:12:44 28-May-21: STOP TIME  09:12:44 28-May-21
 STEP.S                   0.00: STEP TIME
 NULL.                 -999.25: NULL VALUE
 UWI .                     N/A:  UNIQUE WELL IDENTIFIER
 API .                     N/A:  API NUMBER
 UNIT.                     N/A:  LOGGING EQUIPMENT ID
 DCON.         Sperry Drilling:  DIRECTNL CONTR
 DOE .                     N/A:  DOE NUMBER
 MWDS.                    Baku:  MWD SHOP
 SRVC.     Turan Drilling and Engineering:  CONTRACTOR
 CTRY.              Azerbaijan:  COUNTRY NAME
 PROV.                    Baku:  PROVINCE
 STAT.                    Baku:  STATE NAME
 REGN.                   EESSA:  REGION
 BASE.              Azerbaijan:  LOGGING EQUIPMENT BASE LOCATION
 WTYP.                Deviated:  WELL TYPE
 RIG .              East Azeri:  RIG NAME
 WELL.                    D02y:  WELL NAME
 FLD .                     ACG:  FIELD NAME
 COMP.     BP Exploration (Caspian Sea) Ltd.:  COMPANY
 PDAT.          Mean Sea Level:  PERMANENT DATUM
 MDS .        Operator Entered:  MAG DATA SOURCE
 SON .        AZ-XX-0906997291:  JOB NUMBER
 FTOP.          Formation Tops:  FORM TOPS DESC
 ILTD.               Lithology:  INTERP LTH DESC
 SVYD.                  Survey:  SURVEY DESC
 DMOD.             Drill Model:  DRILL MOD DESC
 HPTY.       Minimum Curvature:  HOLE POS TYPE
 NREF.                    Grid:  NORTH REFERENCE
 SPUD.               05-May-21:  SPUD DATE
 DATE.      09.27.28 12-Jun-21:  END TIME
 STIM.      09.27.28 12-May-21:  START TIME
 DMF .             Drill Floor:  DRILL MEAS FROM
 DFST.                        :  DIST FSL TEXT
 DFWT.                        :  DIST FWL TEXT
 CNTY.                        :  COUNTY
 LOC .                        :  LOCATION
 LMF .             Drill Floor:  LOG MEASURED FROM
 DEP .m                2806.40:  DEPTH
 AGAP.m                  43.60:  AIR GAP
 VSNS.m                  -4.42:  VERT SEC N/S
 VSEW.m                  -7.31:  VERT SEC E/W
 APD .m                  43.60:  DEPTH ABOVE PD
 WDMS.m                 151.80:  WD ELEV
 EGL .m                   0.00:  GROUND ELEVATION
 EPD .m                   0.00:  ELEVATION
 AZTC.deg                 6.18:  AZM TOTAL CORR
 GRDC.deg                 0.29:  GRID CORRECTION
 MDEC.deg                 6.47:  MAGNETIC DECL
 MDIP.deg                59.50:  MAGNETIC DIP
 MFLD.nT              50350.00:  MAGNETIC FIELD
 GVFD.g                   1.00:  GRAVITY FIELD
 VSDR.deg               179.08:  VERT SEC DIRECT
 TDD .m                4300.00:  TOTAL DEPTH (DRILLER)
 SDEP.m                2800.00:  START DEPTH
 DFSL.m                   0.00:  DISTANCE FSL
 DFWL.m                   0.00:  DISTANCE FWL
 UTMY.m             4431871.34:  UTM Y
 UTMX.m              538762.90:  UTM X
 WHEW.m                  -7.31:  WELL HEAD E/W
 WHNS.m                  -4.42:  WELL HEAD N/S
 LONG.deg                51.45:  LONGITUDE
 LATI.deg                40.02:  LATITUDE
 TVDS.m                  43.60:  TVDSS CORRECTN
 EKB .m                  43.60:  KB ELEVATION
 EDF .m                  43.60:  DF ELEVATION
 TDL .m                 806.00:  TOTAL DEPTH (LOGGER)
 MAGU.                 1851231:  MAGUTM CHECKSUM
 VSC .                       0:  VS TO CLOSURE
~Parameter Information Block
#MNEM.UNIT       Value        Description
#---------     -----------    ---------------------------
 AV  .mps                 1.60:  Ann Velocity 
 AVMX.mps                 2.00:  Max Ann Veloc 
 AZIF.deg               140.24:  Azm, Final 
 BHAT.        Rotary Steerable:  BHA Type 
 BROT.°/30m               0.50:  Build Rotating 
 BS  .in                  8.50:  Bit Size 
 BTPL.psig              619.00:  Bit Press Loss 
 CABU.                     Yes:  Customer Abuse 
 CGEO.          Ilgar Gurbanov:  Customer Geo 
 COMM.                     ÜøQ:  Run Comments 1 
 TCS .hr                 85.88:  Time Ciculation Ended 
 CV  .mps                 3.30:  Crit Velocity 
 CVMX.mps                 3.50:  Max Crit Veloc 
 DD1 .           Hamid Axmedov:  Direct Drillr 1 
 DD2 .           Teymur Aliyev:  Direct Drillr 2 
 DDSV.               Geo-Pilot:  DD Service 
 DEFF.%                 100.00:  % Det Eff 
 DLRX.°/30m               0.00:  Dogleg Rot Max 
 DLSO.°/30m               1.80:  Dogleg Oriented 
 DLSX.°/30m               3.34:  Dogleg Str Max 
 DRET.      11.50.00 27-May-21:  Drill End Time 
 DRST.      21.13.00 24-May-21:  Drill Start Tim 
 DTIM.hr                 45.11:  Time Drilling 
 EDEP.m                4054.00:  End Depth 
 ENG1.         Almaz Almadatov:  Engineer 1 
 ENG2.           Amrah Tahirov:  Engineer 2 
 ENG3.      Bakhtiyar Jabbarli:  Engineer 3 
 ENG4.          Nazrin Asgarli:  Engineer 4 
 ETIM.      10.00.00 30-May-21:  End Time 
 FLOI.gpm               530.00:  Flow In 
 FLON.gpm               400.00:  Flow In Min 
 FLOS.cptm                0.00:  Fluid Loss 
 FLOX.gpm               560.00:  Flow In Max 
 DFT .        Mineral Oil Base:  Mud Type 
 FTRO.       Formation Presure:  FTWD Run Obj 
 HFLO.                      No:  High Flow 
 HPRE.                      No:  High Pressure 
 HTEM.                      No:  High Temp 
 HYDO.m                   1.80:  Hydro Offset 
 IFIN.deg                73.83:  Inc, Final 
 IMAX.deg                73.83:  Inc Max 
 IMIN.deg                57.86:  Inc Min 
 IMND.m                3259.27:  Inc Min Depth 
 IMXD.m                4045.58:  Inc Max Depth 
 JARR.                     Yes:  Jarring 
 LETM.      11.50.00 27-May-21:  Log End Time 
 LOST.hr                     0:  Lost Rig Time 
 LSTM.      21.13.00 24-May-21:  Log Start Time 
 MDCL.ppm             42500.00:  Mud Chlorides 
 MDES.     Inversion Oil/Synthetic:  Mud Desc 
 DFD .sg                  1.52:  Mud Density 
 MDMN.sg                  1.52:  Dens Mud Min 
 MDMX.sg                  1.52:  Dens Mud Max 
 MOIL.                      70:  Run Mud Oil % 
 MOWR.                   70:30:  Run Mud OWR 
 MSND.                     0.2:  Run Mud Sand % 
 MSOL.                      22:  Run Mud Solids% 
 DFV .spqt               77.00:  Mud Viscosity 
 MWOD.in                  6.75:  MWD Tool OD 
 MWSI.                      No:  Serv Intrp, MWD 
 OTIM.hr                151.01:  Time Operating 
 PCON.          Wear / Scratch:  Pad Condition 
 PMAX.psia            11296.93:  Press Op, Max 
 PV  .cP                 37.00:  Mud PV 
 RUN .                     500:  Run Number 
 ROPA.m/hr               25.00:  ROP Avg 
 ROPN.m/hr                9.00:  ROP Min 
 ROPX.m/hr               28.00:  ROP Max 
 RPMA.rpm               140.00:  RPM Surface Avg 
 RPMN.rpm                90.00:  RPM Surface Min 
 RPMX.rpm               140.00:  RPM Surface Max 
 RRUN.                    0500:  Rig Run Number 
 SAZI.deg               172.17:  Azm, Start 
 SDEP.m                3248.00:  Start Depth 
 SIDD.                      No:  Serv Intrp, DD 
 SINC.deg                57.86:  Inc, Start 
 SPPA.psig             5620.00:  SPP Avg 
 SPPN.psig             5190.00:  SPP Min 
 SPPX.psig             6050.00:  SPP Max 
 STIM.      16.00.00 23-May-21:  Start Time 
 SVCS.                 DD, MWD:  Services 
 SVER.                    9.20:  Sperry Version 
 TDAT.m                 806.00:  Tot Depth Attmp 
 TDDF.                      No:  Trip for DD 
 TDLG.m                 806.00:  Tot Depth Loggd 
 TFF .                      No:  Trip for Fail 
 TQAA.f-kp               12.00:  Torque Abs Avg 
 TQAN.f-kp                8.00:  Torque Abs Min 
 TQAX.f-kp               15.00:  Torque Abs Max 
 TRRT.°/30m               0.30:  Turn Rotating 
 MRT .                  EWR-M5:  Maximum Recorded Temperature 
 TTMX.degC               93.00:  Max Tool Temp 
 VS01.                90649155:  Virtual Str1 SN 
 VS02.                90642264:  Virtual Str2 SN 
 VS03.                90642266:  Virtual Str3 SN 
 VS04.                90642261:  Virtual Str4 SN 
 WBMN.klb                 0.00:  WOB Min 
 WITN.             Anar Khalil:  Customer Rep 
 WITN.           Murad Guliyev:  Customer Rep 2 
 WOBA.klb                13.00:  WOB Avg 
 WOBX.klb                25.00:  WOB Max 
 YP  .lhf2               32.00:  Yield Point 
~Curve Information Block
#MNEM.UNIT                 API CODE     Curve Description
#---------               -----------    ---------------------------
 TIME.HHMMSS            00 000 000 000:  GT Time & Date
 GTDEPTH.m              00 000 000 000:  GT Depth
 GTPQH.psia             00 000 000 000:  GT HR Quartz Pressure
 GTTQ.degC              00 000 000 000:  GT Quartz Temperature
 GTTN.NONE              00 000 000 000:  GT Test Number
 GTET.sec               00 000 000 000:  GT Elapsed Test Time
 GTTVD.m                00 000 000 000:  GT True Vertical Depth
#Other Information
#
#WARRANTY: Halliburton will use its best efforts to furnish customers with 
#accurate information and interpretations that are part of, and incident to, the services 
#provided.  However, Halliburton cannot and does not warrant the accuracy 
#or correctness of such information and interpretations.  Under no circumstances should any 
#such information or interpretation be relied upon as the sole basis for any drilling, 
#completion, production, or financial decision or any procedure involving any risk to the 
#safety of any drilling venture, drilling rig or its crew or any other third party.  The 
#Customer has full responsibility for all drilling, completion and production operation.  
#Halliburton makes no representations or warranties, either expressed or 
#implied, including, but not limited to, the implied warranties of merchantability or fitness 
#for a particular purpose, with respect to the services rendered.  In no event will 
#Halliburton be liable for failure to obtain any particular results or for 
#any damages, including, but not limited to, indirect, special or consequential damages, 
#resulting from the use of any information or interpretation provided by Halliburton.
#
~A           TIME           GTDEPTH  GTPQH  GTTQ  GTTN   GTET   GTTVD  
# ...
   09:10:34.960.28-May-2021 3286.00 4017.59 82.12 15.00 293.84 2493.81
   09:10:35.160.28-May-2021 3286.00 4017.58 82.12 15.00 294.04 2493.81
   09:10:35.360.28-May-2021 3286.00 4017.58 82.12 15.00 294.24 2493.81
   09:10:35.560.28-May-2021 3286.00 4017.58 82.12 15.00 294.44 2493.81
   09:10:35.760.28-May-2021 3286.00 4018.05 82.12 15.00 294.64 2493.81
   09:10:35.960.28-May-2021 3286.00 4017.75 82.12 15.00 294.84 2493.81
   09:10:36.160.28-May-2021 3286.00 4017.74 82.12 15.00 295.04 2493.81
   09:10:36.360.28-May-2021 3286.00 4017.74 82.12 15.00 295.24 2493.81
   09:10:36.560.28-May-2021 3286.00 4016.99 82.12 15.00 295.44 2493.81
   09:10:36.760.28-May-2021 3286.00 4017.92 82.12 15.00 295.64 2493.81
   09:10:36.960.28-May-2021 3286.00 4017.79 82.12 15.00 295.84 2493.81
   09:10:37.160.28-May-2021 3286.00 4017.73 82.12 15.00 296.04 2493.81
   09:10:37.360.28-May-2021 3286.00 4017.73 82.12 15.00 296.24 2493.81
   09:10:37.560.28-May-2021 3286.00 4017.96 82.12 15.00 296.44 2493.81
   09:10:37.760.28-May-2021 3286.00 4017.82 82.12 15.00 296.64 2493.81
   09:10:37.960.28-May-2021 3286.00 4017.74 82.12 15.00 296.84 2493.81
   09:10:38.160.28-May-2021 3286.00 4017.73 82.12 15.00 297.04 2493.81
   09:10:38.360.28-May-2021 3286.00 4017.73 82.12 15.00 297.24 2493.81
   09:10:38.560.28-May-2021 3286.00 4017.96 82.12 15.00 297.44 2493.81
   09:10:38.760.28-May-2021 3286.00 4017.81 82.12 15.00 297.64 2493.81
   09:10:38.960.28-May-2021 3286.00 4017.75 82.12 15.00 297.84 2493.81
   09:10:39.160.28-May-2021 3286.00 4017.73 82.12 15.00 298.04 2493.81
   09:10:39.360.28-May-2021 3286.00 4017.73 82.12 15.00 298.24 2493.81
   09:10:39.560.28-May-2021 3286.00 4017.71 82.11 15.00 298.44 2493.81
   09:10:39.760.28-May-2021 3286.00 4017.67 82.11 15.00 298.64 2493.81
   09:10:39.960.28-May-2021 3286.00 4017.65 82.11 15.00 298.84 2493.81
   09:10:40.160.28-May-2021 3286.00 4017.65 82.11 15.00 299.04 2493.81
   09:10:40.360.28-May-2021 3286.00 4017.65 82.11 15.00 299.24 2493.81
   09:10:40.560.28-May-2021 3286.00 4017.63 82.11 15.00 299.44 2493.81
   09:10:40.760.28-May-2021 3286.00 4017.62 82.11 15.00 299.64 2493.81
   09:10:40.960.28-May-2021 3286.00 4017.34 82.11 15.00 299.84 2493.81
   09:10:41.160.28-May-2021 3286.00 4017.47 82.11 15.00 300.04 2493.81
   09:10:41.361.28-May-2021 3286.00 4017.47 82.11 15.00 300.24 2493.81
   09:10:41.561.28-May-2021 3286.00 4017.73 82.11 15.00 300.44 2493.81
   09:10:41.761.28-May-2021 3286.00 4017.74 82.11 15.00 300.64 2493.81
   09:10:41.961.28-May-2021 3286.00 4017.69 82.11 15.00 300.84 2493.81
   09:10:42.161.28-May-2021 3286.00 4017.69 82.11 15.00 301.04 2493.81
   09:10:42.361.28-May-2021 3286.00 4017.69 82.11 15.00 301.24 2493.81
   09:10:42.561.28-May-2021 3286.00 4017.65 82.11 15.00 301.44 2493.81
   09:10:42.761.28-May-2021 3286.00 4017.64 82.11 15.00 301.64 2493.81
   09:10:42.961.28-May-2021 3286.00 4017.63 82.11 15.00 301.84 2493.81
   09:10:43.161.28-May-2021 3286.00 4017.63 82.11 15.00 302.04 2493.81
   09:10:43.361.28-May-2021 3286.00 4017.63 82.11 15.00 302.24 2493.81
   09:10:43.561.28-May-2021 3286.00 4017.62 82.11 15.00 302.44 2493.81
   09:10:43.761.28-May-2021 3286.00 4017.14 82.11 15.00 302.64 2493.81
   09:10:43.961.28-May-2021 3286.00 4017.87 82.11 15.00 302.84 2493.81
   09:10:44.161.28-May-2021 3286.00 4017.74 82.11 15.00 303.04 2493.81
   09:10:44.361.28-May-2021 3286.00 4017.74 82.11 15.00 303.24 2493.81
   09:10:44.561.28-May-2021 3286.00 4017.69 82.11 15.00 303.44 2493.81
   09:10:44.761.28-May-2021 3286.00 4016.83 82.11 15.00 303.64 2493.81
   09:10:44.961.28-May-2021 3286.00 4018.16 82.11 15.00 303.84 2493.81
   09:10:45.161.28-May-2021 3286.00 4017.81 82.11 15.00 304.04 2493.81
   09:10:45.361.28-May-2021 3286.00 4017.81 82.11 15.00 304.24 2493.81
   09:10:45.561.28-May-2021 3286.00 4016.84 82.11 15.00 304.44 2493.81
   09:10:45.761.28-May-2021 3286.00 4018.17 82.11 15.00 304.64 2493.81
   09:10:45.961.28-May-2021 3286.00 4017.80 82.11 15.00 304.84 2493.81
   09:10:46.161.28-May-2021 3286.00 4017.77 82.11 15.00 305.04 2493.81
   09:10:46.361.28-May-2021 3286.00 4017.77 82.11 15.00 305.24 2493.81
   09:10:46.561.28-May-2021 3286.00 4016.84 82.11 15.00 305.44 2493.81
   09:10:46.761.28-May-2021 3286.00 4018.17 82.11 15.00 305.64 2493.81
   09:10:46.961.28-May-2021 3286.00 4017.82 82.11 15.00 305.84 2493.81
   09:10:47.161.28-May-2021 3286.00 4017.76 82.11 15.00 306.04 2493.81
   09:10:47.361.28-May-2021 3286.00 4017.76 82.11 15.00 306.24 2493.81
   09:10:47.561.28-May-2021 3286.00 4017.71 82.11 15.00 306.44 2493.81
   09:10:47.761.28-May-2021 3286.00 4017.68 82.11 15.00 306.64 2493.81
   09:10:47.961.28-May-2021 3286.00 4017.67 82.11 15.00 306.84 2493.81
   09:10:48.161.28-May-2021 3286.00 4017.67 82.11 15.00 307.04 2493.81
   09:10:48.361.28-May-2021 3286.00 4017.67 82.11 15.00 307.24 2493.81
   09:10:48.561.28-May-2021 3286.00 4017.65 82.11 15.00 307.44 2493.81
   09:10:48.762.28-May-2021 3286.00 4017.65 82.11 15.00 307.64 2493.81
   09:10:48.962.28-May-2021 3286.00 4017.64 82.11 15.00 307.84 2493.81
   09:10:49.162.28-May-2021 3286.00 4016.97 82.11 15.00 308.04 2493.81
   09:10:49.362.28-May-2021 3286.00 4016.97 82.11 15.00 308.24 2493.81
   09:10:49.562.28-May-2021 3286.00 4017.80 82.11 15.00 308.44 2493.81
   09:10:49.762.28-May-2021 3286.00 4017.74 82.11 15.00 308.64 2493.81
   09:10:49.962.28-May-2021 3286.00 4017.72 82.11 15.00 308.84 2493.81
   09:10:50.162.28-May-2021 3286.00 4017.70 82.11 15.00 309.04 2493.81
   09:10:50.362.28-May-2021 3286.00 4017.70 82.11 15.00 309.24 2493.81
   09:10:50.562.28-May-2021 3286.00 4017.67 82.11 15.00 309.44 2493.81
   09:10:50.762.28-May-2021 3286.00 4017.66 82.11 15.00 309.64 2493.81
   09:10:50.962.28-May-2021 3286.00 4017.65 82.11 15.00 309.84 2493.81
   09:10:51.162.28-May-2021 3286.00 4017.66 82.11 15.00 310.04 2493.81
   09:10:51.362.28-May-2021 3286.00 4017.66 82.11 15.00 310.24 2493.81
   09:10:51.562.28-May-2021 3286.00 4017.63 82.11 15.00 310.44 2493.81
   09:10:51.762.28-May-2021 3286.00 4017.36 82.11 15.00 310.64 2493.81
   09:10:51.962.28-May-2021 3286.00 4017.47 82.11 15.00 310.84 2493.81
   09:10:52.162.28-May-2021 3286.00 4017.84 82.11 15.00 311.04 2493.81
   09:10:52.362.28-May-2021 3286.00 4017.84 82.11 15.00 311.24 2493.81
   09:10:52.562.28-May-2021 3286.00 4017.73 82.11 15.00 311.44 2493.81
   09:10:52.762.28-May-2021 3286.00 4017.69 82.11 15.00 311.64 2493.81
   09:10:52.962.28-May-2021 3286.00 4016.95 82.11 15.00 311.84 2493.81
   09:10:53.162.28-May-2021 3286.00 4018.10 82.11 15.00 312.04 2493.81
   09:10:53.362.28-May-2021 3286.00 4018.10 82.11 15.00 312.24 2493.81
   09:10:53.562.28-May-2021 3286.00 4017.76 82.11 15.00 312.44 2493.81
   09:10:53.762.28-May-2021 3286.00 4016.95 82.11 15.00 312.64 2493.81
   09:10:53.962.28-May-2021 3286.00 4018.11 82.11 15.00 312.84 2493.81
   09:10:54.162.28-May-2021 3286.00 4017.79 82.11 15.00 313.04 2493.81
   09:10:54.362.28-May-2021 3286.00 4017.79 82.11 15.00 313.24 2493.81
   09:10:54.562.28-May-2021 3286.00 4017.70 82.11 15.00 313.44 2493.81
   09:10:54.762.28-May-2021 3286.00 4016.95 82.11 15.00 313.64 2493.81
   09:10:54.962.28-May-2021 3286.00 4018.11 82.11 15.00 313.84 2493.81
   09:10:55.162.28-May-2021 3286.00 4017.79 82.11 15.00 314.04 2493.81
   09:10:55.362.28-May-2021 3286.00 4017.79 82.11 15.00 314.24 2493.81
   09:10:55.562.28-May-2021 3286.00 4017.79 82.11 15.00 314.44 2493.81
   09:10:55.762.28-May-2021 3286.00 4017.71 82.10 15.00 314.64 2493.81
   09:10:55.962.28-May-2021 3286.00 4017.68 82.10 15.00 314.84 2493.81
   09:10:56.163.28-May-2021 3286.00 4017.68 82.10 15.00 315.04 2493.81
   09:10:56.363.28-May-2021 3286.00 4017.68 82.10 15.00 315.24 2493.81
   09:10:56.563.28-May-2021 3286.00 4017.66 82.10 15.00 315.44 2493.81
   09:10:56.763.28-May-2021 3286.00 4017.66 82.10 15.00 315.64 2493.81
   09:10:56.963.28-May-2021 3286.00 4017.67 82.10 15.00 315.84 2493.81
   09:10:57.163.28-May-2021 3286.00 4017.65 82.10 15.00 316.04 2493.81
   09:10:57.363.28-May-2021 3286.00 4017.65 82.10 15.00 316.24 2493.81
