~Version Information
 VERS.                  2.0:   CWLS log ASCII Standard -VERSION 2.0
 WRAP.                   NO:   One line per depth step
~Well Information Block
#MNEM.UNIT     VALUE/NAME     DESCRIPTION
#---------     -----------    ---------------------------
 STRT.S             04:01:58 28-May-21: START TIME 04:01:58 28-May-21
 STOP.S             04:09:02 28-May-21: STOP TIME  04:09:02 28-May-21
 STEP.S                   0.00: STEP TIME
 NULL.                 -999.25: NULL VALUE
 UWI .                     N/A:  UNIQUE WELL IDENTIFIER
 API .                     N/A:  API NUMBER
 UNIT.                     N/A:  LOGGING EQUIPMENT ID
 DCON.         Sperry Drilling:  DIRECTNL CONTR
 DOE .                     N/A:  DOE NUMBER
 MWDS.                    Baku:  MWD SHOP
 SRVC.     Turan Drilling and Engineering:  CONTRACTOR
 CTRY.              Azerbaijan:  COUNTRY NAME
 PROV.                    Baku:  PROVINCE
 STAT.                    Baku:  STATE NAME
 REGN.                   EESSA:  REGION
 BASE.              Azerbaijan:  LOGGING EQUIPMENT BASE LOCATION
 WTYP.                Deviated:  WELL TYPE
 RIG .              East Azeri:  RIG NAME
 WELL.                    D02y:  WELL NAME
 FLD .                     ACG:  FIELD NAME
 COMP.     BP Exploration (Caspian Sea) Ltd.:  COMPANY
 PDAT.          Mean Sea Level:  PERMANENT DATUM
 MDS .        Operator Entered:  MAG DATA SOURCE
 SON .        AZ-XX-0906997291:  JOB NUMBER
 FTOP.          Formation Tops:  FORM TOPS DESC
 ILTD.               Lithology:  INTERP LTH DESC
 SVYD.                  Survey:  SURVEY DESC
 DMOD.             Drill Model:  DRILL MOD DESC
 HPTY.       Minimum Curvature:  HOLE POS TYPE
 NREF.                    Grid:  NORTH REFERENCE
 SPUD.               05-May-21:  SPUD DATE
 DATE.      09.27.28 12-Jun-21:  END TIME
 STIM.      09.27.28 12-May-21:  START TIME
 DMF .             Drill Floor:  DRILL MEAS FROM
 DFST.                        :  DIST FSL TEXT
 DFWT.                        :  DIST FWL TEXT
 CNTY.                        :  COUNTY
 LOC .                        :  LOCATION
 LMF .             Drill Floor:  LOG MEASURED FROM
 DEP .m                2806.40:  DEPTH
 AGAP.m                  43.60:  AIR GAP
 VSNS.m                  -4.42:  VERT SEC N/S
 VSEW.m                  -7.31:  VERT SEC E/W
 APD .m                  43.60:  DEPTH ABOVE PD
 WDMS.m                 151.80:  WD ELEV
 EGL .m                   0.00:  GROUND ELEVATION
 EPD .m                   0.00:  ELEVATION
 AZTC.deg                 6.18:  AZM TOTAL CORR
 GRDC.deg                 0.29:  GRID CORRECTION
 MDEC.deg                 6.47:  MAGNETIC DECL
 MDIP.deg                59.50:  MAGNETIC DIP
 MFLD.nT              50350.00:  MAGNETIC FIELD
 GVFD.g                   1.00:  GRAVITY FIELD
 VSDR.deg               179.08:  VERT SEC DIRECT
 TDD .m                4300.00:  TOTAL DEPTH (DRILLER)
 SDEP.m                2800.00:  START DEPTH
 DFSL.m                   0.00:  DISTANCE FSL
 DFWL.m                   0.00:  DISTANCE FWL
 UTMY.m             4431871.34:  UTM Y
 UTMX.m              538762.90:  UTM X
 WHEW.m                  -7.31:  WELL HEAD E/W
 WHNS.m                  -4.42:  WELL HEAD N/S
 LONG.deg                51.45:  LONGITUDE
 LATI.deg                40.02:  LATITUDE
 TVDS.m                  43.60:  TVDSS CORRECTN
 EKB .m                  43.60:  KB ELEVATION
 EDF .m                  43.60:  DF ELEVATION
 TDL .m                 806.00:  TOTAL DEPTH (LOGGER)
 MAGU.                 1851231:  MAGUTM CHECKSUM
 VSC .                       0:  VS TO CLOSURE
~Parameter Information Block
#MNEM.UNIT       Value        Description
#---------     -----------    ---------------------------
 AV  .mps                 1.60:  Ann Velocity 
 AVMX.mps                 2.00:  Max Ann Veloc 
 AZIF.deg               140.24:  Azm, Final 
 BHAT.        Rotary Steerable:  BHA Type 
 BROT.°/30m               0.50:  Build Rotating 
 BS  .in                  8.50:  Bit Size 
 BTPL.psig              619.00:  Bit Press Loss 
 CABU.                     Yes:  Customer Abuse 
 CGEO.          Ilgar Gurbanov:  Customer Geo 
 COMM.                     4`:  Run Comments 1 
 TCS .hr                 85.88:  Time Ciculation Ended 
 CV  .mps                 3.30:  Crit Velocity 
 CVMX.mps                 3.50:  Max Crit Veloc 
 DD1 .           Hamid Axmedov:  Direct Drillr 1 
 DD2 .           Teymur Aliyev:  Direct Drillr 2 
 DDSV.               Geo-Pilot:  DD Service 
 DEFF.%                 100.00:  % Det Eff 
 DLRX.°/30m               0.00:  Dogleg Rot Max 
 DLSO.°/30m               1.80:  Dogleg Oriented 
 DLSX.°/30m               3.34:  Dogleg Str Max 
 DRET.      11.50.00 27-May-21:  Drill End Time 
 DRST.      21.13.00 24-May-21:  Drill Start Tim 
 DTIM.hr                 45.11:  Time Drilling 
 EDEP.m                4054.00:  End Depth 
 ENG1.         Almaz Almadatov:  Engineer 1 
 ENG2.           Amrah Tahirov:  Engineer 2 
 ENG3.      Bakhtiyar Jabbarli:  Engineer 3 
 ENG4.          Nazrin Asgarli:  Engineer 4 
 ETIM.      10.00.00 30-May-21:  End Time 
 FLOI.gpm               530.00:  Flow In 
 FLON.gpm               400.00:  Flow In Min 
 FLOS.cptm                0.00:  Fluid Loss 
 FLOX.gpm               560.00:  Flow In Max 
 DFT .        Mineral Oil Base:  Mud Type 
 FTRO.       Formation Presure:  FTWD Run Obj 
 HFLO.                      No:  High Flow 
 HPRE.                      No:  High Pressure 
 HTEM.                      No:  High Temp 
 HYDO.m                   1.80:  Hydro Offset 
 IFIN.deg                73.83:  Inc, Final 
 IMAX.deg                73.83:  Inc Max 
 IMIN.deg                57.86:  Inc Min 
 IMND.m                3259.27:  Inc Min Depth 
 IMXD.m                4045.58:  Inc Max Depth 
 JARR.                     Yes:  Jarring 
 LETM.      11.50.00 27-May-21:  Log End Time 
 LOST.hr                     0:  Lost Rig Time 
 LSTM.      21.13.00 24-May-21:  Log Start Time 
 MDCL.ppm             42500.00:  Mud Chlorides 
 MDES.     Inversion Oil/Synthetic:  Mud Desc 
 DFD .sg                  1.52:  Mud Density 
 MDMN.sg                  1.52:  Dens Mud Min 
 MDMX.sg                  1.52:  Dens Mud Max 
 MOIL.                      70:  Run Mud Oil % 
 MOWR.                   70:30:  Run Mud OWR 
 MSND.                     0.2:  Run Mud Sand % 
 MSOL.                      22:  Run Mud Solids% 
 DFV .spqt               77.00:  Mud Viscosity 
 MWOD.in                  6.75:  MWD Tool OD 
 MWSI.                      No:  Serv Intrp, MWD 
 OTIM.hr                151.01:  Time Operating 
 PCON.          Wear / Scratch:  Pad Condition 
 PMAX.psia            11296.93:  Press Op, Max 
 PV  .cP                 37.00:  Mud PV 
 RUN .                     500:  Run Number 
 ROPA.m/hr               25.00:  ROP Avg 
 ROPN.m/hr                9.00:  ROP Min 
 ROPX.m/hr               28.00:  ROP Max 
 RPMA.rpm               140.00:  RPM Surface Avg 
 RPMN.rpm                90.00:  RPM Surface Min 
 RPMX.rpm               140.00:  RPM Surface Max 
 RRUN.                    0500:  Rig Run Number 
 SAZI.deg               172.17:  Azm, Start 
 SDEP.m                3248.00:  Start Depth 
 SIDD.                      No:  Serv Intrp, DD 
 SINC.deg                57.86:  Inc, Start 
 SPPA.psig             5620.00:  SPP Avg 
 SPPN.psig             5190.00:  SPP Min 
 SPPX.psig             6050.00:  SPP Max 
 STIM.      16.00.00 23-May-21:  Start Time 
 SVCS.                 DD, MWD:  Services 
 SVER.                    9.20:  Sperry Version 
 TDAT.m                 806.00:  Tot Depth Attmp 
 TDDF.                      No:  Trip for DD 
 TDLG.m                 806.00:  Tot Depth Loggd 
 TFF .                      No:  Trip for Fail 
 TQAA.f-kp               12.00:  Torque Abs Avg 
 TQAN.f-kp                8.00:  Torque Abs Min 
 TQAX.f-kp               15.00:  Torque Abs Max 
 TRRT.°/30m               0.30:  Turn Rotating 
 MRT .                  EWR-M5:  Maximum Recorded Temperature 
 TTMX.degC               93.00:  Max Tool Temp 
 VS01.                90649155:  Virtual Str1 SN 
 VS02.                90642264:  Virtual Str2 SN 
 VS03.                90642266:  Virtual Str3 SN 
 VS04.                90642261:  Virtual Str4 SN 
 WBMN.klb                 0.00:  WOB Min 
 WITN.             Anar Khalil:  Customer Rep 
 WITN.           Murad Guliyev:  Customer Rep 2 
 WOBA.klb                13.00:  WOB Avg 
 WOBX.klb                25.00:  WOB Max 
 YP  .lhf2               32.00:  Yield Point 
~Curve Information Block
#MNEM.UNIT                 API CODE     Curve Description
#---------               -----------    ---------------------------
 TIME.HHMMSS            00 000 000 000:  GT Time & Date
 GTDEPTH.m              00 000 000 000:  GT Depth
 GTPQH.psia             00 000 000 000:  GT HR Quartz Pressure
 GTTQ.degC              00 000 000 000:  GT Quartz Temperature
 GTTN.NONE              00 000 000 000:  GT Test Number
 GTET.sec               00 000 000 000:  GT Elapsed Test Time
 GTTVD.m                00 000 000 000:  GT True Vertical Depth
#Other Information
#
#WARRANTY: Halliburton will use its best efforts to furnish customers with 
#accurate information and interpretations that are part of, and incident to, the services 
#provided.  However, Halliburton cannot and does not warrant the accuracy 
#or correctness of such information and interpretations.  Under no circumstances should any 
#such information or interpretation be relied upon as the sole basis for any drilling, 
#completion, production, or financial decision or any procedure involving any risk to the 
#safety of any drilling venture, drilling rig or its crew or any other third party.  The 
#Customer has full responsibility for all drilling, completion and production operation.  
#Halliburton makes no representations or warranties, either expressed or 
#implied, including, but not limited to, the implied warranties of merchantability or fitness 
#for a particular purpose, with respect to the services rendered.  In no event will 
#Halliburton be liable for failure to obtain any particular results or for 
#any damages, including, but not limited to, indirect, special or consequential damages, 
#resulting from the use of any information or interpretation provided by Halliburton.
#
~A           TIME           GTDEPTH  GTPQH  GTTQ  GTTN  GTET   GTTVD  
   04:01:58.346.28-May-2021 3493.50 6039.02 83.35 8.00   0.00 2592.27
   04:01:58.546.28-May-2021 3493.50 6039.02 83.35 8.00   0.20 2592.27
   04:01:58.746.28-May-2021 3493.50 6039.35 83.35 8.00   0.40 2592.27
   04:01:58.946.28-May-2021 3493.50 6045.49 83.35 8.00   0.60 2592.27
   04:01:59.146.28-May-2021 3493.50 6037.61 83.35 8.00   0.80 2592.27
   04:01:59.346.28-May-2021 3493.50 6040.53 83.35 8.00   1.00 2592.27
   04:01:59.546.28-May-2021 3493.50 6040.53 83.35 8.00   1.20 2592.27
   04:01:59.746.28-May-2021 3493.50 6040.44 83.35 8.00   1.40 2592.27
   04:01:59.946.28-May-2021 3493.50 6040.58 83.35 8.00   1.60 2592.27
   04:02:00.146.28-May-2021 3493.50 6040.88 83.35 8.00   1.80 2592.27
   04:02:00.346.28-May-2021 3493.50 6041.04 83.35 8.00   2.00 2592.27
   04:02:00.546.28-May-2021 3493.50 6041.04 83.35 8.00   2.20 2592.27
   04:02:00.746.28-May-2021 3493.50 6041.89 83.35 8.00   2.40 2592.27
   04:02:00.947.28-May-2021 3493.50 6045.21 83.34 8.00   2.60 2592.27
   04:02:01.147.28-May-2021 3493.50 6042.38 83.34 8.00   2.80 2592.27
   04:02:01.347.28-May-2021 3493.50 6042.56 83.34 8.00   3.00 2592.27
   04:02:01.547.28-May-2021 3493.50 6042.56 83.34 8.00   3.20 2592.27
   04:02:01.747.28-May-2021 3493.50 6042.58 83.34 8.00   3.40 2592.27
   04:02:01.947.28-May-2021 3493.50 6042.88 83.34 8.00   3.60 2592.27
   04:02:02.147.28-May-2021 3493.50 6042.89 83.34 8.00   3.80 2592.27
   04:02:02.347.28-May-2021 3493.50 6043.56 83.34 8.00   4.00 2592.27
   04:02:02.547.28-May-2021 3493.50 6043.56 83.34 8.00   4.20 2592.27
   04:02:02.747.28-May-2021 3493.50 6044.37 83.34 8.00   4.40 2592.27
   04:02:02.947.28-May-2021 3493.50 6044.36 83.34 8.00   4.60 2592.27
   04:02:03.147.28-May-2021 3493.50 6044.43 83.34 8.00   4.80 2592.27
   04:02:03.347.28-May-2021 3493.50 6044.53 83.34 8.00   5.00 2592.27
   04:02:03.547.28-May-2021 3493.50 6044.53 83.34 8.00   5.20 2592.27
   04:02:03.747.28-May-2021 3493.50 6041.71 83.34 8.00   5.40 2592.27
   04:02:03.948.28-May-2021 3493.50 6044.82 83.34 8.00   5.60 2592.27
   04:02:04.148.28-May-2021 3493.50 6050.93 83.34 8.00   5.80 2592.27
   04:02:04.348.28-May-2021 3493.50 6042.66 83.34 8.00   6.00 2592.27
   04:02:04.548.28-May-2021 3493.50 6042.66 83.34 8.00   6.20 2592.27
   04:02:04.748.28-May-2021 3493.50 6045.50 83.34 8.00   6.40 2592.27
   04:02:04.948.28-May-2021 3493.50 6045.35 83.34 8.00   6.60 2592.27
   04:02:05.148.28-May-2021 3493.50 6046.01 83.34 8.00   6.80 2592.27
   04:02:05.348.28-May-2021 3493.50 6052.16 83.34 8.00   7.00 2592.27
   04:02:05.548.28-May-2021 3493.50 6052.16 83.34 8.00   7.20 2592.27
   04:02:05.748.28-May-2021 3493.50 6047.20 83.34 8.00   7.40 2592.27
   04:02:05.948.28-May-2021 3493.50 6046.88 83.34 8.00   7.60 2592.27
   04:02:06.148.28-May-2021 3493.50 6046.78 83.34 8.00   7.80 2592.27
   04:02:06.348.28-May-2021 3493.50 6053.95 83.34 8.00   8.00 2592.27
   04:02:06.548.28-May-2021 3493.50 6053.95 83.34 8.00   8.20 2592.27
   04:02:06.748.28-May-2021 3493.50 6047.16 83.34 8.00   8.40 2592.27
   04:02:06.948.28-May-2021 3493.50 6053.71 83.34 8.00   8.60 2592.27
   04:02:07.149.28-May-2021 3493.50 6045.53 83.34 8.00   8.80 2592.27
   04:02:07.349.28-May-2021 3493.50 6048.10 83.33 8.00   9.00 2592.27
   04:02:07.549.28-May-2021 3493.50 6048.10 83.33 8.00   9.20 2592.27
   04:02:07.749.28-May-2021 3493.50 6046.26 83.33 8.00   9.40 2592.27
   04:02:07.949.28-May-2021 3493.50 6049.27 83.33 8.00   9.60 2592.27
   04:02:08.149.28-May-2021 3493.50 6055.14 83.33 8.00   9.80 2592.27
   04:02:08.349.28-May-2021 3493.50 6046.76 83.33 8.00  10.00 2592.27
   04:02:08.549.28-May-2021 3493.50 6046.76 83.33 8.00  10.20 2592.27
   04:02:08.749.28-May-2021 3493.50 6049.19 83.33 8.00  10.40 2592.27
   04:02:08.949.28-May-2021 3493.50 6052.53 83.33 8.00  10.60 2592.27
   04:02:09.149.28-May-2021 3493.50 6050.03 83.33 8.00  10.80 2592.27
   04:02:09.349.28-May-2021 3493.50 6050.43 83.33 8.00  11.00 2592.27
   04:02:09.549.28-May-2021 3493.50 6050.43 83.33 8.00  11.20 2592.27
   04:02:09.749.28-May-2021 3493.50 6050.38 83.33 8.00  11.40 2592.27
   04:02:09.949.28-May-2021 3493.50 6050.58 83.33 8.00  11.60 2592.27
   04:02:10.150.28-May-2021 3493.50 6050.34 83.33 8.00  11.80 2592.27
   04:02:10.350.28-May-2021 3493.50 6050.83 83.33 8.00  12.00 2592.27
   04:02:10.550.28-May-2021 3493.50 6050.83 83.33 8.00  12.20 2592.27
   04:02:10.750.28-May-2021 3493.50 6051.37 83.33 8.00  12.40 2592.27
   04:02:10.950.28-May-2021 3493.50 6051.23 83.33 8.00  12.60 2592.27
   04:02:11.150.28-May-2021 3493.50 6051.18 83.33 8.00  12.80 2592.27
   04:02:11.350.28-May-2021 3493.50 6051.13 83.33 8.00  13.00 2592.27
   04:02:11.550.28-May-2021 3493.50 6051.13 83.33 8.00  13.20 2592.27
   04:02:11.750.28-May-2021 3493.50 6051.13 83.33 8.00  13.40 2592.27
   04:02:11.950.28-May-2021 3493.50 6056.05 83.33 8.00  13.60 2592.27
   04:02:12.150.28-May-2021 3493.50 6052.19 83.33 8.00  13.80 2592.27
   04:02:12.350.28-May-2021 3493.50 6051.55 83.33 8.00  14.00 2592.27
   04:02:12.550.28-May-2021 3493.50 6051.55 83.33 8.00  14.20 2592.27
   04:02:12.750.28-May-2021 3493.50 6051.55 83.33 8.00  14.40 2592.27
   04:02:12.950.28-May-2021 3493.50 6051.58 83.33 8.00  14.60 2592.27
   04:02:13.150.28-May-2021 3493.50 6052.32 83.33 8.00  14.80 2592.27
   04:02:13.351.28-May-2021 3493.50 6052.37 83.33 8.00  15.00 2592.27
   04:02:13.551.28-May-2021 3493.50 6052.37 83.33 8.00  15.20 2592.27
   04:02:13.751.28-May-2021 3493.50 6052.83 83.32 8.00  15.40 2592.27
   04:02:13.951.28-May-2021 3493.50 6052.73 83.32 8.00  15.61 2592.27
   04:02:14.151.28-May-2021 3493.50 6052.72 83.32 8.00  15.81 2592.27
   04:02:14.351.28-May-2021 3493.50 6053.01 83.32 8.00  16.01 2592.27
   04:02:14.551.28-May-2021 3493.50 6053.01 83.32 8.00  16.21 2592.27
   04:02:14.751.28-May-2021 3493.50 6053.43 83.32 8.00  16.41 2592.27
   04:02:14.951.28-May-2021 3493.50 6053.65 83.32 8.00  16.61 2592.27
   04:02:15.151.28-May-2021 3493.50 6052.93 83.32 8.00  16.81 2592.27
   04:02:15.351.28-May-2021 3493.50 6052.88 83.32 8.00  17.01 2592.27
   04:02:15.551.28-May-2021 3493.50 6052.88 83.32 8.00  17.21 2592.27
   04:02:15.751.28-May-2021 3493.50 6050.88 83.32 8.00  17.41 2592.27
   04:02:15.951.28-May-2021 3493.50 6053.73 83.32 8.00  17.61 2592.27
   04:02:16.151.28-May-2021 3493.50 6053.72 83.32 8.00  17.81 2592.27
   04:02:16.352.28-May-2021 3493.50 6053.99 83.32 8.00  18.01 2592.27
   04:02:16.552.28-May-2021 3493.50 6053.99 83.32 8.00  18.21 2592.27
   04:02:16.752.28-May-2021 3493.50 6060.96 83.32 8.00  18.41 2592.27
   04:02:16.952.28-May-2021 3493.50 6054.24 83.32 8.00  18.61 2592.27
   04:02:17.152.28-May-2021 3493.50 6054.63 83.32 8.00  18.81 2592.27
   04:02:17.352.28-May-2021 3493.50 6054.80 83.32 8.00  19.01 2592.27
   04:02:17.552.28-May-2021 3493.50 6054.80 83.32 8.00  19.21 2592.27
   04:02:17.752.28-May-2021 3493.50 6055.67 83.32 8.00  19.41 2592.27
   04:02:17.952.28-May-2021 3493.50 6054.88 83.32 8.00  19.61 2592.27
   04:02:18.152.28-May-2021 3493.50 6060.52 83.32 8.00  19.81 2592.27
   04:02:18.352.28-May-2021 3493.50 6054.63 83.32 8.00  20.01 2592.27
   04:02:18.552.28-May-2021 3493.50 6054.63 83.32 8.00  20.21 2592.27
   04:02:18.752.28-May-2021 3493.50 6055.69 83.32 8.00  20.41 2592.27
   04:02:18.952.28-May-2021 3493.50 6055.58 83.32 8.00  20.61 2592.27
   04:02:19.152.28-May-2021 3493.50 6059.18 83.32 8.00  20.81 2592.27
   04:02:19.352.28-May-2021 3493.50 6056.50 83.32 8.00  21.01 2592.27
   04:02:19.553.28-May-2021 3493.50 6056.50 83.32 8.00  21.21 2592.27
   04:02:19.753.28-May-2021 3493.50 6056.31 83.32 8.00  21.41 2592.27
   04:02:19.953.28-May-2021 3493.50 6055.86 83.32 8.00  21.61 2592.27
   04:02:20.153.28-May-2021 3493.50 6056.16 83.31 8.00  21.81 2592.27
   04:02:20.353.28-May-2021 3493.50 6055.87 83.31 8.00  22.01 2592.27
   04:02:20.553.28-May-2021 3493.50 6055.87 83.31 8.00  22.21 2592.27
   04:02:20.753.28-May-2021 3493.50 6056.65 83.31 8.00  22.41 2592.27
   04:02:20.953.28-May-2021 3493.50 6057.11 83.31 8.00  22.61 2592.27
   04:02:21.153.28-May-2021 3493.50 6057.02 83.31 8.00  22.81 2592.27
