~Version Information
 VERS.                  2.0:   CWLS log ASCII Standard -VERSION 2.0
 WRAP.                   NO:   One line per depth step
~Well Information Block
#MNEM.UNIT     VALUE/NAME     DESCRIPTION
#---------     -----------    ---------------------------
 STRT.S             03:01:37 28-May-21: START TIME 03:01:37 28-May-21
 STOP.S             03:08:42 28-May-21: STOP TIME  03:08:42 28-May-21
 STEP.S                   0.00: STEP TIME
 NULL.                 -999.25: NULL VALUE
 UWI .                     N/A:  UNIQUE WELL IDENTIFIER
 API .                     N/A:  API NUMBER
 UNIT.                     N/A:  LOGGING EQUIPMENT ID
 DCON.         Sperry Drilling:  DIRECTNL CONTR
 DOE .                     N/A:  DOE NUMBER
 MWDS.                    Baku:  MWD SHOP
 SRVC.     Turan Drilling and Engineering:  CONTRACTOR
 CTRY.              Azerbaijan:  COUNTRY NAME
 PROV.                    Baku:  PROVINCE
 STAT.                    Baku:  STATE NAME
 REGN.                   EESSA:  REGION
 BASE.              Azerbaijan:  LOGGING EQUIPMENT BASE LOCATION
 WTYP.                Deviated:  WELL TYPE
 RIG .              East Azeri:  RIG NAME
 WELL.                    D02y:  WELL NAME
 FLD .                     ACG:  FIELD NAME
 COMP.     BP Exploration (Caspian Sea) Ltd.:  COMPANY
 PDAT.          Mean Sea Level:  PERMANENT DATUM
 MDS .        Operator Entered:  MAG DATA SOURCE
 SON .        AZ-XX-0906997291:  JOB NUMBER
 FTOP.          Formation Tops:  FORM TOPS DESC
 ILTD.               Lithology:  INTERP LTH DESC
 SVYD.                  Survey:  SURVEY DESC
 DMOD.             Drill Model:  DRILL MOD DESC
 HPTY.       Minimum Curvature:  HOLE POS TYPE
 NREF.                    Grid:  NORTH REFERENCE
 SPUD.               05-May-21:  SPUD DATE
 DATE.      09.27.28 12-Jun-21:  END TIME
 STIM.      09.27.28 12-May-21:  START TIME
 DMF .             Drill Floor:  DRILL MEAS FROM
 DFST.                        :  DIST FSL TEXT
 DFWT.                        :  DIST FWL TEXT
 CNTY.                        :  COUNTY
 LOC .                        :  LOCATION
 LMF .             Drill Floor:  LOG MEASURED FROM
 DEP .m                2806.40:  DEPTH
 AGAP.m                  43.60:  AIR GAP
 VSNS.m                  -4.42:  VERT SEC N/S
 VSEW.m                  -7.31:  VERT SEC E/W
 APD .m                  43.60:  DEPTH ABOVE PD
 WDMS.m                 151.80:  WD ELEV
 EGL .m                   0.00:  GROUND ELEVATION
 EPD .m                   0.00:  ELEVATION
 AZTC.deg                 6.18:  AZM TOTAL CORR
 GRDC.deg                 0.29:  GRID CORRECTION
 MDEC.deg                 6.47:  MAGNETIC DECL
 MDIP.deg                59.50:  MAGNETIC DIP
 MFLD.nT              50350.00:  MAGNETIC FIELD
 GVFD.g                   1.00:  GRAVITY FIELD
 VSDR.deg               179.08:  VERT SEC DIRECT
 TDD .m                4300.00:  TOTAL DEPTH (DRILLER)
 SDEP.m                2800.00:  START DEPTH
 DFSL.m                   0.00:  DISTANCE FSL
 DFWL.m                   0.00:  DISTANCE FWL
 UTMY.m             4431871.34:  UTM Y
 UTMX.m              538762.90:  UTM X
 WHEW.m                  -7.31:  WELL HEAD E/W
 WHNS.m                  -4.42:  WELL HEAD N/S
 LONG.deg                51.45:  LONGITUDE
 LATI.deg                40.02:  LATITUDE
 TVDS.m                  43.60:  TVDSS CORRECTN
 EKB .m                  43.60:  KB ELEVATION
 EDF .m                  43.60:  DF ELEVATION
 TDL .m                 806.00:  TOTAL DEPTH (LOGGER)
 MAGU.                 1851231:  MAGUTM CHECKSUM
 VSC .                       0:  VS TO CLOSURE
~Parameter Information Block
#MNEM.UNIT       Value        Description
#---------     -----------    ---------------------------
 AV  .mps                 1.60:  Ann Velocity 
 AVMX.mps                 2.00:  Max Ann Veloc 
 AZIF.deg               140.24:  Azm, Final 
 BHAT.        Rotary Steerable:  BHA Type 
 BROT.°/30m               0.50:  Build Rotating 
 BS  .in                  8.50:  Bit Size 
 BTPL.psig              619.00:  Bit Press Loss 
 CABU.                     Yes:  Customer Abuse 
 CGEO.          Ilgar Gurbanov:  Customer Geo 
 COMM.                     dr:  Run Comments 1 
 TCS .hr                 85.88:  Time Ciculation Ended 
 CV  .mps                 3.30:  Crit Velocity 
 CVMX.mps                 3.50:  Max Crit Veloc 
 DD1 .           Hamid Axmedov:  Direct Drillr 1 
 DD2 .           Teymur Aliyev:  Direct Drillr 2 
 DDSV.               Geo-Pilot:  DD Service 
 DEFF.%                 100.00:  % Det Eff 
 DLRX.°/30m               0.00:  Dogleg Rot Max 
 DLSO.°/30m               1.80:  Dogleg Oriented 
 DLSX.°/30m               3.34:  Dogleg Str Max 
 DRET.      11.50.00 27-May-21:  Drill End Time 
 DRST.      21.13.00 24-May-21:  Drill Start Tim 
 DTIM.hr                 45.11:  Time Drilling 
 EDEP.m                4054.00:  End Depth 
 ENG1.         Almaz Almadatov:  Engineer 1 
 ENG2.           Amrah Tahirov:  Engineer 2 
 ENG3.      Bakhtiyar Jabbarli:  Engineer 3 
 ENG4.          Nazrin Asgarli:  Engineer 4 
 ETIM.      10.00.00 30-May-21:  End Time 
 FLOI.gpm               530.00:  Flow In 
 FLON.gpm               400.00:  Flow In Min 
 FLOS.cptm                0.00:  Fluid Loss 
 FLOX.gpm               560.00:  Flow In Max 
 DFT .        Mineral Oil Base:  Mud Type 
 FTRO.       Formation Presure:  FTWD Run Obj 
 HFLO.                      No:  High Flow 
 HPRE.                      No:  High Pressure 
 HTEM.                      No:  High Temp 
 HYDO.m                   1.80:  Hydro Offset 
 IFIN.deg                73.83:  Inc, Final 
 IMAX.deg                73.83:  Inc Max 
 IMIN.deg                57.86:  Inc Min 
 IMND.m                3259.27:  Inc Min Depth 
 IMXD.m                4045.58:  Inc Max Depth 
 JARR.                     Yes:  Jarring 
 LETM.      11.50.00 27-May-21:  Log End Time 
 LOST.hr                     0:  Lost Rig Time 
 LSTM.      21.13.00 24-May-21:  Log Start Time 
 MDCL.ppm             42500.00:  Mud Chlorides 
 MDES.     Inversion Oil/Synthetic:  Mud Desc 
 DFD .sg                  1.52:  Mud Density 
 MDMN.sg                  1.52:  Dens Mud Min 
 MDMX.sg                  1.52:  Dens Mud Max 
 MOIL.                      70:  Run Mud Oil % 
 MOWR.                   70:30:  Run Mud OWR 
 MSND.                     0.2:  Run Mud Sand % 
 MSOL.                      22:  Run Mud Solids% 
 DFV .spqt               77.00:  Mud Viscosity 
 MWOD.in                  6.75:  MWD Tool OD 
 MWSI.                      No:  Serv Intrp, MWD 
 OTIM.hr                151.01:  Time Operating 
 PCON.          Wear / Scratch:  Pad Condition 
 PMAX.psia            11296.93:  Press Op, Max 
 PV  .cP                 37.00:  Mud PV 
 RUN .                     500:  Run Number 
 ROPA.m/hr               25.00:  ROP Avg 
 ROPN.m/hr                9.00:  ROP Min 
 ROPX.m/hr               28.00:  ROP Max 
 RPMA.rpm               140.00:  RPM Surface Avg 
 RPMN.rpm                90.00:  RPM Surface Min 
 RPMX.rpm               140.00:  RPM Surface Max 
 RRUN.                    0500:  Rig Run Number 
 SAZI.deg               172.17:  Azm, Start 
 SDEP.m                3248.00:  Start Depth 
 SIDD.                      No:  Serv Intrp, DD 
 SINC.deg                57.86:  Inc, Start 
 SPPA.psig             5620.00:  SPP Avg 
 SPPN.psig             5190.00:  SPP Min 
 SPPX.psig             6050.00:  SPP Max 
 STIM.      16.00.00 23-May-21:  Start Time 
 SVCS.                 DD, MWD:  Services 
 SVER.                    9.20:  Sperry Version 
 TDAT.m                 806.00:  Tot Depth Attmp 
 TDDF.                      No:  Trip for DD 
 TDLG.m                 806.00:  Tot Depth Loggd 
 TFF .                      No:  Trip for Fail 
 TQAA.f-kp               12.00:  Torque Abs Avg 
 TQAN.f-kp                8.00:  Torque Abs Min 
 TQAX.f-kp               15.00:  Torque Abs Max 
 TRRT.°/30m               0.30:  Turn Rotating 
 MRT .                  EWR-M5:  Maximum Recorded Temperature 
 TTMX.degC               93.00:  Max Tool Temp 
 VS01.                90649155:  Virtual Str1 SN 
 VS02.                90642264:  Virtual Str2 SN 
 VS03.                90642266:  Virtual Str3 SN 
 VS04.                90642261:  Virtual Str4 SN 
 WBMN.klb                 0.00:  WOB Min 
 WITN.             Anar Khalil:  Customer Rep 
 WITN.           Murad Guliyev:  Customer Rep 2 
 WOBA.klb                13.00:  WOB Avg 
 WOBX.klb                25.00:  WOB Max 
 YP  .lhf2               32.00:  Yield Point 
~Curve Information Block
#MNEM.UNIT                 API CODE     Curve Description
#---------               -----------    ---------------------------
 TIME.HHMMSS            00 000 000 000:  GT Time & Date
 GTDEPTH.m              00 000 000 000:  GT Depth
 GTPQH.psia             00 000 000 000:  GT HR Quartz Pressure
 GTTQ.degC              00 000 000 000:  GT Quartz Temperature
 GTTN.NONE              00 000 000 000:  GT Test Number
 GTET.sec               00 000 000 000:  GT Elapsed Test Time
 GTTVD.m                00 000 000 000:  GT True Vertical Depth
#Other Information
#
#WARRANTY: Halliburton will use its best efforts to furnish customers with 
#accurate information and interpretations that are part of, and incident to, the services 
#provided.  However, Halliburton cannot and does not warrant the accuracy 
#or correctness of such information and interpretations.  Under no circumstances should any 
#such information or interpretation be relied upon as the sole basis for any drilling, 
#completion, production, or financial decision or any procedure involving any risk to the 
#safety of any drilling venture, drilling rig or its crew or any other third party.  The 
#Customer has full responsibility for all drilling, completion and production operation.  
#Halliburton makes no representations or warranties, either expressed or 
#implied, including, but not limited to, the implied warranties of merchantability or fitness 
#for a particular purpose, with respect to the services rendered.  In no event will 
#Halliburton be liable for failure to obtain any particular results or for 
#any damages, including, but not limited to, indirect, special or consequential damages, 
#resulting from the use of any information or interpretation provided by Halliburton.
#
~A           TIME           GTDEPTH  GTPQH  GTTQ  GTTN  GTET   GTTVD  
# ...
   03:03:09.000.28-May-2021 3537.00 3680.17 83.92 7.00  92.00 2609.82
   03:03:09.200.28-May-2021 3537.00 3680.17 83.92 7.00  92.20 2609.82
   03:03:09.400.28-May-2021 3537.00 3680.22 83.92 7.00  92.40 2609.82
   03:03:09.600.28-May-2021 3537.00 3680.09 83.92 7.00  92.60 2609.82
   03:03:09.800.28-May-2021 3537.00 3680.16 83.92 7.00  92.80 2609.82
   03:03:10.000.28-May-2021 3537.00 3680.18 83.92 7.00  93.00 2609.82
   03:03:10.200.28-May-2021 3537.00 3680.18 83.92 7.00  93.20 2609.82
   03:03:10.400.28-May-2021 3537.00 3680.30 83.92 7.00  93.40 2609.82
   03:03:10.600.28-May-2021 3537.00 3680.15 83.92 7.00  93.60 2609.82
   03:03:10.800.28-May-2021 3537.00 3680.17 83.92 7.00  93.80 2609.82
   03:03:11.000.28-May-2021 3537.00 3680.18 83.92 7.00  94.00 2609.82
   03:03:11.200.28-May-2021 3537.00 3680.18 83.92 7.00  94.20 2609.82
   03:03:11.400.28-May-2021 3537.00 3680.17 83.92 7.00  94.40 2609.82
   03:03:11.600.28-May-2021 3537.00 3680.17 83.92 7.00  94.60 2609.82
   03:03:11.800.28-May-2021 3537.00 3680.16 83.92 7.00  94.80 2609.82
   03:03:12.000.28-May-2021 3537.00 3680.19 83.92 7.00  95.00 2609.82
   03:03:12.200.28-May-2021 3537.00 3680.19 83.92 7.00  95.20 2609.82
   03:03:12.400.28-May-2021 3537.00 3680.20 83.92 7.00  95.40 2609.82
   03:03:12.600.28-May-2021 3537.00 3680.21 83.92 7.00  95.60 2609.82
   03:03:12.800.28-May-2021 3537.00 3680.24 83.92 7.00  95.80 2609.82
   03:03:13.000.28-May-2021 3537.00 3680.23 83.92 7.00  96.00 2609.82
   03:03:13.200.28-May-2021 3537.00 3680.23 83.92 7.00  96.20 2609.82
   03:03:13.400.28-May-2021 3537.00 3680.27 83.92 7.00  96.40 2609.82
   03:03:13.600.28-May-2021 3537.00 3680.25 83.92 7.00  96.60 2609.82
   03:03:13.800.28-May-2021 3537.00 3680.27 83.92 7.00  96.80 2609.82
   03:03:14.000.28-May-2021 3537.00 3680.29 83.92 7.00  97.00 2609.82
   03:03:14.200.28-May-2021 3537.00 3680.29 83.92 7.00  97.20 2609.82
   03:03:14.400.28-May-2021 3537.00 3680.19 83.92 7.00  97.40 2609.82
   03:03:14.600.28-May-2021 3537.00 3680.23 83.92 7.00  97.60 2609.82
   03:03:14.800.28-May-2021 3537.00 3680.21 83.92 7.00  97.80 2609.82
   03:03:15.000.28-May-2021 3537.00 3680.23 83.92 7.00  98.00 2609.82
   03:03:15.200.28-May-2021 3537.00 3680.23 83.92 7.00  98.20 2609.82
   03:03:15.400.28-May-2021 3537.00 3680.26 83.92 7.00  98.40 2609.82
   03:03:15.600.28-May-2021 3537.00 3680.26 83.92 7.00  98.60 2609.82
   03:03:15.800.28-May-2021 3537.00 3680.28 83.92 7.00  98.80 2609.82
   03:03:16.000.28-May-2021 3537.00 3680.28 83.92 7.00  99.00 2609.82
   03:03:16.200.28-May-2021 3537.00 3680.28 83.92 7.00  99.20 2609.82
   03:03:16.400.28-May-2021 3537.00 3680.29 83.92 7.00  99.40 2609.82
   03:03:16.600.28-May-2021 3537.00 3680.31 83.92 7.00  99.60 2609.82
   03:03:16.800.28-May-2021 3537.00 3680.16 83.92 7.00  99.80 2609.82
   03:03:17.000.28-May-2021 3537.00 3680.22 83.92 7.00 100.00 2609.82
   03:03:17.200.28-May-2021 3537.00 3680.22 83.92 7.00 100.20 2609.82
   03:03:17.400.28-May-2021 3537.00 3680.22 83.91 7.00 100.40 2609.82
   03:03:17.600.28-May-2021 3537.00 3680.21 83.91 7.00 100.60 2609.82
   03:03:17.800.28-May-2021 3537.00 3680.20 83.91 7.00 100.80 2609.82
   03:03:18.000.28-May-2021 3537.00 3680.23 83.91 7.00 101.00 2609.82
   03:03:18.200.28-May-2021 3537.00 3680.23 83.91 7.00 101.20 2609.82
   03:03:18.400.28-May-2021 3537.00 3680.27 83.91 7.00 101.40 2609.82
   03:03:18.600.28-May-2021 3537.00 3680.21 83.91 7.00 101.60 2609.82
   03:03:18.800.28-May-2021 3537.00 3680.22 83.91 7.00 101.80 2609.82
   03:03:19.000.28-May-2021 3537.00 3680.20 83.91 7.00 102.00 2609.82
   03:03:19.200.28-May-2021 3537.00 3680.20 83.91 7.00 102.20 2609.82
   03:03:19.400.28-May-2021 3537.00 3680.35 83.91 7.00 102.40 2609.82
   03:03:19.600.28-May-2021 3537.00 3680.21 83.91 7.00 102.60 2609.82
   03:03:19.800.28-May-2021 3537.00 3680.22 83.91 7.00 102.80 2609.82
   03:03:20.000.28-May-2021 3537.00 3680.22 83.91 7.00 103.00 2609.82
   03:03:20.200.28-May-2021 3537.00 3680.22 83.91 7.00 103.20 2609.82
   03:03:20.400.28-May-2021 3537.00 3680.24 83.91 7.00 103.40 2609.82
   03:03:20.600.28-May-2021 3537.00 3680.25 83.91 7.00 103.60 2609.82
   03:03:20.800.28-May-2021 3537.00 3680.25 83.91 7.00 103.80 2609.82
   03:03:21.000.28-May-2021 3537.00 3680.27 83.91 7.00 104.00 2609.82
   03:03:21.200.28-May-2021 3537.00 3680.27 83.91 7.00 104.20 2609.82
   03:03:21.400.28-May-2021 3537.00 3680.28 83.91 7.00 104.40 2609.82
   03:03:21.600.28-May-2021 3537.00 3680.28 83.91 7.00 104.60 2609.82
   03:03:21.800.28-May-2021 3537.00 3680.29 83.91 7.00 104.80 2609.82
   03:03:22.000.28-May-2021 3537.00 3680.24 83.91 7.00 105.00 2609.82
   03:03:22.200.28-May-2021 3537.00 3680.24 83.91 7.00 105.20 2609.82
   03:03:22.400.28-May-2021 3537.00 3680.22 83.91 7.00 105.40 2609.82
   03:03:22.600.28-May-2021 3537.00 3680.25 83.91 7.00 105.60 2609.82
   03:03:22.800.28-May-2021 3537.00 3680.25 83.91 7.00 105.80 2609.82
   03:03:23.000.28-May-2021 3537.00 3680.27 83.91 7.00 106.00 2609.82
   03:03:23.200.28-May-2021 3537.00 3680.27 83.91 7.00 106.20 2609.82
   03:03:23.400.28-May-2021 3537.00 3680.28 83.91 7.00 106.40 2609.82
   03:03:23.600.28-May-2021 3537.00 3680.28 83.91 7.00 106.60 2609.82
   03:03:23.800.28-May-2021 3537.00 3680.28 83.91 7.00 106.80 2609.82
   03:03:24.000.28-May-2021 3537.00 3680.30 83.91 7.00 107.00 2609.82
   03:03:24.200.28-May-2021 3537.00 3680.30 83.91 7.00 107.20 2609.82
   03:03:24.400.28-May-2021 3537.00 3680.30 83.91 7.00 107.40 2609.82
   03:03:24.600.28-May-2021 3537.00 3680.26 83.91 7.00 107.60 2609.82
   03:03:24.800.28-May-2021 3537.00 3680.24 83.91 7.00 107.80 2609.82
   03:03:25.000.28-May-2021 3537.00 3680.25 83.91 7.00 108.00 2609.82
   03:03:25.200.28-May-2021 3537.00 3680.25 83.91 7.00 108.20 2609.82
   03:03:25.400.28-May-2021 3537.00 3680.38 83.91 7.00 108.40 2609.82
   03:03:25.600.28-May-2021 3537.00 3680.25 83.91 7.00 108.60 2609.82
   03:03:25.800.28-May-2021 3537.00 3680.25 83.91 7.00 108.80 2609.82
   03:03:26.000.28-May-2021 3537.00 3680.24 83.91 7.00 109.00 2609.82
   03:03:26.200.28-May-2021 3537.00 3680.24 83.91 7.00 109.20 2609.82
   03:03:26.400.28-May-2021 3537.00 3680.31 83.91 7.00 109.40 2609.82
   03:03:26.600.28-May-2021 3537.00 3680.23 83.91 7.00 109.60 2609.82
   03:03:26.800.28-May-2021 3537.00 3680.26 83.91 7.00 109.80 2609.82
   03:03:27.000.28-May-2021 3537.00 3680.23 83.91 7.00 110.00 2609.82
   03:03:27.200.28-May-2021 3537.00 3680.23 83.91 7.00 110.20 2609.82
   03:03:27.400.28-May-2021 3537.00 3680.31 83.91 7.00 110.40 2609.82
   03:03:27.600.28-May-2021 3537.00 3680.24 83.91 7.00 110.60 2609.82
   03:03:27.800.28-May-2021 3537.00 3680.25 83.91 7.00 110.80 2609.82
   03:03:28.000.28-May-2021 3537.00 3680.24 83.91 7.00 111.00 2609.82
   03:03:28.200.28-May-2021 3537.00 3680.24 83.91 7.00 111.20 2609.82
   03:03:28.400.28-May-2021 3537.00 3680.25 83.91 7.00 111.40 2609.82
   03:03:28.600.28-May-2021 3537.00 3680.26 83.91 7.00 111.60 2609.82
   03:03:28.800.28-May-2021 3537.00 3680.27 83.91 7.00 111.80 2609.82
   03:03:29.000.28-May-2021 3537.00 3680.27 83.91 7.00 112.00 2609.82
   03:03:29.200.28-May-2021 3537.00 3680.27 83.91 7.00 112.20 2609.82
   03:03:29.400.28-May-2021 3537.00 3680.28 83.91 7.00 112.40 2609.82
   03:03:29.600.28-May-2021 3537.00 3680.28 83.91 7.00 112.60 2609.82
   03:03:29.800.28-May-2021 3537.00 3680.16 83.91 7.00 112.80 2609.82
   03:03:30.000.28-May-2021 3537.00 3680.40 83.91 7.00 113.00 2609.82
   03:03:30.200.28-May-2021 3537.00 3680.40 83.91 7.00 113.20 2609.82
   03:03:30.400.28-May-2021 3537.00 3680.25 83.91 7.00 113.40 2609.82
   03:03:30.600.28-May-2021 3537.00 3680.26 83.91 7.00 113.60 2609.82
   03:03:30.800.28-May-2021 3537.00 3680.26 83.91 7.00 113.80 2609.82
   03:03:31.000.28-May-2021 3537.00 3680.28 83.91 7.00 114.00 2609.82
   03:03:31.200.28-May-2021 3537.00 3680.28 83.91 7.00 114.20 2609.82
   03:03:31.400.28-May-2021 3537.00 3680.28 83.91 7.00 114.40 2609.82
   03:03:31.600.28-May-2021 3537.00 3680.30 83.91 7.00 114.60 2609.82
   03:03:31.800.28-May-2021 3537.00 3680.29 83.91 7.00 114.80 2609.82
