~Version Information
 VERS.                  2.0:   CWLS log ASCII Standard -VERSION 2.0
 WRAP.                   NO:   One line per depth step
~Well Information Block
#MNEM.UNIT     VALUE/NAME     DESCRIPTION
#---------     -----------    ---------------------------
 STRT.S             09:05:41 28-May-21: START TIME 09:05:41 28-May-21
 STOP.S             09:12:44 28-May-21: STOP TIME  09:12:44 28-May-21
 STEP.S                   0.00: STEP TIME
 NULL.                 -999.25: NULL VALUE
 UWI .                     N/A:  UNIQUE WELL IDENTIFIER
 API .                     N/A:  API NUMBER
 UNIT.                     N/A:  LOGGING EQUIPMENT ID
 DCON.         Sperry Drilling:  DIRECTNL CONTR
 DOE .                     N/A:  DOE NUMBER
 MWDS.                    Baku:  MWD SHOP
 SRVC.     Turan Drilling and Engineering:  CONTRACTOR
 CTRY.              Azerbaijan:  COUNTRY NAME
 PROV.                    Baku:  PROVINCE
 STAT.                    Baku:  STATE NAME
 REGN.                   EESSA:  REGION
 BASE.              Azerbaijan:  LOGGING EQUIPMENT BASE LOCATION
 WTYP.                Deviated:  WELL TYPE
 RIG .              East Azeri:  RIG NAME
 WELL.                    D02y:  WELL NAME
 FLD .                     ACG:  FIELD NAME
 COMP.     BP Exploration (Caspian Sea) Ltd.:  COMPANY
 PDAT.          Mean Sea Level:  PERMANENT DATUM
 MDS .        Operator Entered:  MAG DATA SOURCE
 SON .        AZ-XX-0906997291:  JOB NUMBER
 FTOP.          Formation Tops:  FORM TOPS DESC
 ILTD.               Lithology:  INTERP LTH DESC
 SVYD.                  Survey:  SURVEY DESC
 DMOD.             Drill Model:  DRILL MOD DESC
 HPTY.       Minimum Curvature:  HOLE POS TYPE
 NREF.                    Grid:  NORTH REFERENCE
 SPUD.               05-May-21:  SPUD DATE
 DATE.      09.27.28 12-Jun-21:  END TIME
 STIM.      09.27.28 12-May-21:  START TIME
 DMF .             Drill Floor:  DRILL MEAS FROM
 DFST.                        :  DIST FSL TEXT
 DFWT.                        :  DIST FWL TEXT
 CNTY.                        :  COUNTY
 LOC .                        :  LOCATION
 LMF .             Drill Floor:  LOG MEASURED FROM
 DEP .m                2806.40:  DEPTH
 AGAP.m                  43.60:  AIR GAP
 VSNS.m                  -4.42:  VERT SEC N/S
 VSEW.m                  -7.31:  VERT SEC E/W
 APD .m                  43.60:  DEPTH ABOVE PD
 WDMS.m                 151.80:  WD ELEV
 EGL .m                   0.00:  GROUND ELEVATION
 EPD .m                   0.00:  ELEVATION
 AZTC.deg                 6.18:  AZM TOTAL CORR
 GRDC.deg                 0.29:  GRID CORRECTION
 MDEC.deg                 6.47:  MAGNETIC DECL
 MDIP.deg                59.50:  MAGNETIC DIP
 MFLD.nT              50350.00:  MAGNETIC FIELD
 GVFD.g                   1.00:  GRAVITY FIELD
 VSDR.deg               179.08:  VERT SEC DIRECT
 TDD .m                4300.00:  TOTAL DEPTH (DRILLER)
 SDEP.m                2800.00:  START DEPTH
 DFSL.m                   0.00:  DISTANCE FSL
 DFWL.m                   0.00:  DISTANCE FWL
 UTMY.m             4431871.34:  UTM Y
 UTMX.m              538762.90:  UTM X
 WHEW.m                  -7.31:  WELL HEAD E/W
 WHNS.m                  -4.42:  WELL HEAD N/S
 LONG.deg                51.45:  LONGITUDE
 LATI.deg                40.02:  LATITUDE
 TVDS.m                  43.60:  TVDSS CORRECTN
 EKB .m                  43.60:  KB ELEVATION
 EDF .m                  43.60:  DF ELEVATION
 TDL .m                 806.00:  TOTAL DEPTH (LOGGER)
 MAGU.                 1851231:  MAGUTM CHECKSUM
 VSC .                       0:  VS TO CLOSURE
~Parameter Information Block
#MNEM.UNIT       Value        Description
#---------     -----------    ---------------------------
 AV  .mps                 1.60:  Ann Velocity 
 AVMX.mps                 2.00:  Max Ann Veloc 
 AZIF.deg               140.24:  Azm, Final 
 BHAT.        Rotary Steerable:  BHA Type 
 BROT.°/30m               0.50:  Build Rotating 
 BS  .in                  8.50:  Bit Size 
 BTPL.psig              619.00:  Bit Press Loss 
 CABU.                     Yes:  Customer Abuse 
 CGEO.          Ilgar Gurbanov:  Customer Geo 
 COMM.                     ÜøQ:  Run Comments 1 
 TCS .hr                 85.88:  Time Ciculation Ended 
 CV  .mps                 3.30:  Crit Velocity 
 CVMX.mps                 3.50:  Max Crit Veloc 
 DD1 .           Hamid Axmedov:  Direct Drillr 1 
 DD2 .           Teymur Aliyev:  Direct Drillr 2 
 DDSV.               Geo-Pilot:  DD Service 
 DEFF.%                 100.00:  % Det Eff 
 DLRX.°/30m               0.00:  Dogleg Rot Max 
 DLSO.°/30m               1.80:  Dogleg Oriented 
 DLSX.°/30m               3.34:  Dogleg Str Max 
 DRET.      11.50.00 27-May-21:  Drill End Time 
 DRST.      21.13.00 24-May-21:  Drill Start Tim 
 DTIM.hr                 45.11:  Time Drilling 
 EDEP.m                4054.00:  End Depth 
 ENG1.         Almaz Almadatov:  Engineer 1 
 ENG2.           Amrah Tahirov:  Engineer 2 
 ENG3.      Bakhtiyar Jabbarli:  Engineer 3 
 ENG4.          Nazrin Asgarli:  Engineer 4 
 ETIM.      10.00.00 30-May-21:  End Time 
 FLOI.gpm               530.00:  Flow In 
 FLON.gpm               400.00:  Flow In Min 
 FLOS.cptm                0.00:  Fluid Loss 
 FLOX.gpm               560.00:  Flow In Max 
 DFT .        Mineral Oil Base:  Mud Type 
 FTRO.       Formation Presure:  FTWD Run Obj 
 HFLO.                      No:  High Flow 
 HPRE.                      No:  High Pressure 
 HTEM.                      No:  High Temp 
 HYDO.m                   1.80:  Hydro Offset 
 IFIN.deg                73.83:  Inc, Final 
 IMAX.deg                73.83:  Inc Max 
 IMIN.deg                57.86:  Inc Min 
 IMND.m                3259.27:  Inc Min Depth 
 IMXD.m                4045.58:  Inc Max Depth 
 JARR.                     Yes:  Jarring 
 LETM.      11.50.00 27-May-21:  Log End Time 
 LOST.hr                     0:  Lost Rig Time 
 LSTM.      21.13.00 24-May-21:  Log Start Time 
 MDCL.ppm             42500.00:  Mud Chlorides 
 MDES.     Inversion Oil/Synthetic:  Mud Desc 
 DFD .sg                  1.52:  Mud Density 
 MDMN.sg                  1.52:  Dens Mud Min 
 MDMX.sg                  1.52:  Dens Mud Max 
 MOIL.                      70:  Run Mud Oil % 
 MOWR.                   70:30:  Run Mud OWR 
 MSND.                     0.2:  Run Mud Sand % 
 MSOL.                      22:  Run Mud Solids% 
 DFV .spqt               77.00:  Mud Viscosity 
 MWOD.in                  6.75:  MWD Tool OD 
 MWSI.                      No:  Serv Intrp, MWD 
 OTIM.hr                151.01:  Time Operating 
 PCON.          Wear / Scratch:  Pad Condition 
 PMAX.psia            11296.93:  Press Op, Max 
 PV  .cP                 37.00:  Mud PV 
 RUN .                     500:  Run Number 
 ROPA.m/hr               25.00:  ROP Avg 
 ROPN.m/hr                9.00:  ROP Min 
 ROPX.m/hr               28.00:  ROP Max 
 RPMA.rpm               140.00:  RPM Surface Avg 
 RPMN.rpm                90.00:  RPM Surface Min 
 RPMX.rpm               140.00:  RPM Surface Max 
 RRUN.                    0500:  Rig Run Number 
 SAZI.deg               172.17:  Azm, Start 
 SDEP.m                3248.00:  Start Depth 
 SIDD.                      No:  Serv Intrp, DD 
 SINC.deg                57.86:  Inc, Start 
 SPPA.psig             5620.00:  SPP Avg 
 SPPN.psig             5190.00:  SPP Min 
 SPPX.psig             6050.00:  SPP Max 
 STIM.      16.00.00 23-May-21:  Start Time 
 SVCS.                 DD, MWD:  Services 
 SVER.                    9.20:  Sperry Version 
 TDAT.m                 806.00:  Tot Depth Attmp 
 TDDF.                      No:  Trip for DD 
 TDLG.m                 806.00:  Tot Depth Loggd 
 TFF .                      No:  Trip for Fail 
 TQAA.f-kp               12.00:  Torque Abs Avg 
 TQAN.f-kp                8.00:  Torque Abs Min 
 TQAX.f-kp               15.00:  Torque Abs Max 
 TRRT.°/30m               0.30:  Turn Rotating 
 MRT .                  EWR-M5:  Maximum Recorded Temperature 
 TTMX.degC               93.00:  Max Tool Temp 
 VS01.                90649155:  Virtual Str1 SN 
 VS02.                90642264:  Virtual Str2 SN 
 VS03.                90642266:  Virtual Str3 SN 
 VS04.                90642261:  Virtual Str4 SN 
 WBMN.klb                 0.00:  WOB Min 
 WITN.             Anar Khalil:  Customer Rep 
 WITN.           Murad Guliyev:  Customer Rep 2 
 WOBA.klb                13.00:  WOB Avg 
 WOBX.klb                25.00:  WOB Max 
 YP  .lhf2               32.00:  Yield Point 
~Curve Information Block
#MNEM.UNIT                 API CODE     Curve Description
#---------               -----------    ---------------------------
 TIME.HHMMSS            00 000 000 000:  GT Time & Date
 GTDEPTH.m              00 000 000 000:  GT Depth
 GTPQH.psia             00 000 000 000:  GT HR Quartz Pressure
 GTTQ.degC              00 000 000 000:  GT Quartz Temperature
 GTTN.NONE              00 000 000 000:  GT Test Number
 GTET.sec               00 000 000 000:  GT Elapsed Test Time
 GTTVD.m                00 000 000 000:  GT True Vertical Depth
#Other Information
#
#WARRANTY: Halliburton will use its best efforts to furnish customers with 
#accurate information and interpretations that are part of, and incident to, the services 
#provided.  However, Halliburton cannot and does not warrant the accuracy 
#or correctness of such information and interpretations.  Under no circumstances should any 
#such information or interpretation be relied upon as the sole basis for any drilling, 
#completion, production, or financial decision or any procedure involving any risk to the 
#safety of any drilling venture, drilling rig or its crew or any other third party.  The 
#Customer has full responsibility for all drilling, completion and production operation.  
#Halliburton makes no representations or warranties, either expressed or 
#implied, including, but not limited to, the implied warranties of merchantability or fitness 
#for a particular purpose, with respect to the services rendered.  In no event will 
#Halliburton be liable for failure to obtain any particular results or for 
#any damages, including, but not limited to, indirect, special or consequential damages, 
#resulting from the use of any information or interpretation provided by Halliburton.
#
~A           TIME           GTDEPTH  GTPQH  GTTQ  GTTN   GTET   GTTVD  
# ...
   09:07:11.532.28-May-2021 3286.00 4017.99 82.26 15.00  90.41 2493.81
   09:07:11.732.28-May-2021 3286.00 4018.31 82.26 15.00  90.61 2493.81
   09:07:11.932.28-May-2021 3286.00 4017.91 82.26 15.00  90.81 2493.81
   09:07:12.132.28-May-2021 3286.00 4017.93 82.26 15.00  91.01 2493.81
   09:07:12.332.28-May-2021 3286.00 4017.93 82.26 15.00  91.21 2493.81
   09:07:12.532.28-May-2021 3286.00 4017.93 82.26 15.00  91.41 2493.81
   09:07:12.732.28-May-2021 3286.00 4017.31 82.26 15.00  91.61 2493.81
   09:07:12.932.28-May-2021 3286.00 4017.96 82.26 15.00  91.81 2493.81
   09:07:13.132.28-May-2021 3286.00 4017.89 82.26 15.00  92.01 2493.81
   09:07:13.332.28-May-2021 3286.00 4017.89 82.26 15.00  92.21 2493.81
   09:07:13.532.28-May-2021 3286.00 4017.93 82.26 15.00  92.41 2493.81
   09:07:13.732.28-May-2021 3286.00 4017.96 82.26 15.00  92.61 2493.81
   09:07:13.933.28-May-2021 3286.00 4017.91 82.26 15.00  92.81 2493.81
   09:07:14.133.28-May-2021 3286.00 4017.93 82.26 15.00  93.01 2493.81
   09:07:14.333.28-May-2021 3286.00 4017.93 82.26 15.00  93.21 2493.81
   09:07:14.533.28-May-2021 3286.00 4017.31 82.26 15.00  93.41 2493.81
   09:07:14.733.28-May-2021 3286.00 4017.97 82.26 15.00  93.61 2493.81
   09:07:14.933.28-May-2021 3286.00 4017.90 82.26 15.00  93.81 2493.81
   09:07:15.133.28-May-2021 3286.00 4017.94 82.26 15.00  94.01 2493.81
   09:07:15.333.28-May-2021 3286.00 4017.94 82.26 15.00  94.21 2493.81
   09:07:15.533.28-May-2021 3286.00 4017.92 82.26 15.00  94.41 2493.81
   09:07:15.733.28-May-2021 3286.00 4017.95 82.26 15.00  94.61 2493.81
   09:07:15.933.28-May-2021 3286.00 4017.94 82.26 15.00  94.81 2493.81
   09:07:16.133.28-May-2021 3286.00 4017.95 82.26 15.00  95.01 2493.81
   09:07:16.333.28-May-2021 3286.00 4017.95 82.26 15.00  95.21 2493.81
   09:07:16.533.28-May-2021 3286.00 4017.96 82.26 15.00  95.41 2493.81
   09:07:16.733.28-May-2021 3286.00 4017.96 82.26 15.00  95.61 2493.81
   09:07:16.933.28-May-2021 3286.00 4017.98 82.26 15.00  95.81 2493.81
   09:07:17.133.28-May-2021 3286.00 4017.04 82.26 15.00  96.01 2493.81
   09:07:17.333.28-May-2021 3286.00 4017.04 82.26 15.00  96.21 2493.81
   09:07:17.533.28-May-2021 3286.00 4017.93 82.26 15.00  96.41 2493.81
   09:07:17.733.28-May-2021 3286.00 4017.96 82.26 15.00  96.61 2493.81
   09:07:17.933.28-May-2021 3286.00 4017.93 82.26 15.00  96.81 2493.81
   09:07:18.133.28-May-2021 3286.00 4017.94 82.26 15.00  97.01 2493.81
   09:07:18.333.28-May-2021 3286.00 4017.94 82.26 15.00  97.21 2493.81
   09:07:18.533.28-May-2021 3286.00 4017.94 82.26 15.00  97.41 2493.81
   09:07:18.733.28-May-2021 3286.00 4017.94 82.26 15.00  97.61 2493.81
   09:07:18.933.28-May-2021 3286.00 4017.97 82.26 15.00  97.81 2493.81
   09:07:19.133.28-May-2021 3286.00 4017.97 82.26 15.00  98.01 2493.81
   09:07:19.333.28-May-2021 3286.00 4017.97 82.26 15.00  98.21 2493.81
   09:07:19.533.28-May-2021 3286.00 4017.97 82.26 15.00  98.41 2493.81
   09:07:19.733.28-May-2021 3286.00 4016.79 82.26 15.00  98.61 2493.81
   09:07:19.933.28-May-2021 3286.00 4018.56 82.26 15.00  98.81 2493.81
   09:07:20.133.28-May-2021 3286.00 4017.93 82.26 15.00  99.01 2493.81
   09:07:20.333.28-May-2021 3286.00 4017.93 82.26 15.00  99.21 2493.81
   09:07:20.533.28-May-2021 3286.00 4017.91 82.26 15.00  99.41 2493.81
   09:07:20.733.28-May-2021 3286.00 4017.52 82.26 15.00  99.61 2493.81
   09:07:20.933.28-May-2021 3286.00 4017.80 82.26 15.00  99.81 2493.81
   09:07:21.133.28-May-2021 3286.00 4017.98 82.26 15.00 100.01 2493.81
   09:07:21.334.28-May-2021 3286.00 4017.98 82.26 15.00 100.21 2493.81
   09:07:21.534.28-May-2021 3286.00 4017.55 82.26 15.00 100.41 2493.81
   09:07:21.734.28-May-2021 3286.00 4017.82 82.26 15.00 100.61 2493.81
   09:07:21.934.28-May-2021 3286.00 4017.99 82.26 15.00 100.81 2493.81
   09:07:22.134.28-May-2021 3286.00 4017.93 82.26 15.00 101.01 2493.81
   09:07:22.334.28-May-2021 3286.00 4017.93 82.26 15.00 101.21 2493.81
   09:07:22.534.28-May-2021 3286.00 4017.53 82.26 15.00 101.41 2493.81
   09:07:22.734.28-May-2021 3286.00 4017.81 82.26 15.00 101.61 2493.81
   09:07:22.934.28-May-2021 3286.00 4017.98 82.26 15.00 101.81 2493.81
   09:07:23.134.28-May-2021 3286.00 4017.91 82.25 15.00 102.01 2493.81
   09:07:23.334.28-May-2021 3286.00 4017.91 82.25 15.00 102.21 2493.81
   09:07:23.534.28-May-2021 3286.00 4017.96 82.25 15.00 102.41 2493.81
   09:07:23.734.28-May-2021 3286.00 4017.94 82.25 15.00 102.61 2493.81
   09:07:23.934.28-May-2021 3286.00 4017.96 82.25 15.00 102.81 2493.81
   09:07:24.134.28-May-2021 3286.00 4017.94 82.25 15.00 103.01 2493.81
   09:07:24.334.28-May-2021 3286.00 4017.94 82.25 15.00 103.21 2493.81
   09:07:24.534.28-May-2021 3286.00 4017.96 82.25 15.00 103.41 2493.81
   09:07:24.734.28-May-2021 3286.00 4017.97 82.25 15.00 103.61 2493.81
   09:07:24.934.28-May-2021 3286.00 4017.97 82.25 15.00 103.81 2493.81
   09:07:25.134.28-May-2021 3286.00 4017.97 82.25 15.00 104.01 2493.81
   09:07:25.334.28-May-2021 3286.00 4017.97 82.25 15.00 104.21 2493.81
   09:07:25.534.28-May-2021 3286.00 4018.02 82.25 15.00 104.41 2493.81
   09:07:25.734.28-May-2021 3286.00 4017.95 82.25 15.00 104.61 2493.81
   09:07:25.934.28-May-2021 3286.00 4017.96 82.25 15.00 104.81 2493.81
   09:07:26.134.28-May-2021 3286.00 4017.95 82.25 15.00 105.01 2493.81
   09:07:26.334.28-May-2021 3286.00 4017.95 82.25 15.00 105.21 2493.81
   09:07:26.534.28-May-2021 3286.00 4017.96 82.25 15.00 105.41 2493.81
   09:07:26.734.28-May-2021 3286.00 4017.95 82.25 15.00 105.61 2493.81
   09:07:26.934.28-May-2021 3286.00 4017.95 82.25 15.00 105.81 2493.81
   09:07:27.134.28-May-2021 3286.00 4017.97 82.25 15.00 106.01 2493.81
   09:07:27.334.28-May-2021 3286.00 4017.97 82.25 15.00 106.21 2493.81
   09:07:27.534.28-May-2021 3286.00 4017.96 82.25 15.00 106.41 2493.81
   09:07:27.734.28-May-2021 3286.00 4017.96 82.25 15.00 106.61 2493.81
   09:07:27.934.28-May-2021 3286.00 4017.04 82.25 15.00 106.81 2493.81
   09:07:28.134.28-May-2021 3286.00 4018.35 82.25 15.00 107.01 2493.81
   09:07:28.334.28-May-2021 3286.00 4018.35 82.25 15.00 107.21 2493.81
   09:07:28.534.28-May-2021 3286.00 4017.97 82.25 15.00 107.41 2493.81
   09:07:28.735.28-May-2021 3286.00 4017.92 82.25 15.00 107.61 2493.81
   09:07:28.935.28-May-2021 3286.00 4017.02 82.25 15.00 107.81 2493.81
   09:07:29.135.28-May-2021 3286.00 4018.37 82.25 15.00 108.01 2493.81
   09:07:29.335.28-May-2021 3286.00 4018.37 82.25 15.00 108.21 2493.81
   09:07:29.535.28-May-2021 3286.00 4017.96 82.25 15.00 108.41 2493.81
   09:07:29.735.28-May-2021 3286.00 4017.01 82.25 15.00 108.61 2493.81
   09:07:29.935.28-May-2021 3286.00 4018.39 82.25 15.00 108.81 2493.81
   09:07:30.135.28-May-2021 3286.00 4017.98 82.25 15.00 109.01 2493.81
   09:07:30.335.28-May-2021 3286.00 4017.98 82.25 15.00 109.21 2493.81
   09:07:30.535.28-May-2021 3286.00 4017.94 82.25 15.00 109.41 2493.81
   09:07:30.735.28-May-2021 3286.00 4017.00 82.25 15.00 109.61 2493.81
   09:07:30.935.28-May-2021 3286.00 4018.38 82.25 15.00 109.81 2493.81
   09:07:31.135.28-May-2021 3286.00 4017.96 82.25 15.00 110.01 2493.81
   09:07:31.335.28-May-2021 3286.00 4017.96 82.25 15.00 110.21 2493.81
   09:07:31.535.28-May-2021 3286.00 4017.97 82.25 15.00 110.41 2493.81
   09:07:31.735.28-May-2021 3286.00 4017.95 82.25 15.00 110.61 2493.81
   09:07:31.935.28-May-2021 3286.00 4017.94 82.25 15.00 110.81 2493.81
   09:07:32.135.28-May-2021 3286.00 4017.95 82.25 15.00 111.01 2493.81
   09:07:32.335.28-May-2021 3286.00 4017.95 82.25 15.00 111.22 2493.81
   09:07:32.535.28-May-2021 3286.00 4017.95 82.25 15.00 111.42 2493.81
   09:07:32.735.28-May-2021 3286.00 4017.95 82.25 15.00 111.62 2493.81
   09:07:32.935.28-May-2021 3286.00 4017.96 82.25 15.00 111.82 2493.81
   09:07:33.135.28-May-2021 3286.00 4017.95 82.25 15.00 112.02 2493.81
   09:07:33.335.28-May-2021 3286.00 4017.95 82.25 15.00 112.22 2493.81
   09:07:33.535.28-May-2021 3286.00 4017.82 82.25 15.00 112.42 2493.81
   09:07:33.735.28-May-2021 3286.00 4017.99 82.25 15.00 112.62 2493.81
   09:07:33.935.28-May-2021 3286.00 4017.93 82.25 15.00 112.82 2493.81
