~Version Information
 VERS.                  2.0:   CWLS log ASCII Standard -VERSION 2.0
 WRAP.                   NO:   One line per depth step
~Well Information Block
#MNEM.UNIT     VALUE/NAME     DESCRIPTION
#---------     -----------    ---------------------------
 STRT.S             09:05:41 28-May-21: START TIME 09:05:41 28-May-21
 STOP.S             09:12:44 28-May-21: STOP TIME  09:12:44 28-May-21
 STEP.S                   0.00: STEP TIME
 NULL.                 -999.25: NULL VALUE
 UWI .                     N/A:  UNIQUE WELL IDENTIFIER
 API .                     N/A:  API NUMBER
 UNIT.                     N/A:  LOGGING EQUIPMENT ID
 DCON.         Sperry Drilling:  DIRECTNL CONTR
 DOE .                     N/A:  DOE NUMBER
 MWDS.                    Baku:  MWD SHOP
 SRVC.     Turan Drilling and Engineering:  CONTRACTOR
 CTRY.              Azerbaijan:  COUNTRY NAME
 PROV.                    Baku:  PROVINCE
 STAT.                    Baku:  STATE NAME
 REGN.                   EESSA:  REGION
 BASE.              Azerbaijan:  LOGGING EQUIPMENT BASE LOCATION
 WTYP.                Deviated:  WELL TYPE
 RIG .              East Azeri:  RIG NAME
 WELL.                    D02y:  WELL NAME
 FLD .                     ACG:  FIELD NAME
 COMP.     BP Exploration (Caspian Sea) Ltd.:  COMPANY
 PDAT.          Mean Sea Level:  PERMANENT DATUM
 MDS .        Operator Entered:  MAG DATA SOURCE
 SON .        AZ-XX-0906997291:  JOB NUMBER
 FTOP.          Formation Tops:  FORM TOPS DESC
 ILTD.               Lithology:  INTERP LTH DESC
 SVYD.                  Survey:  SURVEY DESC
 DMOD.             Drill Model:  DRILL MOD DESC
 HPTY.       Minimum Curvature:  HOLE POS TYPE
 NREF.                    Grid:  NORTH REFERENCE
 SPUD.               05-May-21:  SPUD DATE
 DATE.      09.27.28 12-Jun-21:  END TIME
 STIM.      09.27.28 12-May-21:  START TIME
 DMF .             Drill Floor:  DRILL MEAS FROM
 DFST.                        :  DIST FSL TEXT
 DFWT.                        :  DIST FWL TEXT
 CNTY.                        :  COUNTY
 LOC .                        :  LOCATION
 LMF .             Drill Floor:  LOG MEASURED FROM
 DEP .m                2806.40:  DEPTH
 AGAP.m                  43.60:  AIR GAP
 VSNS.m                  -4.42:  VERT SEC N/S
 VSEW.m                  -7.31:  VERT SEC E/W
 APD .m                  43.60:  DEPTH ABOVE PD
 WDMS.m                 151.80:  WD ELEV
 EGL .m                   0.00:  GROUND ELEVATION
 EPD .m                   0.00:  ELEVATION
 AZTC.deg                 6.18:  AZM TOTAL CORR
 GRDC.deg                 0.29:  GRID CORRECTION
 MDEC.deg                 6.47:  MAGNETIC DECL
 MDIP.deg                59.50:  MAGNETIC DIP
 MFLD.nT              50350.00:  MAGNETIC FIELD
 GVFD.g                   1.00:  GRAVITY FIELD
 VSDR.deg               179.08:  VERT SEC DIRECT
 TDD .m                4300.00:  TOTAL DEPTH (DRILLER)
 SDEP.m                2800.00:  START DEPTH
 DFSL.m                   0.00:  DISTANCE FSL
 DFWL.m                   0.00:  DISTANCE FWL
 UTMY.m             4431871.34:  UTM Y
 UTMX.m              538762.90:  UTM X
 WHEW.m                  -7.31:  WELL HEAD E/W
 WHNS.m                  -4.42:  WELL HEAD N/S
 LONG.deg                51.45:  LONGITUDE
 LATI.deg                40.02:  LATITUDE
 TVDS.m                  43.60:  TVDSS CORRECTN
 EKB .m                  43.60:  KB ELEVATION
 EDF .m                  43.60:  DF ELEVATION
 TDL .m                 806.00:  TOTAL DEPTH (LOGGER)
 MAGU.                 1851231:  MAGUTM CHECKSUM
 VSC .                       0:  VS TO CLOSURE
~Parameter Information Block
#MNEM.UNIT       Value        Description
#---------     -----------    ---------------------------
 AV  .mps                 1.60:  Ann Velocity 
 AVMX.mps                 2.00:  Max Ann Veloc 
 AZIF.deg               140.24:  Azm, Final 
 BHAT.        Rotary Steerable:  BHA Type 
 BROT.°/30m               0.50:  Build Rotating 
 BS  .in                  8.50:  Bit Size 
 BTPL.psig              619.00:  Bit Press Loss 
 CABU.                     Yes:  Customer Abuse 
 CGEO.          Ilgar Gurbanov:  Customer Geo 
 COMM.                     ÜøQ:  Run Comments 1 
 TCS .hr                 85.88:  Time Ciculation Ended 
 CV  .mps                 3.30:  Crit Velocity 
 CVMX.mps                 3.50:  Max Crit Veloc 
 DD1 .           Hamid Axmedov:  Direct Drillr 1 
 DD2 .           Teymur Aliyev:  Direct Drillr 2 
 DDSV.               Geo-Pilot:  DD Service 
 DEFF.%                 100.00:  % Det Eff 
 DLRX.°/30m               0.00:  Dogleg Rot Max 
 DLSO.°/30m               1.80:  Dogleg Oriented 
 DLSX.°/30m               3.34:  Dogleg Str Max 
 DRET.      11.50.00 27-May-21:  Drill End Time 
 DRST.      21.13.00 24-May-21:  Drill Start Tim 
 DTIM.hr                 45.11:  Time Drilling 
 EDEP.m                4054.00:  End Depth 
 ENG1.         Almaz Almadatov:  Engineer 1 
 ENG2.           Amrah Tahirov:  Engineer 2 
 ENG3.      Bakhtiyar Jabbarli:  Engineer 3 
 ENG4.          Nazrin Asgarli:  Engineer 4 
 ETIM.      10.00.00 30-May-21:  End Time 
 FLOI.gpm               530.00:  Flow In 
 FLON.gpm               400.00:  Flow In Min 
 FLOS.cptm                0.00:  Fluid Loss 
 FLOX.gpm               560.00:  Flow In Max 
 DFT .        Mineral Oil Base:  Mud Type 
 FTRO.       Formation Presure:  FTWD Run Obj 
 HFLO.                      No:  High Flow 
 HPRE.                      No:  High Pressure 
 HTEM.                      No:  High Temp 
 HYDO.m                   1.80:  Hydro Offset 
 IFIN.deg                73.83:  Inc, Final 
 IMAX.deg                73.83:  Inc Max 
 IMIN.deg                57.86:  Inc Min 
 IMND.m                3259.27:  Inc Min Depth 
 IMXD.m                4045.58:  Inc Max Depth 
 JARR.                     Yes:  Jarring 
 LETM.      11.50.00 27-May-21:  Log End Time 
 LOST.hr                     0:  Lost Rig Time 
 LSTM.      21.13.00 24-May-21:  Log Start Time 
 MDCL.ppm             42500.00:  Mud Chlorides 
 MDES.     Inversion Oil/Synthetic:  Mud Desc 
 DFD .sg                  1.52:  Mud Density 
 MDMN.sg                  1.52:  Dens Mud Min 
 MDMX.sg                  1.52:  Dens Mud Max 
 MOIL.                      70:  Run Mud Oil % 
 MOWR.                   70:30:  Run Mud OWR 
 MSND.                     0.2:  Run Mud Sand % 
 MSOL.                      22:  Run Mud Solids% 
 DFV .spqt               77.00:  Mud Viscosity 
 MWOD.in                  6.75:  MWD Tool OD 
 MWSI.                      No:  Serv Intrp, MWD 
 OTIM.hr                151.01:  Time Operating 
 PCON.          Wear / Scratch:  Pad Condition 
 PMAX.psia            11296.93:  Press Op, Max 
 PV  .cP                 37.00:  Mud PV 
 RUN .                     500:  Run Number 
 ROPA.m/hr               25.00:  ROP Avg 
 ROPN.m/hr                9.00:  ROP Min 
 ROPX.m/hr               28.00:  ROP Max 
 RPMA.rpm               140.00:  RPM Surface Avg 
 RPMN.rpm                90.00:  RPM Surface Min 
 RPMX.rpm               140.00:  RPM Surface Max 
 RRUN.                    0500:  Rig Run Number 
 SAZI.deg               172.17:  Azm, Start 
 SDEP.m                3248.00:  Start Depth 
 SIDD.                      No:  Serv Intrp, DD 
 SINC.deg                57.86:  Inc, Start 
 SPPA.psig             5620.00:  SPP Avg 
 SPPN.psig             5190.00:  SPP Min 
 SPPX.psig             6050.00:  SPP Max 
 STIM.      16.00.00 23-May-21:  Start Time 
 SVCS.                 DD, MWD:  Services 
 SVER.                    9.20:  Sperry Version 
 TDAT.m                 806.00:  Tot Depth Attmp 
 TDDF.                      No:  Trip for DD 
 TDLG.m                 806.00:  Tot Depth Loggd 
 TFF .                      No:  Trip for Fail 
 TQAA.f-kp               12.00:  Torque Abs Avg 
 TQAN.f-kp                8.00:  Torque Abs Min 
 TQAX.f-kp               15.00:  Torque Abs Max 
 TRRT.°/30m               0.30:  Turn Rotating 
 MRT .                  EWR-M5:  Maximum Recorded Temperature 
 TTMX.degC               93.00:  Max Tool Temp 
 VS01.                90649155:  Virtual Str1 SN 
 VS02.                90642264:  Virtual Str2 SN 
 VS03.                90642266:  Virtual Str3 SN 
 VS04.                90642261:  Virtual Str4 SN 
 WBMN.klb                 0.00:  WOB Min 
 WITN.             Anar Khalil:  Customer Rep 
 WITN.           Murad Guliyev:  Customer Rep 2 
 WOBA.klb                13.00:  WOB Avg 
 WOBX.klb                25.00:  WOB Max 
 YP  .lhf2               32.00:  Yield Point 
~Curve Information Block
#MNEM.UNIT                 API CODE     Curve Description
#---------               -----------    ---------------------------
 TIME.HHMMSS            00 000 000 000:  GT Time & Date
 GTDEPTH.m              00 000 000 000:  GT Depth
 GTPQH.psia             00 000 000 000:  GT HR Quartz Pressure
 GTTQ.degC              00 000 000 000:  GT Quartz Temperature
 GTTN.NONE              00 000 000 000:  GT Test Number
 GTET.sec               00 000 000 000:  GT Elapsed Test Time
 GTTVD.m                00 000 000 000:  GT True Vertical Depth
#Other Information
#
#WARRANTY: Halliburton will use its best efforts to furnish customers with 
#accurate information and interpretations that are part of, and incident to, the services 
#provided.  However, Halliburton cannot and does not warrant the accuracy 
#or correctness of such information and interpretations.  Under no circumstances should any 
#such information or interpretation be relied upon as the sole basis for any drilling, 
#completion, production, or financial decision or any procedure involving any risk to the 
#safety of any drilling venture, drilling rig or its crew or any other third party.  The 
#Customer has full responsibility for all drilling, completion and production operation.  
#Halliburton makes no representations or warranties, either expressed or 
#implied, including, but not limited to, the implied warranties of merchantability or fitness 
#for a particular purpose, with respect to the services rendered.  In no event will 
#Halliburton be liable for failure to obtain any particular results or for 
#any damages, including, but not limited to, indirect, special or consequential damages, 
#resulting from the use of any information or interpretation provided by Halliburton.
#
~A           TIME           GTDEPTH  GTPQH  GTTQ  GTTN   GTET   GTTVD  
# ...
   09:08:41.944.28-May-2021 3286.00 4017.77 82.20 15.00 180.82 2493.81
   09:08:42.144.28-May-2021 3286.00 4017.75 82.20 15.00 181.02 2493.81
   09:08:42.344.28-May-2021 3286.00 4017.75 82.20 15.00 181.22 2493.81
   09:08:42.544.28-May-2021 3286.00 4018.27 82.20 15.00 181.42 2493.81
   09:08:42.745.28-May-2021 3286.00 4017.83 82.20 15.00 181.62 2493.81
   09:08:42.945.28-May-2021 3286.00 4017.82 82.20 15.00 181.82 2493.81
   09:08:43.145.28-May-2021 3286.00 4016.75 82.20 15.00 182.02 2493.81
   09:08:43.345.28-May-2021 3286.00 4016.75 82.20 15.00 182.22 2493.81
   09:08:43.545.28-May-2021 3286.00 4018.30 82.20 15.00 182.42 2493.81
   09:08:43.745.28-May-2021 3286.00 4017.84 82.20 15.00 182.62 2493.81
   09:08:43.945.28-May-2021 3286.00 4017.78 82.20 15.00 182.82 2493.81
   09:08:44.145.28-May-2021 3286.00 4016.78 82.20 15.00 183.02 2493.81
   09:08:44.345.28-May-2021 3286.00 4016.78 82.20 15.00 183.22 2493.81
   09:08:44.545.28-May-2021 3286.00 4017.88 82.19 15.00 183.42 2493.81
   09:08:44.745.28-May-2021 3286.00 4017.85 82.19 15.00 183.62 2493.81
   09:08:44.945.28-May-2021 3286.00 4017.78 82.19 15.00 183.82 2493.81
   09:08:45.145.28-May-2021 3286.00 4017.80 82.19 15.00 184.02 2493.81
   09:08:45.345.28-May-2021 3286.00 4017.80 82.19 15.00 184.22 2493.81
   09:08:45.545.28-May-2021 3286.00 4017.76 82.19 15.00 184.42 2493.81
   09:08:45.745.28-May-2021 3286.00 4017.75 82.19 15.00 184.62 2493.81
   09:08:45.945.28-May-2021 3286.00 4017.74 82.19 15.00 184.82 2493.81
   09:08:46.145.28-May-2021 3286.00 4017.72 82.19 15.00 185.02 2493.81
   09:08:46.345.28-May-2021 3286.00 4017.72 82.19 15.00 185.22 2493.81
   09:08:46.545.28-May-2021 3286.00 4017.70 82.19 15.00 185.43 2493.81
   09:08:46.745.28-May-2021 3286.00 4016.91 82.19 15.00 185.63 2493.81
   09:08:46.945.28-May-2021 3286.00 4018.07 82.19 15.00 185.83 2493.81
   09:08:47.145.28-May-2021 3286.00 4017.87 82.19 15.00 186.03 2493.81
   09:08:47.345.28-May-2021 3286.00 4017.87 82.19 15.00 186.23 2493.81
   09:08:47.545.28-May-2021 3286.00 4017.83 82.19 15.00 186.43 2493.81
   09:08:47.745.28-May-2021 3286.00 4017.78 82.19 15.00 186.63 2493.81
   09:08:47.945.28-May-2021 3286.00 4017.78 82.19 15.00 186.83 2493.81
   09:08:48.145.28-May-2021 3286.00 4017.75 82.19 15.00 187.03 2493.81
   09:08:48.345.28-May-2021 3286.00 4017.75 82.19 15.00 187.23 2493.81
   09:08:48.545.28-May-2021 3286.00 4017.72 82.19 15.00 187.43 2493.81
   09:08:48.745.28-May-2021 3286.00 4017.74 82.19 15.00 187.63 2493.81
   09:08:48.945.28-May-2021 3286.00 4017.70 82.19 15.00 187.83 2493.81
   09:08:49.145.28-May-2021 3286.00 4017.70 82.19 15.00 188.03 2493.81
   09:08:49.345.28-May-2021 3286.00 4017.70 82.19 15.00 188.23 2493.81
   09:08:49.545.28-May-2021 3286.00 4017.53 82.19 15.00 188.43 2493.81
   09:08:49.745.28-May-2021 3286.00 4017.92 82.19 15.00 188.63 2493.81
   09:08:49.945.28-May-2021 3286.00 4017.81 82.19 15.00 188.83 2493.81
   09:08:50.145.28-May-2021 3286.00 4017.82 82.19 15.00 189.03 2493.81
   09:08:50.346.28-May-2021 3286.00 4017.82 82.19 15.00 189.23 2493.81
   09:08:50.546.28-May-2021 3286.00 4016.93 82.19 15.00 189.43 2493.81
   09:08:50.746.28-May-2021 3286.00 4018.21 82.19 15.00 189.63 2493.81
   09:08:50.946.28-May-2021 3286.00 4017.85 82.19 15.00 189.83 2493.81
   09:08:51.146.28-May-2021 3286.00 4017.86 82.19 15.00 190.03 2493.81
   09:08:51.346.28-May-2021 3286.00 4017.86 82.19 15.00 190.23 2493.81
   09:08:51.546.28-May-2021 3286.00 4016.93 82.19 15.00 190.43 2493.81
   09:08:51.746.28-May-2021 3286.00 4017.87 82.19 15.00 190.63 2493.81
   09:08:51.946.28-May-2021 3286.00 4017.85 82.19 15.00 190.83 2493.81
   09:08:52.146.28-May-2021 3286.00 4017.79 82.19 15.00 191.03 2493.81
   09:08:52.346.28-May-2021 3286.00 4017.79 82.19 15.00 191.23 2493.81
   09:08:52.546.28-May-2021 3286.00 4018.23 82.19 15.00 191.43 2493.81
   09:08:52.746.28-May-2021 3286.00 4017.88 82.19 15.00 191.63 2493.81
   09:08:52.946.28-May-2021 3286.00 4017.87 82.19 15.00 191.83 2493.81
   09:08:53.146.28-May-2021 3286.00 4017.81 82.19 15.00 192.03 2493.81
   09:08:53.346.28-May-2021 3286.00 4017.81 82.19 15.00 192.23 2493.81
   09:08:53.546.28-May-2021 3286.00 4017.79 82.19 15.00 192.43 2493.81
   09:08:53.746.28-May-2021 3286.00 4017.79 82.19 15.00 192.63 2493.81
   09:08:53.946.28-May-2021 3286.00 4017.77 82.19 15.00 192.83 2493.81
   09:08:54.146.28-May-2021 3286.00 4017.77 82.19 15.00 193.03 2493.81
   09:08:54.346.28-May-2021 3286.00 4017.77 82.19 15.00 193.23 2493.81
   09:08:54.546.28-May-2021 3286.00 4017.75 82.19 15.00 193.43 2493.81
   09:08:54.746.28-May-2021 3286.00 4017.74 82.19 15.00 193.63 2493.81
   09:08:54.946.28-May-2021 3286.00 4016.74 82.19 15.00 193.83 2493.81
   09:08:55.146.28-May-2021 3286.00 4018.33 82.19 15.00 194.03 2493.81
   09:08:55.346.28-May-2021 3286.00 4018.33 82.19 15.00 194.23 2493.81
   09:08:55.546.28-May-2021 3286.00 4017.85 82.19 15.00 194.43 2493.81
   09:08:55.746.28-May-2021 3286.00 4017.81 82.19 15.00 194.63 2493.81
   09:08:55.946.28-May-2021 3286.00 4017.79 82.19 15.00 194.83 2493.81
   09:08:56.146.28-May-2021 3286.00 4017.79 82.19 15.00 195.03 2493.81
   09:08:56.346.28-May-2021 3286.00 4017.79 82.19 15.00 195.23 2493.81
   09:08:56.546.28-May-2021 3286.00 4017.77 82.19 15.00 195.43 2493.81
   09:08:56.746.28-May-2021 3286.00 4017.75 82.19 15.00 195.63 2493.81
   09:08:56.946.28-May-2021 3286.00 4017.75 82.19 15.00 195.83 2493.81
   09:08:57.146.28-May-2021 3286.00 4017.74 82.19 15.00 196.03 2493.81
   09:08:57.346.28-May-2021 3286.00 4017.74 82.19 15.00 196.23 2493.81
   09:08:57.546.28-May-2021 3286.00 4016.95 82.18 15.00 196.43 2493.81
   09:08:57.747.28-May-2021 3286.00 4018.10 82.18 15.00 196.63 2493.81
   09:08:57.947.28-May-2021 3286.00 4017.90 82.18 15.00 196.83 2493.81
   09:08:58.147.28-May-2021 3286.00 4017.86 82.18 15.00 197.03 2493.81
   09:08:58.347.28-May-2021 3286.00 4017.86 82.18 15.00 197.23 2493.81
   09:08:58.547.28-May-2021 3286.00 4017.80 82.18 15.00 197.43 2493.81
   09:08:58.747.28-May-2021 3286.00 4017.22 82.18 15.00 197.63 2493.81
   09:08:58.947.28-May-2021 3286.00 4017.97 82.18 15.00 197.83 2493.81
   09:08:59.147.28-May-2021 3286.00 4017.86 82.18 15.00 198.03 2493.81
   09:08:59.347.28-May-2021 3286.00 4017.86 82.18 15.00 198.23 2493.81
   09:08:59.547.28-May-2021 3286.00 4017.84 82.18 15.00 198.43 2493.81
   09:08:59.747.28-May-2021 3286.00 4017.98 82.18 15.00 198.63 2493.81
   09:08:59.947.28-May-2021 3286.00 4017.87 82.18 15.00 198.83 2493.81
   09:09:00.147.28-May-2021 3286.00 4017.85 82.18 15.00 199.03 2493.81
   09:09:00.347.28-May-2021 3286.00 4017.85 82.18 15.00 199.23 2493.81
   09:09:00.547.28-May-2021 3286.00 4017.24 82.18 15.00 199.43 2493.81
   09:09:00.747.28-May-2021 3286.00 4017.99 82.18 15.00 199.63 2493.81
   09:09:00.947.28-May-2021 3286.00 4017.86 82.18 15.00 199.83 2493.81
   09:09:01.147.28-May-2021 3286.00 4017.86 82.18 15.00 200.03 2493.81
   09:09:01.347.28-May-2021 3286.00 4017.86 82.18 15.00 200.23 2493.81
   09:09:01.547.28-May-2021 3286.00 4017.81 82.18 15.00 200.43 2493.81
   09:09:01.747.28-May-2021 3286.00 4017.80 82.18 15.00 200.63 2493.81
   09:09:01.947.28-May-2021 3286.00 4017.79 82.18 15.00 200.83 2493.81
   09:09:02.147.28-May-2021 3286.00 4017.78 82.18 15.00 201.03 2493.81
   09:09:02.347.28-May-2021 3286.00 4017.78 82.18 15.00 201.23 2493.81
   09:09:02.547.28-May-2021 3286.00 4017.77 82.18 15.00 201.43 2493.81
   09:09:02.747.28-May-2021 3286.00 4017.76 82.18 15.00 201.63 2493.81
   09:09:02.947.28-May-2021 3286.00 4017.77 82.18 15.00 201.83 2493.81
   09:09:03.147.28-May-2021 3286.00 4016.92 82.18 15.00 202.03 2493.81
   09:09:03.347.28-May-2021 3286.00 4016.92 82.18 15.00 202.23 2493.81
   09:09:03.547.28-May-2021 3286.00 4018.24 82.18 15.00 202.43 2493.81
   09:09:03.747.28-May-2021 3286.00 4017.87 82.18 15.00 202.63 2493.81
   09:09:03.947.28-May-2021 3286.00 4017.80 82.18 15.00 202.83 2493.81
   09:09:04.147.28-May-2021 3286.00 4017.80 82.18 15.00 203.03 2493.81
   09:09:04.347.28-May-2021 3286.00 4017.80 82.18 15.00 203.23 2493.81
