~Version Information
 VERS.                  2.0:   CWLS log ASCII Standard -VERSION 2.0
 WRAP.                   NO:   One line per depth step
~Well Information Block
#MNEM.UNIT     VALUE/NAME     DESCRIPTION
#---------     -----------    ---------------------------
 STRT.S             05:48:37 28-May-21: START TIME 05:48:37 28-May-21
 STOP.S             05:55:44 28-May-21: STOP TIME  05:55:44 28-May-21
 STEP.S                   0.00: STEP TIME
 NULL.                 -999.25: NULL VALUE
 UWI .                     N/A:  UNIQUE WELL IDENTIFIER
 API .                     N/A:  API NUMBER
 UNIT.                     N/A:  LOGGING EQUIPMENT ID
 DCON.         Sperry Drilling:  DIRECTNL CONTR
 DOE .                     N/A:  DOE NUMBER
 MWDS.                    Baku:  MWD SHOP
 SRVC.     Turan Drilling and Engineering:  CONTRACTOR
 CTRY.              Azerbaijan:  COUNTRY NAME
 PROV.                    Baku:  PROVINCE
 STAT.                    Baku:  STATE NAME
 REGN.                   EESSA:  REGION
 BASE.              Azerbaijan:  LOGGING EQUIPMENT BASE LOCATION
 WTYP.                Deviated:  WELL TYPE
 RIG .              East Azeri:  RIG NAME
 WELL.                    D02y:  WELL NAME
 FLD .                     ACG:  FIELD NAME
 COMP.     BP Exploration (Caspian Sea) Ltd.:  COMPANY
 PDAT.          Mean Sea Level:  PERMANENT DATUM
 MDS .        Operator Entered:  MAG DATA SOURCE
 SON .        AZ-XX-0906997291:  JOB NUMBER
 FTOP.          Formation Tops:  FORM TOPS DESC
 ILTD.               Lithology:  INTERP LTH DESC
 SVYD.                  Survey:  SURVEY DESC
 DMOD.             Drill Model:  DRILL MOD DESC
 HPTY.       Minimum Curvature:  HOLE POS TYPE
 NREF.                    Grid:  NORTH REFERENCE
 SPUD.               05-May-21:  SPUD DATE
 DATE.      09.27.28 12-Jun-21:  END TIME
 STIM.      09.27.28 12-May-21:  START TIME
 DMF .             Drill Floor:  DRILL MEAS FROM
 DFST.                        :  DIST FSL TEXT
 DFWT.                        :  DIST FWL TEXT
 CNTY.                        :  COUNTY
 LOC .                        :  LOCATION
 LMF .             Drill Floor:  LOG MEASURED FROM
 DEP .m                2806.40:  DEPTH
 AGAP.m                  43.60:  AIR GAP
 VSNS.m                  -4.42:  VERT SEC N/S
 VSEW.m                  -7.31:  VERT SEC E/W
 APD .m                  43.60:  DEPTH ABOVE PD
 WDMS.m                 151.80:  WD ELEV
 EGL .m                   0.00:  GROUND ELEVATION
 EPD .m                   0.00:  ELEVATION
 AZTC.deg                 6.18:  AZM TOTAL CORR
 GRDC.deg                 0.29:  GRID CORRECTION
 MDEC.deg                 6.47:  MAGNETIC DECL
 MDIP.deg                59.50:  MAGNETIC DIP
 MFLD.nT              50350.00:  MAGNETIC FIELD
 GVFD.g                   1.00:  GRAVITY FIELD
 VSDR.deg               179.08:  VERT SEC DIRECT
 TDD .m                4300.00:  TOTAL DEPTH (DRILLER)
 SDEP.m                2800.00:  START DEPTH
 DFSL.m                   0.00:  DISTANCE FSL
 DFWL.m                   0.00:  DISTANCE FWL
 UTMY.m             4431871.34:  UTM Y
 UTMX.m              538762.90:  UTM X
 WHEW.m                  -7.31:  WELL HEAD E/W
 WHNS.m                  -4.42:  WELL HEAD N/S
 LONG.deg                51.45:  LONGITUDE
 LATI.deg                40.02:  LATITUDE
 TVDS.m                  43.60:  TVDSS CORRECTN
 EKB .m                  43.60:  KB ELEVATION
 EDF .m                  43.60:  DF ELEVATION
 TDL .m                 806.00:  TOTAL DEPTH (LOGGER)
 MAGU.                 1851231:  MAGUTM CHECKSUM
 VSC .                       0:  VS TO CLOSURE
~Parameter Information Block
#MNEM.UNIT       Value        Description
#---------     -----------    ---------------------------
 AV  .mps                 1.60:  Ann Velocity 
 AVMX.mps                 2.00:  Max Ann Veloc 
 AZIF.deg               140.24:  Azm, Final 
 BHAT.        Rotary Steerable:  BHA Type 
 BROT.°/30m               0.50:  Build Rotating 
 BS  .in                  8.50:  Bit Size 
 BTPL.psig              619.00:  Bit Press Loss 
 CABU.                     Yes:  Customer Abuse 
 CGEO.          Ilgar Gurbanov:  Customer Geo 
 COMM.                     dAY:  Run Comments 1 
 TCS .hr                 85.88:  Time Ciculation Ended 
 CV  .mps                 3.30:  Crit Velocity 
 CVMX.mps                 3.50:  Max Crit Veloc 
 DD1 .           Hamid Axmedov:  Direct Drillr 1 
 DD2 .           Teymur Aliyev:  Direct Drillr 2 
 DDSV.               Geo-Pilot:  DD Service 
 DEFF.%                 100.00:  % Det Eff 
 DLRX.°/30m               0.00:  Dogleg Rot Max 
 DLSO.°/30m               1.80:  Dogleg Oriented 
 DLSX.°/30m               3.34:  Dogleg Str Max 
 DRET.      11.50.00 27-May-21:  Drill End Time 
 DRST.      21.13.00 24-May-21:  Drill Start Tim 
 DTIM.hr                 45.11:  Time Drilling 
 EDEP.m                4054.00:  End Depth 
 ENG1.         Almaz Almadatov:  Engineer 1 
 ENG2.           Amrah Tahirov:  Engineer 2 
 ENG3.      Bakhtiyar Jabbarli:  Engineer 3 
 ENG4.          Nazrin Asgarli:  Engineer 4 
 ETIM.      10.00.00 30-May-21:  End Time 
 FLOI.gpm               530.00:  Flow In 
 FLON.gpm               400.00:  Flow In Min 
 FLOS.cptm                0.00:  Fluid Loss 
 FLOX.gpm               560.00:  Flow In Max 
 DFT .        Mineral Oil Base:  Mud Type 
 FTRO.       Formation Presure:  FTWD Run Obj 
 HFLO.                      No:  High Flow 
 HPRE.                      No:  High Pressure 
 HTEM.                      No:  High Temp 
 HYDO.m                   1.80:  Hydro Offset 
 IFIN.deg                73.83:  Inc, Final 
 IMAX.deg                73.83:  Inc Max 
 IMIN.deg                57.86:  Inc Min 
 IMND.m                3259.27:  Inc Min Depth 
 IMXD.m                4045.58:  Inc Max Depth 
 JARR.                     Yes:  Jarring 
 LETM.      11.50.00 27-May-21:  Log End Time 
 LOST.hr                     0:  Lost Rig Time 
 LSTM.      21.13.00 24-May-21:  Log Start Time 
 MDCL.ppm             42500.00:  Mud Chlorides 
 MDES.     Inversion Oil/Synthetic:  Mud Desc 
 DFD .sg                  1.52:  Mud Density 
 MDMN.sg                  1.52:  Dens Mud Min 
 MDMX.sg                  1.52:  Dens Mud Max 
 MOIL.                      70:  Run Mud Oil % 
 MOWR.                   70:30:  Run Mud OWR 
 MSND.                     0.2:  Run Mud Sand % 
 MSOL.                      22:  Run Mud Solids% 
 DFV .spqt               77.00:  Mud Viscosity 
 MWOD.in                  6.75:  MWD Tool OD 
 MWSI.                      No:  Serv Intrp, MWD 
 OTIM.hr                151.01:  Time Operating 
 PCON.          Wear / Scratch:  Pad Condition 
 PMAX.psia            11296.93:  Press Op, Max 
 PV  .cP                 37.00:  Mud PV 
 RUN .                     500:  Run Number 
 ROPA.m/hr               25.00:  ROP Avg 
 ROPN.m/hr                9.00:  ROP Min 
 ROPX.m/hr               28.00:  ROP Max 
 RPMA.rpm               140.00:  RPM Surface Avg 
 RPMN.rpm                90.00:  RPM Surface Min 
 RPMX.rpm               140.00:  RPM Surface Max 
 RRUN.                    0500:  Rig Run Number 
 SAZI.deg               172.17:  Azm, Start 
 SDEP.m                3248.00:  Start Depth 
 SIDD.                      No:  Serv Intrp, DD 
 SINC.deg                57.86:  Inc, Start 
 SPPA.psig             5620.00:  SPP Avg 
 SPPN.psig             5190.00:  SPP Min 
 SPPX.psig             6050.00:  SPP Max 
 STIM.      16.00.00 23-May-21:  Start Time 
 SVCS.                 DD, MWD:  Services 
 SVER.                    9.20:  Sperry Version 
 TDAT.m                 806.00:  Tot Depth Attmp 
 TDDF.                      No:  Trip for DD 
 TDLG.m                 806.00:  Tot Depth Loggd 
 TFF .                      No:  Trip for Fail 
 TQAA.f-kp               12.00:  Torque Abs Avg 
 TQAN.f-kp                8.00:  Torque Abs Min 
 TQAX.f-kp               15.00:  Torque Abs Max 
 TRRT.°/30m               0.30:  Turn Rotating 
 MRT .                  EWR-M5:  Maximum Recorded Temperature 
 TTMX.degC               93.00:  Max Tool Temp 
 VS01.                90649155:  Virtual Str1 SN 
 VS02.                90642264:  Virtual Str2 SN 
 VS03.                90642266:  Virtual Str3 SN 
 VS04.                90642261:  Virtual Str4 SN 
 WBMN.klb                 0.00:  WOB Min 
 WITN.             Anar Khalil:  Customer Rep 
 WITN.           Murad Guliyev:  Customer Rep 2 
 WOBA.klb                13.00:  WOB Avg 
 WOBX.klb                25.00:  WOB Max 
 YP  .lhf2               32.00:  Yield Point 
~Curve Information Block
#MNEM.UNIT                 API CODE     Curve Description
#---------               -----------    ---------------------------
 TIME.HHMMSS            00 000 000 000:  GT Time & Date
 GTDEPTH.m              00 000 000 000:  GT Depth
 GTPQH.psia             00 000 000 000:  GT HR Quartz Pressure
 GTTQ.degC              00 000 000 000:  GT Quartz Temperature
 GTTN.NONE              00 000 000 000:  GT Test Number
 GTET.sec               00 000 000 000:  GT Elapsed Test Time
 GTTVD.m                00 000 000 000:  GT True Vertical Depth
#Other Information
#
#WARRANTY: Halliburton will use its best efforts to furnish customers with 
#accurate information and interpretations that are part of, and incident to, the services 
#provided.  However, Halliburton cannot and does not warrant the accuracy 
#or correctness of such information and interpretations.  Under no circumstances should any 
#such information or interpretation be relied upon as the sole basis for any drilling, 
#completion, production, or financial decision or any procedure involving any risk to the 
#safety of any drilling venture, drilling rig or its crew or any other third party.  The 
#Customer has full responsibility for all drilling, completion and production operation.  
#Halliburton makes no representations or warranties, either expressed or 
#implied, including, but not limited to, the implied warranties of merchantability or fitness 
#for a particular purpose, with respect to the services rendered.  In no event will 
#Halliburton be liable for failure to obtain any particular results or for 
#any damages, including, but not limited to, indirect, special or consequential damages, 
#resulting from the use of any information or interpretation provided by Halliburton.
#
~A           TIME           GTDEPTH  GTPQH  GTTQ  GTTN   GTET   GTTVD  
# ...
   05:49:22.997.28-May-2021 3439.00 6013.45 82.97 11.00  45.22 2568.67
   05:49:23.197.28-May-2021 3439.00 6013.43 82.97 11.00  45.42 2568.67
   05:49:23.397.28-May-2021 3439.00 6015.03 82.97 11.00  45.62 2568.67
   05:49:23.597.28-May-2021 3439.00 6013.73 82.97 11.00  45.82 2568.67
   05:49:23.797.28-May-2021 3439.00 6013.31 82.97 11.00  46.02 2568.67
   05:49:23.997.28-May-2021 3439.00 6013.31 82.97 11.00  46.22 2568.67
   05:49:24.197.28-May-2021 3439.00 6012.84 82.97 11.00  46.42 2568.67
   05:49:24.398.28-May-2021 3439.00 6013.62 82.97 11.00  46.62 2568.67
   05:49:24.598.28-May-2021 3439.00 6013.31 82.97 11.00  46.82 2568.67
   05:49:24.798.28-May-2021 3439.00 6013.81 82.97 11.00  47.02 2568.67
   05:49:24.998.28-May-2021 3439.00 6013.81 82.97 11.00  47.22 2568.67
   05:49:25.198.28-May-2021 3439.00 6013.97 82.97 11.00  47.42 2568.67
   05:49:25.398.28-May-2021 3439.00 6013.81 82.97 11.00  47.62 2568.67
   05:49:25.598.28-May-2021 3439.00 6013.78 82.97 11.00  47.82 2568.67
   05:49:25.798.28-May-2021 3439.00 6013.79 82.97 11.00  48.02 2568.67
   05:49:25.998.28-May-2021 3439.00 6013.79 82.97 11.00  48.22 2568.67
   05:49:26.198.28-May-2021 3439.00 6015.31 82.96 11.00  48.42 2568.67
   05:49:26.398.28-May-2021 3439.00 6013.98 82.96 11.00  48.62 2568.67
   05:49:26.598.28-May-2021 3439.00 6013.38 82.96 11.00  48.82 2568.67
   05:49:26.799.28-May-2021 3439.00 6014.25 82.96 11.00  49.02 2568.67
   05:49:26.999.28-May-2021 3439.00 6014.25 82.96 11.00  49.22 2568.67
   05:49:27.199.28-May-2021 3439.00 6012.41 82.96 11.00  49.42 2568.67
   05:49:27.399.28-May-2021 3439.00 6013.98 82.96 11.00  49.62 2568.67
   05:49:27.599.28-May-2021 3439.00 6014.31 82.96 11.00  49.82 2568.67
   05:49:27.799.28-May-2021 3439.00 6013.98 82.96 11.00  50.02 2568.67
   05:49:27.999.28-May-2021 3439.00 6013.98 82.96 11.00  50.22 2568.67
   05:49:28.199.28-May-2021 3439.00 6014.53 82.96 11.00  50.42 2568.67
   05:49:28.399.28-May-2021 3439.00 6013.28 82.96 11.00  50.62 2568.67
   05:49:28.599.28-May-2021 3439.00 6012.99 82.96 11.00  50.82 2568.67
   05:49:28.799.28-May-2021 3439.00 6016.28 82.96 11.00  51.02 2568.67
   05:49:28.999.28-May-2021 3439.00 6016.28 82.96 11.00  51.22 2568.67
   05:49:29.200.28-May-2021 3439.00 6013.82 82.96 11.00  51.42 2568.67
   05:49:29.400.28-May-2021 3439.00 6013.13 82.96 11.00  51.62 2568.67
   05:49:29.600.28-May-2021 3439.00 6014.10 82.96 11.00  51.82 2568.67
   05:49:29.800.28-May-2021 3439.00 6012.90 82.96 11.00  52.02 2568.67
   05:49:30.000.28-May-2021 3439.00 6012.90 82.96 11.00  52.22 2568.67
   05:49:30.200.28-May-2021 3439.00 5999.21 82.96 11.00  52.42 2568.67
   05:49:30.400.28-May-2021 3439.00 5952.51 82.96 11.00  52.62 2568.67
   05:49:30.600.28-May-2021 3439.00 5895.18 82.96 11.00  52.82 2568.67
   05:49:30.800.28-May-2021 3439.00 5816.28 82.96 11.00  53.02 2568.67
   05:49:31.000.28-May-2021 3439.00 5816.28 82.96 11.00  53.22 2568.67
   05:49:31.200.28-May-2021 3439.00 5819.80 82.96 11.00  53.42 2568.67
   05:49:31.400.28-May-2021 3439.00 5735.09 82.96 11.00  53.62 2568.67
   05:49:31.601.28-May-2021 3439.00 5660.87 82.96 11.00  53.82 2568.67
   05:49:31.801.28-May-2021 3439.00 5542.45 82.96 11.00  54.02 2568.67
   05:49:32.001.28-May-2021 3439.00 5542.45 82.96 11.00  54.22 2568.67
   05:49:32.201.28-May-2021 3439.00 5626.14 82.96 11.00  54.42 2568.67
   05:49:32.401.28-May-2021 3439.00 5404.72 82.96 11.00  54.62 2568.67
   05:49:32.601.28-May-2021 3439.00 5276.15 82.96 11.00  54.82 2568.67
   05:49:32.801.28-May-2021 3439.00 5219.64 82.96 11.00  55.02 2568.67
   05:49:33.001.28-May-2021 3439.00 5219.64 82.96 11.00  55.22 2568.67
   05:49:33.201.28-May-2021 3439.00 5053.04 82.96 11.00  55.42 2568.67
   05:49:33.401.28-May-2021 3439.00 5119.99 82.96 11.00  55.62 2568.67
   05:49:33.601.28-May-2021 3439.00 5053.88 82.96 11.00  55.82 2568.67
   05:49:33.801.28-May-2021 3439.00 5028.07 82.96 11.00  56.02 2568.67
   05:49:34.002.28-May-2021 3439.00 5028.07 82.96 11.00  56.22 2568.67
   05:49:34.202.28-May-2021 3439.00 4948.03 82.96 11.00  56.42 2568.67
   05:49:34.402.28-May-2021 3439.00 5019.51 82.96 11.00  56.62 2568.67
   05:49:34.602.28-May-2021 3439.00 4799.28 82.96 11.00  56.82 2568.67
   05:49:34.802.28-May-2021 3439.00 5042.52 82.96 11.00  57.02 2568.67
   05:49:35.002.28-May-2021 3439.00 5042.52 82.96 11.00  57.22 2568.67
   05:49:35.202.28-May-2021 3439.00 4673.35 82.95 11.00  57.42 2568.67
   05:49:35.402.28-May-2021 3439.00 5023.46 82.95 11.00  57.62 2568.67
   05:49:35.602.28-May-2021 3439.00 4964.88 82.95 11.00  57.82 2568.67
   05:49:35.802.28-May-2021 3439.00 4758.68 82.95 11.00  58.02 2568.67
   05:49:36.002.28-May-2021 3439.00 4758.68 82.95 11.00  58.22 2568.67
   05:49:36.202.28-May-2021 3439.00 4935.55 82.95 11.00  58.42 2568.67
   05:49:36.403.28-May-2021 3439.00 4728.69 82.95 11.00  58.62 2568.67
   05:49:36.603.28-May-2021 3439.00 4576.26 82.95 11.00  58.82 2568.67
   05:49:36.803.28-May-2021 3439.00 4716.85 82.95 11.00  59.02 2568.67
   05:49:37.003.28-May-2021 3439.00 4716.85 82.95 11.00  59.22 2568.67
   05:49:37.203.28-May-2021 3439.00 4375.74 82.95 11.00  59.42 2568.67
   05:49:37.403.28-May-2021 3439.00 4302.15 82.94 11.00  59.62 2568.67
   05:49:37.603.28-May-2021 3439.00 4714.19 82.94 11.00  59.83 2568.67
   05:49:37.803.28-May-2021 3439.00 4373.38 82.94 11.00  60.03 2568.67
   05:49:38.003.28-May-2021 3439.00 4373.38 82.94 11.00  60.23 2568.67
   05:49:38.203.28-May-2021 3439.00 5109.98 82.94 11.00  60.43 2568.67
   05:49:38.403.28-May-2021 3439.00 5107.39 82.94 11.00  60.63 2568.67
   05:49:38.603.28-May-2021 3439.00 5106.65 82.94 11.00  60.83 2568.67
   05:49:38.804.28-May-2021 3439.00 5106.06 82.94 11.00  61.03 2568.67
   05:49:39.004.28-May-2021 3439.00 5106.06 82.94 11.00  61.23 2568.67
   05:49:39.204.28-May-2021 3439.00 5105.76 82.94 11.00  61.43 2568.67
   05:49:39.404.28-May-2021 3439.00 5105.81 82.94 11.00  61.63 2568.67
   05:49:39.604.28-May-2021 3439.00 5103.49 82.94 11.00  61.83 2568.67
   05:49:39.804.28-May-2021 3439.00 5106.82 82.94 11.00  62.03 2568.67
   05:49:40.004.28-May-2021 3439.00 5106.82 82.94 11.00  62.23 2568.67
   05:49:40.204.28-May-2021 3439.00 5106.92 82.94 11.00  62.43 2568.67
   05:49:40.404.28-May-2021 3439.00 5107.06 82.93 11.00  62.63 2568.67
   05:49:40.604.28-May-2021 3439.00 5107.30 82.93 11.00  62.83 2568.67
   05:49:40.804.28-May-2021 3439.00 5107.55 82.93 11.00  63.03 2568.67
   05:49:41.004.28-May-2021 3439.00 5107.55 82.93 11.00  63.23 2568.67
   05:49:41.205.28-May-2021 3439.00 5108.04 82.93 11.00  63.43 2568.67
   05:49:41.405.28-May-2021 3439.00 5108.23 82.93 11.00  63.63 2568.67
   05:49:41.605.28-May-2021 3439.00 5108.45 82.93 11.00  63.83 2568.67
   05:49:41.805.28-May-2021 3439.00 5108.67 82.93 11.00  64.03 2568.67
   05:49:42.005.28-May-2021 3439.00 5108.67 82.93 11.00  64.23 2568.67
   05:49:42.205.28-May-2021 3439.00 5109.05 82.93 11.00  64.43 2568.67
   05:49:42.405.28-May-2021 3439.00 5106.77 82.93 11.00  64.63 2568.67
   05:49:42.605.28-May-2021 3439.00 5109.81 82.93 11.00  64.83 2568.67
   05:49:42.805.28-May-2021 3439.00 5109.65 82.93 11.00  65.03 2568.67
   05:49:43.005.28-May-2021 3439.00 5109.65 82.93 11.00  65.23 2568.67
   05:49:43.205.28-May-2021 3439.00 5108.78 82.93 11.00  65.43 2568.67
   05:49:43.405.28-May-2021 3439.00 5110.20 82.93 11.00  65.63 2568.67
   05:49:43.606.28-May-2021 3439.00 5110.28 82.93 11.00  65.83 2568.67
   05:49:43.806.28-May-2021 3439.00 5110.74 82.93 11.00  66.03 2568.67
   05:49:44.006.28-May-2021 3439.00 5110.74 82.93 11.00  66.23 2568.67
   05:49:44.206.28-May-2021 3439.00 5110.93 82.93 11.00  66.43 2568.67
   05:49:44.406.28-May-2021 3439.00 5110.96 82.93 11.00  66.63 2568.67
   05:49:44.606.28-May-2021 3439.00 5111.37 82.93 11.00  66.83 2568.67
   05:49:44.806.28-May-2021 3439.00 5109.15 82.93 11.00  67.03 2568.67
   05:49:45.006.28-May-2021 3439.00 5109.15 82.93 11.00  67.23 2568.67
   05:49:45.206.28-May-2021 3439.00 5111.74 82.93 11.00  67.43 2568.67
   05:49:45.406.28-May-2021 3439.00 5112.02 82.93 11.00  67.63 2568.67
