~Version Information
 VERS.                  2.0:   CWLS log ASCII Standard -VERSION 2.0
 WRAP.                   NO:   One line per depth step
~Well Information Block
#MNEM.UNIT     VALUE/NAME     DESCRIPTION
#---------     -----------    ---------------------------
 STRT.S             22:21:57 27-May-21: START TIME 22:21:57 27-May-21
 STOP.S             22:28:58 27-May-21: STOP TIME  22:28:58 27-May-21
 STEP.S                   0.00: STEP TIME
 NULL.                 -999.25: NULL VALUE
 UWI .                     N/A:  UNIQUE WELL IDENTIFIER
 API .                     N/A:  API NUMBER
 UNIT.                     N/A:  LOGGING EQUIPMENT ID
 DCON.         Sperry Drilling:  DIRECTNL CONTR
 DOE .                     N/A:  DOE NUMBER
 MWDS.                    Baku:  MWD SHOP
 SRVC.     Turan Drilling and Engineering:  CONTRACTOR
 CTRY.              Azerbaijan:  COUNTRY NAME
 PROV.                    Baku:  PROVINCE
 STAT.                    Baku:  STATE NAME
 REGN.                   EESSA:  REGION
 BASE.              Azerbaijan:  LOGGING EQUIPMENT BASE LOCATION
 WTYP.                Deviated:  WELL TYPE
 RIG .              East Azeri:  RIG NAME
 WELL.                    D02y:  WELL NAME
 FLD .                     ACG:  FIELD NAME
 COMP.     BP Exploration (Caspian Sea) Ltd.:  COMPANY
 PDAT.          Mean Sea Level:  PERMANENT DATUM
 MDS .        Operator Entered:  MAG DATA SOURCE
 SON .        AZ-XX-0906997291:  JOB NUMBER
 FTOP.          Formation Tops:  FORM TOPS DESC
 ILTD.               Lithology:  INTERP LTH DESC
 SVYD.                  Survey:  SURVEY DESC
 DMOD.             Drill Model:  DRILL MOD DESC
 HPTY.       Minimum Curvature:  HOLE POS TYPE
 NREF.                    Grid:  NORTH REFERENCE
 SPUD.               05-May-21:  SPUD DATE
 DATE.      09.27.28 12-Jun-21:  END TIME
 STIM.      09.27.28 12-May-21:  START TIME
 DMF .             Drill Floor:  DRILL MEAS FROM
 DFST.                        :  DIST FSL TEXT
 DFWT.                        :  DIST FWL TEXT
 CNTY.                        :  COUNTY
 LOC .                        :  LOCATION
 LMF .             Drill Floor:  LOG MEASURED FROM
 DEP .m                2806.40:  DEPTH
 AGAP.m                  43.60:  AIR GAP
 VSNS.m                  -4.42:  VERT SEC N/S
 VSEW.m                  -7.31:  VERT SEC E/W
 APD .m                  43.60:  DEPTH ABOVE PD
 WDMS.m                 151.80:  WD ELEV
 EGL .m                   0.00:  GROUND ELEVATION
 EPD .m                   0.00:  ELEVATION
 AZTC.deg                 6.18:  AZM TOTAL CORR
 GRDC.deg                 0.29:  GRID CORRECTION
 MDEC.deg                 6.47:  MAGNETIC DECL
 MDIP.deg                59.50:  MAGNETIC DIP
 MFLD.nT              50350.00:  MAGNETIC FIELD
 GVFD.g                   1.00:  GRAVITY FIELD
 VSDR.deg               179.08:  VERT SEC DIRECT
 TDD .m                4300.00:  TOTAL DEPTH (DRILLER)
 SDEP.m                2800.00:  START DEPTH
 DFSL.m                   0.00:  DISTANCE FSL
 DFWL.m                   0.00:  DISTANCE FWL
 UTMY.m             4431871.34:  UTM Y
 UTMX.m              538762.90:  UTM X
 WHEW.m                  -7.31:  WELL HEAD E/W
 WHNS.m                  -4.42:  WELL HEAD N/S
 LONG.deg                51.45:  LONGITUDE
 LATI.deg                40.02:  LATITUDE
 TVDS.m                  43.60:  TVDSS CORRECTN
 EKB .m                  43.60:  KB ELEVATION
 EDF .m                  43.60:  DF ELEVATION
 TDL .m                 806.00:  TOTAL DEPTH (LOGGER)
 MAGU.                 1851231:  MAGUTM CHECKSUM
 VSC .                       0:  VS TO CLOSURE
~Parameter Information Block
#MNEM.UNIT       Value        Description
#---------     -----------    ---------------------------
 AV  .mps                 1.60:  Ann Velocity 
 AVMX.mps                 2.00:  Max Ann Veloc 
 AZIF.deg               140.24:  Azm, Final 
 BHAT.        Rotary Steerable:  BHA Type 
 BROT.°/30m               0.50:  Build Rotating 
 BS  .in                  8.50:  Bit Size 
 BTPL.psig              619.00:  Bit Press Loss 
 CABU.                     Yes:  Customer Abuse 
 CGEO.          Ilgar Gurbanov:  Customer Geo 
 COMM.                     ¼ƒj:  Run Comments 1 
 TCS .hr                 85.88:  Time Ciculation Ended 
 CV  .mps                 3.30:  Crit Velocity 
 CVMX.mps                 3.50:  Max Crit Veloc 
 DD1 .           Hamid Axmedov:  Direct Drillr 1 
 DD2 .           Teymur Aliyev:  Direct Drillr 2 
 DDSV.               Geo-Pilot:  DD Service 
 DEFF.%                 100.00:  % Det Eff 
 DLRX.°/30m               0.00:  Dogleg Rot Max 
 DLSO.°/30m               1.80:  Dogleg Oriented 
 DLSX.°/30m               3.34:  Dogleg Str Max 
 DRET.      11.50.00 27-May-21:  Drill End Time 
 DRST.      21.13.00 24-May-21:  Drill Start Tim 
 DTIM.hr                 45.11:  Time Drilling 
 EDEP.m                4054.00:  End Depth 
 ENG1.         Almaz Almadatov:  Engineer 1 
 ENG2.           Amrah Tahirov:  Engineer 2 
 ENG3.      Bakhtiyar Jabbarli:  Engineer 3 
 ENG4.          Nazrin Asgarli:  Engineer 4 
 ETIM.      10.00.00 30-May-21:  End Time 
 FLOI.gpm               530.00:  Flow In 
 FLON.gpm               400.00:  Flow In Min 
 FLOS.cptm                0.00:  Fluid Loss 
 FLOX.gpm               560.00:  Flow In Max 
 DFT .        Mineral Oil Base:  Mud Type 
 FTRO.       Formation Presure:  FTWD Run Obj 
 HFLO.                      No:  High Flow 
 HPRE.                      No:  High Pressure 
 HTEM.                      No:  High Temp 
 HYDO.m                   1.80:  Hydro Offset 
 IFIN.deg                73.83:  Inc, Final 
 IMAX.deg                73.83:  Inc Max 
 IMIN.deg                57.86:  Inc Min 
 IMND.m                3259.27:  Inc Min Depth 
 IMXD.m                4045.58:  Inc Max Depth 
 JARR.                     Yes:  Jarring 
 LETM.      11.50.00 27-May-21:  Log End Time 
 LOST.hr                     0:  Lost Rig Time 
 LSTM.      21.13.00 24-May-21:  Log Start Time 
 MDCL.ppm             42500.00:  Mud Chlorides 
 MDES.     Inversion Oil/Synthetic:  Mud Desc 
 DFD .sg                  1.52:  Mud Density 
 MDMN.sg                  1.52:  Dens Mud Min 
 MDMX.sg                  1.52:  Dens Mud Max 
 MOIL.                      70:  Run Mud Oil % 
 MOWR.                   70:30:  Run Mud OWR 
 MSND.                     0.2:  Run Mud Sand % 
 MSOL.                      22:  Run Mud Solids% 
 DFV .spqt               77.00:  Mud Viscosity 
 MWOD.in                  6.75:  MWD Tool OD 
 MWSI.                      No:  Serv Intrp, MWD 
 OTIM.hr                151.01:  Time Operating 
 PCON.          Wear / Scratch:  Pad Condition 
 PMAX.psia            11296.93:  Press Op, Max 
 PV  .cP                 37.00:  Mud PV 
 RUN .                     500:  Run Number 
 ROPA.m/hr               25.00:  ROP Avg 
 ROPN.m/hr                9.00:  ROP Min 
 ROPX.m/hr               28.00:  ROP Max 
 RPMA.rpm               140.00:  RPM Surface Avg 
 RPMN.rpm                90.00:  RPM Surface Min 
 RPMX.rpm               140.00:  RPM Surface Max 
 RRUN.                    0500:  Rig Run Number 
 SAZI.deg               172.17:  Azm, Start 
 SDEP.m                3248.00:  Start Depth 
 SIDD.                      No:  Serv Intrp, DD 
 SINC.deg                57.86:  Inc, Start 
 SPPA.psig             5620.00:  SPP Avg 
 SPPN.psig             5190.00:  SPP Min 
 SPPX.psig             6050.00:  SPP Max 
 STIM.      16.00.00 23-May-21:  Start Time 
 SVCS.                 DD, MWD:  Services 
 SVER.                    9.20:  Sperry Version 
 TDAT.m                 806.00:  Tot Depth Attmp 
 TDDF.                      No:  Trip for DD 
 TDLG.m                 806.00:  Tot Depth Loggd 
 TFF .                      No:  Trip for Fail 
 TQAA.f-kp               12.00:  Torque Abs Avg 
 TQAN.f-kp                8.00:  Torque Abs Min 
 TQAX.f-kp               15.00:  Torque Abs Max 
 TRRT.°/30m               0.30:  Turn Rotating 
 MRT .                  EWR-M5:  Maximum Recorded Temperature 
 TTMX.degC               93.00:  Max Tool Temp 
 VS01.                90649155:  Virtual Str1 SN 
 VS02.                90642264:  Virtual Str2 SN 
 VS03.                90642266:  Virtual Str3 SN 
 VS04.                90642261:  Virtual Str4 SN 
 WBMN.klb                 0.00:  WOB Min 
 WITN.             Anar Khalil:  Customer Rep 
 WITN.           Murad Guliyev:  Customer Rep 2 
 WOBA.klb                13.00:  WOB Avg 
 WOBX.klb                25.00:  WOB Max 
 YP  .lhf2               32.00:  Yield Point 
~Curve Information Block
#MNEM.UNIT                 API CODE     Curve Description
#---------               -----------    ---------------------------
 TIME.HHMMSS            00 000 000 000:  GT Time & Date
 GTDEPTH.m              00 000 000 000:  GT Depth
 GTPQH.psia             00 000 000 000:  GT HR Quartz Pressure
 GTTQ.degC              00 000 000 000:  GT Quartz Temperature
 GTTN.NONE              00 000 000 000:  GT Test Number
 GTET.sec               00 000 000 000:  GT Elapsed Test Time
 GTTVD.m                00 000 000 000:  GT True Vertical Depth
#Other Information
#
#WARRANTY: Halliburton will use its best efforts to furnish customers with 
#accurate information and interpretations that are part of, and incident to, the services 
#provided.  However, Halliburton cannot and does not warrant the accuracy 
#or correctness of such information and interpretations.  Under no circumstances should any 
#such information or interpretation be relied upon as the sole basis for any drilling, 
#completion, production, or financial decision or any procedure involving any risk to the 
#safety of any drilling venture, drilling rig or its crew or any other third party.  The 
#Customer has full responsibility for all drilling, completion and production operation.  
#Halliburton makes no representations or warranties, either expressed or 
#implied, including, but not limited to, the implied warranties of merchantability or fitness 
#for a particular purpose, with respect to the services rendered.  In no event will 
#Halliburton be liable for failure to obtain any particular results or for 
#any damages, including, but not limited to, indirect, special or consequential damages, 
#resulting from the use of any information or interpretation provided by Halliburton.
#
~A           TIME           GTDEPTH  GTPQH  GTTQ  GTTN  GTET   GTTVD  
# ...
   22:23:06.716.27-May-2021 3723.00 3141.14 84.28 1.00  69.01 2680.40
   22:23:06.916.27-May-2021 3723.00 3141.14 84.28 1.00  69.21 2680.40
   22:23:07.116.27-May-2021 3723.00 3141.16 84.28 1.00  69.41 2680.40
   22:23:07.316.27-May-2021 3723.00 3141.17 84.28 1.00  69.61 2680.40
   22:23:07.516.27-May-2021 3723.00 3141.17 84.28 1.00  69.81 2680.40
   22:23:07.716.27-May-2021 3723.00 3141.18 84.28 1.00  70.01 2680.40
   22:23:07.916.27-May-2021 3723.00 3141.18 84.28 1.00  70.21 2680.40
   22:23:08.116.27-May-2021 3723.00 3141.10 84.28 1.00  70.41 2680.40
   22:23:08.316.27-May-2021 3723.00 3141.12 84.28 1.00  70.61 2680.40
   22:23:08.516.27-May-2021 3723.00 3141.16 84.28 1.00  70.81 2680.40
   22:23:08.716.27-May-2021 3723.00 3141.17 84.28 1.00  71.01 2680.40
   22:23:08.916.27-May-2021 3723.00 3141.17 84.28 1.00  71.21 2680.40
   22:23:09.116.27-May-2021 3723.00 3141.20 84.28 1.00  71.41 2680.40
   22:23:09.316.27-May-2021 3723.00 3141.22 84.28 1.00  71.61 2680.40
   22:23:09.516.27-May-2021 3723.00 3141.22 84.28 1.00  71.81 2680.40
   22:23:09.716.27-May-2021 3723.00 3141.23 84.28 1.00  72.01 2680.40
   22:23:09.916.27-May-2021 3723.00 3141.23 84.28 1.00  72.21 2680.40
   22:23:10.116.27-May-2021 3723.00 3141.26 84.28 1.00  72.41 2680.40
   22:23:10.316.27-May-2021 3723.00 3141.26 84.28 1.00  72.61 2680.40
   22:23:10.516.27-May-2021 3723.00 3141.17 84.28 1.00  72.81 2680.40
   22:23:10.716.27-May-2021 3723.00 3141.18 84.28 1.00  73.01 2680.40
   22:23:10.917.27-May-2021 3723.00 3141.18 84.28 1.00  73.21 2680.40
   22:23:11.117.27-May-2021 3723.00 3141.17 84.28 1.00  73.41 2680.40
   22:23:11.317.27-May-2021 3723.00 3141.18 84.28 1.00  73.61 2680.40
   22:23:11.517.27-May-2021 3723.00 3141.19 84.28 1.00  73.81 2680.40
   22:23:11.717.27-May-2021 3723.00 3141.23 84.28 1.00  74.01 2680.40
   22:23:11.917.27-May-2021 3723.00 3141.23 84.28 1.00  74.21 2680.40
   22:23:12.117.27-May-2021 3723.00 3141.24 84.28 1.00  74.41 2680.40
   22:23:12.317.27-May-2021 3723.00 3141.19 84.28 1.00  74.61 2680.40
   22:23:12.517.27-May-2021 3723.00 3141.22 84.28 1.00  74.81 2680.40
   22:23:12.717.27-May-2021 3723.00 3141.24 84.28 1.00  75.01 2680.40
   22:23:12.917.27-May-2021 3723.00 3141.24 84.28 1.00  75.21 2680.40
   22:23:13.117.27-May-2021 3723.00 3141.29 84.28 1.00  75.41 2680.40
   22:23:13.317.27-May-2021 3723.00 3141.22 84.28 1.00  75.61 2680.40
   22:23:13.517.27-May-2021 3723.00 3141.22 84.29 1.00  75.81 2680.40
   22:23:13.717.27-May-2021 3723.00 3141.25 84.29 1.00  76.01 2680.40
   22:23:13.917.27-May-2021 3723.00 3141.25 84.29 1.00  76.21 2680.40
   22:23:14.117.27-May-2021 3723.00 3141.28 84.29 1.00  76.41 2680.40
   22:23:14.317.27-May-2021 3723.00 3141.31 84.29 1.00  76.61 2680.40
   22:23:14.517.27-May-2021 3723.00 3141.31 84.29 1.00  76.81 2680.40
   22:23:14.717.27-May-2021 3723.00 3141.33 84.29 1.00  77.01 2680.40
   22:23:14.917.27-May-2021 3723.00 3141.33 84.29 1.00  77.21 2680.40
   22:23:15.117.27-May-2021 3723.00 3141.34 84.29 1.00  77.41 2680.40
   22:23:15.317.27-May-2021 3723.00 3141.35 84.29 1.00  77.61 2680.40
   22:23:15.517.27-May-2021 3723.00 3141.36 84.29 1.00  77.81 2680.40
   22:23:15.717.27-May-2021 3723.00 3141.37 84.29 1.00  78.01 2680.40
   22:23:15.917.27-May-2021 3723.00 3141.37 84.29 1.00  78.21 2680.40
   22:23:16.117.27-May-2021 3723.00 3141.28 84.29 1.00  78.41 2680.40
   22:23:16.317.27-May-2021 3723.00 3141.29 84.29 1.00  78.61 2680.40
   22:23:16.517.27-May-2021 3723.00 3141.33 84.29 1.00  78.81 2680.40
   22:23:16.717.27-May-2021 3723.00 3141.34 84.29 1.00  79.01 2680.40
   22:23:16.917.27-May-2021 3723.00 3141.34 84.29 1.00  79.21 2680.40
   22:23:17.118.27-May-2021 3723.00 3141.37 84.29 1.00  79.41 2680.40
   22:23:17.318.27-May-2021 3723.00 3141.37 84.29 1.00  79.61 2680.40
   22:23:17.518.27-May-2021 3723.00 3141.39 84.29 1.00  79.81 2680.40
   22:23:17.718.27-May-2021 3723.00 3141.39 84.29 1.00  80.01 2680.40
   22:23:17.918.27-May-2021 3723.00 3141.39 84.29 1.00  80.21 2680.40
   22:23:18.118.27-May-2021 3723.00 3141.41 84.29 1.00  80.41 2680.40
   22:23:18.318.27-May-2021 3723.00 3141.43 84.29 1.00  80.61 2680.40
   22:23:18.518.27-May-2021 3723.00 3141.33 84.29 1.00  80.81 2680.40
   22:23:18.718.27-May-2021 3723.00 3141.32 84.29 1.00  81.01 2680.40
   22:23:18.918.27-May-2021 3723.00 3141.32 84.29 1.00  81.21 2680.40
   22:23:19.118.27-May-2021 3723.00 3141.33 84.29 1.00  81.41 2680.40
   22:23:19.318.27-May-2021 3723.00 3141.32 84.29 1.00  81.61 2680.40
   22:23:19.518.27-May-2021 3723.00 3141.35 84.29 1.00  81.81 2680.40
   22:23:19.718.27-May-2021 3723.00 3141.37 84.29 1.00  82.01 2680.40
   22:23:19.918.27-May-2021 3723.00 3141.37 84.29 1.00  82.21 2680.40
   22:23:20.118.27-May-2021 3723.00 3141.39 84.29 1.00  82.41 2680.40
   22:23:20.318.27-May-2021 3723.00 3141.31 84.29 1.00  82.61 2680.40
   22:23:20.518.27-May-2021 3723.00 3141.35 84.29 1.00  82.81 2680.40
   22:23:20.718.27-May-2021 3723.00 3141.37 84.29 1.00  83.01 2680.40
   22:23:20.918.27-May-2021 3723.00 3141.37 84.29 1.00  83.21 2680.40
   22:23:21.118.27-May-2021 3723.00 3141.27 84.29 1.00  83.41 2680.40
   22:23:21.318.27-May-2021 3723.00 3141.49 84.29 1.00  83.61 2680.40
   22:23:21.518.27-May-2021 3723.00 3141.35 84.29 1.00  83.81 2680.40
   22:23:21.718.27-May-2021 3723.00 3141.39 84.29 1.00  84.01 2680.40
   22:23:21.918.27-May-2021 3723.00 3141.39 84.29 1.00  84.21 2680.40
   22:23:22.118.27-May-2021 3723.00 3141.41 84.29 1.00  84.41 2680.40
   22:23:22.318.27-May-2021 3723.00 3141.42 84.29 1.00  84.61 2680.40
   22:23:22.518.27-May-2021 3723.00 3141.43 84.29 1.00  84.81 2680.40
   22:23:22.718.27-May-2021 3723.00 3141.45 84.29 1.00  85.01 2680.40
   22:23:22.918.27-May-2021 3723.00 3141.45 84.29 1.00  85.21 2680.40
   22:23:23.118.27-May-2021 3723.00 3141.47 84.29 1.00  85.41 2680.40
   22:23:23.319.27-May-2021 3723.00 3141.47 84.29 1.00  85.61 2680.40
   22:23:23.519.27-May-2021 3723.00 3141.48 84.29 1.00  85.81 2680.40
   22:23:23.719.27-May-2021 3723.00 3141.34 84.29 1.00  86.01 2680.40
   22:23:23.919.27-May-2021 3723.00 3141.34 84.29 1.00  86.21 2680.40
   22:23:24.119.27-May-2021 3723.00 3141.40 84.29 1.00  86.41 2680.40
   22:23:24.319.27-May-2021 3723.00 3141.43 84.29 1.00  86.61 2680.40
   22:23:24.519.27-May-2021 3723.00 3141.44 84.29 1.00  86.81 2680.40
   22:23:24.719.27-May-2021 3723.00 3141.45 84.29 1.00  87.01 2680.40
   22:23:24.919.27-May-2021 3723.00 3141.45 84.29 1.00  87.21 2680.40
   22:23:25.119.27-May-2021 3723.00 3141.47 84.29 1.00  87.41 2680.40
   22:23:25.319.27-May-2021 3723.00 3141.48 84.29 1.00  87.61 2680.40
   22:23:25.519.27-May-2021 3723.00 3141.49 84.29 1.00  87.81 2680.40
   22:23:25.719.27-May-2021 3723.00 3141.50 84.29 1.00  88.01 2680.40
   22:23:25.919.27-May-2021 3723.00 3141.50 84.29 1.00  88.21 2680.40
   22:23:26.119.27-May-2021 3723.00 3141.51 84.29 1.00  88.41 2680.40
   22:23:26.319.27-May-2021 3723.00 3141.38 84.29 1.00  88.61 2680.40
   22:23:26.519.27-May-2021 3723.00 3141.57 84.29 1.00  88.81 2680.40
   22:23:26.719.27-May-2021 3723.00 3141.43 84.29 1.00  89.01 2680.40
   22:23:26.919.27-May-2021 3723.00 3141.43 84.29 1.00  89.21 2680.40
   22:23:27.119.27-May-2021 3723.00 3141.55 84.29 1.00  89.41 2680.40
   22:23:27.319.27-May-2021 3723.00 3141.42 84.29 1.00  89.61 2680.40
   22:23:27.519.27-May-2021 3723.00 3141.45 84.29 1.00  89.81 2680.40
   22:23:27.719.27-May-2021 3723.00 3141.44 84.29 1.00  90.01 2680.40
   22:23:27.919.27-May-2021 3723.00 3141.44 84.29 1.00  90.21 2680.40
   22:23:28.119.27-May-2021 3723.00 3141.44 84.29 1.00  90.41 2680.40
   22:23:28.319.27-May-2021 3723.00 3141.43 84.29 1.00  90.61 2680.40
   22:23:28.519.27-May-2021 3723.00 3141.44 84.29 1.00  90.81 2680.40
   22:23:28.719.27-May-2021 3723.00 3141.46 84.29 1.00  91.01 2680.40
   22:23:28.919.27-May-2021 3723.00 3141.46 84.29 1.00  91.21 2680.40
   22:23:29.119.27-May-2021 3723.00 3141.38 84.29 1.00  91.41 2680.40
   22:23:29.320.27-May-2021 3723.00 3141.54 84.29 1.00  91.61 2680.40
   22:23:29.520.27-May-2021 3723.00 3141.44 84.29 1.00  91.81 2680.40
