~Version Information
 VERS.                  2.0:   CWLS log ASCII Standard -VERSION 2.0
 WRAP.                   NO:   One line per depth step
~Well Information Block
#MNEM.UNIT     VALUE/NAME     DESCRIPTION
#---------     -----------    ---------------------------
 STRT.S             23:03:24 27-May-21: START TIME 23:03:24 27-May-21
 STOP.S             23:10:28 27-May-21: STOP TIME  23:10:28 27-May-21
 STEP.S                   0.00: STEP TIME
 NULL.                 -999.25: NULL VALUE
 UWI .                     N/A:  UNIQUE WELL IDENTIFIER
 API .                     N/A:  API NUMBER
 UNIT.                     N/A:  LOGGING EQUIPMENT ID
 DCON.         Sperry Drilling:  DIRECTNL CONTR
 DOE .                     N/A:  DOE NUMBER
 MWDS.                    Baku:  MWD SHOP
 SRVC.     Turan Drilling and Engineering:  CONTRACTOR
 CTRY.              Azerbaijan:  COUNTRY NAME
 PROV.                    Baku:  PROVINCE
 STAT.                    Baku:  STATE NAME
 REGN.                   EESSA:  REGION
 BASE.              Azerbaijan:  LOGGING EQUIPMENT BASE LOCATION
 WTYP.                Deviated:  WELL TYPE
 RIG .              East Azeri:  RIG NAME
 WELL.                    D02y:  WELL NAME
 FLD .                     ACG:  FIELD NAME
 COMP.     BP Exploration (Caspian Sea) Ltd.:  COMPANY
 PDAT.          Mean Sea Level:  PERMANENT DATUM
 MDS .        Operator Entered:  MAG DATA SOURCE
 SON .        AZ-XX-0906997291:  JOB NUMBER
 FTOP.          Formation Tops:  FORM TOPS DESC
 ILTD.               Lithology:  INTERP LTH DESC
 SVYD.                  Survey:  SURVEY DESC
 DMOD.             Drill Model:  DRILL MOD DESC
 HPTY.       Minimum Curvature:  HOLE POS TYPE
 NREF.                    Grid:  NORTH REFERENCE
 SPUD.               05-May-21:  SPUD DATE
 DATE.      09.27.28 12-Jun-21:  END TIME
 STIM.      09.27.28 12-May-21:  START TIME
 DMF .             Drill Floor:  DRILL MEAS FROM
 DFST.                        :  DIST FSL TEXT
 DFWT.                        :  DIST FWL TEXT
 CNTY.                        :  COUNTY
 LOC .                        :  LOCATION
 LMF .             Drill Floor:  LOG MEASURED FROM
 DEP .m                2806.40:  DEPTH
 AGAP.m                  43.60:  AIR GAP
 VSNS.m                  -4.42:  VERT SEC N/S
 VSEW.m                  -7.31:  VERT SEC E/W
 APD .m                  43.60:  DEPTH ABOVE PD
 WDMS.m                 151.80:  WD ELEV
 EGL .m                   0.00:  GROUND ELEVATION
 EPD .m                   0.00:  ELEVATION
 AZTC.deg                 6.18:  AZM TOTAL CORR
 GRDC.deg                 0.29:  GRID CORRECTION
 MDEC.deg                 6.47:  MAGNETIC DECL
 MDIP.deg                59.50:  MAGNETIC DIP
 MFLD.nT              50350.00:  MAGNETIC FIELD
 GVFD.g                   1.00:  GRAVITY FIELD
 VSDR.deg               179.08:  VERT SEC DIRECT
 TDD .m                4300.00:  TOTAL DEPTH (DRILLER)
 SDEP.m                2800.00:  START DEPTH
 DFSL.m                   0.00:  DISTANCE FSL
 DFWL.m                   0.00:  DISTANCE FWL
 UTMY.m             4431871.34:  UTM Y
 UTMX.m              538762.90:  UTM X
 WHEW.m                  -7.31:  WELL HEAD E/W
 WHNS.m                  -4.42:  WELL HEAD N/S
 LONG.deg                51.45:  LONGITUDE
 LATI.deg                40.02:  LATITUDE
 TVDS.m                  43.60:  TVDSS CORRECTN
 EKB .m                  43.60:  KB ELEVATION
 EDF .m                  43.60:  DF ELEVATION
 TDL .m                 806.00:  TOTAL DEPTH (LOGGER)
 MAGU.                 1851231:  MAGUTM CHECKSUM
 VSC .                       0:  VS TO CLOSURE
~Parameter Information Block
#MNEM.UNIT       Value        Description
#---------     -----------    ---------------------------
 AV  .mps                 1.60:  Ann Velocity 
 AVMX.mps                 2.00:  Max Ann Veloc 
 AZIF.deg               140.24:  Azm, Final 
 BHAT.        Rotary Steerable:  BHA Type 
 BROT.°/30m               0.50:  Build Rotating 
 BS  .in                  8.50:  Bit Size 
 BTPL.psig              619.00:  Bit Press Loss 
 CABU.                     Yes:  Customer Abuse 
 CGEO.          Ilgar Gurbanov:  Customer Geo 
 COMM.                     |¡U:  Run Comments 1 
 TCS .hr                 85.88:  Time Ciculation Ended 
 CV  .mps                 3.30:  Crit Velocity 
 CVMX.mps                 3.50:  Max Crit Veloc 
 DD1 .           Hamid Axmedov:  Direct Drillr 1 
 DD2 .           Teymur Aliyev:  Direct Drillr 2 
 DDSV.               Geo-Pilot:  DD Service 
 DEFF.%                 100.00:  % Det Eff 
 DLRX.°/30m               0.00:  Dogleg Rot Max 
 DLSO.°/30m               1.80:  Dogleg Oriented 
 DLSX.°/30m               3.34:  Dogleg Str Max 
 DRET.      11.50.00 27-May-21:  Drill End Time 
 DRST.      21.13.00 24-May-21:  Drill Start Tim 
 DTIM.hr                 45.11:  Time Drilling 
 EDEP.m                4054.00:  End Depth 
 ENG1.         Almaz Almadatov:  Engineer 1 
 ENG2.           Amrah Tahirov:  Engineer 2 
 ENG3.      Bakhtiyar Jabbarli:  Engineer 3 
 ENG4.          Nazrin Asgarli:  Engineer 4 
 ETIM.      10.00.00 30-May-21:  End Time 
 FLOI.gpm               530.00:  Flow In 
 FLON.gpm               400.00:  Flow In Min 
 FLOS.cptm                0.00:  Fluid Loss 
 FLOX.gpm               560.00:  Flow In Max 
 DFT .        Mineral Oil Base:  Mud Type 
 FTRO.       Formation Presure:  FTWD Run Obj 
 HFLO.                      No:  High Flow 
 HPRE.                      No:  High Pressure 
 HTEM.                      No:  High Temp 
 HYDO.m                   1.80:  Hydro Offset 
 IFIN.deg                73.83:  Inc, Final 
 IMAX.deg                73.83:  Inc Max 
 IMIN.deg                57.86:  Inc Min 
 IMND.m                3259.27:  Inc Min Depth 
 IMXD.m                4045.58:  Inc Max Depth 
 JARR.                     Yes:  Jarring 
 LETM.      11.50.00 27-May-21:  Log End Time 
 LOST.hr                     0:  Lost Rig Time 
 LSTM.      21.13.00 24-May-21:  Log Start Time 
 MDCL.ppm             42500.00:  Mud Chlorides 
 MDES.     Inversion Oil/Synthetic:  Mud Desc 
 DFD .sg                  1.52:  Mud Density 
 MDMN.sg                  1.52:  Dens Mud Min 
 MDMX.sg                  1.52:  Dens Mud Max 
 MOIL.                      70:  Run Mud Oil % 
 MOWR.                   70:30:  Run Mud OWR 
 MSND.                     0.2:  Run Mud Sand % 
 MSOL.                      22:  Run Mud Solids% 
 DFV .spqt               77.00:  Mud Viscosity 
 MWOD.in                  6.75:  MWD Tool OD 
 MWSI.                      No:  Serv Intrp, MWD 
 OTIM.hr                151.01:  Time Operating 
 PCON.          Wear / Scratch:  Pad Condition 
 PMAX.psia            11296.93:  Press Op, Max 
 PV  .cP                 37.00:  Mud PV 
 RUN .                     500:  Run Number 
 ROPA.m/hr               25.00:  ROP Avg 
 ROPN.m/hr                9.00:  ROP Min 
 ROPX.m/hr               28.00:  ROP Max 
 RPMA.rpm               140.00:  RPM Surface Avg 
 RPMN.rpm                90.00:  RPM Surface Min 
 RPMX.rpm               140.00:  RPM Surface Max 
 RRUN.                    0500:  Rig Run Number 
 SAZI.deg               172.17:  Azm, Start 
 SDEP.m                3248.00:  Start Depth 
 SIDD.                      No:  Serv Intrp, DD 
 SINC.deg                57.86:  Inc, Start 
 SPPA.psig             5620.00:  SPP Avg 
 SPPN.psig             5190.00:  SPP Min 
 SPPX.psig             6050.00:  SPP Max 
 STIM.      16.00.00 23-May-21:  Start Time 
 SVCS.                 DD, MWD:  Services 
 SVER.                    9.20:  Sperry Version 
 TDAT.m                 806.00:  Tot Depth Attmp 
 TDDF.                      No:  Trip for DD 
 TDLG.m                 806.00:  Tot Depth Loggd 
 TFF .                      No:  Trip for Fail 
 TQAA.f-kp               12.00:  Torque Abs Avg 
 TQAN.f-kp                8.00:  Torque Abs Min 
 TQAX.f-kp               15.00:  Torque Abs Max 
 TRRT.°/30m               0.30:  Turn Rotating 
 MRT .                  EWR-M5:  Maximum Recorded Temperature 
 TTMX.degC               93.00:  Max Tool Temp 
 VS01.                90649155:  Virtual Str1 SN 
 VS02.                90642264:  Virtual Str2 SN 
 VS03.                90642266:  Virtual Str3 SN 
 VS04.                90642261:  Virtual Str4 SN 
 WBMN.klb                 0.00:  WOB Min 
 WITN.             Anar Khalil:  Customer Rep 
 WITN.           Murad Guliyev:  Customer Rep 2 
 WOBA.klb                13.00:  WOB Avg 
 WOBX.klb                25.00:  WOB Max 
 YP  .lhf2               32.00:  Yield Point 
~Curve Information Block
#MNEM.UNIT                 API CODE     Curve Description
#---------               -----------    ---------------------------
 TIME.HHMMSS            00 000 000 000:  GT Time & Date
 GTDEPTH.m              00 000 000 000:  GT Depth
 GTPQH.psia             00 000 000 000:  GT HR Quartz Pressure
 GTTQ.degC              00 000 000 000:  GT Quartz Temperature
 GTTN.NONE              00 000 000 000:  GT Test Number
 GTET.sec               00 000 000 000:  GT Elapsed Test Time
 GTTVD.m                00 000 000 000:  GT True Vertical Depth
#Other Information
#
#WARRANTY: Halliburton will use its best efforts to furnish customers with 
#accurate information and interpretations that are part of, and incident to, the services 
#provided.  However, Halliburton cannot and does not warrant the accuracy 
#or correctness of such information and interpretations.  Under no circumstances should any 
#such information or interpretation be relied upon as the sole basis for any drilling, 
#completion, production, or financial decision or any procedure involving any risk to the 
#safety of any drilling venture, drilling rig or its crew or any other third party.  The 
#Customer has full responsibility for all drilling, completion and production operation.  
#Halliburton makes no representations or warranties, either expressed or 
#implied, including, but not limited to, the implied warranties of merchantability or fitness 
#for a particular purpose, with respect to the services rendered.  In no event will 
#Halliburton be liable for failure to obtain any particular results or for 
#any damages, including, but not limited to, indirect, special or consequential damages, 
#resulting from the use of any information or interpretation provided by Halliburton.
#
~A           TIME           GTDEPTH  GTPQH  GTTQ  GTTN  GTET   GTTVD  
   23:03:24.263.27-May-2021 3710.50 6208.22 84.70 2.00   0.00 2675.83
   23:03:24.463.27-May-2021 3710.50 6208.22 84.70 2.00   0.20 2675.83
   23:03:24.664.27-May-2021 3710.50 6208.64 84.70 2.00   0.40 2675.83
   23:03:24.864.27-May-2021 3710.50 6208.54 84.70 2.00   0.60 2675.83
   23:03:25.064.27-May-2021 3710.50 6209.21 84.70 2.00   0.80 2675.83
   23:03:25.264.27-May-2021 3710.50 6214.67 84.70 2.00   1.00 2675.83
   23:03:25.464.27-May-2021 3710.50 6214.67 84.70 2.00   1.20 2675.83
   23:03:25.664.27-May-2021 3710.50 6210.01 84.70 2.00   1.40 2675.83
   23:03:25.864.27-May-2021 3710.50 6210.24 84.70 2.00   1.60 2675.83
   23:03:26.064.27-May-2021 3710.50 6214.72 84.70 2.00   1.80 2675.83
   23:03:26.264.27-May-2021 3710.50 6210.75 84.70 2.00   2.00 2675.83
   23:03:26.464.27-May-2021 3710.50 6210.75 84.70 2.00   2.20 2675.83
   23:03:26.664.27-May-2021 3710.50 6210.97 84.70 2.00   2.40 2675.83
   23:03:26.864.27-May-2021 3710.50 6216.33 84.70 2.00   2.60 2675.83
   23:03:27.064.27-May-2021 3710.50 6209.93 84.70 2.00   2.80 2675.83
   23:03:27.265.27-May-2021 3710.50 6211.75 84.70 2.00   3.00 2675.83
   23:03:27.465.27-May-2021 3710.50 6211.75 84.70 2.00   3.20 2675.83
   23:03:27.665.27-May-2021 3710.50 6217.99 84.70 2.00   3.40 2675.83
   23:03:27.865.27-May-2021 3710.50 6209.87 84.70 2.00   3.60 2675.83
   23:03:28.065.27-May-2021 3710.50 6212.89 84.70 2.00   3.80 2675.83
   23:03:28.265.27-May-2021 3710.50 6216.09 84.70 2.00   4.00 2675.83
   23:03:28.465.27-May-2021 3710.50 6216.09 84.70 2.00   4.20 2675.83
   23:03:28.665.27-May-2021 3710.50 6213.43 84.70 2.00   4.40 2675.83
   23:03:28.865.27-May-2021 3710.50 6213.22 84.70 2.00   4.60 2675.83
   23:03:29.065.27-May-2021 3710.50 6214.15 84.70 2.00   4.80 2675.83
   23:03:29.265.27-May-2021 3710.50 6213.84 84.70 2.00   5.00 2675.83
   23:03:29.465.27-May-2021 3710.50 6213.84 84.70 2.00   5.20 2675.83
   23:03:29.666.27-May-2021 3710.50 6214.84 84.70 2.00   5.40 2675.83
   23:03:29.866.27-May-2021 3710.50 6215.05 84.70 2.00   5.60 2675.83
   23:03:30.066.27-May-2021 3710.50 6215.36 84.70 2.00   5.80 2675.83
   23:03:30.266.27-May-2021 3710.50 6215.52 84.70 2.00   6.00 2675.83
   23:03:30.466.27-May-2021 3710.50 6215.52 84.70 2.00   6.20 2675.83
   23:03:30.666.27-May-2021 3710.50 6215.02 84.70 2.00   6.40 2675.83
   23:03:30.866.27-May-2021 3710.50 6216.41 84.70 2.00   6.60 2675.83
   23:03:31.066.27-May-2021 3710.50 6222.53 84.70 2.00   6.80 2675.83
   23:03:31.266.27-May-2021 3710.50 6214.98 84.70 2.00   7.00 2675.83
   23:03:31.466.27-May-2021 3710.50 6214.98 84.70 2.00   7.20 2675.83
   23:03:31.666.27-May-2021 3710.50 6220.57 84.70 2.00   7.40 2675.83
   23:03:31.866.27-May-2021 3710.50 6218.10 84.70 2.00   7.60 2675.83
   23:03:32.066.27-May-2021 3710.50 6217.72 84.70 2.00   7.80 2675.83
   23:03:32.267.27-May-2021 3710.50 6217.46 84.70 2.00   8.00 2675.83
   23:03:32.467.27-May-2021 3710.50 6217.46 84.70 2.00   8.20 2675.83
   23:03:32.667.27-May-2021 3710.50 6217.97 84.70 2.00   8.40 2675.83
   23:03:32.867.27-May-2021 3710.50 6218.04 84.70 2.00   8.60 2675.83
   23:03:33.067.27-May-2021 3710.50 6218.64 84.70 2.00   8.80 2675.83
   23:03:33.267.27-May-2021 3710.50 6218.75 84.70 2.00   9.00 2675.83
   23:03:33.467.27-May-2021 3710.50 6218.75 84.70 2.00   9.20 2675.83
   23:03:33.667.27-May-2021 3710.50 6219.18 84.70 2.00   9.40 2675.83
   23:03:33.867.27-May-2021 3710.50 6219.49 84.70 2.00   9.60 2675.83
   23:03:34.067.27-May-2021 3710.50 6219.67 84.70 2.00   9.80 2675.83
   23:03:34.267.27-May-2021 3710.50 6219.72 84.70 2.00  10.00 2675.83
   23:03:34.467.27-May-2021 3710.50 6219.72 84.70 2.00  10.20 2675.83
   23:03:34.667.27-May-2021 3710.50 6223.76 84.70 2.00  10.40 2675.83
   23:03:34.868.27-May-2021 3710.50 6220.09 84.70 2.00  10.60 2675.83
   23:03:35.068.27-May-2021 3710.50 6220.30 84.70 2.00  10.80 2675.83
   23:03:35.268.27-May-2021 3710.50 6220.36 84.70 2.00  11.00 2675.83
   23:03:35.468.27-May-2021 3710.50 6220.36 84.70 2.00  11.20 2675.83
   23:03:35.668.27-May-2021 3710.50 6220.51 84.70 2.00  11.40 2675.83
   23:03:35.868.27-May-2021 3710.50 6220.81 84.70 2.00  11.60 2675.83
   23:03:36.068.27-May-2021 3710.50 6220.92 84.70 2.00  11.80 2675.83
   23:03:36.268.27-May-2021 3710.50 6221.07 84.70 2.00  12.00 2675.83
   23:03:36.468.27-May-2021 3710.50 6221.07 84.70 2.00  12.20 2675.83
   23:03:36.668.27-May-2021 3710.50 6221.80 84.70 2.00  12.40 2675.83
   23:03:36.868.27-May-2021 3710.50 6222.22 84.69 2.00  12.60 2675.83
   23:03:37.068.27-May-2021 3710.50 6222.28 84.69 2.00  12.81 2675.83
   23:03:37.268.27-May-2021 3710.50 6226.06 84.69 2.00  13.01 2675.83
   23:03:37.469.27-May-2021 3710.50 6226.06 84.69 2.00  13.21 2675.83
   23:03:37.669.27-May-2021 3710.50 6226.06 84.69 2.00  13.41 2675.83
   23:03:37.869.27-May-2021 3710.50 6222.57 84.69 2.00  13.61 2675.83
   23:03:38.069.27-May-2021 3710.50 6222.89 84.69 2.00  13.81 2675.83
   23:03:38.269.27-May-2021 3710.50 6228.85 84.69 2.00  14.01 2675.83
   23:03:38.469.27-May-2021 3710.50 6228.85 84.69 2.00  14.21 2675.83
   23:03:38.669.27-May-2021 3710.50 6228.85 84.69 2.00  14.41 2675.83
   23:03:38.869.27-May-2021 3710.50 6228.85 84.69 2.00  14.61 2675.83
   23:03:39.069.27-May-2021 3710.50 6228.85 84.69 2.00  14.81 2675.83
   23:03:39.269.27-May-2021 3710.50 6231.68 84.69 2.00  15.01 2675.83
   23:03:39.469.27-May-2021 3710.50 6219.99 84.69 2.00  15.21 2675.83
   23:03:39.669.27-May-2021 3710.50 6223.93 84.69 2.00  15.41 2675.83
   23:03:39.870.27-May-2021 3710.50 6223.55 84.69 2.00  15.61 2675.83
   23:03:40.070.27-May-2021 3710.50 6224.49 84.69 2.00  15.81 2675.83
   23:03:40.270.27-May-2021 3710.50 6228.13 84.69 2.00  16.01 2675.83
   23:03:40.470.27-May-2021 3710.50 6228.13 84.69 2.00  16.21 2675.83
   23:03:40.670.27-May-2021 3710.50 6224.94 84.69 2.00  16.41 2675.83
   23:03:40.870.27-May-2021 3710.50 6230.60 84.69 2.00  16.61 2675.83
   23:03:41.070.27-May-2021 3710.50 6224.55 84.69 2.00  16.81 2675.83
   23:03:41.270.27-May-2021 3710.50 6225.86 84.69 2.00  17.01 2675.83
   23:03:41.470.27-May-2021 3710.50 6225.86 84.69 2.00  17.21 2675.83
   23:03:41.670.27-May-2021 3710.50 6226.19 84.69 2.00  17.41 2675.83
   23:03:41.870.27-May-2021 3710.50 6229.57 84.69 2.00  17.61 2675.83
   23:03:42.070.27-May-2021 3710.50 6226.51 84.69 2.00  17.81 2675.83
   23:03:42.270.27-May-2021 3710.50 6227.15 84.69 2.00  18.01 2675.83
   23:03:42.471.27-May-2021 3710.50 6227.15 84.69 2.00  18.21 2675.83
   23:03:42.671.27-May-2021 3710.50 6226.89 84.69 2.00  18.41 2675.83
   23:03:42.871.27-May-2021 3710.50 6226.60 84.69 2.00  18.61 2675.83
   23:03:43.071.27-May-2021 3710.50 6226.62 84.69 2.00  18.81 2675.83
   23:03:43.271.27-May-2021 3710.50 6226.92 84.69 2.00  19.01 2675.83
   23:03:43.471.27-May-2021 3710.50 6226.92 84.69 2.00  19.21 2675.83
   23:03:43.671.27-May-2021 3710.50 6227.10 84.69 2.00  19.41 2675.83
   23:03:43.871.27-May-2021 3710.50 6227.26 84.69 2.00  19.61 2675.83
   23:03:44.071.27-May-2021 3710.50 6227.82 84.69 2.00  19.81 2675.83
   23:03:44.271.27-May-2021 3710.50 6227.68 84.69 2.00  20.01 2675.83
   23:03:44.471.27-May-2021 3710.50 6227.68 84.69 2.00  20.21 2675.83
   23:03:44.671.27-May-2021 3710.50 6228.48 84.69 2.00  20.41 2675.83
   23:03:44.871.27-May-2021 3710.50 6228.77 84.69 2.00  20.61 2675.83
   23:03:45.072.27-May-2021 3710.50 6228.61 84.69 2.00  20.81 2675.83
   23:03:45.272.27-May-2021 3710.50 6228.58 84.69 2.00  21.01 2675.83
   23:03:45.472.27-May-2021 3710.50 6228.58 84.69 2.00  21.21 2675.83
   23:03:45.672.27-May-2021 3710.50 6227.94 84.69 2.00  21.41 2675.83
   23:03:45.872.27-May-2021 3710.50 6228.36 84.69 2.00  21.61 2675.83
   23:03:46.072.27-May-2021 3710.50 6228.24 84.69 2.00  21.81 2675.83
   23:03:46.272.27-May-2021 3710.50 6228.60 84.69 2.00  22.01 2675.83
   23:03:46.472.27-May-2021 3710.50 6228.60 84.69 2.00  22.21 2675.83
   23:03:46.672.27-May-2021 3710.50 6229.18 84.69 2.00  22.41 2675.83
   23:03:46.872.27-May-2021 3710.50 6229.36 84.69 2.00  22.61 2675.83
   23:03:47.072.27-May-2021 3710.50 6229.65 84.69 2.00  22.81 2675.83
