~Version Information
 VERS.                  2.0:   CWLS log ASCII Standard -VERSION 2.0
 WRAP.                   NO:   One line per depth step
~Well Information Block
#MNEM.UNIT     VALUE/NAME     DESCRIPTION
#---------     -----------    ---------------------------
 STRT.S             04:01:58 28-May-21: START TIME 04:01:58 28-May-21
 STOP.S             04:09:02 28-May-21: STOP TIME  04:09:02 28-May-21
 STEP.S                   0.00: STEP TIME
 NULL.                 -999.25: NULL VALUE
 UWI .                     N/A:  UNIQUE WELL IDENTIFIER
 API .                     N/A:  API NUMBER
 UNIT.                     N/A:  LOGGING EQUIPMENT ID
 DCON.         Sperry Drilling:  DIRECTNL CONTR
 DOE .                     N/A:  DOE NUMBER
 MWDS.                    Baku:  MWD SHOP
 SRVC.     Turan Drilling and Engineering:  CONTRACTOR
 CTRY.              Azerbaijan:  COUNTRY NAME
 PROV.                    Baku:  PROVINCE
 STAT.                    Baku:  STATE NAME
 REGN.                   EESSA:  REGION
 BASE.              Azerbaijan:  LOGGING EQUIPMENT BASE LOCATION
 WTYP.                Deviated:  WELL TYPE
 RIG .              East Azeri:  RIG NAME
 WELL.                    D02y:  WELL NAME
 FLD .                     ACG:  FIELD NAME
 COMP.     BP Exploration (Caspian Sea) Ltd.:  COMPANY
 PDAT.          Mean Sea Level:  PERMANENT DATUM
 MDS .        Operator Entered:  MAG DATA SOURCE
 SON .        AZ-XX-0906997291:  JOB NUMBER
 FTOP.          Formation Tops:  FORM TOPS DESC
 ILTD.               Lithology:  INTERP LTH DESC
 SVYD.                  Survey:  SURVEY DESC
 DMOD.             Drill Model:  DRILL MOD DESC
 HPTY.       Minimum Curvature:  HOLE POS TYPE
 NREF.                    Grid:  NORTH REFERENCE
 SPUD.               05-May-21:  SPUD DATE
 DATE.      09.27.28 12-Jun-21:  END TIME
 STIM.      09.27.28 12-May-21:  START TIME
 DMF .             Drill Floor:  DRILL MEAS FROM
 DFST.                        :  DIST FSL TEXT
 DFWT.                        :  DIST FWL TEXT
 CNTY.                        :  COUNTY
 LOC .                        :  LOCATION
 LMF .             Drill Floor:  LOG MEASURED FROM
 DEP .m                2806.40:  DEPTH
 AGAP.m                  43.60:  AIR GAP
 VSNS.m                  -4.42:  VERT SEC N/S
 VSEW.m                  -7.31:  VERT SEC E/W
 APD .m                  43.60:  DEPTH ABOVE PD
 WDMS.m                 151.80:  WD ELEV
 EGL .m                   0.00:  GROUND ELEVATION
 EPD .m                   0.00:  ELEVATION
 AZTC.deg                 6.18:  AZM TOTAL CORR
 GRDC.deg                 0.29:  GRID CORRECTION
 MDEC.deg                 6.47:  MAGNETIC DECL
 MDIP.deg                59.50:  MAGNETIC DIP
 MFLD.nT              50350.00:  MAGNETIC FIELD
 GVFD.g                   1.00:  GRAVITY FIELD
 VSDR.deg               179.08:  VERT SEC DIRECT
 TDD .m                4300.00:  TOTAL DEPTH (DRILLER)
 SDEP.m                2800.00:  START DEPTH
 DFSL.m                   0.00:  DISTANCE FSL
 DFWL.m                   0.00:  DISTANCE FWL
 UTMY.m             4431871.34:  UTM Y
 UTMX.m              538762.90:  UTM X
 WHEW.m                  -7.31:  WELL HEAD E/W
 WHNS.m                  -4.42:  WELL HEAD N/S
 LONG.deg                51.45:  LONGITUDE
 LATI.deg                40.02:  LATITUDE
 TVDS.m                  43.60:  TVDSS CORRECTN
 EKB .m                  43.60:  KB ELEVATION
 EDF .m                  43.60:  DF ELEVATION
 TDL .m                 806.00:  TOTAL DEPTH (LOGGER)
 MAGU.                 1851231:  MAGUTM CHECKSUM
 VSC .                       0:  VS TO CLOSURE
~Parameter Information Block
#MNEM.UNIT       Value        Description
#---------     -----------    ---------------------------
 AV  .mps                 1.60:  Ann Velocity 
 AVMX.mps                 2.00:  Max Ann Veloc 
 AZIF.deg               140.24:  Azm, Final 
 BHAT.        Rotary Steerable:  BHA Type 
 BROT.°/30m               0.50:  Build Rotating 
 BS  .in                  8.50:  Bit Size 
 BTPL.psig              619.00:  Bit Press Loss 
 CABU.                     Yes:  Customer Abuse 
 CGEO.          Ilgar Gurbanov:  Customer Geo 
 COMM.                     4`:  Run Comments 1 
 TCS .hr                 85.88:  Time Ciculation Ended 
 CV  .mps                 3.30:  Crit Velocity 
 CVMX.mps                 3.50:  Max Crit Veloc 
 DD1 .           Hamid Axmedov:  Direct Drillr 1 
 DD2 .           Teymur Aliyev:  Direct Drillr 2 
 DDSV.               Geo-Pilot:  DD Service 
 DEFF.%                 100.00:  % Det Eff 
 DLRX.°/30m               0.00:  Dogleg Rot Max 
 DLSO.°/30m               1.80:  Dogleg Oriented 
 DLSX.°/30m               3.34:  Dogleg Str Max 
 DRET.      11.50.00 27-May-21:  Drill End Time 
 DRST.      21.13.00 24-May-21:  Drill Start Tim 
 DTIM.hr                 45.11:  Time Drilling 
 EDEP.m                4054.00:  End Depth 
 ENG1.         Almaz Almadatov:  Engineer 1 
 ENG2.           Amrah Tahirov:  Engineer 2 
 ENG3.      Bakhtiyar Jabbarli:  Engineer 3 
 ENG4.          Nazrin Asgarli:  Engineer 4 
 ETIM.      10.00.00 30-May-21:  End Time 
 FLOI.gpm               530.00:  Flow In 
 FLON.gpm               400.00:  Flow In Min 
 FLOS.cptm                0.00:  Fluid Loss 
 FLOX.gpm               560.00:  Flow In Max 
 DFT .        Mineral Oil Base:  Mud Type 
 FTRO.       Formation Presure:  FTWD Run Obj 
 HFLO.                      No:  High Flow 
 HPRE.                      No:  High Pressure 
 HTEM.                      No:  High Temp 
 HYDO.m                   1.80:  Hydro Offset 
 IFIN.deg                73.83:  Inc, Final 
 IMAX.deg                73.83:  Inc Max 
 IMIN.deg                57.86:  Inc Min 
 IMND.m                3259.27:  Inc Min Depth 
 IMXD.m                4045.58:  Inc Max Depth 
 JARR.                     Yes:  Jarring 
 LETM.      11.50.00 27-May-21:  Log End Time 
 LOST.hr                     0:  Lost Rig Time 
 LSTM.      21.13.00 24-May-21:  Log Start Time 
 MDCL.ppm             42500.00:  Mud Chlorides 
 MDES.     Inversion Oil/Synthetic:  Mud Desc 
 DFD .sg                  1.52:  Mud Density 
 MDMN.sg                  1.52:  Dens Mud Min 
 MDMX.sg                  1.52:  Dens Mud Max 
 MOIL.                      70:  Run Mud Oil % 
 MOWR.                   70:30:  Run Mud OWR 
 MSND.                     0.2:  Run Mud Sand % 
 MSOL.                      22:  Run Mud Solids% 
 DFV .spqt               77.00:  Mud Viscosity 
 MWOD.in                  6.75:  MWD Tool OD 
 MWSI.                      No:  Serv Intrp, MWD 
 OTIM.hr                151.01:  Time Operating 
 PCON.          Wear / Scratch:  Pad Condition 
 PMAX.psia            11296.93:  Press Op, Max 
 PV  .cP                 37.00:  Mud PV 
 RUN .                     500:  Run Number 
 ROPA.m/hr               25.00:  ROP Avg 
 ROPN.m/hr                9.00:  ROP Min 
 ROPX.m/hr               28.00:  ROP Max 
 RPMA.rpm               140.00:  RPM Surface Avg 
 RPMN.rpm                90.00:  RPM Surface Min 
 RPMX.rpm               140.00:  RPM Surface Max 
 RRUN.                    0500:  Rig Run Number 
 SAZI.deg               172.17:  Azm, Start 
 SDEP.m                3248.00:  Start Depth 
 SIDD.                      No:  Serv Intrp, DD 
 SINC.deg                57.86:  Inc, Start 
 SPPA.psig             5620.00:  SPP Avg 
 SPPN.psig             5190.00:  SPP Min 
 SPPX.psig             6050.00:  SPP Max 
 STIM.      16.00.00 23-May-21:  Start Time 
 SVCS.                 DD, MWD:  Services 
 SVER.                    9.20:  Sperry Version 
 TDAT.m                 806.00:  Tot Depth Attmp 
 TDDF.                      No:  Trip for DD 
 TDLG.m                 806.00:  Tot Depth Loggd 
 TFF .                      No:  Trip for Fail 
 TQAA.f-kp               12.00:  Torque Abs Avg 
 TQAN.f-kp                8.00:  Torque Abs Min 
 TQAX.f-kp               15.00:  Torque Abs Max 
 TRRT.°/30m               0.30:  Turn Rotating 
 MRT .                  EWR-M5:  Maximum Recorded Temperature 
 TTMX.degC               93.00:  Max Tool Temp 
 VS01.                90649155:  Virtual Str1 SN 
 VS02.                90642264:  Virtual Str2 SN 
 VS03.                90642266:  Virtual Str3 SN 
 VS04.                90642261:  Virtual Str4 SN 
 WBMN.klb                 0.00:  WOB Min 
 WITN.             Anar Khalil:  Customer Rep 
 WITN.           Murad Guliyev:  Customer Rep 2 
 WOBA.klb                13.00:  WOB Avg 
 WOBX.klb                25.00:  WOB Max 
 YP  .lhf2               32.00:  Yield Point 
~Curve Information Block
#MNEM.UNIT                 API CODE     Curve Description
#---------               -----------    ---------------------------
 TIME.HHMMSS            00 000 000 000:  GT Time & Date
 GTDEPTH.m              00 000 000 000:  GT Depth
 GTPQH.psia             00 000 000 000:  GT HR Quartz Pressure
 GTTQ.degC              00 000 000 000:  GT Quartz Temperature
 GTTN.NONE              00 000 000 000:  GT Test Number
 GTET.sec               00 000 000 000:  GT Elapsed Test Time
 GTTVD.m                00 000 000 000:  GT True Vertical Depth
#Other Information
#
#WARRANTY: Halliburton will use its best efforts to furnish customers with 
#accurate information and interpretations that are part of, and incident to, the services 
#provided.  However, Halliburton cannot and does not warrant the accuracy 
#or correctness of such information and interpretations.  Under no circumstances should any 
#such information or interpretation be relied upon as the sole basis for any drilling, 
#completion, production, or financial decision or any procedure involving any risk to the 
#safety of any drilling venture, drilling rig or its crew or any other third party.  The 
#Customer has full responsibility for all drilling, completion and production operation.  
#Halliburton makes no representations or warranties, either expressed or 
#implied, including, but not limited to, the implied warranties of merchantability or fitness 
#for a particular purpose, with respect to the services rendered.  In no event will 
#Halliburton be liable for failure to obtain any particular results or for 
#any damages, including, but not limited to, indirect, special or consequential damages, 
#resulting from the use of any information or interpretation provided by Halliburton.
#
~A           TIME           GTDEPTH  GTPQH  GTTQ  GTTN  GTET   GTTVD  
# ...
   04:05:25.412.28-May-2021 3493.50 4216.61 83.10 8.00 207.07 2592.27
   04:05:25.612.28-May-2021 3493.50 4216.61 83.10 8.00 207.27 2592.27
   04:05:25.813.28-May-2021 3493.50 4216.87 83.10 8.00 207.47 2592.27
   04:05:26.013.28-May-2021 3493.50 4216.90 83.10 8.00 207.67 2592.27
   04:05:26.213.28-May-2021 3493.50 4216.85 83.10 8.00 207.87 2592.27
   04:05:26.413.28-May-2021 3493.50 4216.55 83.10 8.00 208.07 2592.27
   04:05:26.613.28-May-2021 3493.50 4216.55 83.10 8.00 208.27 2592.27
   04:05:26.813.28-May-2021 3493.50 4216.88 83.10 8.00 208.47 2592.27
   04:05:27.013.28-May-2021 3493.50 4216.89 83.10 8.00 208.67 2592.27
   04:05:27.213.28-May-2021 3493.50 4216.86 83.10 8.00 208.87 2592.27
   04:05:27.413.28-May-2021 3493.50 4216.88 83.09 8.00 209.07 2592.27
   04:05:27.613.28-May-2021 3493.50 4216.88 83.09 8.00 209.27 2592.27
   04:05:27.813.28-May-2021 3493.50 4216.86 83.09 8.00 209.47 2592.27
   04:05:28.013.28-May-2021 3493.50 4216.86 83.09 8.00 209.67 2592.27
   04:05:28.213.28-May-2021 3493.50 4216.87 83.09 8.00 209.87 2592.27
   04:05:28.413.28-May-2021 3493.50 4216.85 83.09 8.00 210.07 2592.27
   04:05:28.613.28-May-2021 3493.50 4216.85 83.09 8.00 210.27 2592.27
   04:05:28.813.28-May-2021 3493.50 4216.85 83.09 8.00 210.47 2592.27
   04:05:29.014.28-May-2021 3493.50 4216.68 83.09 8.00 210.67 2592.27
   04:05:29.214.28-May-2021 3493.50 4217.03 83.09 8.00 210.87 2592.27
   04:05:29.414.28-May-2021 3493.50 4216.87 83.09 8.00 211.07 2592.27
   04:05:29.614.28-May-2021 3493.50 4216.87 83.09 8.00 211.27 2592.27
   04:05:29.814.28-May-2021 3493.50 4216.84 83.09 8.00 211.47 2592.27
   04:05:30.014.28-May-2021 3493.50 4216.86 83.09 8.00 211.67 2592.27
   04:05:30.214.28-May-2021 3493.50 4216.87 83.09 8.00 211.87 2592.27
   04:05:30.414.28-May-2021 3493.50 4216.85 83.09 8.00 212.07 2592.27
   04:05:30.614.28-May-2021 3493.50 4216.85 83.09 8.00 212.27 2592.27
   04:05:30.814.28-May-2021 3493.50 4216.85 83.09 8.00 212.47 2592.27
   04:05:31.014.28-May-2021 3493.50 4216.87 83.09 8.00 212.67 2592.27
   04:05:31.214.28-May-2021 3493.50 4216.84 83.09 8.00 212.87 2592.27
   04:05:31.414.28-May-2021 3493.50 4216.86 83.09 8.00 213.07 2592.27
   04:05:31.614.28-May-2021 3493.50 4216.86 83.09 8.00 213.27 2592.27
   04:05:31.814.28-May-2021 3493.50 4217.17 83.09 8.00 213.47 2592.27
   04:05:32.015.28-May-2021 3493.50 4216.86 83.09 8.00 213.67 2592.27
   04:05:32.215.28-May-2021 3493.50 4216.89 83.09 8.00 213.87 2592.27
   04:05:32.415.28-May-2021 3493.50 4216.77 83.09 8.00 214.07 2592.27
   04:05:32.615.28-May-2021 3493.50 4216.77 83.09 8.00 214.27 2592.27
   04:05:32.815.28-May-2021 3493.50 4216.88 83.09 8.00 214.47 2592.27
   04:05:33.015.28-May-2021 3493.50 4216.84 83.09 8.00 214.67 2592.27
   04:05:33.215.28-May-2021 3493.50 4216.88 83.09 8.00 214.87 2592.27
   04:05:33.415.28-May-2021 3493.50 4216.87 83.09 8.00 215.07 2592.27
   04:05:33.615.28-May-2021 3493.50 4216.87 83.09 8.00 215.27 2592.27
   04:05:33.815.28-May-2021 3493.50 4217.03 83.09 8.00 215.47 2592.27
   04:05:34.015.28-May-2021 3493.50 4216.87 83.09 8.00 215.67 2592.27
   04:05:34.215.28-May-2021 3493.50 4216.89 83.09 8.00 215.87 2592.27
   04:05:34.415.28-May-2021 3493.50 4216.85 83.09 8.00 216.07 2592.27
   04:05:34.615.28-May-2021 3493.50 4216.85 83.09 8.00 216.27 2592.27
   04:05:34.815.28-May-2021 3493.50 4217.12 83.09 8.00 216.47 2592.27
   04:05:35.015.28-May-2021 3493.50 4216.87 83.09 8.00 216.67 2592.27
   04:05:35.216.28-May-2021 3493.50 4216.88 83.09 8.00 216.87 2592.27
   04:05:35.416.28-May-2021 3493.50 4216.85 83.09 8.00 217.07 2592.27
   04:05:35.616.28-May-2021 3493.50 4216.85 83.09 8.00 217.27 2592.27
   04:05:35.816.28-May-2021 3493.50 4216.86 83.09 8.00 217.47 2592.27
   04:05:36.016.28-May-2021 3493.50 4216.86 83.09 8.00 217.67 2592.27
   04:05:36.216.28-May-2021 3493.50 4216.87 83.09 8.00 217.87 2592.27
   04:05:36.416.28-May-2021 3493.50 4216.86 83.09 8.00 218.07 2592.27
   04:05:36.616.28-May-2021 3493.50 4216.86 83.09 8.00 218.27 2592.27
   04:05:36.816.28-May-2021 3493.50 4216.85 83.09 8.00 218.47 2592.27
   04:05:37.016.28-May-2021 3493.50 4216.84 83.09 8.00 218.67 2592.27
   04:05:37.216.28-May-2021 3493.50 4216.94 83.09 8.00 218.87 2592.27
   04:05:37.416.28-May-2021 3493.50 4216.78 83.09 8.00 219.07 2592.27
   04:05:37.616.28-May-2021 3493.50 4216.78 83.09 8.00 219.27 2592.27
   04:05:37.816.28-May-2021 3493.50 4216.85 83.09 8.00 219.47 2592.27
   04:05:38.016.28-May-2021 3493.50 4216.87 83.09 8.00 219.67 2592.27
   04:05:38.217.28-May-2021 3493.50 4216.86 83.09 8.00 219.87 2592.27
   04:05:38.417.28-May-2021 3493.50 4216.87 83.09 8.00 220.07 2592.27
   04:05:38.617.28-May-2021 3493.50 4216.87 83.09 8.00 220.27 2592.27
   04:05:38.817.28-May-2021 3493.50 4216.86 83.09 8.00 220.47 2592.27
   04:05:39.017.28-May-2021 3493.50 4216.86 83.09 8.00 220.67 2592.27
   04:05:39.217.28-May-2021 3493.50 4216.85 83.09 8.00 220.87 2592.27
   04:05:39.417.28-May-2021 3493.50 4216.85 83.09 8.00 221.07 2592.27
   04:05:39.617.28-May-2021 3493.50 4216.85 83.09 8.00 221.27 2592.27
   04:05:39.817.28-May-2021 3493.50 4216.59 83.09 8.00 221.47 2592.27
   04:05:40.017.28-May-2021 3493.50 4217.11 83.09 8.00 221.67 2592.27
   04:05:40.217.28-May-2021 3493.50 4216.87 83.09 8.00 221.87 2592.27
   04:05:40.417.28-May-2021 3493.50 4216.88 83.09 8.00 222.07 2592.27
   04:05:40.617.28-May-2021 3493.50 4216.88 83.09 8.00 222.27 2592.27
   04:05:40.817.28-May-2021 3493.50 4216.51 83.09 8.00 222.47 2592.27
   04:05:41.017.28-May-2021 3493.50 4216.86 83.09 8.00 222.67 2592.27
   04:05:41.217.28-May-2021 3493.50 4216.87 83.09 8.00 222.87 2592.27
   04:05:41.418.28-May-2021 3493.50 4216.86 83.08 8.00 223.07 2592.27
   04:05:41.618.28-May-2021 3493.50 4216.86 83.08 8.00 223.27 2592.27
   04:05:41.818.28-May-2021 3493.50 4216.94 83.08 8.00 223.47 2592.27
   04:05:42.018.28-May-2021 3493.50 4216.78 83.08 8.00 223.67 2592.27
   04:05:42.218.28-May-2021 3493.50 4216.85 83.08 8.00 223.87 2592.27
   04:05:42.418.28-May-2021 3493.50 4216.86 83.08 8.00 224.07 2592.27
   04:05:42.618.28-May-2021 3493.50 4216.86 83.08 8.00 224.27 2592.27
   04:05:42.818.28-May-2021 3493.50 4216.69 83.08 8.00 224.47 2592.27
   04:05:43.018.28-May-2021 3493.50 4217.03 83.08 8.00 224.67 2592.27
   04:05:43.218.28-May-2021 3493.50 4216.86 83.08 8.00 224.87 2592.27
   04:05:43.418.28-May-2021 3493.50 4216.89 83.08 8.00 225.07 2592.27
   04:05:43.618.28-May-2021 3493.50 4216.89 83.08 8.00 225.27 2592.27
   04:05:43.818.28-May-2021 3493.50 4216.85 83.08 8.00 225.47 2592.27
   04:05:44.018.28-May-2021 3493.50 4216.87 83.08 8.00 225.67 2592.27
   04:05:44.218.28-May-2021 3493.50 4216.85 83.08 8.00 225.87 2592.27
   04:05:44.419.28-May-2021 3493.50 4216.85 83.08 8.00 226.07 2592.27
   04:05:44.619.28-May-2021 3493.50 4216.85 83.08 8.00 226.27 2592.27
   04:05:44.819.28-May-2021 3493.50 4216.85 83.08 8.00 226.47 2592.27
   04:05:45.019.28-May-2021 3493.50 4216.85 83.08 8.00 226.67 2592.27
   04:05:45.219.28-May-2021 3493.50 4216.78 83.08 8.00 226.87 2592.27
   04:05:45.419.28-May-2021 3493.50 4216.92 83.08 8.00 227.07 2592.27
   04:05:45.619.28-May-2021 3493.50 4216.92 83.08 8.00 227.27 2592.27
   04:05:45.819.28-May-2021 3493.50 4216.84 83.08 8.00 227.47 2592.27
   04:05:46.019.28-May-2021 3493.50 4216.86 83.08 8.00 227.67 2592.27
   04:05:46.219.28-May-2021 3493.50 4216.86 83.08 8.00 227.87 2592.27
   04:05:46.419.28-May-2021 3493.50 4216.86 83.08 8.00 228.07 2592.27
   04:05:46.619.28-May-2021 3493.50 4216.86 83.08 8.00 228.27 2592.27
   04:05:46.819.28-May-2021 3493.50 4216.85 83.08 8.00 228.47 2592.27
   04:05:47.019.28-May-2021 3493.50 4216.85 83.08 8.00 228.67 2592.27
   04:05:47.219.28-May-2021 3493.50 4216.84 83.08 8.00 228.87 2592.27
   04:05:47.419.28-May-2021 3493.50 4216.85 83.08 8.00 229.07 2592.27
   04:05:47.620.28-May-2021 3493.50 4216.85 83.08 8.00 229.27 2592.27
   04:05:47.820.28-May-2021 3493.50 4216.83 83.08 8.00 229.47 2592.27
   04:05:48.020.28-May-2021 3493.50 4216.68 83.08 8.00 229.67 2592.27
   04:05:48.220.28-May-2021 3493.50 4217.02 83.08 8.00 229.87 2592.27
