~Version Information
 VERS.                  2.0:   CWLS log ASCII Standard -VERSION 2.0
 WRAP.                   NO:   One line per depth step
~Well Information Block
#MNEM.UNIT     VALUE/NAME     DESCRIPTION
#---------     -----------    ---------------------------
 STRT.S             04:01:58 28-May-21: START TIME 04:01:58 28-May-21
 STOP.S             04:09:02 28-May-21: STOP TIME  04:09:02 28-May-21
 STEP.S                   0.00: STEP TIME
 NULL.                 -999.25: NULL VALUE
 UWI .                     N/A:  UNIQUE WELL IDENTIFIER
 API .                     N/A:  API NUMBER
 UNIT.                     N/A:  LOGGING EQUIPMENT ID
 DCON.         Sperry Drilling:  DIRECTNL CONTR
 DOE .                     N/A:  DOE NUMBER
 MWDS.                    Baku:  MWD SHOP
 SRVC.     Turan Drilling and Engineering:  CONTRACTOR
 CTRY.              Azerbaijan:  COUNTRY NAME
 PROV.                    Baku:  PROVINCE
 STAT.                    Baku:  STATE NAME
 REGN.                   EESSA:  REGION
 BASE.              Azerbaijan:  LOGGING EQUIPMENT BASE LOCATION
 WTYP.                Deviated:  WELL TYPE
 RIG .              East Azeri:  RIG NAME
 WELL.                    D02y:  WELL NAME
 FLD .                     ACG:  FIELD NAME
 COMP.     BP Exploration (Caspian Sea) Ltd.:  COMPANY
 PDAT.          Mean Sea Level:  PERMANENT DATUM
 MDS .        Operator Entered:  MAG DATA SOURCE
 SON .        AZ-XX-0906997291:  JOB NUMBER
 FTOP.          Formation Tops:  FORM TOPS DESC
 ILTD.               Lithology:  INTERP LTH DESC
 SVYD.                  Survey:  SURVEY DESC
 DMOD.             Drill Model:  DRILL MOD DESC
 HPTY.       Minimum Curvature:  HOLE POS TYPE
 NREF.                    Grid:  NORTH REFERENCE
 SPUD.               05-May-21:  SPUD DATE
 DATE.      09.27.28 12-Jun-21:  END TIME
 STIM.      09.27.28 12-May-21:  START TIME
 DMF .             Drill Floor:  DRILL MEAS FROM
 DFST.                        :  DIST FSL TEXT
 DFWT.                        :  DIST FWL TEXT
 CNTY.                        :  COUNTY
 LOC .                        :  LOCATION
 LMF .             Drill Floor:  LOG MEASURED FROM
 DEP .m                2806.40:  DEPTH
 AGAP.m                  43.60:  AIR GAP
 VSNS.m                  -4.42:  VERT SEC N/S
 VSEW.m                  -7.31:  VERT SEC E/W
 APD .m                  43.60:  DEPTH ABOVE PD
 WDMS.m                 151.80:  WD ELEV
 EGL .m                   0.00:  GROUND ELEVATION
 EPD .m                   0.00:  ELEVATION
 AZTC.deg                 6.18:  AZM TOTAL CORR
 GRDC.deg                 0.29:  GRID CORRECTION
 MDEC.deg                 6.47:  MAGNETIC DECL
 MDIP.deg                59.50:  MAGNETIC DIP
 MFLD.nT              50350.00:  MAGNETIC FIELD
 GVFD.g                   1.00:  GRAVITY FIELD
 VSDR.deg               179.08:  VERT SEC DIRECT
 TDD .m                4300.00:  TOTAL DEPTH (DRILLER)
 SDEP.m                2800.00:  START DEPTH
 DFSL.m                   0.00:  DISTANCE FSL
 DFWL.m                   0.00:  DISTANCE FWL
 UTMY.m             4431871.34:  UTM Y
 UTMX.m              538762.90:  UTM X
 WHEW.m                  -7.31:  WELL HEAD E/W
 WHNS.m                  -4.42:  WELL HEAD N/S
 LONG.deg                51.45:  LONGITUDE
 LATI.deg                40.02:  LATITUDE
 TVDS.m                  43.60:  TVDSS CORRECTN
 EKB .m                  43.60:  KB ELEVATION
 EDF .m                  43.60:  DF ELEVATION
 TDL .m                 806.00:  TOTAL DEPTH (LOGGER)
 MAGU.                 1851231:  MAGUTM CHECKSUM
 VSC .                       0:  VS TO CLOSURE
~Parameter Information Block
#MNEM.UNIT       Value        Description
#---------     -----------    ---------------------------
 AV  .mps                 1.60:  Ann Velocity 
 AVMX.mps                 2.00:  Max Ann Veloc 
 AZIF.deg               140.24:  Azm, Final 
 BHAT.        Rotary Steerable:  BHA Type 
 BROT.°/30m               0.50:  Build Rotating 
 BS  .in                  8.50:  Bit Size 
 BTPL.psig              619.00:  Bit Press Loss 
 CABU.                     Yes:  Customer Abuse 
 CGEO.          Ilgar Gurbanov:  Customer Geo 
 COMM.                     4`:  Run Comments 1 
 TCS .hr                 85.88:  Time Ciculation Ended 
 CV  .mps                 3.30:  Crit Velocity 
 CVMX.mps                 3.50:  Max Crit Veloc 
 DD1 .           Hamid Axmedov:  Direct Drillr 1 
 DD2 .           Teymur Aliyev:  Direct Drillr 2 
 DDSV.               Geo-Pilot:  DD Service 
 DEFF.%                 100.00:  % Det Eff 
 DLRX.°/30m               0.00:  Dogleg Rot Max 
 DLSO.°/30m               1.80:  Dogleg Oriented 
 DLSX.°/30m               3.34:  Dogleg Str Max 
 DRET.      11.50.00 27-May-21:  Drill End Time 
 DRST.      21.13.00 24-May-21:  Drill Start Tim 
 DTIM.hr                 45.11:  Time Drilling 
 EDEP.m                4054.00:  End Depth 
 ENG1.         Almaz Almadatov:  Engineer 1 
 ENG2.           Amrah Tahirov:  Engineer 2 
 ENG3.      Bakhtiyar Jabbarli:  Engineer 3 
 ENG4.          Nazrin Asgarli:  Engineer 4 
 ETIM.      10.00.00 30-May-21:  End Time 
 FLOI.gpm               530.00:  Flow In 
 FLON.gpm               400.00:  Flow In Min 
 FLOS.cptm                0.00:  Fluid Loss 
 FLOX.gpm               560.00:  Flow In Max 
 DFT .        Mineral Oil Base:  Mud Type 
 FTRO.       Formation Presure:  FTWD Run Obj 
 HFLO.                      No:  High Flow 
 HPRE.                      No:  High Pressure 
 HTEM.                      No:  High Temp 
 HYDO.m                   1.80:  Hydro Offset 
 IFIN.deg                73.83:  Inc, Final 
 IMAX.deg                73.83:  Inc Max 
 IMIN.deg                57.86:  Inc Min 
 IMND.m                3259.27:  Inc Min Depth 
 IMXD.m                4045.58:  Inc Max Depth 
 JARR.                     Yes:  Jarring 
 LETM.      11.50.00 27-May-21:  Log End Time 
 LOST.hr                     0:  Lost Rig Time 
 LSTM.      21.13.00 24-May-21:  Log Start Time 
 MDCL.ppm             42500.00:  Mud Chlorides 
 MDES.     Inversion Oil/Synthetic:  Mud Desc 
 DFD .sg                  1.52:  Mud Density 
 MDMN.sg                  1.52:  Dens Mud Min 
 MDMX.sg                  1.52:  Dens Mud Max 
 MOIL.                      70:  Run Mud Oil % 
 MOWR.                   70:30:  Run Mud OWR 
 MSND.                     0.2:  Run Mud Sand % 
 MSOL.                      22:  Run Mud Solids% 
 DFV .spqt               77.00:  Mud Viscosity 
 MWOD.in                  6.75:  MWD Tool OD 
 MWSI.                      No:  Serv Intrp, MWD 
 OTIM.hr                151.01:  Time Operating 
 PCON.          Wear / Scratch:  Pad Condition 
 PMAX.psia            11296.93:  Press Op, Max 
 PV  .cP                 37.00:  Mud PV 
 RUN .                     500:  Run Number 
 ROPA.m/hr               25.00:  ROP Avg 
 ROPN.m/hr                9.00:  ROP Min 
 ROPX.m/hr               28.00:  ROP Max 
 RPMA.rpm               140.00:  RPM Surface Avg 
 RPMN.rpm                90.00:  RPM Surface Min 
 RPMX.rpm               140.00:  RPM Surface Max 
 RRUN.                    0500:  Rig Run Number 
 SAZI.deg               172.17:  Azm, Start 
 SDEP.m                3248.00:  Start Depth 
 SIDD.                      No:  Serv Intrp, DD 
 SINC.deg                57.86:  Inc, Start 
 SPPA.psig             5620.00:  SPP Avg 
 SPPN.psig             5190.00:  SPP Min 
 SPPX.psig             6050.00:  SPP Max 
 STIM.      16.00.00 23-May-21:  Start Time 
 SVCS.                 DD, MWD:  Services 
 SVER.                    9.20:  Sperry Version 
 TDAT.m                 806.00:  Tot Depth Attmp 
 TDDF.                      No:  Trip for DD 
 TDLG.m                 806.00:  Tot Depth Loggd 
 TFF .                      No:  Trip for Fail 
 TQAA.f-kp               12.00:  Torque Abs Avg 
 TQAN.f-kp                8.00:  Torque Abs Min 
 TQAX.f-kp               15.00:  Torque Abs Max 
 TRRT.°/30m               0.30:  Turn Rotating 
 MRT .                  EWR-M5:  Maximum Recorded Temperature 
 TTMX.degC               93.00:  Max Tool Temp 
 VS01.                90649155:  Virtual Str1 SN 
 VS02.                90642264:  Virtual Str2 SN 
 VS03.                90642266:  Virtual Str3 SN 
 VS04.                90642261:  Virtual Str4 SN 
 WBMN.klb                 0.00:  WOB Min 
 WITN.             Anar Khalil:  Customer Rep 
 WITN.           Murad Guliyev:  Customer Rep 2 
 WOBA.klb                13.00:  WOB Avg 
 WOBX.klb                25.00:  WOB Max 
 YP  .lhf2               32.00:  Yield Point 
~Curve Information Block
#MNEM.UNIT                 API CODE     Curve Description
#---------               -----------    ---------------------------
 TIME.HHMMSS            00 000 000 000:  GT Time & Date
 GTDEPTH.m              00 000 000 000:  GT Depth
 GTPQH.psia             00 000 000 000:  GT HR Quartz Pressure
 GTTQ.degC              00 000 000 000:  GT Quartz Temperature
 GTTN.NONE              00 000 000 000:  GT Test Number
 GTET.sec               00 000 000 000:  GT Elapsed Test Time
 GTTVD.m                00 000 000 000:  GT True Vertical Depth
#Other Information
#
#WARRANTY: Halliburton will use its best efforts to furnish customers with 
#accurate information and interpretations that are part of, and incident to, the services 
#provided.  However, Halliburton cannot and does not warrant the accuracy 
#or correctness of such information and interpretations.  Under no circumstances should any 
#such information or interpretation be relied upon as the sole basis for any drilling, 
#completion, production, or financial decision or any procedure involving any risk to the 
#safety of any drilling venture, drilling rig or its crew or any other third party.  The 
#Customer has full responsibility for all drilling, completion and production operation.  
#Halliburton makes no representations or warranties, either expressed or 
#implied, including, but not limited to, the implied warranties of merchantability or fitness 
#for a particular purpose, with respect to the services rendered.  In no event will 
#Halliburton be liable for failure to obtain any particular results or for 
#any damages, including, but not limited to, indirect, special or consequential damages, 
#resulting from the use of any information or interpretation provided by Halliburton.
#
~A           TIME           GTDEPTH  GTPQH  GTTQ  GTTN  GTET   GTTVD  
# ...
   04:05:48.420.28-May-2021 3493.50 4216.85 83.08 8.00 230.07 2592.27
   04:05:48.620.28-May-2021 3493.50 4216.85 83.08 8.00 230.27 2592.27
   04:05:48.820.28-May-2021 3493.50 4216.87 83.08 8.00 230.47 2592.27
   04:05:49.020.28-May-2021 3493.50 4217.08 83.08 8.00 230.67 2592.27
   04:05:49.220.28-May-2021 3493.50 4216.85 83.08 8.00 230.87 2592.27
   04:05:49.420.28-May-2021 3493.50 4216.88 83.08 8.00 231.07 2592.27
   04:05:49.620.28-May-2021 3493.50 4216.88 83.08 8.00 231.27 2592.27
   04:05:49.820.28-May-2021 3493.50 4216.78 83.08 8.00 231.47 2592.27
   04:05:50.020.28-May-2021 3493.50 4216.91 83.08 8.00 231.67 2592.27
   04:05:50.220.28-May-2021 3493.50 4216.86 83.08 8.00 231.87 2592.27
   04:05:50.420.28-May-2021 3493.50 4216.84 83.08 8.00 232.07 2592.27
   04:05:50.620.28-May-2021 3493.50 4216.84 83.08 8.00 232.27 2592.27
   04:05:50.821.28-May-2021 3493.50 4216.85 83.08 8.00 232.47 2592.27
   04:05:51.021.28-May-2021 3493.50 4216.94 83.08 8.00 232.67 2592.27
   04:05:51.221.28-May-2021 3493.50 4216.77 83.08 8.00 232.87 2592.27
   04:05:51.421.28-May-2021 3493.50 4216.86 83.08 8.00 233.08 2592.27
   04:05:51.621.28-May-2021 3493.50 4216.86 83.08 8.00 233.28 2592.27
   04:05:51.821.28-May-2021 3493.50 4216.86 83.08 8.00 233.48 2592.27
   04:05:52.021.28-May-2021 3493.50 4216.85 83.08 8.00 233.68 2592.27
   04:05:52.221.28-May-2021 3493.50 4216.86 83.08 8.00 233.88 2592.27
   04:05:52.421.28-May-2021 3493.50 4216.84 83.08 8.00 234.08 2592.27
   04:05:52.621.28-May-2021 3493.50 4216.84 83.08 8.00 234.28 2592.27
   04:05:52.821.28-May-2021 3493.50 4216.83 83.08 8.00 234.48 2592.27
   04:05:53.021.28-May-2021 3493.50 4216.84 83.08 8.00 234.68 2592.27
   04:05:53.221.28-May-2021 3493.50 4216.84 83.08 8.00 234.88 2592.27
   04:05:53.421.28-May-2021 3493.50 4216.51 83.08 8.00 235.08 2592.27
   04:05:53.621.28-May-2021 3493.50 4216.51 83.08 8.00 235.28 2592.27
   04:05:53.822.28-May-2021 3493.50 4216.85 83.08 8.00 235.48 2592.27
   04:05:54.022.28-May-2021 3493.50 4216.86 83.08 8.00 235.68 2592.27
   04:05:54.222.28-May-2021 3493.50 4216.84 83.08 8.00 235.88 2592.27
   04:05:54.422.28-May-2021 3493.50 4216.85 83.08 8.00 236.08 2592.27
   04:05:54.622.28-May-2021 3493.50 4216.85 83.08 8.00 236.28 2592.27
   04:05:54.822.28-May-2021 3493.50 4216.85 83.08 8.00 236.48 2592.27
   04:05:55.022.28-May-2021 3493.50 4216.84 83.08 8.00 236.68 2592.27
   04:05:55.222.28-May-2021 3493.50 4216.84 83.08 8.00 236.88 2592.27
   04:05:55.422.28-May-2021 3493.50 4216.84 83.08 8.00 237.08 2592.27
   04:05:55.622.28-May-2021 3493.50 4216.84 83.08 8.00 237.28 2592.27
   04:05:55.822.28-May-2021 3493.50 4216.82 83.08 8.00 237.48 2592.27
   04:05:56.022.28-May-2021 3493.50 4216.84 83.08 8.00 237.68 2592.27
   04:05:56.222.28-May-2021 3493.50 4216.92 83.07 8.00 237.88 2592.27
   04:05:56.422.28-May-2021 3493.50 4216.77 83.07 8.00 238.08 2592.27
   04:05:56.622.28-May-2021 3493.50 4216.77 83.07 8.00 238.28 2592.27
   04:05:56.822.28-May-2021 3493.50 4216.84 83.07 8.00 238.48 2592.27
   04:05:57.023.28-May-2021 3493.50 4216.68 83.07 8.00 238.68 2592.27
   04:05:57.223.28-May-2021 3493.50 4217.02 83.07 8.00 238.88 2592.27
   04:05:57.423.28-May-2021 3493.50 4216.85 83.07 8.00 239.08 2592.27
   04:05:57.623.28-May-2021 3493.50 4216.85 83.07 8.00 239.28 2592.27
   04:05:57.823.28-May-2021 3493.50 4216.83 83.07 8.00 239.48 2592.27
   04:05:58.023.28-May-2021 3493.50 4216.52 83.07 8.00 239.68 2592.27
   04:05:58.223.28-May-2021 3493.50 4217.17 83.07 8.00 239.88 2592.27
   04:05:58.423.28-May-2021 3493.50 4216.85 83.07 8.00 240.08 2592.27
   04:05:58.623.28-May-2021 3493.50 4216.85 83.07 8.00 240.28 2592.27
   04:05:58.823.28-May-2021 3493.50 4216.84 83.07 8.00 240.48 2592.27
   04:05:59.023.28-May-2021 3493.50 4216.77 83.07 8.00 240.68 2592.27
   04:05:59.223.28-May-2021 3493.50 4216.91 83.07 8.00 240.88 2592.27
   04:05:59.423.28-May-2021 3493.50 4216.86 83.07 8.00 241.08 2592.27
   04:05:59.623.28-May-2021 3493.50 4216.86 83.07 8.00 241.28 2592.27
   04:05:59.823.28-May-2021 3493.50 4216.86 83.07 8.00 241.48 2592.27
   04:06:00.024.28-May-2021 3493.50 4216.85 83.07 8.00 241.68 2592.27
   04:06:00.224.28-May-2021 3493.50 4216.84 83.07 8.00 241.88 2592.27
   04:06:00.424.28-May-2021 3493.50 4216.85 83.07 8.00 242.08 2592.27
   04:06:00.624.28-May-2021 3493.50 4216.85 83.07 8.00 242.28 2592.27
   04:06:00.824.28-May-2021 3493.50 4216.83 83.07 8.00 242.48 2592.27
   04:06:01.024.28-May-2021 3493.50 4216.83 83.07 8.00 242.68 2592.27
   04:06:01.224.28-May-2021 3493.50 4216.83 83.07 8.00 242.88 2592.27
   04:06:01.424.28-May-2021 3493.50 4216.83 83.07 8.00 243.08 2592.27
   04:06:01.624.28-May-2021 3493.50 4216.83 83.07 8.00 243.28 2592.27
   04:06:01.824.28-May-2021 3493.50 4217.08 83.07 8.00 243.48 2592.27
   04:06:02.024.28-May-2021 3493.50 4216.86 83.07 8.00 243.68 2592.27
   04:06:02.224.28-May-2021 3493.50 4216.87 83.07 8.00 243.88 2592.27
   04:06:02.424.28-May-2021 3493.50 4216.82 83.07 8.00 244.08 2592.27
   04:06:02.624.28-May-2021 3493.50 4216.82 83.07 8.00 244.28 2592.27
   04:06:02.824.28-May-2021 3493.50 4216.84 83.07 8.00 244.48 2592.27
   04:06:03.024.28-May-2021 3493.50 4216.84 83.07 8.00 244.68 2592.27
   04:06:03.225.28-May-2021 3493.50 4216.83 83.07 8.00 244.88 2592.27
   04:06:03.425.28-May-2021 3493.50 4216.84 83.07 8.00 245.08 2592.27
   04:06:03.625.28-May-2021 3493.50 4216.84 83.07 8.00 245.28 2592.27
   04:06:03.825.28-May-2021 3493.50 4216.83 83.07 8.00 245.48 2592.27
   04:06:04.025.28-May-2021 3493.50 4216.83 83.07 8.00 245.68 2592.27
   04:06:04.225.28-May-2021 3493.50 4216.76 83.07 8.00 245.88 2592.27
   04:06:04.425.28-May-2021 3493.50 4216.91 83.07 8.00 246.08 2592.27
   04:06:04.625.28-May-2021 3493.50 4216.91 83.07 8.00 246.28 2592.27
   04:06:04.825.28-May-2021 3493.50 4216.83 83.07 8.00 246.48 2592.27
   04:06:05.025.28-May-2021 3493.50 4216.85 83.07 8.00 246.68 2592.27
   04:06:05.225.28-May-2021 3493.50 4216.94 83.07 8.00 246.88 2592.27
   04:06:05.425.28-May-2021 3493.50 4216.75 83.07 8.00 247.08 2592.27
   04:06:05.625.28-May-2021 3493.50 4216.75 83.07 8.00 247.28 2592.27
   04:06:05.825.28-May-2021 3493.50 4216.85 83.07 8.00 247.48 2592.27
   04:06:06.025.28-May-2021 3493.50 4216.84 83.07 8.00 247.68 2592.27
   04:06:06.226.28-May-2021 3493.50 4216.59 83.07 8.00 247.88 2592.27
   04:06:06.426.28-May-2021 3493.50 4217.10 83.07 8.00 248.08 2592.27
   04:06:06.626.28-May-2021 3493.50 4217.10 83.07 8.00 248.28 2592.27
   04:06:06.826.28-May-2021 3493.50 4216.87 83.07 8.00 248.48 2592.27
   04:06:07.026.28-May-2021 3493.50 4216.82 83.07 8.00 248.68 2592.27
   04:06:07.226.28-May-2021 3493.50 4216.52 83.07 8.00 248.88 2592.27
   04:06:07.426.28-May-2021 3493.50 4217.15 83.07 8.00 249.08 2592.27
   04:06:07.626.28-May-2021 3493.50 4217.15 83.07 8.00 249.28 2592.27
   04:06:07.826.28-May-2021 3493.50 4216.85 83.07 8.00 249.48 2592.27
   04:06:08.026.28-May-2021 3493.50 4216.84 83.07 8.00 249.68 2592.27
   04:06:08.226.28-May-2021 3493.50 4216.84 83.07 8.00 249.88 2592.27
   04:06:08.426.28-May-2021 3493.50 4216.84 83.07 8.00 250.08 2592.27
   04:06:08.626.28-May-2021 3493.50 4216.84 83.07 8.00 250.28 2592.27
   04:06:08.826.28-May-2021 3493.50 4216.83 83.07 8.00 250.48 2592.27
   04:06:09.026.28-May-2021 3493.50 4216.84 83.07 8.00 250.68 2592.27
   04:06:09.226.28-May-2021 3493.50 4216.83 83.07 8.00 250.88 2592.27
   04:06:09.427.28-May-2021 3493.50 4216.83 83.07 8.00 251.08 2592.27
   04:06:09.627.28-May-2021 3493.50 4216.83 83.07 8.00 251.28 2592.27
   04:06:09.827.28-May-2021 3493.50 4216.67 83.07 8.00 251.48 2592.27
   04:06:10.027.28-May-2021 3493.50 4217.01 83.07 8.00 251.68 2592.27
   04:06:10.227.28-May-2021 3493.50 4216.85 83.07 8.00 251.88 2592.27
   04:06:10.427.28-May-2021 3493.50 4216.86 83.07 8.00 252.08 2592.27
   04:06:10.627.28-May-2021 3493.50 4216.86 83.07 8.00 252.28 2592.27
   04:06:10.827.28-May-2021 3493.50 4216.84 83.07 8.00 252.48 2592.27
   04:06:11.027.28-May-2021 3493.50 4216.84 83.07 8.00 252.68 2592.27
   04:06:11.227.28-May-2021 3493.50 4216.83 83.07 8.00 252.88 2592.27
