~Version Information
 VERS.                  2.0:   CWLS log ASCII Standard -VERSION 2.0
 WRAP.                   NO:   One line per depth step
~Well Information Block
#MNEM.UNIT     VALUE/NAME     DESCRIPTION
#---------     -----------    ---------------------------
 STRT.S             23:52:35 27-May-21: START TIME 23:52:35 27-May-21
 STOP.S             23:59:20 27-May-21: STOP TIME  23:59:20 27-May-21
 STEP.S                   0.00: STEP TIME
 NULL.                 -999.25: NULL VALUE
 UWI .                     N/A:  UNIQUE WELL IDENTIFIER
 API .                     N/A:  API NUMBER
 UNIT.                     N/A:  LOGGING EQUIPMENT ID
 DCON.         Sperry Drilling:  DIRECTNL CONTR
 DOE .                     N/A:  DOE NUMBER
 MWDS.                    Baku:  MWD SHOP
 SRVC.     Turan Drilling and Engineering:  CONTRACTOR
 CTRY.              Azerbaijan:  COUNTRY NAME
 PROV.                    Baku:  PROVINCE
 STAT.                    Baku:  STATE NAME
 REGN.                   EESSA:  REGION
 BASE.              Azerbaijan:  LOGGING EQUIPMENT BASE LOCATION
 WTYP.                Deviated:  WELL TYPE
 RIG .              East Azeri:  RIG NAME
 WELL.                    D02y:  WELL NAME
 FLD .                     ACG:  FIELD NAME
 COMP.     BP Exploration (Caspian Sea) Ltd.:  COMPANY
 PDAT.          Mean Sea Level:  PERMANENT DATUM
 MDS .        Operator Entered:  MAG DATA SOURCE
 SON .        AZ-XX-0906997291:  JOB NUMBER
 FTOP.          Formation Tops:  FORM TOPS DESC
 ILTD.               Lithology:  INTERP LTH DESC
 SVYD.                  Survey:  SURVEY DESC
 DMOD.             Drill Model:  DRILL MOD DESC
 HPTY.       Minimum Curvature:  HOLE POS TYPE
 NREF.                    Grid:  NORTH REFERENCE
 SPUD.               05-May-21:  SPUD DATE
 DATE.      09.27.28 12-Jun-21:  END TIME
 STIM.      09.27.28 12-May-21:  START TIME
 DMF .             Drill Floor:  DRILL MEAS FROM
 DFST.                        :  DIST FSL TEXT
 DFWT.                        :  DIST FWL TEXT
 CNTY.                        :  COUNTY
 LOC .                        :  LOCATION
 LMF .             Drill Floor:  LOG MEASURED FROM
 DEP .m                2806.40:  DEPTH
 AGAP.m                  43.60:  AIR GAP
 VSNS.m                  -4.42:  VERT SEC N/S
 VSEW.m                  -7.31:  VERT SEC E/W
 APD .m                  43.60:  DEPTH ABOVE PD
 WDMS.m                 151.80:  WD ELEV
 EGL .m                   0.00:  GROUND ELEVATION
 EPD .m                   0.00:  ELEVATION
 AZTC.deg                 6.18:  AZM TOTAL CORR
 GRDC.deg                 0.29:  GRID CORRECTION
 MDEC.deg                 6.47:  MAGNETIC DECL
 MDIP.deg                59.50:  MAGNETIC DIP
 MFLD.nT              50350.00:  MAGNETIC FIELD
 GVFD.g                   1.00:  GRAVITY FIELD
 VSDR.deg               179.08:  VERT SEC DIRECT
 TDD .m                4300.00:  TOTAL DEPTH (DRILLER)
 SDEP.m                2800.00:  START DEPTH
 DFSL.m                   0.00:  DISTANCE FSL
 DFWL.m                   0.00:  DISTANCE FWL
 UTMY.m             4431871.34:  UTM Y
 UTMX.m              538762.90:  UTM X
 WHEW.m                  -7.31:  WELL HEAD E/W
 WHNS.m                  -4.42:  WELL HEAD N/S
 LONG.deg                51.45:  LONGITUDE
 LATI.deg                40.02:  LATITUDE
 TVDS.m                  43.60:  TVDSS CORRECTN
 EKB .m                  43.60:  KB ELEVATION
 EDF .m                  43.60:  DF ELEVATION
 TDL .m                 806.00:  TOTAL DEPTH (LOGGER)
 MAGU.                 1851231:  MAGUTM CHECKSUM
 VSC .                       0:  VS TO CLOSURE
~Parameter Information Block
#MNEM.UNIT       Value        Description
#---------     -----------    ---------------------------
 AV  .mps                 1.60:  Ann Velocity 
 AVMX.mps                 2.00:  Max Ann Veloc 
 AZIF.deg               140.24:  Azm, Final 
 BHAT.        Rotary Steerable:  BHA Type 
 BROT.°/30m               0.50:  Build Rotating 
 BS  .in                  8.50:  Bit Size 
 BTPL.psig              619.00:  Bit Press Loss 
 CABU.                     Yes:  Customer Abuse 
 CGEO.          Ilgar Gurbanov:  Customer Geo 
 COMM.                     t\L:  Run Comments 1 
 TCS .hr                 85.88:  Time Ciculation Ended 
 CV  .mps                 3.30:  Crit Velocity 
 CVMX.mps                 3.50:  Max Crit Veloc 
 DD1 .           Hamid Axmedov:  Direct Drillr 1 
 DD2 .           Teymur Aliyev:  Direct Drillr 2 
 DDSV.               Geo-Pilot:  DD Service 
 DEFF.%                 100.00:  % Det Eff 
 DLRX.°/30m               0.00:  Dogleg Rot Max 
 DLSO.°/30m               1.80:  Dogleg Oriented 
 DLSX.°/30m               3.34:  Dogleg Str Max 
 DRET.      11.50.00 27-May-21:  Drill End Time 
 DRST.      21.13.00 24-May-21:  Drill Start Tim 
 DTIM.hr                 45.11:  Time Drilling 
 EDEP.m                4054.00:  End Depth 
 ENG1.         Almaz Almadatov:  Engineer 1 
 ENG2.           Amrah Tahirov:  Engineer 2 
 ENG3.      Bakhtiyar Jabbarli:  Engineer 3 
 ENG4.          Nazrin Asgarli:  Engineer 4 
 ETIM.      10.00.00 30-May-21:  End Time 
 FLOI.gpm               530.00:  Flow In 
 FLON.gpm               400.00:  Flow In Min 
 FLOS.cptm                0.00:  Fluid Loss 
 FLOX.gpm               560.00:  Flow In Max 
 DFT .        Mineral Oil Base:  Mud Type 
 FTRO.       Formation Presure:  FTWD Run Obj 
 HFLO.                      No:  High Flow 
 HPRE.                      No:  High Pressure 
 HTEM.                      No:  High Temp 
 HYDO.m                   1.80:  Hydro Offset 
 IFIN.deg                73.83:  Inc, Final 
 IMAX.deg                73.83:  Inc Max 
 IMIN.deg                57.86:  Inc Min 
 IMND.m                3259.27:  Inc Min Depth 
 IMXD.m                4045.58:  Inc Max Depth 
 JARR.                     Yes:  Jarring 
 LETM.      11.50.00 27-May-21:  Log End Time 
 LOST.hr                     0:  Lost Rig Time 
 LSTM.      21.13.00 24-May-21:  Log Start Time 
 MDCL.ppm             42500.00:  Mud Chlorides 
 MDES.     Inversion Oil/Synthetic:  Mud Desc 
 DFD .sg                  1.52:  Mud Density 
 MDMN.sg                  1.52:  Dens Mud Min 
 MDMX.sg                  1.52:  Dens Mud Max 
 MOIL.                      70:  Run Mud Oil % 
 MOWR.                   70:30:  Run Mud OWR 
 MSND.                     0.2:  Run Mud Sand % 
 MSOL.                      22:  Run Mud Solids% 
 DFV .spqt               77.00:  Mud Viscosity 
 MWOD.in                  6.75:  MWD Tool OD 
 MWSI.                      No:  Serv Intrp, MWD 
 OTIM.hr                151.01:  Time Operating 
 PCON.          Wear / Scratch:  Pad Condition 
 PMAX.psia            11296.93:  Press Op, Max 
 PV  .cP                 37.00:  Mud PV 
 RUN .                     500:  Run Number 
 ROPA.m/hr               25.00:  ROP Avg 
 ROPN.m/hr                9.00:  ROP Min 
 ROPX.m/hr               28.00:  ROP Max 
 RPMA.rpm               140.00:  RPM Surface Avg 
 RPMN.rpm                90.00:  RPM Surface Min 
 RPMX.rpm               140.00:  RPM Surface Max 
 RRUN.                    0500:  Rig Run Number 
 SAZI.deg               172.17:  Azm, Start 
 SDEP.m                3248.00:  Start Depth 
 SIDD.                      No:  Serv Intrp, DD 
 SINC.deg                57.86:  Inc, Start 
 SPPA.psig             5620.00:  SPP Avg 
 SPPN.psig             5190.00:  SPP Min 
 SPPX.psig             6050.00:  SPP Max 
 STIM.      16.00.00 23-May-21:  Start Time 
 SVCS.                 DD, MWD:  Services 
 SVER.                    9.20:  Sperry Version 
 TDAT.m                 806.00:  Tot Depth Attmp 
 TDDF.                      No:  Trip for DD 
 TDLG.m                 806.00:  Tot Depth Loggd 
 TFF .                      No:  Trip for Fail 
 TQAA.f-kp               12.00:  Torque Abs Avg 
 TQAN.f-kp                8.00:  Torque Abs Min 
 TQAX.f-kp               15.00:  Torque Abs Max 
 TRRT.°/30m               0.30:  Turn Rotating 
 MRT .                  EWR-M5:  Maximum Recorded Temperature 
 TTMX.degC               93.00:  Max Tool Temp 
 VS01.                90649155:  Virtual Str1 SN 
 VS02.                90642264:  Virtual Str2 SN 
 VS03.                90642266:  Virtual Str3 SN 
 VS04.                90642261:  Virtual Str4 SN 
 WBMN.klb                 0.00:  WOB Min 
 WITN.             Anar Khalil:  Customer Rep 
 WITN.           Murad Guliyev:  Customer Rep 2 
 WOBA.klb                13.00:  WOB Avg 
 WOBX.klb                25.00:  WOB Max 
 YP  .lhf2               32.00:  Yield Point 
~Curve Information Block
#MNEM.UNIT                 API CODE     Curve Description
#---------               -----------    ---------------------------
 TIME.HHMMSS            00 000 000 000:  GT Time & Date
 GTDEPTH.m              00 000 000 000:  GT Depth
 GTPQH.psia             00 000 000 000:  GT HR Quartz Pressure
 GTTQ.degC              00 000 000 000:  GT Quartz Temperature
 GTTN.NONE              00 000 000 000:  GT Test Number
 GTET.sec               00 000 000 000:  GT Elapsed Test Time
 GTTVD.m                00 000 000 000:  GT True Vertical Depth
#Other Information
#
#WARRANTY: Halliburton will use its best efforts to furnish customers with 
#accurate information and interpretations that are part of, and incident to, the services 
#provided.  However, Halliburton cannot and does not warrant the accuracy 
#or correctness of such information and interpretations.  Under no circumstances should any 
#such information or interpretation be relied upon as the sole basis for any drilling, 
#completion, production, or financial decision or any procedure involving any risk to the 
#safety of any drilling venture, drilling rig or its crew or any other third party.  The 
#Customer has full responsibility for all drilling, completion and production operation.  
#Halliburton makes no representations or warranties, either expressed or 
#implied, including, but not limited to, the implied warranties of merchantability or fitness 
#for a particular purpose, with respect to the services rendered.  In no event will 
#Halliburton be liable for failure to obtain any particular results or for 
#any damages, including, but not limited to, indirect, special or consequential damages, 
#resulting from the use of any information or interpretation provided by Halliburton.
#
~A           TIME           GTDEPTH  GTPQH  GTTQ  GTTN  GTET   GTTVD  
# ...
   23:53:21.000.27-May-2021 3671.50 5094.13 84.52 3.00  46.00 2661.54
   23:53:21.200.27-May-2021 3671.50 5094.13 84.52 3.00  46.20 2661.54
   23:53:21.400.27-May-2021 3671.50 4650.93 84.52 3.00  46.40 2661.54
   23:53:21.600.27-May-2021 3671.50 4206.48 84.52 3.00  46.60 2661.54
   23:53:21.800.27-May-2021 3671.50 3950.30 84.52 3.00  46.80 2661.54
   23:53:22.000.27-May-2021 3671.50 3808.43 84.52 3.00  47.00 2661.54
   23:53:22.200.27-May-2021 3671.50 3808.43 84.52 3.00  47.20 2661.54
   23:53:22.400.27-May-2021 3671.50 2984.58 84.51 3.00  47.40 2661.54
   23:53:22.600.27-May-2021 3671.50 2211.02 84.51 3.00  47.60 2661.54
   23:53:22.800.27-May-2021 3671.50 1484.67 84.51 3.00  47.80 2661.54
   23:53:23.000.27-May-2021 3671.50  804.39 84.51 3.00  48.00 2661.54
   23:53:23.200.27-May-2021 3671.50  804.39 84.51 3.00  48.20 2661.54
   23:53:23.400.27-May-2021 3671.50   77.20 84.50 3.00  48.40 2661.54
   23:53:23.600.27-May-2021 3671.50   55.41 84.50 3.00  48.60 2661.54
   23:53:23.800.27-May-2021 3671.50   57.94 84.49 3.00  48.80 2661.54
   23:53:24.000.27-May-2021 3671.50   59.14 84.49 3.00  49.00 2661.54
   23:53:24.200.27-May-2021 3671.50   59.14 84.49 3.00  49.20 2661.54
   23:53:24.400.27-May-2021 3671.50   61.75 84.48 3.00  49.40 2661.54
   23:53:24.600.27-May-2021 3671.50   62.25 84.48 3.00  49.60 2661.54
   23:53:24.800.27-May-2021 3671.50   62.97 84.47 3.00  49.80 2661.54
   23:53:25.000.27-May-2021 3671.50   62.98 84.47 3.00  50.00 2661.54
   23:53:25.200.27-May-2021 3671.50   62.98 84.47 3.00  50.20 2661.54
   23:53:25.400.27-May-2021 3671.50   63.16 84.46 3.00  50.40 2661.54
   23:53:25.600.27-May-2021 3671.50   63.41 84.45 3.00  50.60 2661.54
   23:53:25.800.27-May-2021 3671.50   63.57 84.45 3.00  50.80 2661.54
   23:53:26.000.27-May-2021 3671.50   64.04 84.44 3.00  51.00 2661.54
   23:53:26.200.27-May-2021 3671.50   64.04 84.44 3.00  51.20 2661.54
   23:53:26.400.27-May-2021 3671.50   64.68 84.43 3.00  51.40 2661.54
   23:53:26.600.27-May-2021 3671.50   64.91 84.43 3.00  51.60 2661.54
   23:53:26.800.27-May-2021 3671.50   65.24 84.42 3.00  51.80 2661.54
   23:53:27.000.27-May-2021 3671.50   65.48 84.42 3.00  52.00 2661.54
   23:53:27.200.27-May-2021 3671.50   65.48 84.42 3.00  52.20 2661.54
   23:53:27.400.27-May-2021 3671.50   65.99 84.41 3.00  52.40 2661.54
   23:53:27.600.27-May-2021 3671.50   66.00 84.40 3.00  52.60 2661.54
   23:53:27.800.27-May-2021 3671.50   66.03 84.40 3.00  52.80 2661.54
   23:53:28.000.27-May-2021 3671.50   66.05 84.40 3.00  53.00 2661.54
   23:53:28.200.27-May-2021 3671.50   66.05 84.40 3.00  53.20 2661.54
   23:53:28.400.27-May-2021 3671.50   66.24 84.39 3.00  53.40 2661.54
   23:53:28.600.27-May-2021 3671.50   66.17 84.38 3.00  53.60 2661.54
   23:53:28.800.27-May-2021 3671.50   66.09 84.38 3.00  53.80 2661.54
   23:53:29.000.27-May-2021 3671.50   66.06 84.38 3.00  54.00 2661.54
   23:53:29.200.27-May-2021 3671.50   66.06 84.38 3.00  54.20 2661.54
   23:53:29.400.27-May-2021 3671.50   65.96 84.37 3.00  54.40 2661.54
   23:53:29.600.27-May-2021 3671.50   65.79 84.37 3.00  54.60 2661.54
   23:53:29.800.27-May-2021 3671.50   65.92 84.37 3.00  54.80 2661.54
   23:53:30.000.27-May-2021 3671.50   67.33 84.36 3.00  55.00 2661.54
   23:53:30.200.27-May-2021 3671.50   67.33 84.36 3.00  55.20 2661.54
   23:53:30.400.27-May-2021 3671.50   70.16 84.36 3.00  55.40 2661.54
   23:53:30.600.27-May-2021 3671.50   71.48 84.35 3.00  55.60 2661.54
   23:53:30.800.27-May-2021 3671.50   72.70 84.35 3.00  55.80 2661.54
   23:53:31.000.27-May-2021 3671.50   73.85 84.35 3.00  56.00 2661.54
   23:53:31.200.27-May-2021 3671.50   73.85 84.35 3.00  56.20 2661.54
   23:53:31.400.27-May-2021 3671.50   76.04 84.35 3.00  56.40 2661.54
   23:53:31.600.27-May-2021 3671.50   77.09 84.34 3.00  56.60 2661.54
   23:53:31.800.27-May-2021 3671.50   78.10 84.34 3.00  56.80 2661.54
   23:53:32.000.27-May-2021 3671.50   79.09 84.34 3.00  57.00 2661.54
   23:53:32.200.27-May-2021 3671.50   79.09 84.34 3.00  57.20 2661.54
   23:53:32.400.27-May-2021 3671.50   80.98 84.34 3.00  57.40 2661.54
   23:53:32.600.27-May-2021 3671.50   81.90 84.34 3.00  57.60 2661.54
   23:53:32.800.27-May-2021 3671.50   82.75 84.34 3.00  57.80 2661.54
   23:53:33.000.27-May-2021 3671.50   83.62 84.33 3.00  58.00 2661.54
   23:53:33.200.27-May-2021 3671.50   83.62 84.33 3.00  58.20 2661.54
   23:53:33.400.27-May-2021 3671.50   85.35 84.33 3.00  58.40 2661.54
   23:53:33.600.27-May-2021 3671.50   86.17 84.33 3.00  58.60 2661.54
   23:53:33.800.27-May-2021 3671.50   86.97 84.33 3.00  58.80 2661.54
   23:53:34.000.27-May-2021 3671.50   87.76 84.33 3.00  59.00 2661.54
   23:53:34.200.27-May-2021 3671.50   87.76 84.33 3.00  59.20 2661.54
   23:53:34.400.27-May-2021 3671.50   89.30 84.33 3.00  59.40 2661.54
   23:53:34.600.27-May-2021 3671.50   90.04 84.33 3.00  59.60 2661.54
   23:53:34.800.27-May-2021 3671.50   90.77 84.33 3.00  59.80 2661.54
   23:53:35.000.27-May-2021 3671.50   91.50 84.33 3.00  60.00 2661.54
   23:53:35.200.27-May-2021 3671.50   91.50 84.33 3.00  60.20 2661.54
   23:53:35.400.27-May-2021 3671.50   92.85 84.32 3.00  60.40 2661.54
   23:53:35.600.27-May-2021 3671.50   93.58 84.32 3.00  60.60 2661.54
   23:53:35.800.27-May-2021 3671.50   94.26 84.32 3.00  60.80 2661.54
   23:53:36.000.27-May-2021 3671.50   94.93 84.32 3.00  61.00 2661.54
   23:53:36.200.27-May-2021 3671.50   94.93 84.32 3.00  61.20 2661.54
   23:53:36.400.27-May-2021 3671.50   96.18 84.32 3.00  61.40 2661.54
   23:53:36.600.27-May-2021 3671.50   96.86 84.32 3.00  61.60 2661.54
   23:53:36.800.27-May-2021 3671.50   97.49 84.32 3.00  61.80 2661.54
   23:53:37.000.27-May-2021 3671.50   98.08 84.32 3.00  62.00 2661.54
   23:53:37.200.27-May-2021 3671.50   98.08 84.32 3.00  62.20 2661.54
   23:53:37.400.27-May-2021 3671.50   99.35 84.32 3.00  62.40 2661.54
   23:53:37.600.27-May-2021 3671.50  100.02 84.32 3.00  62.60 2661.54
   23:53:37.800.27-May-2021 3671.50  100.67 84.32 3.00  62.80 2661.54
   23:53:38.000.27-May-2021 3671.50  101.25 84.32 3.00  63.00 2661.54
   23:53:38.200.27-May-2021 3671.50  101.25 84.32 3.00  63.20 2661.54
   23:53:38.400.27-May-2021 3671.50  102.50 84.32 3.00  63.40 2661.54
   23:53:38.600.27-May-2021 3671.50  103.07 84.32 3.00  63.60 2661.54
   23:53:38.800.27-May-2021 3671.50  103.62 84.32 3.00  63.80 2661.54
   23:53:39.000.27-May-2021 3671.50  104.16 84.32 3.00  64.00 2661.54
   23:53:39.200.27-May-2021 3671.50  104.16 84.32 3.00  64.20 2661.54
   23:53:39.400.27-May-2021 3671.50  105.22 84.32 3.00  64.40 2661.54
   23:53:39.600.27-May-2021 3671.50  105.74 84.32 3.00  64.60 2661.54
   23:53:39.800.27-May-2021 3671.50  106.24 84.32 3.00  64.80 2661.54
   23:53:40.000.27-May-2021 3671.50  106.75 84.32 3.00  65.00 2661.54
   23:53:40.200.27-May-2021 3671.50  106.75 84.32 3.00  65.20 2661.54
   23:53:40.400.27-May-2021 3671.50  107.71 84.32 3.00  65.40 2661.54
   23:53:40.600.27-May-2021 3671.50  108.14 84.32 3.00  65.60 2661.54
   23:53:40.800.27-May-2021 3671.50  108.67 84.32 3.00  65.80 2661.54
   23:53:41.000.27-May-2021 3671.50  109.14 84.32 3.00  66.00 2661.54
   23:53:41.200.27-May-2021 3671.50  109.14 84.32 3.00  66.20 2661.54
   23:53:41.400.27-May-2021 3671.50  110.05 84.32 3.00  66.40 2661.54
   23:53:41.600.27-May-2021 3671.50  110.50 84.32 3.00  66.60 2661.54
   23:53:41.800.27-May-2021 3671.50  110.94 84.32 3.00  66.80 2661.54
   23:53:42.000.27-May-2021 3671.50  111.38 84.32 3.00  67.00 2661.54
   23:53:42.200.27-May-2021 3671.50  111.38 84.32 3.00  67.20 2661.54
   23:53:42.400.27-May-2021 3671.50  112.24 84.32 3.00  67.40 2661.54
   23:53:42.600.27-May-2021 3671.50  112.65 84.32 3.00  67.60 2661.54
   23:53:42.800.27-May-2021 3671.50  113.06 84.32 3.00  67.80 2661.54
   23:53:43.000.27-May-2021 3671.50  113.43 84.32 3.00  68.00 2661.54
   23:53:43.200.27-May-2021 3671.50  113.43 84.32 3.00  68.20 2661.54
   23:53:43.400.27-May-2021 3671.50  114.27 84.32 3.00  68.40 2661.54
   23:53:43.600.27-May-2021 3671.50  114.64 84.32 3.00  68.60 2661.54
   23:53:43.800.27-May-2021 3671.50  115.00 84.32 3.00  68.80 2661.54
