~Version Information
 VERS.                  2.0:   CWLS log ASCII Standard -VERSION 2.0
 WRAP.                   NO:   One line per depth step
~Well Information Block
#MNEM.UNIT     VALUE/NAME     DESCRIPTION
#---------     -----------    ---------------------------
 STRT.S             23:03:24 27-May-21: START TIME 23:03:24 27-May-21
 STOP.S             23:10:28 27-May-21: STOP TIME  23:10:28 27-May-21
 STEP.S                   0.00: STEP TIME
 NULL.                 -999.25: NULL VALUE
 UWI .                     N/A:  UNIQUE WELL IDENTIFIER
 API .                     N/A:  API NUMBER
 UNIT.                     N/A:  LOGGING EQUIPMENT ID
 DCON.         Sperry Drilling:  DIRECTNL CONTR
 DOE .                     N/A:  DOE NUMBER
 MWDS.                    Baku:  MWD SHOP
 SRVC.     Turan Drilling and Engineering:  CONTRACTOR
 CTRY.              Azerbaijan:  COUNTRY NAME
 PROV.                    Baku:  PROVINCE
 STAT.                    Baku:  STATE NAME
 REGN.                   EESSA:  REGION
 BASE.              Azerbaijan:  LOGGING EQUIPMENT BASE LOCATION
 WTYP.                Deviated:  WELL TYPE
 RIG .              East Azeri:  RIG NAME
 WELL.                    D02y:  WELL NAME
 FLD .                     ACG:  FIELD NAME
 COMP.     BP Exploration (Caspian Sea) Ltd.:  COMPANY
 PDAT.          Mean Sea Level:  PERMANENT DATUM
 MDS .        Operator Entered:  MAG DATA SOURCE
 SON .        AZ-XX-0906997291:  JOB NUMBER
 FTOP.          Formation Tops:  FORM TOPS DESC
 ILTD.               Lithology:  INTERP LTH DESC
 SVYD.                  Survey:  SURVEY DESC
 DMOD.             Drill Model:  DRILL MOD DESC
 HPTY.       Minimum Curvature:  HOLE POS TYPE
 NREF.                    Grid:  NORTH REFERENCE
 SPUD.               05-May-21:  SPUD DATE
 DATE.      09.27.28 12-Jun-21:  END TIME
 STIM.      09.27.28 12-May-21:  START TIME
 DMF .             Drill Floor:  DRILL MEAS FROM
 DFST.                        :  DIST FSL TEXT
 DFWT.                        :  DIST FWL TEXT
 CNTY.                        :  COUNTY
 LOC .                        :  LOCATION
 LMF .             Drill Floor:  LOG MEASURED FROM
 DEP .m                2806.40:  DEPTH
 AGAP.m                  43.60:  AIR GAP
 VSNS.m                  -4.42:  VERT SEC N/S
 VSEW.m                  -7.31:  VERT SEC E/W
 APD .m                  43.60:  DEPTH ABOVE PD
 WDMS.m                 151.80:  WD ELEV
 EGL .m                   0.00:  GROUND ELEVATION
 EPD .m                   0.00:  ELEVATION
 AZTC.deg                 6.18:  AZM TOTAL CORR
 GRDC.deg                 0.29:  GRID CORRECTION
 MDEC.deg                 6.47:  MAGNETIC DECL
 MDIP.deg                59.50:  MAGNETIC DIP
 MFLD.nT              50350.00:  MAGNETIC FIELD
 GVFD.g                   1.00:  GRAVITY FIELD
 VSDR.deg               179.08:  VERT SEC DIRECT
 TDD .m                4300.00:  TOTAL DEPTH (DRILLER)
 SDEP.m                2800.00:  START DEPTH
 DFSL.m                   0.00:  DISTANCE FSL
 DFWL.m                   0.00:  DISTANCE FWL
 UTMY.m             4431871.34:  UTM Y
 UTMX.m              538762.90:  UTM X
 WHEW.m                  -7.31:  WELL HEAD E/W
 WHNS.m                  -4.42:  WELL HEAD N/S
 LONG.deg                51.45:  LONGITUDE
 LATI.deg                40.02:  LATITUDE
 TVDS.m                  43.60:  TVDSS CORRECTN
 EKB .m                  43.60:  KB ELEVATION
 EDF .m                  43.60:  DF ELEVATION
 TDL .m                 806.00:  TOTAL DEPTH (LOGGER)
 MAGU.                 1851231:  MAGUTM CHECKSUM
 VSC .                       0:  VS TO CLOSURE
~Parameter Information Block
#MNEM.UNIT       Value        Description
#---------     -----------    ---------------------------
 AV  .mps                 1.60:  Ann Velocity 
 AVMX.mps                 2.00:  Max Ann Veloc 
 AZIF.deg               140.24:  Azm, Final 
 BHAT.        Rotary Steerable:  BHA Type 
 BROT.°/30m               0.50:  Build Rotating 
 BS  .in                  8.50:  Bit Size 
 BTPL.psig              619.00:  Bit Press Loss 
 CABU.                     Yes:  Customer Abuse 
 CGEO.          Ilgar Gurbanov:  Customer Geo 
 COMM.                     |¡U:  Run Comments 1 
 TCS .hr                 85.88:  Time Ciculation Ended 
 CV  .mps                 3.30:  Crit Velocity 
 CVMX.mps                 3.50:  Max Crit Veloc 
 DD1 .           Hamid Axmedov:  Direct Drillr 1 
 DD2 .           Teymur Aliyev:  Direct Drillr 2 
 DDSV.               Geo-Pilot:  DD Service 
 DEFF.%                 100.00:  % Det Eff 
 DLRX.°/30m               0.00:  Dogleg Rot Max 
 DLSO.°/30m               1.80:  Dogleg Oriented 
 DLSX.°/30m               3.34:  Dogleg Str Max 
 DRET.      11.50.00 27-May-21:  Drill End Time 
 DRST.      21.13.00 24-May-21:  Drill Start Tim 
 DTIM.hr                 45.11:  Time Drilling 
 EDEP.m                4054.00:  End Depth 
 ENG1.         Almaz Almadatov:  Engineer 1 
 ENG2.           Amrah Tahirov:  Engineer 2 
 ENG3.      Bakhtiyar Jabbarli:  Engineer 3 
 ENG4.          Nazrin Asgarli:  Engineer 4 
 ETIM.      10.00.00 30-May-21:  End Time 
 FLOI.gpm               530.00:  Flow In 
 FLON.gpm               400.00:  Flow In Min 
 FLOS.cptm                0.00:  Fluid Loss 
 FLOX.gpm               560.00:  Flow In Max 
 DFT .        Mineral Oil Base:  Mud Type 
 FTRO.       Formation Presure:  FTWD Run Obj 
 HFLO.                      No:  High Flow 
 HPRE.                      No:  High Pressure 
 HTEM.                      No:  High Temp 
 HYDO.m                   1.80:  Hydro Offset 
 IFIN.deg                73.83:  Inc, Final 
 IMAX.deg                73.83:  Inc Max 
 IMIN.deg                57.86:  Inc Min 
 IMND.m                3259.27:  Inc Min Depth 
 IMXD.m                4045.58:  Inc Max Depth 
 JARR.                     Yes:  Jarring 
 LETM.      11.50.00 27-May-21:  Log End Time 
 LOST.hr                     0:  Lost Rig Time 
 LSTM.      21.13.00 24-May-21:  Log Start Time 
 MDCL.ppm             42500.00:  Mud Chlorides 
 MDES.     Inversion Oil/Synthetic:  Mud Desc 
 DFD .sg                  1.52:  Mud Density 
 MDMN.sg                  1.52:  Dens Mud Min 
 MDMX.sg                  1.52:  Dens Mud Max 
 MOIL.                      70:  Run Mud Oil % 
 MOWR.                   70:30:  Run Mud OWR 
 MSND.                     0.2:  Run Mud Sand % 
 MSOL.                      22:  Run Mud Solids% 
 DFV .spqt               77.00:  Mud Viscosity 
 MWOD.in                  6.75:  MWD Tool OD 
 MWSI.                      No:  Serv Intrp, MWD 
 OTIM.hr                151.01:  Time Operating 
 PCON.          Wear / Scratch:  Pad Condition 
 PMAX.psia            11296.93:  Press Op, Max 
 PV  .cP                 37.00:  Mud PV 
 RUN .                     500:  Run Number 
 ROPA.m/hr               25.00:  ROP Avg 
 ROPN.m/hr                9.00:  ROP Min 
 ROPX.m/hr               28.00:  ROP Max 
 RPMA.rpm               140.00:  RPM Surface Avg 
 RPMN.rpm                90.00:  RPM Surface Min 
 RPMX.rpm               140.00:  RPM Surface Max 
 RRUN.                    0500:  Rig Run Number 
 SAZI.deg               172.17:  Azm, Start 
 SDEP.m                3248.00:  Start Depth 
 SIDD.                      No:  Serv Intrp, DD 
 SINC.deg                57.86:  Inc, Start 
 SPPA.psig             5620.00:  SPP Avg 
 SPPN.psig             5190.00:  SPP Min 
 SPPX.psig             6050.00:  SPP Max 
 STIM.      16.00.00 23-May-21:  Start Time 
 SVCS.                 DD, MWD:  Services 
 SVER.                    9.20:  Sperry Version 
 TDAT.m                 806.00:  Tot Depth Attmp 
 TDDF.                      No:  Trip for DD 
 TDLG.m                 806.00:  Tot Depth Loggd 
 TFF .                      No:  Trip for Fail 
 TQAA.f-kp               12.00:  Torque Abs Avg 
 TQAN.f-kp                8.00:  Torque Abs Min 
 TQAX.f-kp               15.00:  Torque Abs Max 
 TRRT.°/30m               0.30:  Turn Rotating 
 MRT .                  EWR-M5:  Maximum Recorded Temperature 
 TTMX.degC               93.00:  Max Tool Temp 
 VS01.                90649155:  Virtual Str1 SN 
 VS02.                90642264:  Virtual Str2 SN 
 VS03.                90642266:  Virtual Str3 SN 
 VS04.                90642261:  Virtual Str4 SN 
 WBMN.klb                 0.00:  WOB Min 
 WITN.             Anar Khalil:  Customer Rep 
 WITN.           Murad Guliyev:  Customer Rep 2 
 WOBA.klb                13.00:  WOB Avg 
 WOBX.klb                25.00:  WOB Max 
 YP  .lhf2               32.00:  Yield Point 
~Curve Information Block
#MNEM.UNIT                 API CODE     Curve Description
#---------               -----------    ---------------------------
 TIME.HHMMSS            00 000 000 000:  GT Time & Date
 GTDEPTH.m              00 000 000 000:  GT Depth
 GTPQH.psia             00 000 000 000:  GT HR Quartz Pressure
 GTTQ.degC              00 000 000 000:  GT Quartz Temperature
 GTTN.NONE              00 000 000 000:  GT Test Number
 GTET.sec               00 000 000 000:  GT Elapsed Test Time
 GTTVD.m                00 000 000 000:  GT True Vertical Depth
#Other Information
#
#WARRANTY: Halliburton will use its best efforts to furnish customers with 
#accurate information and interpretations that are part of, and incident to, the services 
#provided.  However, Halliburton cannot and does not warrant the accuracy 
#or correctness of such information and interpretations.  Under no circumstances should any 
#such information or interpretation be relied upon as the sole basis for any drilling, 
#completion, production, or financial decision or any procedure involving any risk to the 
#safety of any drilling venture, drilling rig or its crew or any other third party.  The 
#Customer has full responsibility for all drilling, completion and production operation.  
#Halliburton makes no representations or warranties, either expressed or 
#implied, including, but not limited to, the implied warranties of merchantability or fitness 
#for a particular purpose, with respect to the services rendered.  In no event will 
#Halliburton be liable for failure to obtain any particular results or for 
#any damages, including, but not limited to, indirect, special or consequential damages, 
#resulting from the use of any information or interpretation provided by Halliburton.
#
~A           TIME           GTDEPTH  GTPQH  GTTQ  GTTN  GTET   GTTVD  
# ...
   23:08:46.389.27-May-2021 3710.50 3139.43 84.60 2.00 322.13 2675.83
   23:08:46.590.27-May-2021 3710.50 3139.43 84.60 2.00 322.33 2675.83
   23:08:46.790.27-May-2021 3710.50 3139.41 84.60 2.00 322.53 2675.83
   23:08:46.990.27-May-2021 3710.50 3139.41 84.60 2.00 322.73 2675.83
   23:08:47.190.27-May-2021 3710.50 3139.44 84.60 2.00 322.93 2675.83
   23:08:47.390.27-May-2021 3710.50 3139.43 84.60 2.00 323.13 2675.83
   23:08:47.590.27-May-2021 3710.50 3139.43 84.60 2.00 323.33 2675.83
   23:08:47.790.27-May-2021 3710.50 3139.42 84.60 2.00 323.53 2675.83
   23:08:47.990.27-May-2021 3710.50 3139.42 84.60 2.00 323.73 2675.83
   23:08:48.190.27-May-2021 3710.50 3139.43 84.60 2.00 323.93 2675.83
   23:08:48.390.27-May-2021 3710.50 3139.41 84.60 2.00 324.13 2675.83
   23:08:48.590.27-May-2021 3710.50 3139.41 84.60 2.00 324.33 2675.83
   23:08:48.790.27-May-2021 3710.50 3139.42 84.60 2.00 324.53 2675.83
   23:08:48.990.27-May-2021 3710.50 3139.42 84.60 2.00 324.73 2675.83
   23:08:49.191.27-May-2021 3710.50 3139.43 84.60 2.00 324.93 2675.83
   23:08:49.391.27-May-2021 3710.50 3139.40 84.60 2.00 325.13 2675.83
   23:08:49.591.27-May-2021 3710.50 3139.40 84.60 2.00 325.33 2675.83
   23:08:49.791.27-May-2021 3710.50 3139.45 84.60 2.00 325.53 2675.83
   23:08:49.991.27-May-2021 3710.50 3139.41 84.60 2.00 325.73 2675.83
   23:08:50.191.27-May-2021 3710.50 3139.46 84.60 2.00 325.93 2675.83
   23:08:50.391.27-May-2021 3710.50 3139.39 84.60 2.00 326.13 2675.83
   23:08:50.591.27-May-2021 3710.50 3139.39 84.60 2.00 326.33 2675.83
   23:08:50.791.27-May-2021 3710.50 3139.42 84.60 2.00 326.53 2675.83
   23:08:50.991.27-May-2021 3710.50 3139.41 84.60 2.00 326.73 2675.83
   23:08:51.191.27-May-2021 3710.50 3139.40 84.60 2.00 326.93 2675.83
   23:08:51.391.27-May-2021 3710.50 3139.45 84.60 2.00 327.13 2675.83
   23:08:51.592.27-May-2021 3710.50 3139.45 84.60 2.00 327.33 2675.83
   23:08:51.792.27-May-2021 3710.50 3139.43 84.60 2.00 327.53 2675.83
   23:08:51.992.27-May-2021 3710.50 3139.42 84.60 2.00 327.73 2675.83
   23:08:52.192.27-May-2021 3710.50 3139.33 84.60 2.00 327.93 2675.83
   23:08:52.392.27-May-2021 3710.50 3139.50 84.60 2.00 328.13 2675.83
   23:08:52.592.27-May-2021 3710.50 3139.50 84.60 2.00 328.33 2675.83
   23:08:52.792.27-May-2021 3710.50 3139.44 84.60 2.00 328.53 2675.83
   23:08:52.992.27-May-2021 3710.50 3139.41 84.60 2.00 328.73 2675.83
   23:08:53.192.27-May-2021 3710.50 3139.43 84.60 2.00 328.93 2675.83
   23:08:53.392.27-May-2021 3710.50 3139.42 84.60 2.00 329.13 2675.83
   23:08:53.592.27-May-2021 3710.50 3139.42 84.60 2.00 329.33 2675.83
   23:08:53.792.27-May-2021 3710.50 3139.43 84.60 2.00 329.53 2675.83
   23:08:53.992.27-May-2021 3710.50 3139.42 84.60 2.00 329.73 2675.83
   23:08:54.193.27-May-2021 3710.50 3139.41 84.60 2.00 329.93 2675.83
   23:08:54.393.27-May-2021 3710.50 3139.43 84.60 2.00 330.13 2675.83
   23:08:54.593.27-May-2021 3710.50 3139.43 84.60 2.00 330.33 2675.83
   23:08:54.793.27-May-2021 3710.50 3139.32 84.60 2.00 330.53 2675.83
   23:08:54.993.27-May-2021 3710.50 3139.50 84.60 2.00 330.73 2675.83
   23:08:55.193.27-May-2021 3710.50 3139.43 84.60 2.00 330.93 2675.83
   23:08:55.393.27-May-2021 3710.50 3139.42 84.60 2.00 331.13 2675.83
   23:08:55.593.27-May-2021 3710.50 3139.42 84.60 2.00 331.33 2675.83
   23:08:55.793.27-May-2021 3710.50 3139.41 84.60 2.00 331.53 2675.83
   23:08:55.993.27-May-2021 3710.50 3139.42 84.60 2.00 331.73 2675.83
   23:08:56.193.27-May-2021 3710.50 3139.42 84.60 2.00 331.93 2675.83
   23:08:56.393.27-May-2021 3710.50 3139.42 84.60 2.00 332.13 2675.83
   23:08:56.593.27-May-2021 3710.50 3139.42 84.60 2.00 332.33 2675.83
   23:08:56.794.27-May-2021 3710.50 3139.42 84.60 2.00 332.53 2675.83
   23:08:56.994.27-May-2021 3710.50 3139.42 84.60 2.00 332.73 2675.83
   23:08:57.194.27-May-2021 3710.50 3139.42 84.60 2.00 332.93 2675.83
   23:08:57.394.27-May-2021 3710.50 3139.33 84.60 2.00 333.13 2675.83
   23:08:57.594.27-May-2021 3710.50 3139.33 84.60 2.00 333.33 2675.83
   23:08:57.794.27-May-2021 3710.50 3139.42 84.60 2.00 333.53 2675.83
   23:08:57.994.27-May-2021 3710.50 3139.30 84.60 2.00 333.73 2675.83
   23:08:58.194.27-May-2021 3710.50 3139.53 84.60 2.00 333.93 2675.83
   23:08:58.394.27-May-2021 3710.50 3139.42 84.60 2.00 334.13 2675.83
   23:08:58.594.27-May-2021 3710.50 3139.42 84.60 2.00 334.33 2675.83
   23:08:58.794.27-May-2021 3710.50 3139.42 84.60 2.00 334.53 2675.83
   23:08:58.994.27-May-2021 3710.50 3139.31 84.60 2.00 334.73 2675.83
   23:08:59.194.27-May-2021 3710.50 3139.50 84.60 2.00 334.93 2675.83
   23:08:59.395.27-May-2021 3710.50 3139.43 84.60 2.00 335.13 2675.83
   23:08:59.595.27-May-2021 3710.50 3139.43 84.60 2.00 335.33 2675.83
   23:08:59.795.27-May-2021 3710.50 3139.42 84.60 2.00 335.53 2675.83
   23:08:59.995.27-May-2021 3710.50 3139.41 84.60 2.00 335.73 2675.83
   23:09:00.195.27-May-2021 3710.50 3139.45 84.60 2.00 335.93 2675.83
   23:09:00.395.27-May-2021 3710.50 3139.38 84.60 2.00 336.13 2675.83
   23:09:00.595.27-May-2021 3710.50 3139.38 84.60 2.00 336.33 2675.83
   23:09:00.795.27-May-2021 3710.50 3139.42 84.60 2.00 336.53 2675.83
   23:09:00.995.27-May-2021 3710.50 3139.43 84.60 2.00 336.73 2675.83
   23:09:01.195.27-May-2021 3710.50 3139.41 84.60 2.00 336.93 2675.83
   23:09:01.395.27-May-2021 3710.50 3139.41 84.60 2.00 337.13 2675.83
   23:09:01.595.27-May-2021 3710.50 3139.41 84.60 2.00 337.33 2675.83
   23:09:01.796.27-May-2021 3710.50 3139.42 84.60 2.00 337.53 2675.83
   23:09:01.996.27-May-2021 3710.50 3139.41 84.60 2.00 337.73 2675.83
   23:09:02.196.27-May-2021 3710.50 3139.43 84.60 2.00 337.93 2675.83
   23:09:02.396.27-May-2021 3710.50 3139.41 84.60 2.00 338.13 2675.83
   23:09:02.596.27-May-2021 3710.50 3139.41 84.60 2.00 338.33 2675.83
   23:09:02.796.27-May-2021 3710.50 3139.44 84.60 2.00 338.53 2675.83
   23:09:02.996.27-May-2021 3710.50 3139.37 84.60 2.00 338.73 2675.83
   23:09:03.196.27-May-2021 3710.50 3139.41 84.60 2.00 338.93 2675.83
   23:09:03.396.27-May-2021 3710.50 3139.42 84.60 2.00 339.13 2675.83
   23:09:03.596.27-May-2021 3710.50 3139.42 84.60 2.00 339.33 2675.83
   23:09:03.796.27-May-2021 3710.50 3139.42 84.60 2.00 339.53 2675.83
   23:09:03.996.27-May-2021 3710.50 3139.42 84.60 2.00 339.73 2675.83
   23:09:04.196.27-May-2021 3710.50 3139.40 84.60 2.00 339.93 2675.83
   23:09:04.397.27-May-2021 3710.50 3139.42 84.60 2.00 340.13 2675.83
   23:09:04.597.27-May-2021 3710.50 3139.42 84.60 2.00 340.33 2675.83
   23:09:04.797.27-May-2021 3710.50 3139.41 84.60 2.00 340.53 2675.83
   23:09:04.997.27-May-2021 3710.50 3139.42 84.60 2.00 340.73 2675.83
   23:09:05.197.27-May-2021 3710.50 3139.41 84.60 2.00 340.93 2675.83
   23:09:05.397.27-May-2021 3710.50 3139.44 84.60 2.00 341.13 2675.83
   23:09:05.597.27-May-2021 3710.50 3139.44 84.60 2.00 341.33 2675.83
   23:09:05.797.27-May-2021 3710.50 3139.41 84.60 2.00 341.53 2675.83
   23:09:05.997.27-May-2021 3710.50 3139.33 84.60 2.00 341.73 2675.83
   23:09:06.197.27-May-2021 3710.50 3139.50 84.60 2.00 341.93 2675.83
   23:09:06.397.27-May-2021 3710.50 3139.41 84.60 2.00 342.13 2675.83
   23:09:06.597.27-May-2021 3710.50 3139.41 84.60 2.00 342.33 2675.83
   23:09:06.797.27-May-2021 3710.50 3139.41 84.60 2.00 342.53 2675.83
   23:09:06.998.27-May-2021 3710.50 3139.44 84.60 2.00 342.73 2675.83
   23:09:07.198.27-May-2021 3710.50 3139.36 84.60 2.00 342.93 2675.83
   23:09:07.398.27-May-2021 3710.50 3139.41 84.60 2.00 343.13 2675.83
   23:09:07.598.27-May-2021 3710.50 3139.41 84.60 2.00 343.33 2675.83
   23:09:07.798.27-May-2021 3710.50 3139.41 84.60 2.00 343.53 2675.83
   23:09:07.998.27-May-2021 3710.50 3139.28 84.60 2.00 343.73 2675.83
   23:09:08.198.27-May-2021 3710.50 3139.53 84.60 2.00 343.93 2675.83
   23:09:08.398.27-May-2021 3710.50 3139.42 84.60 2.00 344.13 2675.83
   23:09:08.598.27-May-2021 3710.50 3139.42 84.60 2.00 344.33 2675.83
   23:09:08.798.27-May-2021 3710.50 3139.41 84.60 2.00 344.53 2675.83
   23:09:08.998.27-May-2021 3710.50 3139.40 84.60 2.00 344.73 2675.83
   23:09:09.198.27-May-2021 3710.50 3139.41 84.60 2.00 344.94 2675.83
