~Version Information
 VERS.                  2.0:   CWLS log ASCII Standard -VERSION 2.0
 WRAP.                   NO:   One line per depth step
~Well Information Block
#MNEM.UNIT     VALUE/NAME     DESCRIPTION
#---------     -----------    ---------------------------
 STRT.S             07:37:51 28-May-21: START TIME 07:37:51 28-May-21
 STOP.S             07:44:58 28-May-21: STOP TIME  07:44:58 28-May-21
 STEP.S                   0.00: STEP TIME
 NULL.                 -999.25: NULL VALUE
 UWI .                     N/A:  UNIQUE WELL IDENTIFIER
 API .                     N/A:  API NUMBER
 UNIT.                     N/A:  LOGGING EQUIPMENT ID
 DCON.         Sperry Drilling:  DIRECTNL CONTR
 DOE .                     N/A:  DOE NUMBER
 MWDS.                    Baku:  MWD SHOP
 SRVC.     Turan Drilling and Engineering:  CONTRACTOR
 CTRY.              Azerbaijan:  COUNTRY NAME
 PROV.                    Baku:  PROVINCE
 STAT.                    Baku:  STATE NAME
 REGN.                   EESSA:  REGION
 BASE.              Azerbaijan:  LOGGING EQUIPMENT BASE LOCATION
 WTYP.                Deviated:  WELL TYPE
 RIG .              East Azeri:  RIG NAME
 WELL.                    D02y:  WELL NAME
 FLD .                     ACG:  FIELD NAME
 COMP.     BP Exploration (Caspian Sea) Ltd.:  COMPANY
 PDAT.          Mean Sea Level:  PERMANENT DATUM
 MDS .        Operator Entered:  MAG DATA SOURCE
 SON .        AZ-XX-0906997291:  JOB NUMBER
 FTOP.          Formation Tops:  FORM TOPS DESC
 ILTD.               Lithology:  INTERP LTH DESC
 SVYD.                  Survey:  SURVEY DESC
 DMOD.             Drill Model:  DRILL MOD DESC
 HPTY.       Minimum Curvature:  HOLE POS TYPE
 NREF.                    Grid:  NORTH REFERENCE
 SPUD.               05-May-21:  SPUD DATE
 DATE.      09.27.28 12-Jun-21:  END TIME
 STIM.      09.27.28 12-May-21:  START TIME
 DMF .             Drill Floor:  DRILL MEAS FROM
 DFST.                        :  DIST FSL TEXT
 DFWT.                        :  DIST FWL TEXT
 CNTY.                        :  COUNTY
 LOC .                        :  LOCATION
 LMF .             Drill Floor:  LOG MEASURED FROM
 DEP .m                2806.40:  DEPTH
 AGAP.m                  43.60:  AIR GAP
 VSNS.m                  -4.42:  VERT SEC N/S
 VSEW.m                  -7.31:  VERT SEC E/W
 APD .m                  43.60:  DEPTH ABOVE PD
 WDMS.m                 151.80:  WD ELEV
 EGL .m                   0.00:  GROUND ELEVATION
 EPD .m                   0.00:  ELEVATION
 AZTC.deg                 6.18:  AZM TOTAL CORR
 GRDC.deg                 0.29:  GRID CORRECTION
 MDEC.deg                 6.47:  MAGNETIC DECL
 MDIP.deg                59.50:  MAGNETIC DIP
 MFLD.nT              50350.00:  MAGNETIC FIELD
 GVFD.g                   1.00:  GRAVITY FIELD
 VSDR.deg               179.08:  VERT SEC DIRECT
 TDD .m                4300.00:  TOTAL DEPTH (DRILLER)
 SDEP.m                2800.00:  START DEPTH
 DFSL.m                   0.00:  DISTANCE FSL
 DFWL.m                   0.00:  DISTANCE FWL
 UTMY.m             4431871.34:  UTM Y
 UTMX.m              538762.90:  UTM X
 WHEW.m                  -7.31:  WELL HEAD E/W
 WHNS.m                  -4.42:  WELL HEAD N/S
 LONG.deg                51.45:  LONGITUDE
 LATI.deg                40.02:  LATITUDE
 TVDS.m                  43.60:  TVDSS CORRECTN
 EKB .m                  43.60:  KB ELEVATION
 EDF .m                  43.60:  DF ELEVATION
 TDL .m                 806.00:  TOTAL DEPTH (LOGGER)
 MAGU.                 1851231:  MAGUTM CHECKSUM
 VSC .                       0:  VS TO CLOSURE
~Parameter Information Block
#MNEM.UNIT       Value        Description
#---------     -----------    ---------------------------
 AV  .mps                 1.60:  Ann Velocity 
 AVMX.mps                 2.00:  Max Ann Veloc 
 AZIF.deg               140.24:  Azm, Final 
 BHAT.        Rotary Steerable:  BHA Type 
 BROT.°/30m               0.50:  Build Rotating 
 BS  .in                  8.50:  Bit Size 
 BTPL.psig              619.00:  Bit Press Loss 
 CABU.                     Yes:  Customer Abuse 
 CGEO.          Ilgar Gurbanov:  Customer Geo 
 COMM.                     dSc:  Run Comments 1 
 TCS .hr                 85.88:  Time Ciculation Ended 
 CV  .mps                 3.30:  Crit Velocity 
 CVMX.mps                 3.50:  Max Crit Veloc 
 DD1 .           Hamid Axmedov:  Direct Drillr 1 
 DD2 .           Teymur Aliyev:  Direct Drillr 2 
 DDSV.               Geo-Pilot:  DD Service 
 DEFF.%                 100.00:  % Det Eff 
 DLRX.°/30m               0.00:  Dogleg Rot Max 
 DLSO.°/30m               1.80:  Dogleg Oriented 
 DLSX.°/30m               3.34:  Dogleg Str Max 
 DRET.      11.50.00 27-May-21:  Drill End Time 
 DRST.      21.13.00 24-May-21:  Drill Start Tim 
 DTIM.hr                 45.11:  Time Drilling 
 EDEP.m                4054.00:  End Depth 
 ENG1.         Almaz Almadatov:  Engineer 1 
 ENG2.           Amrah Tahirov:  Engineer 2 
 ENG3.      Bakhtiyar Jabbarli:  Engineer 3 
 ENG4.          Nazrin Asgarli:  Engineer 4 
 ETIM.      10.00.00 30-May-21:  End Time 
 FLOI.gpm               530.00:  Flow In 
 FLON.gpm               400.00:  Flow In Min 
 FLOS.cptm                0.00:  Fluid Loss 
 FLOX.gpm               560.00:  Flow In Max 
 DFT .        Mineral Oil Base:  Mud Type 
 FTRO.       Formation Presure:  FTWD Run Obj 
 HFLO.                      No:  High Flow 
 HPRE.                      No:  High Pressure 
 HTEM.                      No:  High Temp 
 HYDO.m                   1.80:  Hydro Offset 
 IFIN.deg                73.83:  Inc, Final 
 IMAX.deg                73.83:  Inc Max 
 IMIN.deg                57.86:  Inc Min 
 IMND.m                3259.27:  Inc Min Depth 
 IMXD.m                4045.58:  Inc Max Depth 
 JARR.                     Yes:  Jarring 
 LETM.      11.50.00 27-May-21:  Log End Time 
 LOST.hr                     0:  Lost Rig Time 
 LSTM.      21.13.00 24-May-21:  Log Start Time 
 MDCL.ppm             42500.00:  Mud Chlorides 
 MDES.     Inversion Oil/Synthetic:  Mud Desc 
 DFD .sg                  1.52:  Mud Density 
 MDMN.sg                  1.52:  Dens Mud Min 
 MDMX.sg                  1.52:  Dens Mud Max 
 MOIL.                      70:  Run Mud Oil % 
 MOWR.                   70:30:  Run Mud OWR 
 MSND.                     0.2:  Run Mud Sand % 
 MSOL.                      22:  Run Mud Solids% 
 DFV .spqt               77.00:  Mud Viscosity 
 MWOD.in                  6.75:  MWD Tool OD 
 MWSI.                      No:  Serv Intrp, MWD 
 OTIM.hr                151.01:  Time Operating 
 PCON.          Wear / Scratch:  Pad Condition 
 PMAX.psia            11296.93:  Press Op, Max 
 PV  .cP                 37.00:  Mud PV 
 RUN .                     500:  Run Number 
 ROPA.m/hr               25.00:  ROP Avg 
 ROPN.m/hr                9.00:  ROP Min 
 ROPX.m/hr               28.00:  ROP Max 
 RPMA.rpm               140.00:  RPM Surface Avg 
 RPMN.rpm                90.00:  RPM Surface Min 
 RPMX.rpm               140.00:  RPM Surface Max 
 RRUN.                    0500:  Rig Run Number 
 SAZI.deg               172.17:  Azm, Start 
 SDEP.m                3248.00:  Start Depth 
 SIDD.                      No:  Serv Intrp, DD 
 SINC.deg                57.86:  Inc, Start 
 SPPA.psig             5620.00:  SPP Avg 
 SPPN.psig             5190.00:  SPP Min 
 SPPX.psig             6050.00:  SPP Max 
 STIM.      16.00.00 23-May-21:  Start Time 
 SVCS.                 DD, MWD:  Services 
 SVER.                    9.20:  Sperry Version 
 TDAT.m                 806.00:  Tot Depth Attmp 
 TDDF.                      No:  Trip for DD 
 TDLG.m                 806.00:  Tot Depth Loggd 
 TFF .                      No:  Trip for Fail 
 TQAA.f-kp               12.00:  Torque Abs Avg 
 TQAN.f-kp                8.00:  Torque Abs Min 
 TQAX.f-kp               15.00:  Torque Abs Max 
 TRRT.°/30m               0.30:  Turn Rotating 
 MRT .                  EWR-M5:  Maximum Recorded Temperature 
 TTMX.degC               93.00:  Max Tool Temp 
 VS01.                90649155:  Virtual Str1 SN 
 VS02.                90642264:  Virtual Str2 SN 
 VS03.                90642266:  Virtual Str3 SN 
 VS04.                90642261:  Virtual Str4 SN 
 WBMN.klb                 0.00:  WOB Min 
 WITN.             Anar Khalil:  Customer Rep 
 WITN.           Murad Guliyev:  Customer Rep 2 
 WOBA.klb                13.00:  WOB Avg 
 WOBX.klb                25.00:  WOB Max 
 YP  .lhf2               32.00:  Yield Point 
~Curve Information Block
#MNEM.UNIT                 API CODE     Curve Description
#---------               -----------    ---------------------------
 TIME.HHMMSS            00 000 000 000:  GT Time & Date
 GTDEPTH.m              00 000 000 000:  GT Depth
 GTPQH.psia             00 000 000 000:  GT HR Quartz Pressure
 GTTQ.degC              00 000 000 000:  GT Quartz Temperature
 GTTN.NONE              00 000 000 000:  GT Test Number
 GTET.sec               00 000 000 000:  GT Elapsed Test Time
 GTTVD.m                00 000 000 000:  GT True Vertical Depth
#Other Information
#
#WARRANTY: Halliburton will use its best efforts to furnish customers with 
#accurate information and interpretations that are part of, and incident to, the services 
#provided.  However, Halliburton cannot and does not warrant the accuracy 
#or correctness of such information and interpretations.  Under no circumstances should any 
#such information or interpretation be relied upon as the sole basis for any drilling, 
#completion, production, or financial decision or any procedure involving any risk to the 
#safety of any drilling venture, drilling rig or its crew or any other third party.  The 
#Customer has full responsibility for all drilling, completion and production operation.  
#Halliburton makes no representations or warranties, either expressed or 
#implied, including, but not limited to, the implied warranties of merchantability or fitness 
#for a particular purpose, with respect to the services rendered.  In no event will 
#Halliburton be liable for failure to obtain any particular results or for 
#any damages, including, but not limited to, indirect, special or consequential damages, 
#resulting from the use of any information or interpretation provided by Halliburton.
#
~A           TIME           GTDEPTH  GTPQH  GTTQ  GTTN   GTET   GTTVD  
# ...
   07:38:36.200.28-May-2021 3306.00 5847.26 82.22 13.00  45.20 2504.05
   07:38:36.400.28-May-2021 3306.00 5846.98 82.22 13.00  45.40 2504.05
   07:38:36.600.28-May-2021 3306.00 5846.97 82.21 13.00  45.60 2504.05
   07:38:36.800.28-May-2021 3306.00 5846.96 82.21 13.00  45.80 2504.05
   07:38:37.000.28-May-2021 3306.00 5846.94 82.21 13.00  46.00 2504.05
   07:38:37.200.28-May-2021 3306.00 5846.94 82.21 13.00  46.20 2504.05
   07:38:37.400.28-May-2021 3306.00 5852.66 82.21 13.00  46.40 2504.05
   07:38:37.600.28-May-2021 3306.00 5845.26 82.21 13.00  46.60 2504.05
   07:38:37.800.28-May-2021 3306.00 5847.91 82.21 13.00  46.80 2504.05
   07:38:38.000.28-May-2021 3306.00 5847.20 82.21 13.00  47.00 2504.05
   07:38:38.200.28-May-2021 3306.00 5847.20 82.21 13.00  47.20 2504.05
   07:38:38.400.28-May-2021 3306.00 5847.49 82.21 13.00  47.40 2504.05
   07:38:38.600.28-May-2021 3306.00 5847.75 82.21 13.00  47.60 2504.05
   07:38:38.800.28-May-2021 3306.00 5847.62 82.21 13.00  47.80 2504.05
   07:38:39.000.28-May-2021 3306.00 5847.78 82.21 13.00  48.00 2504.05
   07:38:39.200.28-May-2021 3306.00 5847.78 82.21 13.00  48.20 2504.05
   07:38:39.400.28-May-2021 3306.00 5847.57 82.21 13.00  48.40 2504.05
   07:38:39.600.28-May-2021 3306.00 5847.48 82.21 13.00  48.60 2504.05
   07:38:39.800.28-May-2021 3306.00 5847.52 82.21 13.00  48.80 2504.05
   07:38:40.000.28-May-2021 3306.00 5847.67 82.21 13.00  49.00 2504.05
   07:38:40.200.28-May-2021 3306.00 5847.67 82.21 13.00  49.20 2504.05
   07:38:40.400.28-May-2021 3306.00 5847.64 82.21 13.00  49.40 2504.05
   07:38:40.600.28-May-2021 3306.00 5847.89 82.21 13.00  49.60 2504.05
   07:38:40.800.28-May-2021 3306.00 5847.68 82.21 13.00  49.80 2504.05
   07:38:41.000.28-May-2021 3306.00 5853.82 82.21 13.00  50.00 2504.05
   07:38:41.200.28-May-2021 3306.00 5853.82 82.21 13.00  50.20 2504.05
   07:38:41.400.28-May-2021 3306.00 5847.10 82.21 13.00  50.40 2504.05
   07:38:41.600.28-May-2021 3306.00 5843.71 82.21 13.00  50.60 2504.05
   07:38:41.800.28-May-2021 3306.00 5722.02 82.21 13.00  50.80 2504.05
   07:38:42.000.28-May-2021 3306.00 5520.93 82.21 13.00  51.00 2504.05
   07:38:42.200.28-May-2021 3306.00 5520.93 82.21 13.00  51.20 2504.05
   07:38:42.400.28-May-2021 3306.00 5011.39 82.20 13.00  51.40 2504.05
   07:38:42.600.28-May-2021 3306.00 5372.11 82.20 13.00  51.60 2504.05
   07:38:42.800.28-May-2021 3306.00 5534.66 82.20 13.00  51.80 2504.05
   07:38:43.000.28-May-2021 3306.00 5391.84 82.20 13.00  52.00 2504.05
   07:38:43.200.28-May-2021 3306.00 5391.84 82.20 13.00  52.20 2504.05
   07:38:43.400.28-May-2021 3306.00 5577.87 82.20 13.00  52.40 2504.05
   07:38:43.600.28-May-2021 3306.00 5507.73 82.20 13.00  52.60 2504.05
   07:38:43.800.28-May-2021 3306.00 5312.16 82.20 13.00  52.80 2504.05
   07:38:44.000.28-May-2021 3306.00 4926.29 82.20 13.00  53.00 2504.05
   07:38:44.200.28-May-2021 3306.00 4926.29 82.20 13.00  53.20 2504.05
   07:38:44.400.28-May-2021 3306.00 5582.68 82.20 13.00  53.40 2504.05
   07:38:44.600.28-May-2021 3306.00 5081.27 82.20 13.00  53.60 2504.05
   07:38:44.800.28-May-2021 3306.00 5014.94 82.20 13.00  53.80 2504.05
   07:38:45.000.28-May-2021 3306.00 5093.28 82.20 13.00  54.00 2504.05
   07:38:45.200.28-May-2021 3306.00 5093.28 82.20 13.00  54.20 2504.05
   07:38:45.400.28-May-2021 3306.00 4896.16 82.19 13.00  54.40 2504.05
   07:38:45.600.28-May-2021 3306.00 5294.24 82.19 13.00  54.60 2504.05
   07:38:45.800.28-May-2021 3306.00 4557.09 82.19 13.00  54.80 2504.05
   07:38:46.000.28-May-2021 3306.00 5336.78 82.19 13.00  55.00 2504.05
   07:38:46.200.28-May-2021 3306.00 5336.78 82.19 13.00  55.20 2504.05
   07:38:46.400.28-May-2021 3306.00 4991.49 82.19 13.00  55.40 2504.05
   07:38:46.600.28-May-2021 3306.00 5218.96 82.19 13.00  55.60 2504.05
   07:38:46.800.28-May-2021 3306.00 5188.50 82.19 13.00  55.80 2504.05
   07:38:47.000.28-May-2021 3306.00 4534.98 82.19 13.00  56.00 2504.05
   07:38:47.200.28-May-2021 3306.00 4534.98 82.19 13.00  56.20 2504.05
   07:38:47.400.28-May-2021 3306.00 5518.99 82.19 13.00  56.40 2504.05
   07:38:47.600.28-May-2021 3306.00 4923.39 82.19 13.00  56.60 2504.05
   07:38:47.800.28-May-2021 3306.00 4773.99 82.18 13.00  56.80 2504.05
   07:38:48.000.28-May-2021 3306.00 5000.74 82.18 13.00  57.00 2504.05
   07:38:48.200.28-May-2021 3306.00 5000.74 82.18 13.00  57.20 2504.05
   07:38:48.400.28-May-2021 3306.00 5491.36 82.18 13.00  57.40 2504.05
   07:38:48.600.28-May-2021 3306.00 5390.04 82.18 13.00  57.60 2504.05
   07:38:48.800.28-May-2021 3306.00 4852.24 82.18 13.00  57.80 2504.05
   07:38:49.000.28-May-2021 3306.00 4629.43 82.18 13.00  58.00 2504.05
   07:38:49.200.28-May-2021 3306.00 4629.43 82.18 13.00  58.20 2504.05
   07:38:49.400.28-May-2021 3306.00 5444.11 82.18 13.00  58.40 2504.05
   07:38:49.600.28-May-2021 3306.00 5490.28 82.18 13.00  58.60 2504.05
   07:38:49.800.28-May-2021 3306.00 5413.47 82.18 13.00  58.80 2504.05
   07:38:50.000.28-May-2021 3306.00 5413.27 82.18 13.00  59.00 2504.05
   07:38:50.200.28-May-2021 3306.00 5413.27 82.18 13.00  59.20 2504.05
   07:38:50.400.28-May-2021 3306.00 4419.87 82.18 13.00  59.40 2504.05
   07:38:50.600.28-May-2021 3306.00 5492.37 82.18 13.00  59.60 2504.05
   07:38:50.800.28-May-2021 3306.00 5400.46 82.17 13.00  59.80 2504.05
   07:38:51.000.28-May-2021 3306.00 5594.83 82.17 13.00  60.00 2504.05
   07:38:51.200.28-May-2021 3306.00 5594.83 82.17 13.00  60.20 2504.05
   07:38:51.400.28-May-2021 3306.00 5432.59 82.17 13.00  60.40 2504.05
   07:38:51.600.28-May-2021 3306.00 5432.65 82.17 13.00  60.60 2504.05
   07:38:51.800.28-May-2021 3306.00 5432.71 82.17 13.00  60.80 2504.05
   07:38:52.000.28-May-2021 3306.00 5432.56 82.17 13.00  61.00 2504.05
   07:38:52.200.28-May-2021 3306.00 5432.56 82.17 13.00  61.20 2504.05
   07:38:52.400.28-May-2021 3306.00 5432.39 82.17 13.00  61.40 2504.05
   07:38:52.600.28-May-2021 3306.00 5432.31 82.17 13.00  61.60 2504.05
   07:38:52.800.28-May-2021 3306.00 5432.27 82.17 13.00  61.80 2504.05
   07:38:53.000.28-May-2021 3306.00 5432.22 82.17 13.00  62.00 2504.05
   07:38:53.200.28-May-2021 3306.00 5432.22 82.17 13.00  62.20 2504.05
   07:38:53.400.28-May-2021 3306.00 5432.15 82.17 13.00  62.40 2504.05
   07:38:53.600.28-May-2021 3306.00 5431.10 82.17 13.00  62.60 2504.05
   07:38:53.800.28-May-2021 3306.00 5431.51 82.17 13.00  62.80 2504.05
   07:38:54.000.28-May-2021 3306.00 5432.74 82.17 13.00  63.00 2504.05
   07:38:54.200.28-May-2021 3306.00 5432.74 82.17 13.00  63.20 2504.05
   07:38:54.400.28-May-2021 3306.00 5432.82 82.17 13.00  63.40 2504.05
   07:38:54.600.28-May-2021 3306.00 5432.74 82.17 13.00  63.60 2504.05
   07:38:54.800.28-May-2021 3306.00 5432.78 82.17 13.00  63.80 2504.05
   07:38:55.000.28-May-2021 3306.00 5432.78 82.17 13.00  64.00 2504.05
   07:38:55.200.28-May-2021 3306.00 5432.78 82.17 13.00  64.20 2504.05
   07:38:55.400.28-May-2021 3306.00 5432.79 82.17 13.00  64.40 2504.05
   07:38:55.600.28-May-2021 3306.00 5432.85 82.17 13.00  64.60 2504.05
   07:38:55.800.28-May-2021 3306.00 5432.86 82.17 13.00  64.80 2504.05
   07:38:56.000.28-May-2021 3306.00 5432.88 82.17 13.00  65.00 2504.05
   07:38:56.200.28-May-2021 3306.00 5432.88 82.17 13.00  65.20 2504.05
   07:38:56.400.28-May-2021 3306.00 5430.54 82.17 13.00  65.40 2504.05
   07:38:56.600.28-May-2021 3306.00 5433.32 82.17 13.00  65.60 2504.05
   07:38:56.800.28-May-2021 3306.00 5433.18 82.17 13.00  65.80 2504.05
   07:38:57.000.28-May-2021 3306.00 5433.25 82.17 13.00  66.00 2504.05
   07:38:57.200.28-May-2021 3306.00 5433.25 82.17 13.00  66.20 2504.05
   07:38:57.400.28-May-2021 3306.00 5432.22 82.17 13.00  66.40 2504.05
   07:38:57.600.28-May-2021 3306.00 5433.32 82.17 13.00  66.60 2504.05
   07:38:57.800.28-May-2021 3306.00 5433.30 82.17 13.00  66.80 2504.05
   07:38:58.000.28-May-2021 3306.00 5433.57 82.17 13.00  67.00 2504.05
   07:38:58.200.28-May-2021 3306.00 5433.57 82.17 13.00  67.20 2504.05
   07:38:58.400.28-May-2021 3306.00 5432.42 82.17 13.00  67.40 2504.05
   07:38:58.600.28-May-2021 3306.00 5432.53 82.17 13.00  67.60 2504.05
