~Version Information
 VERS.                  2.0:   CWLS log ASCII Standard -VERSION 2.0
 WRAP.                   NO:   One line per depth step
~Well Information Block
#MNEM.UNIT     VALUE/NAME     DESCRIPTION
#---------     -----------    ---------------------------
 STRT.S             22:21:57 27-May-21: START TIME 22:21:57 27-May-21
 STOP.S             22:28:58 27-May-21: STOP TIME  22:28:58 27-May-21
 STEP.S                   0.00: STEP TIME
 NULL.                 -999.25: NULL VALUE
 UWI .                     N/A:  UNIQUE WELL IDENTIFIER
 API .                     N/A:  API NUMBER
 UNIT.                     N/A:  LOGGING EQUIPMENT ID
 DCON.         Sperry Drilling:  DIRECTNL CONTR
 DOE .                     N/A:  DOE NUMBER
 MWDS.                    Baku:  MWD SHOP
 SRVC.     Turan Drilling and Engineering:  CONTRACTOR
 CTRY.              Azerbaijan:  COUNTRY NAME
 PROV.                    Baku:  PROVINCE
 STAT.                    Baku:  STATE NAME
 REGN.                   EESSA:  REGION
 BASE.              Azerbaijan:  LOGGING EQUIPMENT BASE LOCATION
 WTYP.                Deviated:  WELL TYPE
 RIG .              East Azeri:  RIG NAME
 WELL.                    D02y:  WELL NAME
 FLD .                     ACG:  FIELD NAME
 COMP.     BP Exploration (Caspian Sea) Ltd.:  COMPANY
 PDAT.          Mean Sea Level:  PERMANENT DATUM
 MDS .        Operator Entered:  MAG DATA SOURCE
 SON .        AZ-XX-0906997291:  JOB NUMBER
 FTOP.          Formation Tops:  FORM TOPS DESC
 ILTD.               Lithology:  INTERP LTH DESC
 SVYD.                  Survey:  SURVEY DESC
 DMOD.             Drill Model:  DRILL MOD DESC
 HPTY.       Minimum Curvature:  HOLE POS TYPE
 NREF.                    Grid:  NORTH REFERENCE
 SPUD.               05-May-21:  SPUD DATE
 DATE.      09.27.28 12-Jun-21:  END TIME
 STIM.      09.27.28 12-May-21:  START TIME
 DMF .             Drill Floor:  DRILL MEAS FROM
 DFST.                        :  DIST FSL TEXT
 DFWT.                        :  DIST FWL TEXT
 CNTY.                        :  COUNTY
 LOC .                        :  LOCATION
 LMF .             Drill Floor:  LOG MEASURED FROM
 DEP .m                2806.40:  DEPTH
 AGAP.m                  43.60:  AIR GAP
 VSNS.m                  -4.42:  VERT SEC N/S
 VSEW.m                  -7.31:  VERT SEC E/W
 APD .m                  43.60:  DEPTH ABOVE PD
 WDMS.m                 151.80:  WD ELEV
 EGL .m                   0.00:  GROUND ELEVATION
 EPD .m                   0.00:  ELEVATION
 AZTC.deg                 6.18:  AZM TOTAL CORR
 GRDC.deg                 0.29:  GRID CORRECTION
 MDEC.deg                 6.47:  MAGNETIC DECL
 MDIP.deg                59.50:  MAGNETIC DIP
 MFLD.nT              50350.00:  MAGNETIC FIELD
 GVFD.g                   1.00:  GRAVITY FIELD
 VSDR.deg               179.08:  VERT SEC DIRECT
 TDD .m                4300.00:  TOTAL DEPTH (DRILLER)
 SDEP.m                2800.00:  START DEPTH
 DFSL.m                   0.00:  DISTANCE FSL
 DFWL.m                   0.00:  DISTANCE FWL
 UTMY.m             4431871.34:  UTM Y
 UTMX.m              538762.90:  UTM X
 WHEW.m                  -7.31:  WELL HEAD E/W
 WHNS.m                  -4.42:  WELL HEAD N/S
 LONG.deg                51.45:  LONGITUDE
 LATI.deg                40.02:  LATITUDE
 TVDS.m                  43.60:  TVDSS CORRECTN
 EKB .m                  43.60:  KB ELEVATION
 EDF .m                  43.60:  DF ELEVATION
 TDL .m                 806.00:  TOTAL DEPTH (LOGGER)
 MAGU.                 1851231:  MAGUTM CHECKSUM
 VSC .                       0:  VS TO CLOSURE
~Parameter Information Block
#MNEM.UNIT       Value        Description
#---------     -----------    ---------------------------
 AV  .mps                 1.60:  Ann Velocity 
 AVMX.mps                 2.00:  Max Ann Veloc 
 AZIF.deg               140.24:  Azm, Final 
 BHAT.        Rotary Steerable:  BHA Type 
 BROT.°/30m               0.50:  Build Rotating 
 BS  .in                  8.50:  Bit Size 
 BTPL.psig              619.00:  Bit Press Loss 
 CABU.                     Yes:  Customer Abuse 
 CGEO.          Ilgar Gurbanov:  Customer Geo 
 COMM.                     ¼ƒj:  Run Comments 1 
 TCS .hr                 85.88:  Time Ciculation Ended 
 CV  .mps                 3.30:  Crit Velocity 
 CVMX.mps                 3.50:  Max Crit Veloc 
 DD1 .           Hamid Axmedov:  Direct Drillr 1 
 DD2 .           Teymur Aliyev:  Direct Drillr 2 
 DDSV.               Geo-Pilot:  DD Service 
 DEFF.%                 100.00:  % Det Eff 
 DLRX.°/30m               0.00:  Dogleg Rot Max 
 DLSO.°/30m               1.80:  Dogleg Oriented 
 DLSX.°/30m               3.34:  Dogleg Str Max 
 DRET.      11.50.00 27-May-21:  Drill End Time 
 DRST.      21.13.00 24-May-21:  Drill Start Tim 
 DTIM.hr                 45.11:  Time Drilling 
 EDEP.m                4054.00:  End Depth 
 ENG1.         Almaz Almadatov:  Engineer 1 
 ENG2.           Amrah Tahirov:  Engineer 2 
 ENG3.      Bakhtiyar Jabbarli:  Engineer 3 
 ENG4.          Nazrin Asgarli:  Engineer 4 
 ETIM.      10.00.00 30-May-21:  End Time 
 FLOI.gpm               530.00:  Flow In 
 FLON.gpm               400.00:  Flow In Min 
 FLOS.cptm                0.00:  Fluid Loss 
 FLOX.gpm               560.00:  Flow In Max 
 DFT .        Mineral Oil Base:  Mud Type 
 FTRO.       Formation Presure:  FTWD Run Obj 
 HFLO.                      No:  High Flow 
 HPRE.                      No:  High Pressure 
 HTEM.                      No:  High Temp 
 HYDO.m                   1.80:  Hydro Offset 
 IFIN.deg                73.83:  Inc, Final 
 IMAX.deg                73.83:  Inc Max 
 IMIN.deg                57.86:  Inc Min 
 IMND.m                3259.27:  Inc Min Depth 
 IMXD.m                4045.58:  Inc Max Depth 
 JARR.                     Yes:  Jarring 
 LETM.      11.50.00 27-May-21:  Log End Time 
 LOST.hr                     0:  Lost Rig Time 
 LSTM.      21.13.00 24-May-21:  Log Start Time 
 MDCL.ppm             42500.00:  Mud Chlorides 
 MDES.     Inversion Oil/Synthetic:  Mud Desc 
 DFD .sg                  1.52:  Mud Density 
 MDMN.sg                  1.52:  Dens Mud Min 
 MDMX.sg                  1.52:  Dens Mud Max 
 MOIL.                      70:  Run Mud Oil % 
 MOWR.                   70:30:  Run Mud OWR 
 MSND.                     0.2:  Run Mud Sand % 
 MSOL.                      22:  Run Mud Solids% 
 DFV .spqt               77.00:  Mud Viscosity 
 MWOD.in                  6.75:  MWD Tool OD 
 MWSI.                      No:  Serv Intrp, MWD 
 OTIM.hr                151.01:  Time Operating 
 PCON.          Wear / Scratch:  Pad Condition 
 PMAX.psia            11296.93:  Press Op, Max 
 PV  .cP                 37.00:  Mud PV 
 RUN .                     500:  Run Number 
 ROPA.m/hr               25.00:  ROP Avg 
 ROPN.m/hr                9.00:  ROP Min 
 ROPX.m/hr               28.00:  ROP Max 
 RPMA.rpm               140.00:  RPM Surface Avg 
 RPMN.rpm                90.00:  RPM Surface Min 
 RPMX.rpm               140.00:  RPM Surface Max 
 RRUN.                    0500:  Rig Run Number 
 SAZI.deg               172.17:  Azm, Start 
 SDEP.m                3248.00:  Start Depth 
 SIDD.                      No:  Serv Intrp, DD 
 SINC.deg                57.86:  Inc, Start 
 SPPA.psig             5620.00:  SPP Avg 
 SPPN.psig             5190.00:  SPP Min 
 SPPX.psig             6050.00:  SPP Max 
 STIM.      16.00.00 23-May-21:  Start Time 
 SVCS.                 DD, MWD:  Services 
 SVER.                    9.20:  Sperry Version 
 TDAT.m                 806.00:  Tot Depth Attmp 
 TDDF.                      No:  Trip for DD 
 TDLG.m                 806.00:  Tot Depth Loggd 
 TFF .                      No:  Trip for Fail 
 TQAA.f-kp               12.00:  Torque Abs Avg 
 TQAN.f-kp                8.00:  Torque Abs Min 
 TQAX.f-kp               15.00:  Torque Abs Max 
 TRRT.°/30m               0.30:  Turn Rotating 
 MRT .                  EWR-M5:  Maximum Recorded Temperature 
 TTMX.degC               93.00:  Max Tool Temp 
 VS01.                90649155:  Virtual Str1 SN 
 VS02.                90642264:  Virtual Str2 SN 
 VS03.                90642266:  Virtual Str3 SN 
 VS04.                90642261:  Virtual Str4 SN 
 WBMN.klb                 0.00:  WOB Min 
 WITN.             Anar Khalil:  Customer Rep 
 WITN.           Murad Guliyev:  Customer Rep 2 
 WOBA.klb                13.00:  WOB Avg 
 WOBX.klb                25.00:  WOB Max 
 YP  .lhf2               32.00:  Yield Point 
~Curve Information Block
#MNEM.UNIT                 API CODE     Curve Description
#---------               -----------    ---------------------------
 TIME.HHMMSS            00 000 000 000:  GT Time & Date
 GTDEPTH.m              00 000 000 000:  GT Depth
 GTPQH.psia             00 000 000 000:  GT HR Quartz Pressure
 GTTQ.degC              00 000 000 000:  GT Quartz Temperature
 GTTN.NONE              00 000 000 000:  GT Test Number
 GTET.sec               00 000 000 000:  GT Elapsed Test Time
 GTTVD.m                00 000 000 000:  GT True Vertical Depth
#Other Information
#
#WARRANTY: Halliburton will use its best efforts to furnish customers with 
#accurate information and interpretations that are part of, and incident to, the services 
#provided.  However, Halliburton cannot and does not warrant the accuracy 
#or correctness of such information and interpretations.  Under no circumstances should any 
#such information or interpretation be relied upon as the sole basis for any drilling, 
#completion, production, or financial decision or any procedure involving any risk to the 
#safety of any drilling venture, drilling rig or its crew or any other third party.  The 
#Customer has full responsibility for all drilling, completion and production operation.  
#Halliburton makes no representations or warranties, either expressed or 
#implied, including, but not limited to, the implied warranties of merchantability or fitness 
#for a particular purpose, with respect to the services rendered.  In no event will 
#Halliburton be liable for failure to obtain any particular results or for 
#any damages, including, but not limited to, indirect, special or consequential damages, 
#resulting from the use of any information or interpretation provided by Halliburton.
#
~A           TIME           GTDEPTH  GTPQH  GTTQ  GTTN  GTET   GTTVD  
# ...
   22:22:43.712.27-May-2021 3723.00 3058.03 84.36 1.00  46.01 2680.40
   22:22:43.912.27-May-2021 3723.00 3058.03 84.36 1.00  46.21 2680.40
   22:22:44.112.27-May-2021 3723.00 3062.23 84.36 1.00  46.41 2680.40
   22:22:44.312.27-May-2021 3723.00 3067.91 84.35 1.00  46.61 2680.40
   22:22:44.512.27-May-2021 3723.00 3071.80 84.35 1.00  46.81 2680.40
   22:22:44.712.27-May-2021 3723.00 3064.62 84.35 1.00  47.01 2680.40
   22:22:44.912.27-May-2021 3723.00 3064.62 84.35 1.00  47.21 2680.40
   22:22:45.112.27-May-2021 3723.00 3072.07 84.34 1.00  47.41 2680.40
   22:22:45.312.27-May-2021 3723.00 3076.40 84.34 1.00  47.61 2680.40
   22:22:45.512.27-May-2021 3723.00 3072.34 84.34 1.00  47.81 2680.40
   22:22:45.712.27-May-2021 3723.00 3062.36 84.34 1.00  48.01 2680.40
   22:22:45.912.27-May-2021 3723.00 3062.36 84.34 1.00  48.21 2680.40
   22:22:46.112.27-May-2021 3723.00 3058.17 84.33 1.00  48.41 2680.40
   22:22:46.313.27-May-2021 3723.00 3056.30 84.33 1.00  48.61 2680.40
   22:22:46.513.27-May-2021 3723.00 3058.35 84.33 1.00  48.81 2680.40
   22:22:46.713.27-May-2021 3723.00 3057.89 84.32 1.00  49.01 2680.40
   22:22:46.913.27-May-2021 3723.00 3057.89 84.32 1.00  49.21 2680.40
   22:22:47.113.27-May-2021 3723.00 3060.86 84.32 1.00  49.41 2680.40
   22:22:47.313.27-May-2021 3723.00 3072.00 84.32 1.00  49.61 2680.40
   22:22:47.513.27-May-2021 3723.00 3069.69 84.31 1.00  49.81 2680.40
   22:22:47.713.27-May-2021 3723.00 3064.07 84.31 1.00  50.01 2680.40
   22:22:47.913.27-May-2021 3723.00 3064.07 84.31 1.00  50.21 2680.40
   22:22:48.113.27-May-2021 3723.00 3060.89 84.31 1.00  50.41 2680.40
   22:22:48.313.27-May-2021 3723.00 3063.38 84.31 1.00  50.61 2680.40
   22:22:48.513.27-May-2021 3723.00 3057.49 84.31 1.00  50.81 2680.40
   22:22:48.713.27-May-2021 3723.00 3055.95 84.30 1.00  51.01 2680.40
   22:22:48.913.27-May-2021 3723.00 3055.95 84.30 1.00  51.21 2680.40
   22:22:49.113.27-May-2021 3723.00 3052.09 84.30 1.00  51.41 2680.40
   22:22:49.313.27-May-2021 3723.00 3049.12 84.30 1.00  51.61 2680.40
   22:22:49.513.27-May-2021 3723.00 3047.05 84.30 1.00  51.81 2680.40
   22:22:49.713.27-May-2021 3723.00 3045.15 84.30 1.00  52.01 2680.40
   22:22:49.913.27-May-2021 3723.00 3045.15 84.30 1.00  52.21 2680.40
   22:22:50.113.27-May-2021 3723.00 3047.17 84.29 1.00  52.41 2680.40
   22:22:50.313.27-May-2021 3723.00 3047.52 84.29 1.00  52.61 2680.40
   22:22:50.513.27-May-2021 3723.00 3046.19 84.29 1.00  52.81 2680.40
   22:22:50.713.27-May-2021 3723.00 3045.45 84.29 1.00  53.01 2680.40
   22:22:50.913.27-May-2021 3723.00 3045.45 84.29 1.00  53.21 2680.40
   22:22:51.113.27-May-2021 3723.00 3110.39 84.29 1.00  53.41 2680.40
   22:22:51.313.27-May-2021 3723.00 3139.56 84.29 1.00  53.61 2680.40
   22:22:51.513.27-May-2021 3723.00 3140.05 84.29 1.00  53.81 2680.40
   22:22:51.713.27-May-2021 3723.00 3140.01 84.29 1.00  54.01 2680.40
   22:22:51.913.27-May-2021 3723.00 3140.01 84.29 1.00  54.21 2680.40
   22:22:52.113.27-May-2021 3723.00 3140.17 84.28 1.00  54.41 2680.40
   22:22:52.313.27-May-2021 3723.00 3140.24 84.28 1.00  54.61 2680.40
   22:22:52.514.27-May-2021 3723.00 3140.30 84.28 1.00  54.81 2680.40
   22:22:52.714.27-May-2021 3723.00 3140.35 84.28 1.00  55.01 2680.40
   22:22:52.914.27-May-2021 3723.00 3140.35 84.28 1.00  55.21 2680.40
   22:22:53.114.27-May-2021 3723.00 3140.44 84.28 1.00  55.41 2680.40
   22:22:53.314.27-May-2021 3723.00 3140.48 84.28 1.00  55.61 2680.40
   22:22:53.514.27-May-2021 3723.00 3140.50 84.28 1.00  55.81 2680.40
   22:22:53.714.27-May-2021 3723.00 3140.53 84.28 1.00  56.01 2680.40
   22:22:53.914.27-May-2021 3723.00 3140.53 84.28 1.00  56.21 2680.40
   22:22:54.114.27-May-2021 3723.00 3140.59 84.28 1.00  56.41 2680.40
   22:22:54.314.27-May-2021 3723.00 3140.54 84.28 1.00  56.61 2680.40
   22:22:54.514.27-May-2021 3723.00 3140.60 84.28 1.00  56.81 2680.40
   22:22:54.714.27-May-2021 3723.00 3140.61 84.28 1.00  57.01 2680.40
   22:22:54.914.27-May-2021 3723.00 3140.61 84.28 1.00  57.21 2680.40
   22:22:55.114.27-May-2021 3723.00 3140.63 84.28 1.00  57.41 2680.40
   22:22:55.314.27-May-2021 3723.00 3140.57 84.28 1.00  57.61 2680.40
   22:22:55.514.27-May-2021 3723.00 3140.64 84.28 1.00  57.81 2680.40
   22:22:55.714.27-May-2021 3723.00 3140.66 84.28 1.00  58.01 2680.40
   22:22:55.914.27-May-2021 3723.00 3140.66 84.28 1.00  58.21 2680.40
   22:22:56.114.27-May-2021 3723.00 3140.60 84.28 1.00  58.41 2680.40
   22:22:56.314.27-May-2021 3723.00 3140.74 84.28 1.00  58.61 2680.40
   22:22:56.514.27-May-2021 3723.00 3140.67 84.28 1.00  58.81 2680.40
   22:22:56.714.27-May-2021 3723.00 3140.72 84.28 1.00  59.01 2680.40
   22:22:56.914.27-May-2021 3723.00 3140.72 84.28 1.00  59.21 2680.40
   22:22:57.114.27-May-2021 3723.00 3140.76 84.28 1.00  59.41 2680.40
   22:22:57.314.27-May-2021 3723.00 3140.70 84.28 1.00  59.61 2680.40
   22:22:57.514.27-May-2021 3723.00 3140.71 84.28 1.00  59.81 2680.40
   22:22:57.714.27-May-2021 3723.00 3140.74 84.28 1.00  60.01 2680.40
   22:22:57.914.27-May-2021 3723.00 3140.74 84.28 1.00  60.21 2680.40
   22:22:58.114.27-May-2021 3723.00 3140.80 84.28 1.00  60.41 2680.40
   22:22:58.314.27-May-2021 3723.00 3140.81 84.28 1.00  60.61 2680.40
   22:22:58.514.27-May-2021 3723.00 3140.82 84.28 1.00  60.81 2680.40
   22:22:58.715.27-May-2021 3723.00 3140.83 84.28 1.00  61.01 2680.40
   22:22:58.915.27-May-2021 3723.00 3140.83 84.28 1.00  61.21 2680.40
   22:22:59.115.27-May-2021 3723.00 3140.86 84.28 1.00  61.41 2680.40
   22:22:59.315.27-May-2021 3723.00 3140.87 84.28 1.00  61.61 2680.40
   22:22:59.515.27-May-2021 3723.00 3140.89 84.28 1.00  61.81 2680.40
   22:22:59.715.27-May-2021 3723.00 3140.89 84.28 1.00  62.01 2680.40
   22:22:59.915.27-May-2021 3723.00 3140.89 84.28 1.00  62.21 2680.40
   22:23:00.115.27-May-2021 3723.00 3140.82 84.28 1.00  62.41 2680.40
   22:23:00.315.27-May-2021 3723.00 3140.85 84.28 1.00  62.61 2680.40
   22:23:00.515.27-May-2021 3723.00 3140.89 84.28 1.00  62.81 2680.40
   22:23:00.715.27-May-2021 3723.00 3140.91 84.28 1.00  63.01 2680.40
   22:23:00.915.27-May-2021 3723.00 3140.91 84.28 1.00  63.21 2680.40
   22:23:01.115.27-May-2021 3723.00 3140.94 84.28 1.00  63.41 2680.40
   22:23:01.315.27-May-2021 3723.00 3140.95 84.28 1.00  63.61 2680.40
   22:23:01.515.27-May-2021 3723.00 3140.96 84.28 1.00  63.81 2680.40
   22:23:01.715.27-May-2021 3723.00 3140.97 84.28 1.00  64.01 2680.40
   22:23:01.915.27-May-2021 3723.00 3140.97 84.28 1.00  64.21 2680.40
   22:23:02.115.27-May-2021 3723.00 3141.00 84.28 1.00  64.41 2680.40
   22:23:02.315.27-May-2021 3723.00 3141.00 84.28 1.00  64.61 2680.40
   22:23:02.515.27-May-2021 3723.00 3140.92 84.28 1.00  64.81 2680.40
   22:23:02.715.27-May-2021 3723.00 3140.92 84.28 1.00  65.01 2680.40
   22:23:02.915.27-May-2021 3723.00 3140.92 84.28 1.00  65.21 2680.40
   22:23:03.115.27-May-2021 3723.00 3140.93 84.28 1.00  65.41 2680.40
   22:23:03.315.27-May-2021 3723.00 3140.94 84.28 1.00  65.61 2680.40
   22:23:03.515.27-May-2021 3723.00 3140.96 84.28 1.00  65.81 2680.40
   22:23:03.715.27-May-2021 3723.00 3140.99 84.28 1.00  66.01 2680.40
   22:23:03.915.27-May-2021 3723.00 3140.99 84.28 1.00  66.21 2680.40
   22:23:04.115.27-May-2021 3723.00 3140.97 84.28 1.00  66.41 2680.40
   22:23:04.315.27-May-2021 3723.00 3140.97 84.28 1.00  66.61 2680.40
   22:23:04.515.27-May-2021 3723.00 3141.00 84.28 1.00  66.81 2680.40
   22:23:04.715.27-May-2021 3723.00 3141.04 84.28 1.00  67.01 2680.40
   22:23:04.916.27-May-2021 3723.00 3141.04 84.28 1.00  67.21 2680.40
   22:23:05.116.27-May-2021 3723.00 3141.08 84.28 1.00  67.41 2680.40
   22:23:05.316.27-May-2021 3723.00 3141.01 84.28 1.00  67.61 2680.40
   22:23:05.516.27-May-2021 3723.00 3141.02 84.28 1.00  67.81 2680.40
   22:23:05.716.27-May-2021 3723.00 3141.04 84.28 1.00  68.01 2680.40
   22:23:05.916.27-May-2021 3723.00 3141.04 84.28 1.00  68.21 2680.40
   22:23:06.116.27-May-2021 3723.00 3141.09 84.28 1.00  68.41 2680.40
   22:23:06.316.27-May-2021 3723.00 3141.11 84.28 1.00  68.61 2680.40
   22:23:06.516.27-May-2021 3723.00 3141.11 84.28 1.00  68.81 2680.40
