~Version Information
 VERS.                  2.0:   CWLS log ASCII Standard -VERSION 2.0
 WRAP.                   NO:   One line per depth step
~Well Information Block
#MNEM.UNIT     VALUE/NAME     DESCRIPTION
#---------     -----------    ---------------------------
 STRT.S             06:06:39 28-May-21: START TIME 06:06:39 28-May-21
 STOP.S             06:13:42 28-May-21: STOP TIME  06:13:42 28-May-21
 STEP.S                   0.00: STEP TIME
 NULL.                 -999.25: NULL VALUE
 UWI .                     N/A:  UNIQUE WELL IDENTIFIER
 API .                     N/A:  API NUMBER
 UNIT.                     N/A:  LOGGING EQUIPMENT ID
 DCON.         Sperry Drilling:  DIRECTNL CONTR
 DOE .                     N/A:  DOE NUMBER
 MWDS.                    Baku:  MWD SHOP
 SRVC.     Turan Drilling and Engineering:  CONTRACTOR
 CTRY.              Azerbaijan:  COUNTRY NAME
 PROV.                    Baku:  PROVINCE
 STAT.                    Baku:  STATE NAME
 REGN.                   EESSA:  REGION
 BASE.              Azerbaijan:  LOGGING EQUIPMENT BASE LOCATION
 WTYP.                Deviated:  WELL TYPE
 RIG .              East Azeri:  RIG NAME
 WELL.                    D02y:  WELL NAME
 FLD .                     ACG:  FIELD NAME
 COMP.     BP Exploration (Caspian Sea) Ltd.:  COMPANY
 PDAT.          Mean Sea Level:  PERMANENT DATUM
 MDS .        Operator Entered:  MAG DATA SOURCE
 SON .        AZ-XX-0906997291:  JOB NUMBER
 FTOP.          Formation Tops:  FORM TOPS DESC
 ILTD.               Lithology:  INTERP LTH DESC
 SVYD.                  Survey:  SURVEY DESC
 DMOD.             Drill Model:  DRILL MOD DESC
 HPTY.       Minimum Curvature:  HOLE POS TYPE
 NREF.                    Grid:  NORTH REFERENCE
 SPUD.               05-May-21:  SPUD DATE
 DATE.      09.27.28 12-Jun-21:  END TIME
 STIM.      09.27.28 12-May-21:  START TIME
 DMF .             Drill Floor:  DRILL MEAS FROM
 DFST.                        :  DIST FSL TEXT
 DFWT.                        :  DIST FWL TEXT
 CNTY.                        :  COUNTY
 LOC .                        :  LOCATION
 LMF .             Drill Floor:  LOG MEASURED FROM
 DEP .m                2806.40:  DEPTH
 AGAP.m                  43.60:  AIR GAP
 VSNS.m                  -4.42:  VERT SEC N/S
 VSEW.m                  -7.31:  VERT SEC E/W
 APD .m                  43.60:  DEPTH ABOVE PD
 WDMS.m                 151.80:  WD ELEV
 EGL .m                   0.00:  GROUND ELEVATION
 EPD .m                   0.00:  ELEVATION
 AZTC.deg                 6.18:  AZM TOTAL CORR
 GRDC.deg                 0.29:  GRID CORRECTION
 MDEC.deg                 6.47:  MAGNETIC DECL
 MDIP.deg                59.50:  MAGNETIC DIP
 MFLD.nT              50350.00:  MAGNETIC FIELD
 GVFD.g                   1.00:  GRAVITY FIELD
 VSDR.deg               179.08:  VERT SEC DIRECT
 TDD .m                4300.00:  TOTAL DEPTH (DRILLER)
 SDEP.m                2800.00:  START DEPTH
 DFSL.m                   0.00:  DISTANCE FSL
 DFWL.m                   0.00:  DISTANCE FWL
 UTMY.m             4431871.34:  UTM Y
 UTMX.m              538762.90:  UTM X
 WHEW.m                  -7.31:  WELL HEAD E/W
 WHNS.m                  -4.42:  WELL HEAD N/S
 LONG.deg                51.45:  LONGITUDE
 LATI.deg                40.02:  LATITUDE
 TVDS.m                  43.60:  TVDSS CORRECTN
 EKB .m                  43.60:  KB ELEVATION
 EDF .m                  43.60:  DF ELEVATION
 TDL .m                 806.00:  TOTAL DEPTH (LOGGER)
 MAGU.                 1851231:  MAGUTM CHECKSUM
 VSC .                       0:  VS TO CLOSURE
~Parameter Information Block
#MNEM.UNIT       Value        Description
#---------     -----------    ---------------------------
 AV  .mps                 1.60:  Ann Velocity 
 AVMX.mps                 2.00:  Max Ann Veloc 
 AZIF.deg               140.24:  Azm, Final 
 BHAT.        Rotary Steerable:  BHA Type 
 BROT.°/30m               0.50:  Build Rotating 
 BS  .in                  8.50:  Bit Size 
 BTPL.psig              619.00:  Bit Press Loss 
 CABU.                     Yes:  Customer Abuse 
 CGEO.          Ilgar Gurbanov:  Customer Geo 
 COMM.                     ´.T:  Run Comments 1 
 TCS .hr                 85.88:  Time Ciculation Ended 
 CV  .mps                 3.30:  Crit Velocity 
 CVMX.mps                 3.50:  Max Crit Veloc 
 DD1 .           Hamid Axmedov:  Direct Drillr 1 
 DD2 .           Teymur Aliyev:  Direct Drillr 2 
 DDSV.               Geo-Pilot:  DD Service 
 DEFF.%                 100.00:  % Det Eff 
 DLRX.°/30m               0.00:  Dogleg Rot Max 
 DLSO.°/30m               1.80:  Dogleg Oriented 
 DLSX.°/30m               3.34:  Dogleg Str Max 
 DRET.      11.50.00 27-May-21:  Drill End Time 
 DRST.      21.13.00 24-May-21:  Drill Start Tim 
 DTIM.hr                 45.11:  Time Drilling 
 EDEP.m                4054.00:  End Depth 
 ENG1.         Almaz Almadatov:  Engineer 1 
 ENG2.           Amrah Tahirov:  Engineer 2 
 ENG3.      Bakhtiyar Jabbarli:  Engineer 3 
 ENG4.          Nazrin Asgarli:  Engineer 4 
 ETIM.      10.00.00 30-May-21:  End Time 
 FLOI.gpm               530.00:  Flow In 
 FLON.gpm               400.00:  Flow In Min 
 FLOS.cptm                0.00:  Fluid Loss 
 FLOX.gpm               560.00:  Flow In Max 
 DFT .        Mineral Oil Base:  Mud Type 
 FTRO.       Formation Presure:  FTWD Run Obj 
 HFLO.                      No:  High Flow 
 HPRE.                      No:  High Pressure 
 HTEM.                      No:  High Temp 
 HYDO.m                   1.80:  Hydro Offset 
 IFIN.deg                73.83:  Inc, Final 
 IMAX.deg                73.83:  Inc Max 
 IMIN.deg                57.86:  Inc Min 
 IMND.m                3259.27:  Inc Min Depth 
 IMXD.m                4045.58:  Inc Max Depth 
 JARR.                     Yes:  Jarring 
 LETM.      11.50.00 27-May-21:  Log End Time 
 LOST.hr                     0:  Lost Rig Time 
 LSTM.      21.13.00 24-May-21:  Log Start Time 
 MDCL.ppm             42500.00:  Mud Chlorides 
 MDES.     Inversion Oil/Synthetic:  Mud Desc 
 DFD .sg                  1.52:  Mud Density 
 MDMN.sg                  1.52:  Dens Mud Min 
 MDMX.sg                  1.52:  Dens Mud Max 
 MOIL.                      70:  Run Mud Oil % 
 MOWR.                   70:30:  Run Mud OWR 
 MSND.                     0.2:  Run Mud Sand % 
 MSOL.                      22:  Run Mud Solids% 
 DFV .spqt               77.00:  Mud Viscosity 
 MWOD.in                  6.75:  MWD Tool OD 
 MWSI.                      No:  Serv Intrp, MWD 
 OTIM.hr                151.01:  Time Operating 
 PCON.          Wear / Scratch:  Pad Condition 
 PMAX.psia            11296.93:  Press Op, Max 
 PV  .cP                 37.00:  Mud PV 
 RUN .                     500:  Run Number 
 ROPA.m/hr               25.00:  ROP Avg 
 ROPN.m/hr                9.00:  ROP Min 
 ROPX.m/hr               28.00:  ROP Max 
 RPMA.rpm               140.00:  RPM Surface Avg 
 RPMN.rpm                90.00:  RPM Surface Min 
 RPMX.rpm               140.00:  RPM Surface Max 
 RRUN.                    0500:  Rig Run Number 
 SAZI.deg               172.17:  Azm, Start 
 SDEP.m                3248.00:  Start Depth 
 SIDD.                      No:  Serv Intrp, DD 
 SINC.deg                57.86:  Inc, Start 
 SPPA.psig             5620.00:  SPP Avg 
 SPPN.psig             5190.00:  SPP Min 
 SPPX.psig             6050.00:  SPP Max 
 STIM.      16.00.00 23-May-21:  Start Time 
 SVCS.                 DD, MWD:  Services 
 SVER.                    9.20:  Sperry Version 
 TDAT.m                 806.00:  Tot Depth Attmp 
 TDDF.                      No:  Trip for DD 
 TDLG.m                 806.00:  Tot Depth Loggd 
 TFF .                      No:  Trip for Fail 
 TQAA.f-kp               12.00:  Torque Abs Avg 
 TQAN.f-kp                8.00:  Torque Abs Min 
 TQAX.f-kp               15.00:  Torque Abs Max 
 TRRT.°/30m               0.30:  Turn Rotating 
 MRT .                  EWR-M5:  Maximum Recorded Temperature 
 TTMX.degC               93.00:  Max Tool Temp 
 VS01.                90649155:  Virtual Str1 SN 
 VS02.                90642264:  Virtual Str2 SN 
 VS03.                90642266:  Virtual Str3 SN 
 VS04.                90642261:  Virtual Str4 SN 
 WBMN.klb                 0.00:  WOB Min 
 WITN.             Anar Khalil:  Customer Rep 
 WITN.           Murad Guliyev:  Customer Rep 2 
 WOBA.klb                13.00:  WOB Avg 
 WOBX.klb                25.00:  WOB Max 
 YP  .lhf2               32.00:  Yield Point 
~Curve Information Block
#MNEM.UNIT                 API CODE     Curve Description
#---------               -----------    ---------------------------
 TIME.HHMMSS            00 000 000 000:  GT Time & Date
 GTDEPTH.m              00 000 000 000:  GT Depth
 GTPQH.psia             00 000 000 000:  GT HR Quartz Pressure
 GTTQ.degC              00 000 000 000:  GT Quartz Temperature
 GTTN.NONE              00 000 000 000:  GT Test Number
 GTET.sec               00 000 000 000:  GT Elapsed Test Time
 GTTVD.m                00 000 000 000:  GT True Vertical Depth
#Other Information
#
#WARRANTY: Halliburton will use its best efforts to furnish customers with 
#accurate information and interpretations that are part of, and incident to, the services 
#provided.  However, Halliburton cannot and does not warrant the accuracy 
#or correctness of such information and interpretations.  Under no circumstances should any 
#such information or interpretation be relied upon as the sole basis for any drilling, 
#completion, production, or financial decision or any procedure involving any risk to the 
#safety of any drilling venture, drilling rig or its crew or any other third party.  The 
#Customer has full responsibility for all drilling, completion and production operation.  
#Halliburton makes no representations or warranties, either expressed or 
#implied, including, but not limited to, the implied warranties of merchantability or fitness 
#for a particular purpose, with respect to the services rendered.  In no event will 
#Halliburton be liable for failure to obtain any particular results or for 
#any damages, including, but not limited to, indirect, special or consequential damages, 
#resulting from the use of any information or interpretation provided by Halliburton.
#
~A           TIME           GTDEPTH  GTPQH  GTTQ  GTTN   GTET   GTTVD  
# ...
   06:08:09.668.28-May-2021 3440.00 4242.61 83.22 12.00  90.44 2569.12
   06:08:09.868.28-May-2021 3440.00 4242.66 83.22 12.00  90.64 2569.12
   06:08:10.068.28-May-2021 3440.00 4242.61 83.23 12.00  90.84 2569.12
   06:08:10.268.28-May-2021 3440.00 4242.63 83.22 12.00  91.04 2569.12
   06:08:10.468.28-May-2021 3440.00 4242.63 83.22 12.00  91.24 2569.12
   06:08:10.668.28-May-2021 3440.00 4242.66 83.23 12.00  91.44 2569.12
   06:08:10.868.28-May-2021 3440.00 4242.69 83.23 12.00  91.64 2569.12
   06:08:11.068.28-May-2021 3440.00 4242.68 83.23 12.00  91.84 2569.12
   06:08:11.268.28-May-2021 3440.00 4242.69 83.23 12.00  92.04 2569.12
   06:08:11.469.28-May-2021 3440.00 4242.69 83.23 12.00  92.24 2569.12
   06:08:11.669.28-May-2021 3440.00 4242.70 83.23 12.00  92.44 2569.12
   06:08:11.869.28-May-2021 3440.00 4242.39 83.23 12.00  92.64 2569.12
   06:08:12.069.28-May-2021 3440.00 4243.02 83.23 12.00  92.84 2569.12
   06:08:12.269.28-May-2021 3440.00 4242.62 83.23 12.00  93.04 2569.12
   06:08:12.469.28-May-2021 3440.00 4242.62 83.23 12.00  93.24 2569.12
   06:08:12.669.28-May-2021 3440.00 4242.66 83.23 12.00  93.44 2569.12
   06:08:12.869.28-May-2021 3440.00 4242.33 83.23 12.00  93.64 2569.12
   06:08:13.069.28-May-2021 3440.00 4243.00 83.23 12.00  93.84 2569.12
   06:08:13.269.28-May-2021 3440.00 4242.63 83.23 12.00  94.04 2569.12
   06:08:13.469.28-May-2021 3440.00 4242.63 83.23 12.00  94.24 2569.12
   06:08:13.669.28-May-2021 3440.00 4242.37 83.23 12.00  94.44 2569.12
   06:08:13.870.28-May-2021 3440.00 4242.92 83.23 12.00  94.64 2569.12
   06:08:14.070.28-May-2021 3440.00 4242.63 83.23 12.00  94.84 2569.12
   06:08:14.270.28-May-2021 3440.00 4242.65 83.23 12.00  95.04 2569.12
   06:08:14.470.28-May-2021 3440.00 4242.65 83.23 12.00  95.24 2569.12
   06:08:14.670.28-May-2021 3440.00 4242.91 83.23 12.00  95.44 2569.12
   06:08:14.870.28-May-2021 3440.00 4242.62 83.23 12.00  95.64 2569.12
   06:08:15.070.28-May-2021 3440.00 4242.69 83.23 12.00  95.84 2569.12
   06:08:15.270.28-May-2021 3440.00 4242.63 83.23 12.00  96.04 2569.12
   06:08:15.470.28-May-2021 3440.00 4242.63 83.23 12.00  96.24 2569.12
   06:08:15.670.28-May-2021 3440.00 4242.67 83.23 12.00  96.44 2569.12
   06:08:15.870.28-May-2021 3440.00 4242.67 83.23 12.00  96.64 2569.12
   06:08:16.070.28-May-2021 3440.00 4242.68 83.23 12.00  96.84 2569.12
   06:08:16.271.28-May-2021 3440.00 4242.69 83.23 12.00  97.04 2569.12
   06:08:16.471.28-May-2021 3440.00 4242.69 83.23 12.00  97.24 2569.12
   06:08:16.671.28-May-2021 3440.00 4242.70 83.23 12.00  97.44 2569.12
   06:08:16.871.28-May-2021 3440.00 4242.70 83.23 12.00  97.64 2569.12
   06:08:17.071.28-May-2021 3440.00 4242.77 83.23 12.00  97.84 2569.12
   06:08:17.271.28-May-2021 3440.00 4242.60 83.23 12.00  98.04 2569.12
   06:08:17.471.28-May-2021 3440.00 4242.60 83.23 12.00  98.24 2569.12
   06:08:17.671.28-May-2021 3440.00 4242.67 83.23 12.00  98.44 2569.12
   06:08:17.871.28-May-2021 3440.00 4242.68 83.23 12.00  98.64 2569.12
   06:08:18.071.28-May-2021 3440.00 4242.69 83.23 12.00  98.84 2569.12
   06:08:18.271.28-May-2021 3440.00 4242.68 83.23 12.00  99.04 2569.12
   06:08:18.472.28-May-2021 3440.00 4242.68 83.23 12.00  99.24 2569.12
   06:08:18.672.28-May-2021 3440.00 4242.71 83.23 12.00  99.44 2569.12
   06:08:18.872.28-May-2021 3440.00 4242.71 83.23 12.00  99.64 2569.12
   06:08:19.072.28-May-2021 3440.00 4242.73 83.23 12.00  99.84 2569.12
   06:08:19.272.28-May-2021 3440.00 4242.73 83.23 12.00 100.04 2569.12
   06:08:19.472.28-May-2021 3440.00 4242.73 83.23 12.00 100.24 2569.12
   06:08:19.672.28-May-2021 3440.00 4242.46 83.23 12.00 100.44 2569.12
   06:08:19.872.28-May-2021 3440.00 4242.98 83.23 12.00 100.64 2569.12
   06:08:20.072.28-May-2021 3440.00 4242.66 83.23 12.00 100.84 2569.12
   06:08:20.272.28-May-2021 3440.00 4242.71 83.23 12.00 101.04 2569.12
   06:08:20.472.28-May-2021 3440.00 4242.71 83.23 12.00 101.24 2569.12
   06:08:20.672.28-May-2021 3440.00 4242.77 83.23 12.00 101.44 2569.12
   06:08:20.873.28-May-2021 3440.00 4242.61 83.23 12.00 101.64 2569.12
   06:08:21.073.28-May-2021 3440.00 4242.67 83.23 12.00 101.84 2569.12
   06:08:21.273.28-May-2021 3440.00 4242.68 83.23 12.00 102.04 2569.12
   06:08:21.473.28-May-2021 3440.00 4242.68 83.23 12.00 102.24 2569.12
   06:08:21.673.28-May-2021 3440.00 4242.59 83.23 12.00 102.44 2569.12
   06:08:21.873.28-May-2021 3440.00 4242.63 83.23 12.00 102.64 2569.12
   06:08:22.073.28-May-2021 3440.00 4242.68 83.23 12.00 102.84 2569.12
   06:08:22.273.28-May-2021 3440.00 4242.79 83.23 12.00 103.04 2569.12
   06:08:22.473.28-May-2021 3440.00 4242.79 83.23 12.00 103.24 2569.12
   06:08:22.673.28-May-2021 3440.00 4242.63 83.23 12.00 103.44 2569.12
   06:08:22.873.28-May-2021 3440.00 4242.70 83.23 12.00 103.64 2569.12
   06:08:23.073.28-May-2021 3440.00 4242.67 83.23 12.00 103.84 2569.12
   06:08:23.274.28-May-2021 3440.00 4242.70 83.23 12.00 104.04 2569.12
   06:08:23.474.28-May-2021 3440.00 4242.70 83.23 12.00 104.24 2569.12
   06:08:23.674.28-May-2021 3440.00 4242.70 83.23 12.00 104.44 2569.12
   06:08:23.874.28-May-2021 3440.00 4242.72 83.23 12.00 104.64 2569.12
   06:08:24.074.28-May-2021 3440.00 4242.72 83.23 12.00 104.84 2569.12
   06:08:24.274.28-May-2021 3440.00 4242.72 83.23 12.00 105.04 2569.12
   06:08:24.474.28-May-2021 3440.00 4242.72 83.23 12.00 105.24 2569.12
   06:08:24.674.28-May-2021 3440.00 4242.40 83.23 12.00 105.44 2569.12
   06:08:24.874.28-May-2021 3440.00 4243.05 83.23 12.00 105.64 2569.12
   06:08:25.074.28-May-2021 3440.00 4242.67 83.23 12.00 105.84 2569.12
   06:08:25.274.28-May-2021 3440.00 4242.70 83.23 12.00 106.04 2569.12
   06:08:25.474.28-May-2021 3440.00 4242.70 83.23 12.00 106.24 2569.12
   06:08:25.675.28-May-2021 3440.00 4242.68 83.23 12.00 106.44 2569.12
   06:08:25.875.28-May-2021 3440.00 4242.71 83.23 12.00 106.64 2569.12
   06:08:26.075.28-May-2021 3440.00 4242.71 83.23 12.00 106.84 2569.12
   06:08:26.275.28-May-2021 3440.00 4242.73 83.23 12.00 107.04 2569.12
   06:08:26.475.28-May-2021 3440.00 4242.73 83.23 12.00 107.24 2569.12
   06:08:26.675.28-May-2021 3440.00 4242.72 83.23 12.00 107.44 2569.12
   06:08:26.875.28-May-2021 3440.00 4242.74 83.23 12.00 107.64 2569.12
   06:08:27.075.28-May-2021 3440.00 4242.73 83.23 12.00 107.85 2569.12
   06:08:27.275.28-May-2021 3440.00 4242.74 83.23 12.00 108.05 2569.12
   06:08:27.475.28-May-2021 3440.00 4242.74 83.23 12.00 108.25 2569.12
   06:08:27.675.28-May-2021 3440.00 4242.61 83.23 12.00 108.45 2569.12
   06:08:27.875.28-May-2021 3440.00 4242.68 83.23 12.00 108.65 2569.12
   06:08:28.076.28-May-2021 3440.00 4242.71 83.23 12.00 108.85 2569.12
   06:08:28.276.28-May-2021 3440.00 4242.37 83.23 12.00 109.05 2569.12
   06:08:28.476.28-May-2021 3440.00 4242.37 83.23 12.00 109.25 2569.12
   06:08:28.676.28-May-2021 3440.00 4242.68 83.23 12.00 109.45 2569.12
   06:08:28.876.28-May-2021 3440.00 4242.68 83.23 12.00 109.65 2569.12
   06:08:29.076.28-May-2021 3440.00 4242.40 83.23 12.00 109.85 2569.12
   06:08:29.276.28-May-2021 3440.00 4243.04 83.23 12.00 110.05 2569.12
   06:08:29.476.28-May-2021 3440.00 4243.04 83.23 12.00 110.25 2569.12
   06:08:29.676.28-May-2021 3440.00 4242.69 83.23 12.00 110.45 2569.12
   06:08:29.876.28-May-2021 3440.00 4242.39 83.23 12.00 110.65 2569.12
   06:08:30.076.28-May-2021 3440.00 4243.01 83.23 12.00 110.85 2569.12
   06:08:30.276.28-May-2021 3440.00 4242.68 83.23 12.00 111.05 2569.12
   06:08:30.477.28-May-2021 3440.00 4242.68 83.23 12.00 111.25 2569.12
   06:08:30.677.28-May-2021 3440.00 4242.68 83.23 12.00 111.45 2569.12
   06:08:30.877.28-May-2021 3440.00 4242.68 83.23 12.00 111.65 2569.12
   06:08:31.077.28-May-2021 3440.00 4242.71 83.23 12.00 111.85 2569.12
   06:08:31.277.28-May-2021 3440.00 4242.70 83.23 12.00 112.05 2569.12
   06:08:31.477.28-May-2021 3440.00 4242.70 83.23 12.00 112.25 2569.12
   06:08:31.677.28-May-2021 3440.00 4242.72 83.23 12.00 112.45 2569.12
   06:08:31.877.28-May-2021 3440.00 4242.73 83.23 12.00 112.65 2569.12
   06:08:32.077.28-May-2021 3440.00 4242.73 83.23 12.00 112.85 2569.12
