~Version Information
 VERS.                  2.0:   CWLS log ASCII Standard -VERSION 2.0
 WRAP.                   NO:   One line per depth step
~Well Information Block
#MNEM.UNIT     VALUE/NAME     DESCRIPTION
#---------     -----------    ---------------------------
 STRT.S             23:03:24 27-May-21: START TIME 23:03:24 27-May-21
 STOP.S             23:10:28 27-May-21: STOP TIME  23:10:28 27-May-21
 STEP.S                   0.00: STEP TIME
 NULL.                 -999.25: NULL VALUE
 UWI .                     N/A:  UNIQUE WELL IDENTIFIER
 API .                     N/A:  API NUMBER
 UNIT.                     N/A:  LOGGING EQUIPMENT ID
 DCON.         Sperry Drilling:  DIRECTNL CONTR
 DOE .                     N/A:  DOE NUMBER
 MWDS.                    Baku:  MWD SHOP
 SRVC.     Turan Drilling and Engineering:  CONTRACTOR
 CTRY.              Azerbaijan:  COUNTRY NAME
 PROV.                    Baku:  PROVINCE
 STAT.                    Baku:  STATE NAME
 REGN.                   EESSA:  REGION
 BASE.              Azerbaijan:  LOGGING EQUIPMENT BASE LOCATION
 WTYP.                Deviated:  WELL TYPE
 RIG .              East Azeri:  RIG NAME
 WELL.                    D02y:  WELL NAME
 FLD .                     ACG:  FIELD NAME
 COMP.     BP Exploration (Caspian Sea) Ltd.:  COMPANY
 PDAT.          Mean Sea Level:  PERMANENT DATUM
 MDS .        Operator Entered:  MAG DATA SOURCE
 SON .        AZ-XX-0906997291:  JOB NUMBER
 FTOP.          Formation Tops:  FORM TOPS DESC
 ILTD.               Lithology:  INTERP LTH DESC
 SVYD.                  Survey:  SURVEY DESC
 DMOD.             Drill Model:  DRILL MOD DESC
 HPTY.       Minimum Curvature:  HOLE POS TYPE
 NREF.                    Grid:  NORTH REFERENCE
 SPUD.               05-May-21:  SPUD DATE
 DATE.      09.27.28 12-Jun-21:  END TIME
 STIM.      09.27.28 12-May-21:  START TIME
 DMF .             Drill Floor:  DRILL MEAS FROM
 DFST.                        :  DIST FSL TEXT
 DFWT.                        :  DIST FWL TEXT
 CNTY.                        :  COUNTY
 LOC .                        :  LOCATION
 LMF .             Drill Floor:  LOG MEASURED FROM
 DEP .m                2806.40:  DEPTH
 AGAP.m                  43.60:  AIR GAP
 VSNS.m                  -4.42:  VERT SEC N/S
 VSEW.m                  -7.31:  VERT SEC E/W
 APD .m                  43.60:  DEPTH ABOVE PD
 WDMS.m                 151.80:  WD ELEV
 EGL .m                   0.00:  GROUND ELEVATION
 EPD .m                   0.00:  ELEVATION
 AZTC.deg                 6.18:  AZM TOTAL CORR
 GRDC.deg                 0.29:  GRID CORRECTION
 MDEC.deg                 6.47:  MAGNETIC DECL
 MDIP.deg                59.50:  MAGNETIC DIP
 MFLD.nT              50350.00:  MAGNETIC FIELD
 GVFD.g                   1.00:  GRAVITY FIELD
 VSDR.deg               179.08:  VERT SEC DIRECT
 TDD .m                4300.00:  TOTAL DEPTH (DRILLER)
 SDEP.m                2800.00:  START DEPTH
 DFSL.m                   0.00:  DISTANCE FSL
 DFWL.m                   0.00:  DISTANCE FWL
 UTMY.m             4431871.34:  UTM Y
 UTMX.m              538762.90:  UTM X
 WHEW.m                  -7.31:  WELL HEAD E/W
 WHNS.m                  -4.42:  WELL HEAD N/S
 LONG.deg                51.45:  LONGITUDE
 LATI.deg                40.02:  LATITUDE
 TVDS.m                  43.60:  TVDSS CORRECTN
 EKB .m                  43.60:  KB ELEVATION
 EDF .m                  43.60:  DF ELEVATION
 TDL .m                 806.00:  TOTAL DEPTH (LOGGER)
 MAGU.                 1851231:  MAGUTM CHECKSUM
 VSC .                       0:  VS TO CLOSURE
~Parameter Information Block
#MNEM.UNIT       Value        Description
#---------     -----------    ---------------------------
 AV  .mps                 1.60:  Ann Velocity 
 AVMX.mps                 2.00:  Max Ann Veloc 
 AZIF.deg               140.24:  Azm, Final 
 BHAT.        Rotary Steerable:  BHA Type 
 BROT.°/30m               0.50:  Build Rotating 
 BS  .in                  8.50:  Bit Size 
 BTPL.psig              619.00:  Bit Press Loss 
 CABU.                     Yes:  Customer Abuse 
 CGEO.          Ilgar Gurbanov:  Customer Geo 
 COMM.                     |¡U:  Run Comments 1 
 TCS .hr                 85.88:  Time Ciculation Ended 
 CV  .mps                 3.30:  Crit Velocity 
 CVMX.mps                 3.50:  Max Crit Veloc 
 DD1 .           Hamid Axmedov:  Direct Drillr 1 
 DD2 .           Teymur Aliyev:  Direct Drillr 2 
 DDSV.               Geo-Pilot:  DD Service 
 DEFF.%                 100.00:  % Det Eff 
 DLRX.°/30m               0.00:  Dogleg Rot Max 
 DLSO.°/30m               1.80:  Dogleg Oriented 
 DLSX.°/30m               3.34:  Dogleg Str Max 
 DRET.      11.50.00 27-May-21:  Drill End Time 
 DRST.      21.13.00 24-May-21:  Drill Start Tim 
 DTIM.hr                 45.11:  Time Drilling 
 EDEP.m                4054.00:  End Depth 
 ENG1.         Almaz Almadatov:  Engineer 1 
 ENG2.           Amrah Tahirov:  Engineer 2 
 ENG3.      Bakhtiyar Jabbarli:  Engineer 3 
 ENG4.          Nazrin Asgarli:  Engineer 4 
 ETIM.      10.00.00 30-May-21:  End Time 
 FLOI.gpm               530.00:  Flow In 
 FLON.gpm               400.00:  Flow In Min 
 FLOS.cptm                0.00:  Fluid Loss 
 FLOX.gpm               560.00:  Flow In Max 
 DFT .        Mineral Oil Base:  Mud Type 
 FTRO.       Formation Presure:  FTWD Run Obj 
 HFLO.                      No:  High Flow 
 HPRE.                      No:  High Pressure 
 HTEM.                      No:  High Temp 
 HYDO.m                   1.80:  Hydro Offset 
 IFIN.deg                73.83:  Inc, Final 
 IMAX.deg                73.83:  Inc Max 
 IMIN.deg                57.86:  Inc Min 
 IMND.m                3259.27:  Inc Min Depth 
 IMXD.m                4045.58:  Inc Max Depth 
 JARR.                     Yes:  Jarring 
 LETM.      11.50.00 27-May-21:  Log End Time 
 LOST.hr                     0:  Lost Rig Time 
 LSTM.      21.13.00 24-May-21:  Log Start Time 
 MDCL.ppm             42500.00:  Mud Chlorides 
 MDES.     Inversion Oil/Synthetic:  Mud Desc 
 DFD .sg                  1.52:  Mud Density 
 MDMN.sg                  1.52:  Dens Mud Min 
 MDMX.sg                  1.52:  Dens Mud Max 
 MOIL.                      70:  Run Mud Oil % 
 MOWR.                   70:30:  Run Mud OWR 
 MSND.                     0.2:  Run Mud Sand % 
 MSOL.                      22:  Run Mud Solids% 
 DFV .spqt               77.00:  Mud Viscosity 
 MWOD.in                  6.75:  MWD Tool OD 
 MWSI.                      No:  Serv Intrp, MWD 
 OTIM.hr                151.01:  Time Operating 
 PCON.          Wear / Scratch:  Pad Condition 
 PMAX.psia            11296.93:  Press Op, Max 
 PV  .cP                 37.00:  Mud PV 
 RUN .                     500:  Run Number 
 ROPA.m/hr               25.00:  ROP Avg 
 ROPN.m/hr                9.00:  ROP Min 
 ROPX.m/hr               28.00:  ROP Max 
 RPMA.rpm               140.00:  RPM Surface Avg 
 RPMN.rpm                90.00:  RPM Surface Min 
 RPMX.rpm               140.00:  RPM Surface Max 
 RRUN.                    0500:  Rig Run Number 
 SAZI.deg               172.17:  Azm, Start 
 SDEP.m                3248.00:  Start Depth 
 SIDD.                      No:  Serv Intrp, DD 
 SINC.deg                57.86:  Inc, Start 
 SPPA.psig             5620.00:  SPP Avg 
 SPPN.psig             5190.00:  SPP Min 
 SPPX.psig             6050.00:  SPP Max 
 STIM.      16.00.00 23-May-21:  Start Time 
 SVCS.                 DD, MWD:  Services 
 SVER.                    9.20:  Sperry Version 
 TDAT.m                 806.00:  Tot Depth Attmp 
 TDDF.                      No:  Trip for DD 
 TDLG.m                 806.00:  Tot Depth Loggd 
 TFF .                      No:  Trip for Fail 
 TQAA.f-kp               12.00:  Torque Abs Avg 
 TQAN.f-kp                8.00:  Torque Abs Min 
 TQAX.f-kp               15.00:  Torque Abs Max 
 TRRT.°/30m               0.30:  Turn Rotating 
 MRT .                  EWR-M5:  Maximum Recorded Temperature 
 TTMX.degC               93.00:  Max Tool Temp 
 VS01.                90649155:  Virtual Str1 SN 
 VS02.                90642264:  Virtual Str2 SN 
 VS03.                90642266:  Virtual Str3 SN 
 VS04.                90642261:  Virtual Str4 SN 
 WBMN.klb                 0.00:  WOB Min 
 WITN.             Anar Khalil:  Customer Rep 
 WITN.           Murad Guliyev:  Customer Rep 2 
 WOBA.klb                13.00:  WOB Avg 
 WOBX.klb                25.00:  WOB Max 
 YP  .lhf2               32.00:  Yield Point 
~Curve Information Block
#MNEM.UNIT                 API CODE     Curve Description
#---------               -----------    ---------------------------
 TIME.HHMMSS            00 000 000 000:  GT Time & Date
 GTDEPTH.m              00 000 000 000:  GT Depth
 GTPQH.psia             00 000 000 000:  GT HR Quartz Pressure
 GTTQ.degC              00 000 000 000:  GT Quartz Temperature
 GTTN.NONE              00 000 000 000:  GT Test Number
 GTET.sec               00 000 000 000:  GT Elapsed Test Time
 GTTVD.m                00 000 000 000:  GT True Vertical Depth
#Other Information
#
#WARRANTY: Halliburton will use its best efforts to furnish customers with 
#accurate information and interpretations that are part of, and incident to, the services 
#provided.  However, Halliburton cannot and does not warrant the accuracy 
#or correctness of such information and interpretations.  Under no circumstances should any 
#such information or interpretation be relied upon as the sole basis for any drilling, 
#completion, production, or financial decision or any procedure involving any risk to the 
#safety of any drilling venture, drilling rig or its crew or any other third party.  The 
#Customer has full responsibility for all drilling, completion and production operation.  
#Halliburton makes no representations or warranties, either expressed or 
#implied, including, but not limited to, the implied warranties of merchantability or fitness 
#for a particular purpose, with respect to the services rendered.  In no event will 
#Halliburton be liable for failure to obtain any particular results or for 
#any damages, including, but not limited to, indirect, special or consequential damages, 
#resulting from the use of any information or interpretation provided by Halliburton.
#
~A           TIME           GTDEPTH  GTPQH  GTTQ  GTTN  GTET   GTTVD  
# ...
   23:08:00.371.27-May-2021 3710.50 3139.38 84.60 2.00 276.11 2675.83
   23:08:00.572.27-May-2021 3710.50 3139.38 84.60 2.00 276.31 2675.83
   23:08:00.772.27-May-2021 3710.50 3139.37 84.60 2.00 276.51 2675.83
   23:08:00.972.27-May-2021 3710.50 3139.38 84.60 2.00 276.71 2675.83
   23:08:01.172.27-May-2021 3710.50 3139.37 84.60 2.00 276.91 2675.83
   23:08:01.372.27-May-2021 3710.50 3139.38 84.60 2.00 277.11 2675.83
   23:08:01.572.27-May-2021 3710.50 3139.38 84.60 2.00 277.31 2675.83
   23:08:01.772.27-May-2021 3710.50 3139.38 84.60 2.00 277.51 2675.83
   23:08:01.972.27-May-2021 3710.50 3139.37 84.60 2.00 277.71 2675.83
   23:08:02.172.27-May-2021 3710.50 3139.37 84.60 2.00 277.91 2675.83
   23:08:02.372.27-May-2021 3710.50 3139.37 84.60 2.00 278.11 2675.83
   23:08:02.572.27-May-2021 3710.50 3139.37 84.60 2.00 278.31 2675.83
   23:08:02.772.27-May-2021 3710.50 3139.41 84.60 2.00 278.51 2675.83
   23:08:02.972.27-May-2021 3710.50 3139.32 84.60 2.00 278.71 2675.83
   23:08:03.173.27-May-2021 3710.50 3139.48 84.60 2.00 278.91 2675.83
   23:08:03.373.27-May-2021 3710.50 3139.41 84.60 2.00 279.11 2675.83
   23:08:03.573.27-May-2021 3710.50 3139.41 84.60 2.00 279.31 2675.83
   23:08:03.773.27-May-2021 3710.50 3139.31 84.60 2.00 279.51 2675.83
   23:08:03.973.27-May-2021 3710.50 3139.49 84.60 2.00 279.71 2675.83
   23:08:04.173.27-May-2021 3710.50 3139.80 84.60 2.00 279.91 2675.83
   23:08:04.373.27-May-2021 3710.50 3139.52 84.60 2.00 280.11 2675.83
   23:08:04.573.27-May-2021 3710.50 3139.52 84.60 2.00 280.31 2675.83
   23:08:04.773.27-May-2021 3710.50 3139.42 84.60 2.00 280.51 2675.83
   23:08:04.973.27-May-2021 3710.50 3139.46 84.60 2.00 280.71 2675.83
   23:08:05.173.27-May-2021 3710.50 3139.43 84.60 2.00 280.91 2675.83
   23:08:05.373.27-May-2021 3710.50 3139.44 84.60 2.00 281.11 2675.83
   23:08:05.574.27-May-2021 3710.50 3139.44 84.60 2.00 281.31 2675.83
   23:08:05.774.27-May-2021 3710.50 3139.44 84.60 2.00 281.51 2675.83
   23:08:05.974.27-May-2021 3710.50 3139.43 84.60 2.00 281.71 2675.83
   23:08:06.174.27-May-2021 3710.50 3139.43 84.60 2.00 281.91 2675.83
   23:08:06.374.27-May-2021 3710.50 3139.44 84.60 2.00 282.11 2675.83
   23:08:06.574.27-May-2021 3710.50 3139.44 84.60 2.00 282.31 2675.83
   23:08:06.774.27-May-2021 3710.50 3139.44 84.60 2.00 282.51 2675.83
   23:08:06.974.27-May-2021 3710.50 3139.43 84.60 2.00 282.71 2675.83
   23:08:07.174.27-May-2021 3710.50 3139.41 84.60 2.00 282.91 2675.83
   23:08:07.374.27-May-2021 3710.50 3139.42 84.60 2.00 283.11 2675.83
   23:08:07.574.27-May-2021 3710.50 3139.42 84.60 2.00 283.31 2675.83
   23:08:07.774.27-May-2021 3710.50 3139.42 84.60 2.00 283.51 2675.83
   23:08:07.974.27-May-2021 3710.50 3139.45 84.60 2.00 283.71 2675.83
   23:08:08.175.27-May-2021 3710.50 3139.43 84.60 2.00 283.91 2675.83
   23:08:08.375.27-May-2021 3710.50 3139.43 84.60 2.00 284.11 2675.83
   23:08:08.575.27-May-2021 3710.50 3139.43 84.60 2.00 284.31 2675.83
   23:08:08.775.27-May-2021 3710.50 3139.44 84.60 2.00 284.51 2675.83
   23:08:08.975.27-May-2021 3710.50 3139.44 84.60 2.00 284.71 2675.83
   23:08:09.175.27-May-2021 3710.50 3139.44 84.60 2.00 284.91 2675.83
   23:08:09.375.27-May-2021 3710.50 3139.44 84.60 2.00 285.11 2675.83
   23:08:09.575.27-May-2021 3710.50 3139.44 84.60 2.00 285.31 2675.83
   23:08:09.775.27-May-2021 3710.50 3139.42 84.60 2.00 285.51 2675.83
   23:08:09.975.27-May-2021 3710.50 3139.43 84.60 2.00 285.71 2675.83
   23:08:10.175.27-May-2021 3710.50 3139.46 84.60 2.00 285.91 2675.83
   23:08:10.375.27-May-2021 3710.50 3139.44 84.60 2.00 286.11 2675.83
   23:08:10.575.27-May-2021 3710.50 3139.44 84.60 2.00 286.31 2675.83
   23:08:10.776.27-May-2021 3710.50 3139.40 84.60 2.00 286.51 2675.83
   23:08:10.976.27-May-2021 3710.50 3139.44 84.60 2.00 286.71 2675.83
   23:08:11.176.27-May-2021 3710.50 3139.44 84.60 2.00 286.91 2675.83
   23:08:11.376.27-May-2021 3710.50 3139.42 84.60 2.00 287.11 2675.83
   23:08:11.576.27-May-2021 3710.50 3139.42 84.60 2.00 287.31 2675.83
   23:08:11.776.27-May-2021 3710.50 3139.47 84.60 2.00 287.51 2675.83
   23:08:11.976.27-May-2021 3710.50 3139.44 84.60 2.00 287.71 2675.83
   23:08:12.176.27-May-2021 3710.50 3139.46 84.60 2.00 287.91 2675.83
   23:08:12.376.27-May-2021 3710.50 3139.44 84.60 2.00 288.11 2675.83
   23:08:12.576.27-May-2021 3710.50 3139.44 84.60 2.00 288.31 2675.83
   23:08:12.776.27-May-2021 3710.50 3139.52 84.60 2.00 288.51 2675.83
   23:08:12.976.27-May-2021 3710.50 3139.45 84.60 2.00 288.71 2675.83
   23:08:13.176.27-May-2021 3710.50 3139.46 84.60 2.00 288.91 2675.83
   23:08:13.377.27-May-2021 3710.50 3139.44 84.60 2.00 289.11 2675.83
   23:08:13.577.27-May-2021 3710.50 3139.44 84.60 2.00 289.31 2675.83
   23:08:13.777.27-May-2021 3710.50 3139.44 84.60 2.00 289.51 2675.83
   23:08:13.977.27-May-2021 3710.50 3139.45 84.60 2.00 289.71 2675.83
   23:08:14.177.27-May-2021 3710.50 3139.44 84.60 2.00 289.91 2675.83
   23:08:14.377.27-May-2021 3710.50 3139.44 84.60 2.00 290.11 2675.83
   23:08:14.577.27-May-2021 3710.50 3139.44 84.60 2.00 290.31 2675.83
   23:08:14.777.27-May-2021 3710.50 3139.44 84.60 2.00 290.51 2675.83
   23:08:14.977.27-May-2021 3710.50 3139.44 84.60 2.00 290.71 2675.83
   23:08:15.177.27-May-2021 3710.50 3139.35 84.60 2.00 290.91 2675.83
   23:08:15.377.27-May-2021 3710.50 3139.52 84.60 2.00 291.11 2675.83
   23:08:15.577.27-May-2021 3710.50 3139.52 84.60 2.00 291.31 2675.83
   23:08:15.777.27-May-2021 3710.50 3139.46 84.60 2.00 291.51 2675.83
   23:08:15.978.27-May-2021 3710.50 3139.43 84.60 2.00 291.71 2675.83
   23:08:16.178.27-May-2021 3710.50 3139.44 84.60 2.00 291.91 2675.83
   23:08:16.378.27-May-2021 3710.50 3139.45 84.60 2.00 292.11 2675.83
   23:08:16.578.27-May-2021 3710.50 3139.45 84.60 2.00 292.31 2675.83
   23:08:16.778.27-May-2021 3710.50 3139.45 84.60 2.00 292.51 2675.83
   23:08:16.978.27-May-2021 3710.50 3139.44 84.60 2.00 292.71 2675.83
   23:08:17.178.27-May-2021 3710.50 3139.44 84.60 2.00 292.91 2675.83
   23:08:17.378.27-May-2021 3710.50 3139.45 84.60 2.00 293.11 2675.83
   23:08:17.578.27-May-2021 3710.50 3139.45 84.60 2.00 293.31 2675.83
   23:08:17.778.27-May-2021 3710.50 3139.35 84.60 2.00 293.51 2675.83
   23:08:17.978.27-May-2021 3710.50 3139.52 84.60 2.00 293.71 2675.83
   23:08:18.178.27-May-2021 3710.50 3139.45 84.60 2.00 293.92 2675.83
   23:08:18.379.27-May-2021 3710.50 3139.31 84.60 2.00 294.12 2675.83
   23:08:18.579.27-May-2021 3710.50 3139.31 84.60 2.00 294.32 2675.83
   23:08:18.779.27-May-2021 3710.50 3139.44 84.60 2.00 294.52 2675.83
   23:08:18.979.27-May-2021 3710.50 3139.45 84.60 2.00 294.72 2675.83
   23:08:19.179.27-May-2021 3710.50 3139.45 84.60 2.00 294.92 2675.83
   23:08:19.379.27-May-2021 3710.50 3139.34 84.60 2.00 295.12 2675.83
   23:08:19.579.27-May-2021 3710.50 3139.34 84.60 2.00 295.32 2675.83
   23:08:19.779.27-May-2021 3710.50 3139.46 84.60 2.00 295.52 2675.83
   23:08:19.979.27-May-2021 3710.50 3139.45 84.60 2.00 295.72 2675.83
   23:08:20.179.27-May-2021 3710.50 3139.44 84.60 2.00 295.92 2675.83
   23:08:20.379.27-May-2021 3710.50 3139.45 84.60 2.00 296.12 2675.83
   23:08:20.579.27-May-2021 3710.50 3139.45 84.60 2.00 296.32 2675.83
   23:08:20.779.27-May-2021 3710.50 3139.40 84.60 2.00 296.52 2675.83
   23:08:20.980.27-May-2021 3710.50 3139.44 84.60 2.00 296.72 2675.83
   23:08:21.180.27-May-2021 3710.50 3139.45 84.60 2.00 296.92 2675.83
   23:08:21.380.27-May-2021 3710.50 3139.45 84.60 2.00 297.12 2675.83
   23:08:21.580.27-May-2021 3710.50 3139.45 84.60 2.00 297.32 2675.83
   23:08:21.780.27-May-2021 3710.50 3139.44 84.60 2.00 297.52 2675.83
   23:08:21.980.27-May-2021 3710.50 3139.45 84.60 2.00 297.72 2675.83
   23:08:22.180.27-May-2021 3710.50 3139.45 84.60 2.00 297.92 2675.83
   23:08:22.380.27-May-2021 3710.50 3139.45 84.60 2.00 298.12 2675.83
   23:08:22.580.27-May-2021 3710.50 3139.45 84.60 2.00 298.32 2675.83
   23:08:22.780.27-May-2021 3710.50 3139.45 84.60 2.00 298.52 2675.83
   23:08:22.980.27-May-2021 3710.50 3139.44 84.60 2.00 298.72 2675.83
   23:08:23.180.27-May-2021 3710.50 3139.47 84.60 2.00 298.92 2675.83
