~Version Information
 VERS.                  2.0:   CWLS log ASCII Standard -VERSION 2.0
 WRAP.                   NO:   One line per depth step
~Well Information Block
#MNEM.UNIT     VALUE/NAME     DESCRIPTION
#---------     -----------    ---------------------------
 STRT.S             05:48:37 28-May-21: START TIME 05:48:37 28-May-21
 STOP.S             05:55:44 28-May-21: STOP TIME  05:55:44 28-May-21
 STEP.S                   0.00: STEP TIME
 NULL.                 -999.25: NULL VALUE
 UWI .                     N/A:  UNIQUE WELL IDENTIFIER
 API .                     N/A:  API NUMBER
 UNIT.                     N/A:  LOGGING EQUIPMENT ID
 DCON.         Sperry Drilling:  DIRECTNL CONTR
 DOE .                     N/A:  DOE NUMBER
 MWDS.                    Baku:  MWD SHOP
 SRVC.     Turan Drilling and Engineering:  CONTRACTOR
 CTRY.              Azerbaijan:  COUNTRY NAME
 PROV.                    Baku:  PROVINCE
 STAT.                    Baku:  STATE NAME
 REGN.                   EESSA:  REGION
 BASE.              Azerbaijan:  LOGGING EQUIPMENT BASE LOCATION
 WTYP.                Deviated:  WELL TYPE
 RIG .              East Azeri:  RIG NAME
 WELL.                    D02y:  WELL NAME
 FLD .                     ACG:  FIELD NAME
 COMP.     BP Exploration (Caspian Sea) Ltd.:  COMPANY
 PDAT.          Mean Sea Level:  PERMANENT DATUM
 MDS .        Operator Entered:  MAG DATA SOURCE
 SON .        AZ-XX-0906997291:  JOB NUMBER
 FTOP.          Formation Tops:  FORM TOPS DESC
 ILTD.               Lithology:  INTERP LTH DESC
 SVYD.                  Survey:  SURVEY DESC
 DMOD.             Drill Model:  DRILL MOD DESC
 HPTY.       Minimum Curvature:  HOLE POS TYPE
 NREF.                    Grid:  NORTH REFERENCE
 SPUD.               05-May-21:  SPUD DATE
 DATE.      09.27.28 12-Jun-21:  END TIME
 STIM.      09.27.28 12-May-21:  START TIME
 DMF .             Drill Floor:  DRILL MEAS FROM
 DFST.                        :  DIST FSL TEXT
 DFWT.                        :  DIST FWL TEXT
 CNTY.                        :  COUNTY
 LOC .                        :  LOCATION
 LMF .             Drill Floor:  LOG MEASURED FROM
 DEP .m                2806.40:  DEPTH
 AGAP.m                  43.60:  AIR GAP
 VSNS.m                  -4.42:  VERT SEC N/S
 VSEW.m                  -7.31:  VERT SEC E/W
 APD .m                  43.60:  DEPTH ABOVE PD
 WDMS.m                 151.80:  WD ELEV
 EGL .m                   0.00:  GROUND ELEVATION
 EPD .m                   0.00:  ELEVATION
 AZTC.deg                 6.18:  AZM TOTAL CORR
 GRDC.deg                 0.29:  GRID CORRECTION
 MDEC.deg                 6.47:  MAGNETIC DECL
 MDIP.deg                59.50:  MAGNETIC DIP
 MFLD.nT              50350.00:  MAGNETIC FIELD
 GVFD.g                   1.00:  GRAVITY FIELD
 VSDR.deg               179.08:  VERT SEC DIRECT
 TDD .m                4300.00:  TOTAL DEPTH (DRILLER)
 SDEP.m                2800.00:  START DEPTH
 DFSL.m                   0.00:  DISTANCE FSL
 DFWL.m                   0.00:  DISTANCE FWL
 UTMY.m             4431871.34:  UTM Y
 UTMX.m              538762.90:  UTM X
 WHEW.m                  -7.31:  WELL HEAD E/W
 WHNS.m                  -4.42:  WELL HEAD N/S
 LONG.deg                51.45:  LONGITUDE
 LATI.deg                40.02:  LATITUDE
 TVDS.m                  43.60:  TVDSS CORRECTN
 EKB .m                  43.60:  KB ELEVATION
 EDF .m                  43.60:  DF ELEVATION
 TDL .m                 806.00:  TOTAL DEPTH (LOGGER)
 MAGU.                 1851231:  MAGUTM CHECKSUM
 VSC .                       0:  VS TO CLOSURE
~Parameter Information Block
#MNEM.UNIT       Value        Description
#---------     -----------    ---------------------------
 AV  .mps                 1.60:  Ann Velocity 
 AVMX.mps                 2.00:  Max Ann Veloc 
 AZIF.deg               140.24:  Azm, Final 
 BHAT.        Rotary Steerable:  BHA Type 
 BROT.°/30m               0.50:  Build Rotating 
 BS  .in                  8.50:  Bit Size 
 BTPL.psig              619.00:  Bit Press Loss 
 CABU.                     Yes:  Customer Abuse 
 CGEO.          Ilgar Gurbanov:  Customer Geo 
 COMM.                     dAY:  Run Comments 1 
 TCS .hr                 85.88:  Time Ciculation Ended 
 CV  .mps                 3.30:  Crit Velocity 
 CVMX.mps                 3.50:  Max Crit Veloc 
 DD1 .           Hamid Axmedov:  Direct Drillr 1 
 DD2 .           Teymur Aliyev:  Direct Drillr 2 
 DDSV.               Geo-Pilot:  DD Service 
 DEFF.%                 100.00:  % Det Eff 
 DLRX.°/30m               0.00:  Dogleg Rot Max 
 DLSO.°/30m               1.80:  Dogleg Oriented 
 DLSX.°/30m               3.34:  Dogleg Str Max 
 DRET.      11.50.00 27-May-21:  Drill End Time 
 DRST.      21.13.00 24-May-21:  Drill Start Tim 
 DTIM.hr                 45.11:  Time Drilling 
 EDEP.m                4054.00:  End Depth 
 ENG1.         Almaz Almadatov:  Engineer 1 
 ENG2.           Amrah Tahirov:  Engineer 2 
 ENG3.      Bakhtiyar Jabbarli:  Engineer 3 
 ENG4.          Nazrin Asgarli:  Engineer 4 
 ETIM.      10.00.00 30-May-21:  End Time 
 FLOI.gpm               530.00:  Flow In 
 FLON.gpm               400.00:  Flow In Min 
 FLOS.cptm                0.00:  Fluid Loss 
 FLOX.gpm               560.00:  Flow In Max 
 DFT .        Mineral Oil Base:  Mud Type 
 FTRO.       Formation Presure:  FTWD Run Obj 
 HFLO.                      No:  High Flow 
 HPRE.                      No:  High Pressure 
 HTEM.                      No:  High Temp 
 HYDO.m                   1.80:  Hydro Offset 
 IFIN.deg                73.83:  Inc, Final 
 IMAX.deg                73.83:  Inc Max 
 IMIN.deg                57.86:  Inc Min 
 IMND.m                3259.27:  Inc Min Depth 
 IMXD.m                4045.58:  Inc Max Depth 
 JARR.                     Yes:  Jarring 
 LETM.      11.50.00 27-May-21:  Log End Time 
 LOST.hr                     0:  Lost Rig Time 
 LSTM.      21.13.00 24-May-21:  Log Start Time 
 MDCL.ppm             42500.00:  Mud Chlorides 
 MDES.     Inversion Oil/Synthetic:  Mud Desc 
 DFD .sg                  1.52:  Mud Density 
 MDMN.sg                  1.52:  Dens Mud Min 
 MDMX.sg                  1.52:  Dens Mud Max 
 MOIL.                      70:  Run Mud Oil % 
 MOWR.                   70:30:  Run Mud OWR 
 MSND.                     0.2:  Run Mud Sand % 
 MSOL.                      22:  Run Mud Solids% 
 DFV .spqt               77.00:  Mud Viscosity 
 MWOD.in                  6.75:  MWD Tool OD 
 MWSI.                      No:  Serv Intrp, MWD 
 OTIM.hr                151.01:  Time Operating 
 PCON.          Wear / Scratch:  Pad Condition 
 PMAX.psia            11296.93:  Press Op, Max 
 PV  .cP                 37.00:  Mud PV 
 RUN .                     500:  Run Number 
 ROPA.m/hr               25.00:  ROP Avg 
 ROPN.m/hr                9.00:  ROP Min 
 ROPX.m/hr               28.00:  ROP Max 
 RPMA.rpm               140.00:  RPM Surface Avg 
 RPMN.rpm                90.00:  RPM Surface Min 
 RPMX.rpm               140.00:  RPM Surface Max 
 RRUN.                    0500:  Rig Run Number 
 SAZI.deg               172.17:  Azm, Start 
 SDEP.m                3248.00:  Start Depth 
 SIDD.                      No:  Serv Intrp, DD 
 SINC.deg                57.86:  Inc, Start 
 SPPA.psig             5620.00:  SPP Avg 
 SPPN.psig             5190.00:  SPP Min 
 SPPX.psig             6050.00:  SPP Max 
 STIM.      16.00.00 23-May-21:  Start Time 
 SVCS.                 DD, MWD:  Services 
 SVER.                    9.20:  Sperry Version 
 TDAT.m                 806.00:  Tot Depth Attmp 
 TDDF.                      No:  Trip for DD 
 TDLG.m                 806.00:  Tot Depth Loggd 
 TFF .                      No:  Trip for Fail 
 TQAA.f-kp               12.00:  Torque Abs Avg 
 TQAN.f-kp                8.00:  Torque Abs Min 
 TQAX.f-kp               15.00:  Torque Abs Max 
 TRRT.°/30m               0.30:  Turn Rotating 
 MRT .                  EWR-M5:  Maximum Recorded Temperature 
 TTMX.degC               93.00:  Max Tool Temp 
 VS01.                90649155:  Virtual Str1 SN 
 VS02.                90642264:  Virtual Str2 SN 
 VS03.                90642266:  Virtual Str3 SN 
 VS04.                90642261:  Virtual Str4 SN 
 WBMN.klb                 0.00:  WOB Min 
 WITN.             Anar Khalil:  Customer Rep 
 WITN.           Murad Guliyev:  Customer Rep 2 
 WOBA.klb                13.00:  WOB Avg 
 WOBX.klb                25.00:  WOB Max 
 YP  .lhf2               32.00:  Yield Point 
~Curve Information Block
#MNEM.UNIT                 API CODE     Curve Description
#---------               -----------    ---------------------------
 TIME.HHMMSS            00 000 000 000:  GT Time & Date
 GTDEPTH.m              00 000 000 000:  GT Depth
 GTPQH.psia             00 000 000 000:  GT HR Quartz Pressure
 GTTQ.degC              00 000 000 000:  GT Quartz Temperature
 GTTN.NONE              00 000 000 000:  GT Test Number
 GTET.sec               00 000 000 000:  GT Elapsed Test Time
 GTTVD.m                00 000 000 000:  GT True Vertical Depth
#Other Information
#
#WARRANTY: Halliburton will use its best efforts to furnish customers with 
#accurate information and interpretations that are part of, and incident to, the services 
#provided.  However, Halliburton cannot and does not warrant the accuracy 
#or correctness of such information and interpretations.  Under no circumstances should any 
#such information or interpretation be relied upon as the sole basis for any drilling, 
#completion, production, or financial decision or any procedure involving any risk to the 
#safety of any drilling venture, drilling rig or its crew or any other third party.  The 
#Customer has full responsibility for all drilling, completion and production operation.  
#Halliburton makes no representations or warranties, either expressed or 
#implied, including, but not limited to, the implied warranties of merchantability or fitness 
#for a particular purpose, with respect to the services rendered.  In no event will 
#Halliburton be liable for failure to obtain any particular results or for 
#any damages, including, but not limited to, indirect, special or consequential damages, 
#resulting from the use of any information or interpretation provided by Halliburton.
#
~A           TIME           GTDEPTH  GTPQH  GTTQ  GTTN   GTET   GTTVD  
   05:48:37.778.28-May-2021 3439.00 5990.64 82.99 11.00   0.00 2568.67
   05:48:37.978.28-May-2021 3439.00 5990.64 82.99 11.00   0.20 2568.67
   05:48:38.178.28-May-2021 3439.00 5989.04 82.99 11.00   0.40 2568.67
   05:48:38.378.28-May-2021 3439.00 5989.90 82.99 11.00   0.60 2568.67
   05:48:38.578.28-May-2021 3439.00 5992.03 82.99 11.00   0.80 2568.67
   05:48:38.778.28-May-2021 3439.00 5991.34 82.99 11.00   1.00 2568.67
   05:48:38.979.28-May-2021 3439.00 5991.34 82.99 11.00   1.20 2568.67
   05:48:39.179.28-May-2021 3439.00 5990.15 82.99 11.00   1.40 2568.67
   05:48:39.379.28-May-2021 3439.00 5990.47 82.99 11.00   1.60 2568.67
   05:48:39.579.28-May-2021 3439.00 5989.91 82.99 11.00   1.80 2568.67
   05:48:39.779.28-May-2021 3439.00 5990.94 82.99 11.00   2.00 2568.67
   05:48:39.979.28-May-2021 3439.00 5990.94 82.99 11.00   2.20 2568.67
   05:48:40.179.28-May-2021 3439.00 5991.64 82.99 11.00   2.40 2568.67
   05:48:40.379.28-May-2021 3439.00 5991.63 82.99 11.00   2.60 2568.67
   05:48:40.579.28-May-2021 3439.00 5991.96 82.99 11.00   2.80 2568.67
   05:48:40.779.28-May-2021 3439.00 5996.22 82.99 11.00   3.00 2568.67
   05:48:40.979.28-May-2021 3439.00 5996.22 82.99 11.00   3.20 2568.67
   05:48:41.179.28-May-2021 3439.00 5992.42 82.99 11.00   3.40 2568.67
   05:48:41.380.28-May-2021 3439.00 5992.91 82.99 11.00   3.60 2568.67
   05:48:41.580.28-May-2021 3439.00 5992.35 82.99 11.00   3.80 2568.67
   05:48:41.780.28-May-2021 3439.00 5993.20 82.99 11.00   4.00 2568.67
   05:48:41.980.28-May-2021 3439.00 5993.20 82.99 11.00   4.20 2568.67
   05:48:42.180.28-May-2021 3439.00 5993.89 82.99 11.00   4.40 2568.67
   05:48:42.380.28-May-2021 3439.00 5993.97 82.99 11.00   4.60 2568.67
   05:48:42.580.28-May-2021 3439.00 5999.68 82.99 11.00   4.80 2568.67
   05:48:42.780.28-May-2021 3439.00 5992.64 82.99 11.00   5.00 2568.67
   05:48:42.980.28-May-2021 3439.00 5992.64 82.99 11.00   5.20 2568.67
   05:48:43.180.28-May-2021 3439.00 5994.25 82.99 11.00   5.40 2568.67
   05:48:43.380.28-May-2021 3439.00 5994.07 82.99 11.00   5.60 2568.67
   05:48:43.580.28-May-2021 3439.00 5999.99 82.99 11.00   5.80 2568.67
   05:48:43.781.28-May-2021 3439.00 5993.21 82.99 11.00   6.00 2568.67
   05:48:43.981.28-May-2021 3439.00 5993.21 82.99 11.00   6.20 2568.67
   05:48:44.181.28-May-2021 3439.00 5994.87 82.98 11.00   6.40 2568.67
   05:48:44.381.28-May-2021 3439.00 5995.75 82.98 11.00   6.60 2568.67
   05:48:44.581.28-May-2021 3439.00 5994.85 82.98 11.00   6.80 2568.67
   05:48:44.781.28-May-2021 3439.00 5995.75 82.98 11.00   7.00 2568.67
   05:48:44.981.28-May-2021 3439.00 5995.75 82.98 11.00   7.20 2568.67
   05:48:45.181.28-May-2021 3439.00 5996.08 82.98 11.00   7.40 2568.67
   05:48:45.381.28-May-2021 3439.00 5996.05 82.98 11.00   7.60 2568.67
   05:48:45.581.28-May-2021 3439.00 5996.16 82.98 11.00   7.80 2568.67
   05:48:45.781.28-May-2021 3439.00 5996.37 82.98 11.00   8.00 2568.67
   05:48:45.981.28-May-2021 3439.00 5996.37 82.98 11.00   8.20 2568.67
   05:48:46.182.28-May-2021 3439.00 5996.54 82.98 11.00   8.40 2568.67
   05:48:46.382.28-May-2021 3439.00 5999.48 82.98 11.00   8.60 2568.67
   05:48:46.582.28-May-2021 3439.00 5998.40 82.98 11.00   8.80 2568.67
   05:48:46.782.28-May-2021 3439.00 5997.43 82.98 11.00   9.00 2568.67
   05:48:46.982.28-May-2021 3439.00 5997.43 82.98 11.00   9.20 2568.67
   05:48:47.182.28-May-2021 3439.00 5997.88 82.98 11.00   9.40 2568.67
   05:48:47.382.28-May-2021 3439.00 5997.41 82.98 11.00   9.60 2568.67
   05:48:47.582.28-May-2021 3439.00 5998.41 82.98 11.00   9.80 2568.67
   05:48:47.782.28-May-2021 3439.00 5998.31 82.98 11.00  10.00 2568.67
   05:48:47.982.28-May-2021 3439.00 5998.31 82.98 11.00  10.20 2568.67
   05:48:48.182.28-May-2021 3439.00 5998.60 82.98 11.00  10.40 2568.67
   05:48:48.382.28-May-2021 3439.00 5998.59 82.98 11.00  10.60 2568.67
   05:48:48.583.28-May-2021 3439.00 5998.69 82.98 11.00  10.80 2568.67
   05:48:48.783.28-May-2021 3439.00 5998.85 82.98 11.00  11.00 2568.67
   05:48:48.983.28-May-2021 3439.00 5998.85 82.98 11.00  11.20 2568.67
   05:48:49.183.28-May-2021 3439.00 6004.62 82.98 11.00  11.40 2568.67
   05:48:49.383.28-May-2021 3439.00 5997.78 82.98 11.00  11.60 2568.67
   05:48:49.583.28-May-2021 3439.00 5999.39 82.98 11.00  11.80 2568.67
   05:48:49.783.28-May-2021 3439.00 5999.00 82.98 11.00  12.01 2568.67
   05:48:49.983.28-May-2021 3439.00 5999.00 82.98 11.00  12.21 2568.67
   05:48:50.183.28-May-2021 3439.00 5999.00 82.98 11.00  12.41 2568.67
   05:48:50.383.28-May-2021 3439.00 5996.95 82.98 11.00  12.61 2568.67
   05:48:50.583.28-May-2021 3439.00 5999.91 82.98 11.00  12.81 2568.67
   05:48:50.783.28-May-2021 3439.00 6000.08 82.98 11.00  13.01 2568.67
   05:48:50.984.28-May-2021 3439.00 6000.08 82.98 11.00  13.21 2568.67
   05:48:51.184.28-May-2021 3439.00 6005.14 82.98 11.00  13.41 2568.67
   05:48:51.384.28-May-2021 3439.00 5998.83 82.98 11.00  13.61 2568.67
   05:48:51.584.28-May-2021 3439.00 6000.74 82.98 11.00  13.81 2568.67
   05:48:51.784.28-May-2021 3439.00 6000.86 82.98 11.00  14.01 2568.67
   05:48:51.984.28-May-2021 3439.00 6000.86 82.98 11.00  14.21 2568.67
   05:48:52.184.28-May-2021 3439.00 6002.36 82.98 11.00  14.41 2568.67
   05:48:52.384.28-May-2021 3439.00 6001.20 82.98 11.00  14.61 2568.67
   05:48:52.584.28-May-2021 3439.00 6001.42 82.98 11.00  14.81 2568.67
   05:48:52.784.28-May-2021 3439.00 6006.13 82.98 11.00  15.01 2568.67
   05:48:52.984.28-May-2021 3439.00 6006.13 82.98 11.00  15.21 2568.67
   05:48:53.184.28-May-2021 3439.00 6002.08 82.98 11.00  15.41 2568.67
   05:48:53.385.28-May-2021 3439.00 6002.02 82.98 11.00  15.61 2568.67
   05:48:53.585.28-May-2021 3439.00 6001.86 82.98 11.00  15.81 2568.67
   05:48:53.785.28-May-2021 3439.00 6007.93 82.98 11.00  16.01 2568.67
   05:48:53.985.28-May-2021 3439.00 6007.93 82.98 11.00  16.21 2568.67
   05:48:54.185.28-May-2021 3439.00 6002.70 82.98 11.00  16.41 2568.67
   05:48:54.385.28-May-2021 3439.00 6002.11 82.98 11.00  16.61 2568.67
   05:48:54.585.28-May-2021 3439.00 6002.91 82.98 11.00  16.81 2568.67
   05:48:54.785.28-May-2021 3439.00 6001.94 82.98 11.00  17.01 2568.67
   05:48:54.985.28-May-2021 3439.00 6001.94 82.98 11.00  17.21 2568.67
   05:48:55.185.28-May-2021 3439.00 6002.97 82.98 11.00  17.41 2568.67
   05:48:55.385.28-May-2021 3439.00 6003.30 82.98 11.00  17.61 2568.67
   05:48:55.585.28-May-2021 3439.00 6003.37 82.98 11.00  17.81 2568.67
   05:48:55.786.28-May-2021 3439.00 6003.40 82.98 11.00  18.01 2568.67
   05:48:55.986.28-May-2021 3439.00 6003.40 82.98 11.00  18.21 2568.67
   05:48:56.186.28-May-2021 3439.00 6003.47 82.98 11.00  18.41 2568.67
   05:48:56.386.28-May-2021 3439.00 6010.75 82.98 11.00  18.61 2568.67
   05:48:56.586.28-May-2021 3439.00 6000.77 82.98 11.00  18.81 2568.67
   05:48:56.786.28-May-2021 3439.00 6003.77 82.98 11.00  19.01 2568.67
   05:48:56.986.28-May-2021 3439.00 6003.77 82.98 11.00  19.21 2568.67
   05:48:57.186.28-May-2021 3439.00 6003.84 82.98 11.00  19.41 2568.67
   05:48:57.386.28-May-2021 3439.00 6003.60 82.98 11.00  19.61 2568.67
   05:48:57.586.28-May-2021 3439.00 6004.15 82.98 11.00  19.81 2568.67
   05:48:57.786.28-May-2021 3439.00 6004.43 82.98 11.00  20.01 2568.67
   05:48:57.986.28-May-2021 3439.00 6004.43 82.98 11.00  20.21 2568.67
   05:48:58.187.28-May-2021 3439.00 6004.81 82.98 11.00  20.41 2568.67
   05:48:58.387.28-May-2021 3439.00 6004.92 82.98 11.00  20.61 2568.67
   05:48:58.587.28-May-2021 3439.00 6004.85 82.98 11.00  20.81 2568.67
   05:48:58.787.28-May-2021 3439.00 6004.92 82.98 11.00  21.01 2568.67
   05:48:58.987.28-May-2021 3439.00 6004.92 82.98 11.00  21.21 2568.67
   05:48:59.187.28-May-2021 3439.00 6012.10 82.98 11.00  21.41 2568.67
   05:48:59.387.28-May-2021 3439.00 6002.23 82.98 11.00  21.61 2568.67
   05:48:59.587.28-May-2021 3439.00 6005.01 82.98 11.00  21.81 2568.67
   05:48:59.787.28-May-2021 3439.00 6004.72 82.98 11.00  22.01 2568.67
   05:48:59.987.28-May-2021 3439.00 6004.72 82.98 11.00  22.21 2568.67
   05:49:00.187.28-May-2021 3439.00 6006.17 82.98 11.00  22.41 2568.67
