~Version Information
 VERS.                  2.0:   CWLS log ASCII Standard -VERSION 2.0
 WRAP.                   NO:   One line per depth step
~Well Information Block
#MNEM.UNIT     VALUE/NAME     DESCRIPTION
#---------     -----------    ---------------------------
 STRT.S             07:37:51 28-May-21: START TIME 07:37:51 28-May-21
 STOP.S             07:44:58 28-May-21: STOP TIME  07:44:58 28-May-21
 STEP.S                   0.00: STEP TIME
 NULL.                 -999.25: NULL VALUE
 UWI .                     N/A:  UNIQUE WELL IDENTIFIER
 API .                     N/A:  API NUMBER
 UNIT.                     N/A:  LOGGING EQUIPMENT ID
 DCON.         Sperry Drilling:  DIRECTNL CONTR
 DOE .                     N/A:  DOE NUMBER
 MWDS.                    Baku:  MWD SHOP
 SRVC.     Turan Drilling and Engineering:  CONTRACTOR
 CTRY.              Azerbaijan:  COUNTRY NAME
 PROV.                    Baku:  PROVINCE
 STAT.                    Baku:  STATE NAME
 REGN.                   EESSA:  REGION
 BASE.              Azerbaijan:  LOGGING EQUIPMENT BASE LOCATION
 WTYP.                Deviated:  WELL TYPE
 RIG .              East Azeri:  RIG NAME
 WELL.                    D02y:  WELL NAME
 FLD .                     ACG:  FIELD NAME
 COMP.     BP Exploration (Caspian Sea) Ltd.:  COMPANY
 PDAT.          Mean Sea Level:  PERMANENT DATUM
 MDS .        Operator Entered:  MAG DATA SOURCE
 SON .        AZ-XX-0906997291:  JOB NUMBER
 FTOP.          Formation Tops:  FORM TOPS DESC
 ILTD.               Lithology:  INTERP LTH DESC
 SVYD.                  Survey:  SURVEY DESC
 DMOD.             Drill Model:  DRILL MOD DESC
 HPTY.       Minimum Curvature:  HOLE POS TYPE
 NREF.                    Grid:  NORTH REFERENCE
 SPUD.               05-May-21:  SPUD DATE
 DATE.      09.27.28 12-Jun-21:  END TIME
 STIM.      09.27.28 12-May-21:  START TIME
 DMF .             Drill Floor:  DRILL MEAS FROM
 DFST.                        :  DIST FSL TEXT
 DFWT.                        :  DIST FWL TEXT
 CNTY.                        :  COUNTY
 LOC .                        :  LOCATION
 LMF .             Drill Floor:  LOG MEASURED FROM
 DEP .m                2806.40:  DEPTH
 AGAP.m                  43.60:  AIR GAP
 VSNS.m                  -4.42:  VERT SEC N/S
 VSEW.m                  -7.31:  VERT SEC E/W
 APD .m                  43.60:  DEPTH ABOVE PD
 WDMS.m                 151.80:  WD ELEV
 EGL .m                   0.00:  GROUND ELEVATION
 EPD .m                   0.00:  ELEVATION
 AZTC.deg                 6.18:  AZM TOTAL CORR
 GRDC.deg                 0.29:  GRID CORRECTION
 MDEC.deg                 6.47:  MAGNETIC DECL
 MDIP.deg                59.50:  MAGNETIC DIP
 MFLD.nT              50350.00:  MAGNETIC FIELD
 GVFD.g                   1.00:  GRAVITY FIELD
 VSDR.deg               179.08:  VERT SEC DIRECT
 TDD .m                4300.00:  TOTAL DEPTH (DRILLER)
 SDEP.m                2800.00:  START DEPTH
 DFSL.m                   0.00:  DISTANCE FSL
 DFWL.m                   0.00:  DISTANCE FWL
 UTMY.m             4431871.34:  UTM Y
 UTMX.m              538762.90:  UTM X
 WHEW.m                  -7.31:  WELL HEAD E/W
 WHNS.m                  -4.42:  WELL HEAD N/S
 LONG.deg                51.45:  LONGITUDE
 LATI.deg                40.02:  LATITUDE
 TVDS.m                  43.60:  TVDSS CORRECTN
 EKB .m                  43.60:  KB ELEVATION
 EDF .m                  43.60:  DF ELEVATION
 TDL .m                 806.00:  TOTAL DEPTH (LOGGER)
 MAGU.                 1851231:  MAGUTM CHECKSUM
 VSC .                       0:  VS TO CLOSURE
~Parameter Information Block
#MNEM.UNIT       Value        Description
#---------     -----------    ---------------------------
 AV  .mps                 1.60:  Ann Velocity 
 AVMX.mps                 2.00:  Max Ann Veloc 
 AZIF.deg               140.24:  Azm, Final 
 BHAT.        Rotary Steerable:  BHA Type 
 BROT.°/30m               0.50:  Build Rotating 
 BS  .in                  8.50:  Bit Size 
 BTPL.psig              619.00:  Bit Press Loss 
 CABU.                     Yes:  Customer Abuse 
 CGEO.          Ilgar Gurbanov:  Customer Geo 
 COMM.                     dSc:  Run Comments 1 
 TCS .hr                 85.88:  Time Ciculation Ended 
 CV  .mps                 3.30:  Crit Velocity 
 CVMX.mps                 3.50:  Max Crit Veloc 
 DD1 .           Hamid Axmedov:  Direct Drillr 1 
 DD2 .           Teymur Aliyev:  Direct Drillr 2 
 DDSV.               Geo-Pilot:  DD Service 
 DEFF.%                 100.00:  % Det Eff 
 DLRX.°/30m               0.00:  Dogleg Rot Max 
 DLSO.°/30m               1.80:  Dogleg Oriented 
 DLSX.°/30m               3.34:  Dogleg Str Max 
 DRET.      11.50.00 27-May-21:  Drill End Time 
 DRST.      21.13.00 24-May-21:  Drill Start Tim 
 DTIM.hr                 45.11:  Time Drilling 
 EDEP.m                4054.00:  End Depth 
 ENG1.         Almaz Almadatov:  Engineer 1 
 ENG2.           Amrah Tahirov:  Engineer 2 
 ENG3.      Bakhtiyar Jabbarli:  Engineer 3 
 ENG4.          Nazrin Asgarli:  Engineer 4 
 ETIM.      10.00.00 30-May-21:  End Time 
 FLOI.gpm               530.00:  Flow In 
 FLON.gpm               400.00:  Flow In Min 
 FLOS.cptm                0.00:  Fluid Loss 
 FLOX.gpm               560.00:  Flow In Max 
 DFT .        Mineral Oil Base:  Mud Type 
 FTRO.       Formation Presure:  FTWD Run Obj 
 HFLO.                      No:  High Flow 
 HPRE.                      No:  High Pressure 
 HTEM.                      No:  High Temp 
 HYDO.m                   1.80:  Hydro Offset 
 IFIN.deg                73.83:  Inc, Final 
 IMAX.deg                73.83:  Inc Max 
 IMIN.deg                57.86:  Inc Min 
 IMND.m                3259.27:  Inc Min Depth 
 IMXD.m                4045.58:  Inc Max Depth 
 JARR.                     Yes:  Jarring 
 LETM.      11.50.00 27-May-21:  Log End Time 
 LOST.hr                     0:  Lost Rig Time 
 LSTM.      21.13.00 24-May-21:  Log Start Time 
 MDCL.ppm             42500.00:  Mud Chlorides 
 MDES.     Inversion Oil/Synthetic:  Mud Desc 
 DFD .sg                  1.52:  Mud Density 
 MDMN.sg                  1.52:  Dens Mud Min 
 MDMX.sg                  1.52:  Dens Mud Max 
 MOIL.                      70:  Run Mud Oil % 
 MOWR.                   70:30:  Run Mud OWR 
 MSND.                     0.2:  Run Mud Sand % 
 MSOL.                      22:  Run Mud Solids% 
 DFV .spqt               77.00:  Mud Viscosity 
 MWOD.in                  6.75:  MWD Tool OD 
 MWSI.                      No:  Serv Intrp, MWD 
 OTIM.hr                151.01:  Time Operating 
 PCON.          Wear / Scratch:  Pad Condition 
 PMAX.psia            11296.93:  Press Op, Max 
 PV  .cP                 37.00:  Mud PV 
 RUN .                     500:  Run Number 
 ROPA.m/hr               25.00:  ROP Avg 
 ROPN.m/hr                9.00:  ROP Min 
 ROPX.m/hr               28.00:  ROP Max 
 RPMA.rpm               140.00:  RPM Surface Avg 
 RPMN.rpm                90.00:  RPM Surface Min 
 RPMX.rpm               140.00:  RPM Surface Max 
 RRUN.                    0500:  Rig Run Number 
 SAZI.deg               172.17:  Azm, Start 
 SDEP.m                3248.00:  Start Depth 
 SIDD.                      No:  Serv Intrp, DD 
 SINC.deg                57.86:  Inc, Start 
 SPPA.psig             5620.00:  SPP Avg 
 SPPN.psig             5190.00:  SPP Min 
 SPPX.psig             6050.00:  SPP Max 
 STIM.      16.00.00 23-May-21:  Start Time 
 SVCS.                 DD, MWD:  Services 
 SVER.                    9.20:  Sperry Version 
 TDAT.m                 806.00:  Tot Depth Attmp 
 TDDF.                      No:  Trip for DD 
 TDLG.m                 806.00:  Tot Depth Loggd 
 TFF .                      No:  Trip for Fail 
 TQAA.f-kp               12.00:  Torque Abs Avg 
 TQAN.f-kp                8.00:  Torque Abs Min 
 TQAX.f-kp               15.00:  Torque Abs Max 
 TRRT.°/30m               0.30:  Turn Rotating 
 MRT .                  EWR-M5:  Maximum Recorded Temperature 
 TTMX.degC               93.00:  Max Tool Temp 
 VS01.                90649155:  Virtual Str1 SN 
 VS02.                90642264:  Virtual Str2 SN 
 VS03.                90642266:  Virtual Str3 SN 
 VS04.                90642261:  Virtual Str4 SN 
 WBMN.klb                 0.00:  WOB Min 
 WITN.             Anar Khalil:  Customer Rep 
 WITN.           Murad Guliyev:  Customer Rep 2 
 WOBA.klb                13.00:  WOB Avg 
 WOBX.klb                25.00:  WOB Max 
 YP  .lhf2               32.00:  Yield Point 
~Curve Information Block
#MNEM.UNIT                 API CODE     Curve Description
#---------               -----------    ---------------------------
 TIME.HHMMSS            00 000 000 000:  GT Time & Date
 GTDEPTH.m              00 000 000 000:  GT Depth
 GTPQH.psia             00 000 000 000:  GT HR Quartz Pressure
 GTTQ.degC              00 000 000 000:  GT Quartz Temperature
 GTTN.NONE              00 000 000 000:  GT Test Number
 GTET.sec               00 000 000 000:  GT Elapsed Test Time
 GTTVD.m                00 000 000 000:  GT True Vertical Depth
#Other Information
#
#WARRANTY: Halliburton will use its best efforts to furnish customers with 
#accurate information and interpretations that are part of, and incident to, the services 
#provided.  However, Halliburton cannot and does not warrant the accuracy 
#or correctness of such information and interpretations.  Under no circumstances should any 
#such information or interpretation be relied upon as the sole basis for any drilling, 
#completion, production, or financial decision or any procedure involving any risk to the 
#safety of any drilling venture, drilling rig or its crew or any other third party.  The 
#Customer has full responsibility for all drilling, completion and production operation.  
#Halliburton makes no representations or warranties, either expressed or 
#implied, including, but not limited to, the implied warranties of merchantability or fitness 
#for a particular purpose, with respect to the services rendered.  In no event will 
#Halliburton be liable for failure to obtain any particular results or for 
#any damages, including, but not limited to, indirect, special or consequential damages, 
#resulting from the use of any information or interpretation provided by Halliburton.
#
~A           TIME           GTDEPTH  GTPQH  GTTQ  GTTN   GTET   GTTVD  
# ...
   07:42:44.800.28-May-2021 3306.00 4525.91 81.94 13.00 293.80 2504.05
   07:42:45.000.28-May-2021 3306.00 4524.75 81.94 13.00 294.00 2504.05
   07:42:45.200.28-May-2021 3306.00 4524.75 81.94 13.00 294.20 2504.05
   07:42:45.400.28-May-2021 3306.00 4526.00 81.94 13.00 294.40 2504.05
   07:42:45.600.28-May-2021 3306.00 4526.02 81.94 13.00 294.60 2504.05
   07:42:45.800.28-May-2021 3306.00 4526.10 81.94 13.00 294.80 2504.05
   07:42:46.000.28-May-2021 3306.00 4526.11 81.94 13.00 295.00 2504.05
   07:42:46.200.28-May-2021 3306.00 4526.11 81.94 13.00 295.20 2504.05
   07:42:46.400.28-May-2021 3306.00 4526.10 81.94 13.00 295.40 2504.05
   07:42:46.600.28-May-2021 3306.00 4526.22 81.94 13.00 295.60 2504.05
   07:42:46.800.28-May-2021 3306.00 4524.91 81.94 13.00 295.80 2504.05
   07:42:47.000.28-May-2021 3306.00 4526.23 81.94 13.00 296.00 2504.05
   07:42:47.200.28-May-2021 3306.00 4526.23 81.94 13.00 296.20 2504.05
   07:42:47.400.28-May-2021 3306.00 4526.36 81.94 13.00 296.40 2504.05
   07:42:47.600.28-May-2021 3306.00 4525.05 81.94 13.00 296.60 2504.05
   07:42:47.800.28-May-2021 3306.00 4526.48 81.94 13.00 296.80 2504.05
   07:42:48.000.28-May-2021 3306.00 4526.49 81.94 13.00 297.00 2504.05
   07:42:48.200.28-May-2021 3306.00 4526.49 81.94 13.00 297.20 2504.05
   07:42:48.400.28-May-2021 3306.00 4526.63 81.94 13.00 297.40 2504.05
   07:42:48.600.28-May-2021 3306.00 4526.71 81.94 13.00 297.60 2504.05
   07:42:48.800.28-May-2021 3306.00 4526.75 81.94 13.00 297.80 2504.05
   07:42:49.000.28-May-2021 3306.00 4526.80 81.94 13.00 298.00 2504.05
   07:42:49.200.28-May-2021 3306.00 4526.80 81.94 13.00 298.20 2504.05
   07:42:49.400.28-May-2021 3306.00 4526.87 81.94 13.00 298.40 2504.05
   07:42:49.600.28-May-2021 3306.00 4526.93 81.94 13.00 298.60 2504.05
   07:42:49.800.28-May-2021 3306.00 4526.96 81.94 13.00 298.80 2504.05
   07:42:50.000.28-May-2021 3306.00 4525.79 81.94 13.00 299.00 2504.05
   07:42:50.200.28-May-2021 3306.00 4525.79 81.94 13.00 299.20 2504.05
   07:42:50.400.28-May-2021 3306.00 4527.06 81.94 13.00 299.40 2504.05
   07:42:50.600.28-May-2021 3306.00 4527.08 81.94 13.00 299.60 2504.05
   07:42:50.800.28-May-2021 3306.00 4527.19 81.94 13.00 299.80 2504.05
   07:42:51.000.28-May-2021 3306.00 4527.18 81.94 13.00 300.00 2504.05
   07:42:51.200.28-May-2021 3306.00 4527.18 81.94 13.00 300.20 2504.05
   07:42:51.400.28-May-2021 3306.00 4527.31 81.93 13.00 300.40 2504.05
   07:42:51.600.28-May-2021 3306.00 4527.33 81.93 13.00 300.60 2504.05
   07:42:51.800.28-May-2021 3306.00 4527.38 81.93 13.00 300.80 2504.05
   07:42:52.000.28-May-2021 3306.00 4527.42 81.93 13.00 301.00 2504.05
   07:42:52.200.28-May-2021 3306.00 4527.42 81.93 13.00 301.20 2504.05
   07:42:52.400.28-May-2021 3306.00 4527.48 81.93 13.00 301.40 2504.05
   07:42:52.600.28-May-2021 3306.00 4527.52 81.93 13.00 301.60 2504.05
   07:42:52.800.28-May-2021 3306.00 4526.14 81.93 13.00 301.80 2504.05
   07:42:53.000.28-May-2021 3306.00 4527.51 81.93 13.00 302.00 2504.05
   07:42:53.200.28-May-2021 3306.00 4527.51 81.93 13.00 302.20 2504.05
   07:42:53.400.28-May-2021 3306.00 4527.65 81.93 13.00 302.40 2504.05
   07:42:53.600.28-May-2021 3306.00 4527.67 81.93 13.00 302.60 2504.05
   07:42:53.800.28-May-2021 3306.00 4527.66 81.93 13.00 302.80 2504.05
   07:42:54.000.28-May-2021 3306.00 4526.37 81.93 13.00 303.00 2504.05
   07:42:54.200.28-May-2021 3306.00 4526.37 81.93 13.00 303.20 2504.05
   07:42:54.400.28-May-2021 3306.00 4527.72 81.93 13.00 303.40 2504.05
   07:42:54.600.28-May-2021 3306.00 4526.71 81.93 13.00 303.60 2504.05
   07:42:54.800.28-May-2021 3306.00 4527.57 81.93 13.00 303.80 2504.05
   07:42:55.000.28-May-2021 3306.00 4527.90 81.93 13.00 304.00 2504.05
   07:42:55.200.28-May-2021 3306.00 4527.90 81.93 13.00 304.20 2504.05
   07:42:55.400.28-May-2021 3306.00 4528.02 81.93 13.00 304.40 2504.05
   07:42:55.600.28-May-2021 3306.00 4528.02 81.93 13.00 304.60 2504.05
   07:42:55.800.28-May-2021 3306.00 4526.50 81.93 13.00 304.80 2504.05
   07:42:56.000.28-May-2021 3306.00 4528.23 81.93 13.00 305.00 2504.05
   07:42:56.200.28-May-2021 3306.00 4528.23 81.93 13.00 305.20 2504.05
   07:42:56.400.28-May-2021 3306.00 4528.22 81.93 13.00 305.40 2504.05
   07:42:56.600.28-May-2021 3306.00 4528.20 81.93 13.00 305.60 2504.05
   07:42:56.800.28-May-2021 3306.00 4528.27 81.93 13.00 305.80 2504.05
   07:42:57.000.28-May-2021 3306.00 4528.32 81.93 13.00 306.00 2504.05
   07:42:57.200.28-May-2021 3306.00 4528.32 81.93 13.00 306.20 2504.05
   07:42:57.400.28-May-2021 3306.00 4528.38 81.93 13.00 306.40 2504.05
   07:42:57.600.28-May-2021 3306.00 4528.41 81.93 13.00 306.60 2504.05
   07:42:57.800.28-May-2021 3306.00 4528.46 81.93 13.00 306.80 2504.05
   07:42:58.000.28-May-2021 3306.00 4528.49 81.93 13.00 307.00 2504.05
   07:42:58.200.28-May-2021 3306.00 4528.49 81.93 13.00 307.20 2504.05
   07:42:58.400.28-May-2021 3306.00 4527.20 81.93 13.00 307.40 2504.05
   07:42:58.600.28-May-2021 3306.00 4528.57 81.93 13.00 307.60 2504.05
   07:42:58.800.28-May-2021 3306.00 4528.52 81.93 13.00 307.80 2504.05
   07:42:59.000.28-May-2021 3306.00 4528.72 81.93 13.00 308.00 2504.05
   07:42:59.200.28-May-2021 3306.00 4528.72 81.93 13.00 308.20 2504.05
   07:42:59.400.28-May-2021 3306.00 4528.75 81.93 13.00 308.40 2504.05
   07:42:59.600.28-May-2021 3306.00 4528.80 81.93 13.00 308.60 2504.05
   07:42:59.800.28-May-2021 3306.00 4528.81 81.93 13.00 308.80 2504.05
   07:43:00.000.28-May-2021 3306.00 4528.81 81.93 13.00 309.00 2504.05
   07:43:00.200.28-May-2021 3306.00 4528.81 81.93 13.00 309.20 2504.05
   07:43:00.400.28-May-2021 3306.00 4528.89 81.93 13.00 309.40 2504.05
   07:43:00.600.28-May-2021 3306.00 4528.93 81.93 13.00 309.60 2504.05
   07:43:00.800.28-May-2021 3306.00 4528.95 81.93 13.00 309.80 2504.05
   07:43:01.000.28-May-2021 3306.00 4527.80 81.93 13.00 310.00 2504.05
   07:43:01.200.28-May-2021 3306.00 4527.80 81.93 13.00 310.20 2504.05
   07:43:01.400.28-May-2021 3306.00 4529.04 81.93 13.00 310.40 2504.05
   07:43:01.600.28-May-2021 3306.00 4529.05 81.93 13.00 310.60 2504.05
   07:43:01.800.28-May-2021 3306.00 4529.13 81.93 13.00 310.80 2504.05
   07:43:02.000.28-May-2021 3306.00 4529.11 81.93 13.00 311.00 2504.05
   07:43:02.200.28-May-2021 3306.00 4529.11 81.93 13.00 311.20 2504.05
   07:43:02.400.28-May-2021 3306.00 4528.91 81.93 13.00 311.40 2504.05
   07:43:02.600.28-May-2021 3306.00 4529.22 81.93 13.00 311.60 2504.05
   07:43:02.800.28-May-2021 3306.00 4529.24 81.93 13.00 311.80 2504.05
   07:43:03.000.28-May-2021 3306.00 4527.91 81.93 13.00 312.00 2504.05
   07:43:03.200.28-May-2021 3306.00 4527.91 81.93 13.00 312.20 2504.05
   07:43:03.400.28-May-2021 3306.00 4529.34 81.93 13.00 312.40 2504.05
   07:43:03.600.28-May-2021 3306.00 4529.41 81.93 13.00 312.60 2504.05
   07:43:03.800.28-May-2021 3306.00 4529.42 81.93 13.00 312.80 2504.05
   07:43:04.000.28-May-2021 3306.00 4528.06 81.93 13.00 313.00 2504.05
   07:43:04.200.28-May-2021 3306.00 4528.06 81.93 13.00 313.20 2504.05
   07:43:04.400.28-May-2021 3306.00 4529.50 81.93 13.00 313.40 2504.05
   07:43:04.600.28-May-2021 3306.00 4529.59 81.93 13.00 313.60 2504.05
   07:43:04.800.28-May-2021 3306.00 4529.63 81.93 13.00 313.80 2504.05
   07:43:05.000.28-May-2021 3306.00 4529.68 81.93 13.00 314.00 2504.05
   07:43:05.200.28-May-2021 3306.00 4529.68 81.93 13.00 314.20 2504.05
   07:43:05.400.28-May-2021 3306.00 4529.73 81.93 13.00 314.40 2504.05
   07:43:05.600.28-May-2021 3306.00 4529.75 81.93 13.00 314.60 2504.05
   07:43:05.800.28-May-2021 3306.00 4529.79 81.93 13.00 314.80 2504.05
   07:43:06.000.28-May-2021 3306.00 4529.81 81.93 13.00 315.00 2504.05
   07:43:06.200.28-May-2021 3306.00 4529.81 81.93 13.00 315.20 2504.05
   07:43:06.400.28-May-2021 3306.00 4529.15 81.93 13.00 315.40 2504.05
   07:43:06.600.28-May-2021 3306.00 4529.16 81.93 13.00 315.60 2504.05
   07:43:06.800.28-May-2021 3306.00 4529.94 81.93 13.00 315.80 2504.05
   07:43:07.000.28-May-2021 3306.00 4529.89 81.93 13.00 316.00 2504.05
   07:43:07.200.28-May-2021 3306.00 4529.89 81.93 13.00 316.20 2504.05
