~Version Information
 VERS.                  2.0:   CWLS log ASCII Standard -VERSION 2.0
 WRAP.                   NO:   One line per depth step
~Well Information Block
#MNEM.UNIT     VALUE/NAME     DESCRIPTION
#---------     -----------    ---------------------------
 STRT.S             00:59:34 28-May-21: START TIME 00:59:34 28-May-21
 STOP.S             01:06:40 28-May-21: STOP TIME  01:06:40 28-May-21
 STEP.S                   0.00: STEP TIME
 NULL.                 -999.25: NULL VALUE
 UWI .                     N/A:  UNIQUE WELL IDENTIFIER
 API .                     N/A:  API NUMBER
 UNIT.                     N/A:  LOGGING EQUIPMENT ID
 DCON.         Sperry Drilling:  DIRECTNL CONTR
 DOE .                     N/A:  DOE NUMBER
 MWDS.                    Baku:  MWD SHOP
 SRVC.     Turan Drilling and Engineering:  CONTRACTOR
 CTRY.              Azerbaijan:  COUNTRY NAME
 PROV.                    Baku:  PROVINCE
 STAT.                    Baku:  STATE NAME
 REGN.                   EESSA:  REGION
 BASE.              Azerbaijan:  LOGGING EQUIPMENT BASE LOCATION
 WTYP.                Deviated:  WELL TYPE
 RIG .              East Azeri:  RIG NAME
 WELL.                    D02y:  WELL NAME
 FLD .                     ACG:  FIELD NAME
 COMP.     BP Exploration (Caspian Sea) Ltd.:  COMPANY
 PDAT.          Mean Sea Level:  PERMANENT DATUM
 MDS .        Operator Entered:  MAG DATA SOURCE
 SON .        AZ-XX-0906997291:  JOB NUMBER
 FTOP.          Formation Tops:  FORM TOPS DESC
 ILTD.               Lithology:  INTERP LTH DESC
 SVYD.                  Survey:  SURVEY DESC
 DMOD.             Drill Model:  DRILL MOD DESC
 HPTY.       Minimum Curvature:  HOLE POS TYPE
 NREF.                    Grid:  NORTH REFERENCE
 SPUD.               05-May-21:  SPUD DATE
 DATE.      09.27.28 12-Jun-21:  END TIME
 STIM.      09.27.28 12-May-21:  START TIME
 DMF .             Drill Floor:  DRILL MEAS FROM
 DFST.                        :  DIST FSL TEXT
 DFWT.                        :  DIST FWL TEXT
 CNTY.                        :  COUNTY
 LOC .                        :  LOCATION
 LMF .             Drill Floor:  LOG MEASURED FROM
 DEP .m                2806.40:  DEPTH
 AGAP.m                  43.60:  AIR GAP
 VSNS.m                  -4.42:  VERT SEC N/S
 VSEW.m                  -7.31:  VERT SEC E/W
 APD .m                  43.60:  DEPTH ABOVE PD
 WDMS.m                 151.80:  WD ELEV
 EGL .m                   0.00:  GROUND ELEVATION
 EPD .m                   0.00:  ELEVATION
 AZTC.deg                 6.18:  AZM TOTAL CORR
 GRDC.deg                 0.29:  GRID CORRECTION
 MDEC.deg                 6.47:  MAGNETIC DECL
 MDIP.deg                59.50:  MAGNETIC DIP
 MFLD.nT              50350.00:  MAGNETIC FIELD
 GVFD.g                   1.00:  GRAVITY FIELD
 VSDR.deg               179.08:  VERT SEC DIRECT
 TDD .m                4300.00:  TOTAL DEPTH (DRILLER)
 SDEP.m                2800.00:  START DEPTH
 DFSL.m                   0.00:  DISTANCE FSL
 DFWL.m                   0.00:  DISTANCE FWL
 UTMY.m             4431871.34:  UTM Y
 UTMX.m              538762.90:  UTM X
 WHEW.m                  -7.31:  WELL HEAD E/W
 WHNS.m                  -4.42:  WELL HEAD N/S
 LONG.deg                51.45:  LONGITUDE
 LATI.deg                40.02:  LATITUDE
 TVDS.m                  43.60:  TVDSS CORRECTN
 EKB .m                  43.60:  KB ELEVATION
 EDF .m                  43.60:  DF ELEVATION
 TDL .m                 806.00:  TOTAL DEPTH (LOGGER)
 MAGU.                 1851231:  MAGUTM CHECKSUM
 VSC .                       0:  VS TO CLOSURE
~Parameter Information Block
#MNEM.UNIT       Value        Description
#---------     -----------    ---------------------------
 AV  .mps                 1.60:  Ann Velocity 
 AVMX.mps                 2.00:  Max Ann Veloc 
 AZIF.deg               140.24:  Azm, Final 
 BHAT.        Rotary Steerable:  BHA Type 
 BROT.°/30m               0.50:  Build Rotating 
 BS  .in                  8.50:  Bit Size 
 BTPL.psig              619.00:  Bit Press Loss 
 CABU.                     Yes:  Customer Abuse 
 CGEO.          Ilgar Gurbanov:  Customer Geo 
 COMM.                     ô:r:  Run Comments 1 
 TCS .hr                 85.88:  Time Ciculation Ended 
 CV  .mps                 3.30:  Crit Velocity 
 CVMX.mps                 3.50:  Max Crit Veloc 
 DD1 .           Hamid Axmedov:  Direct Drillr 1 
 DD2 .           Teymur Aliyev:  Direct Drillr 2 
 DDSV.               Geo-Pilot:  DD Service 
 DEFF.%                 100.00:  % Det Eff 
 DLRX.°/30m               0.00:  Dogleg Rot Max 
 DLSO.°/30m               1.80:  Dogleg Oriented 
 DLSX.°/30m               3.34:  Dogleg Str Max 
 DRET.      11.50.00 27-May-21:  Drill End Time 
 DRST.      21.13.00 24-May-21:  Drill Start Tim 
 DTIM.hr                 45.11:  Time Drilling 
 EDEP.m                4054.00:  End Depth 
 ENG1.         Almaz Almadatov:  Engineer 1 
 ENG2.           Amrah Tahirov:  Engineer 2 
 ENG3.      Bakhtiyar Jabbarli:  Engineer 3 
 ENG4.          Nazrin Asgarli:  Engineer 4 
 ETIM.      10.00.00 30-May-21:  End Time 
 FLOI.gpm               530.00:  Flow In 
 FLON.gpm               400.00:  Flow In Min 
 FLOS.cptm                0.00:  Fluid Loss 
 FLOX.gpm               560.00:  Flow In Max 
 DFT .        Mineral Oil Base:  Mud Type 
 FTRO.       Formation Presure:  FTWD Run Obj 
 HFLO.                      No:  High Flow 
 HPRE.                      No:  High Pressure 
 HTEM.                      No:  High Temp 
 HYDO.m                   1.80:  Hydro Offset 
 IFIN.deg                73.83:  Inc, Final 
 IMAX.deg                73.83:  Inc Max 
 IMIN.deg                57.86:  Inc Min 
 IMND.m                3259.27:  Inc Min Depth 
 IMXD.m                4045.58:  Inc Max Depth 
 JARR.                     Yes:  Jarring 
 LETM.      11.50.00 27-May-21:  Log End Time 
 LOST.hr                     0:  Lost Rig Time 
 LSTM.      21.13.00 24-May-21:  Log Start Time 
 MDCL.ppm             42500.00:  Mud Chlorides 
 MDES.     Inversion Oil/Synthetic:  Mud Desc 
 DFD .sg                  1.52:  Mud Density 
 MDMN.sg                  1.52:  Dens Mud Min 
 MDMX.sg                  1.52:  Dens Mud Max 
 MOIL.                      70:  Run Mud Oil % 
 MOWR.                   70:30:  Run Mud OWR 
 MSND.                     0.2:  Run Mud Sand % 
 MSOL.                      22:  Run Mud Solids% 
 DFV .spqt               77.00:  Mud Viscosity 
 MWOD.in                  6.75:  MWD Tool OD 
 MWSI.                      No:  Serv Intrp, MWD 
 OTIM.hr                151.01:  Time Operating 
 PCON.          Wear / Scratch:  Pad Condition 
 PMAX.psia            11296.93:  Press Op, Max 
 PV  .cP                 37.00:  Mud PV 
 RUN .                     500:  Run Number 
 ROPA.m/hr               25.00:  ROP Avg 
 ROPN.m/hr                9.00:  ROP Min 
 ROPX.m/hr               28.00:  ROP Max 
 RPMA.rpm               140.00:  RPM Surface Avg 
 RPMN.rpm                90.00:  RPM Surface Min 
 RPMX.rpm               140.00:  RPM Surface Max 
 RRUN.                    0500:  Rig Run Number 
 SAZI.deg               172.17:  Azm, Start 
 SDEP.m                3248.00:  Start Depth 
 SIDD.                      No:  Serv Intrp, DD 
 SINC.deg                57.86:  Inc, Start 
 SPPA.psig             5620.00:  SPP Avg 
 SPPN.psig             5190.00:  SPP Min 
 SPPX.psig             6050.00:  SPP Max 
 STIM.      16.00.00 23-May-21:  Start Time 
 SVCS.                 DD, MWD:  Services 
 SVER.                    9.20:  Sperry Version 
 TDAT.m                 806.00:  Tot Depth Attmp 
 TDDF.                      No:  Trip for DD 
 TDLG.m                 806.00:  Tot Depth Loggd 
 TFF .                      No:  Trip for Fail 
 TQAA.f-kp               12.00:  Torque Abs Avg 
 TQAN.f-kp                8.00:  Torque Abs Min 
 TQAX.f-kp               15.00:  Torque Abs Max 
 TRRT.°/30m               0.30:  Turn Rotating 
 MRT .                  EWR-M5:  Maximum Recorded Temperature 
 TTMX.degC               93.00:  Max Tool Temp 
 VS01.                90649155:  Virtual Str1 SN 
 VS02.                90642264:  Virtual Str2 SN 
 VS03.                90642266:  Virtual Str3 SN 
 VS04.                90642261:  Virtual Str4 SN 
 WBMN.klb                 0.00:  WOB Min 
 WITN.             Anar Khalil:  Customer Rep 
 WITN.           Murad Guliyev:  Customer Rep 2 
 WOBA.klb                13.00:  WOB Avg 
 WOBX.klb                25.00:  WOB Max 
 YP  .lhf2               32.00:  Yield Point 
~Curve Information Block
#MNEM.UNIT                 API CODE     Curve Description
#---------               -----------    ---------------------------
 TIME.HHMMSS            00 000 000 000:  GT Time & Date
 GTDEPTH.m              00 000 000 000:  GT Depth
 GTPQH.psia             00 000 000 000:  GT HR Quartz Pressure
 GTTQ.degC              00 000 000 000:  GT Quartz Temperature
 GTTN.NONE              00 000 000 000:  GT Test Number
 GTET.sec               00 000 000 000:  GT Elapsed Test Time
 GTTVD.m                00 000 000 000:  GT True Vertical Depth
#Other Information
#
#WARRANTY: Halliburton will use its best efforts to furnish customers with 
#accurate information and interpretations that are part of, and incident to, the services 
#provided.  However, Halliburton cannot and does not warrant the accuracy 
#or correctness of such information and interpretations.  Under no circumstances should any 
#such information or interpretation be relied upon as the sole basis for any drilling, 
#completion, production, or financial decision or any procedure involving any risk to the 
#safety of any drilling venture, drilling rig or its crew or any other third party.  The 
#Customer has full responsibility for all drilling, completion and production operation.  
#Halliburton makes no representations or warranties, either expressed or 
#implied, including, but not limited to, the implied warranties of merchantability or fitness 
#for a particular purpose, with respect to the services rendered.  In no event will 
#Halliburton be liable for failure to obtain any particular results or for 
#any damages, including, but not limited to, indirect, special or consequential damages, 
#resulting from the use of any information or interpretation provided by Halliburton.
#
~A           TIME           GTDEPTH  GTPQH  GTTQ  GTTN  GTET   GTTVD  
# ...
   01:01:30.071.28-May-2021 3649.00 3165.72 84.94 5.00 115.12 2653.32
   01:01:30.271.28-May-2021 3649.00 3165.72 84.94 5.00 115.32 2653.32
   01:01:30.472.28-May-2021 3649.00 3165.75 84.94 5.00 115.52 2653.32
   01:01:30.672.28-May-2021 3649.00 3165.77 84.94 5.00 115.72 2653.32
   01:01:30.872.28-May-2021 3649.00 3165.78 84.94 5.00 115.92 2653.32
   01:01:31.072.28-May-2021 3649.00 3165.80 84.94 5.00 116.12 2653.32
   01:01:31.272.28-May-2021 3649.00 3165.80 84.94 5.00 116.32 2653.32
   01:01:31.473.28-May-2021 3649.00 3165.81 84.94 5.00 116.52 2653.32
   01:01:31.673.28-May-2021 3649.00 3165.83 84.94 5.00 116.72 2653.32
   01:01:31.873.28-May-2021 3649.00 3165.82 84.94 5.00 116.92 2653.32
   01:01:32.073.28-May-2021 3649.00 3165.84 84.94 5.00 117.12 2653.32
   01:01:32.273.28-May-2021 3649.00 3165.84 84.94 5.00 117.32 2653.32
   01:01:32.474.28-May-2021 3649.00 3165.71 84.94 5.00 117.52 2653.32
   01:01:32.674.28-May-2021 3649.00 3165.74 84.94 5.00 117.72 2653.32
   01:01:32.874.28-May-2021 3649.00 3165.74 84.94 5.00 117.92 2653.32
   01:01:33.074.28-May-2021 3649.00 3165.72 84.94 5.00 118.12 2653.32
   01:01:33.274.28-May-2021 3649.00 3165.72 84.94 5.00 118.32 2653.32
   01:01:33.475.28-May-2021 3649.00 3165.73 84.94 5.00 118.52 2653.32
   01:01:33.675.28-May-2021 3649.00 3165.73 84.94 5.00 118.72 2653.32
   01:01:33.875.28-May-2021 3649.00 3165.75 84.94 5.00 118.92 2653.32
   01:01:34.075.28-May-2021 3649.00 3165.74 84.94 5.00 119.12 2653.32
   01:01:34.275.28-May-2021 3649.00 3165.74 84.94 5.00 119.32 2653.32
   01:01:34.476.28-May-2021 3649.00 3165.72 84.94 5.00 119.52 2653.32
   01:01:34.676.28-May-2021 3649.00 3165.73 84.94 5.00 119.72 2653.32
   01:01:34.876.28-May-2021 3649.00 3165.73 84.94 5.00 119.92 2653.32
   01:01:35.076.28-May-2021 3649.00 3165.75 84.94 5.00 120.12 2653.32
   01:01:35.277.28-May-2021 3649.00 3165.75 84.94 5.00 120.33 2653.32
   01:01:35.477.28-May-2021 3649.00 3165.70 84.94 5.00 120.53 2653.32
   01:01:35.677.28-May-2021 3649.00 3165.72 84.94 5.00 120.73 2653.32
   01:01:35.877.28-May-2021 3649.00 3165.73 84.94 5.00 120.93 2653.32
   01:01:36.077.28-May-2021 3649.00 3165.73 84.94 5.00 121.13 2653.32
   01:01:36.278.28-May-2021 3649.00 3165.73 84.94 5.00 121.33 2653.32
   01:01:36.478.28-May-2021 3649.00 3165.76 84.94 5.00 121.53 2653.32
   01:01:36.678.28-May-2021 3649.00 3165.76 84.94 5.00 121.73 2653.32
   01:01:36.878.28-May-2021 3649.00 3165.78 84.94 5.00 121.93 2653.32
   01:01:37.078.28-May-2021 3649.00 3165.79 84.94 5.00 122.13 2653.32
   01:01:37.279.28-May-2021 3649.00 3165.79 84.94 5.00 122.33 2653.32
   01:01:37.479.28-May-2021 3649.00 3165.80 84.94 5.00 122.53 2653.32
   01:01:37.679.28-May-2021 3649.00 3165.80 84.94 5.00 122.73 2653.32
   01:01:37.879.28-May-2021 3649.00 3165.79 84.94 5.00 122.93 2653.32
   01:01:38.079.28-May-2021 3649.00 3165.72 84.94 5.00 123.13 2653.32
   01:01:38.280.28-May-2021 3649.00 3165.72 84.94 5.00 123.33 2653.32
   01:01:38.480.28-May-2021 3649.00 3165.76 84.94 5.00 123.53 2653.32
   01:01:38.680.28-May-2021 3649.00 3165.76 84.94 5.00 123.73 2653.32
   01:01:38.880.28-May-2021 3649.00 3165.77 84.94 5.00 123.93 2653.32
   01:01:39.080.28-May-2021 3649.00 3165.78 84.94 5.00 124.13 2653.32
   01:01:39.281.28-May-2021 3649.00 3165.78 84.94 5.00 124.33 2653.32
   01:01:39.481.28-May-2021 3649.00 3165.80 84.94 5.00 124.53 2653.32
   01:01:39.681.28-May-2021 3649.00 3165.81 84.94 5.00 124.73 2653.32
   01:01:39.881.28-May-2021 3649.00 3165.81 84.94 5.00 124.93 2653.32
   01:01:40.082.28-May-2021 3649.00 3165.82 84.94 5.00 125.13 2653.32
   01:01:40.282.28-May-2021 3649.00 3165.82 84.94 5.00 125.33 2653.32
   01:01:40.482.28-May-2021 3649.00 3165.80 84.94 5.00 125.53 2653.32
   01:01:40.682.28-May-2021 3649.00 3165.72 84.94 5.00 125.73 2653.32
   01:01:40.882.28-May-2021 3649.00 3165.75 84.94 5.00 125.93 2653.32
   01:01:41.083.28-May-2021 3649.00 3165.73 84.94 5.00 126.13 2653.32
   01:01:41.283.28-May-2021 3649.00 3165.73 84.94 5.00 126.33 2653.32
   01:01:41.483.28-May-2021 3649.00 3165.71 84.94 5.00 126.53 2653.32
   01:01:41.683.28-May-2021 3649.00 3165.74 84.94 5.00 126.73 2653.32
   01:01:41.883.28-May-2021 3649.00 3165.74 84.94 5.00 126.93 2653.32
   01:01:42.084.28-May-2021 3649.00 3165.75 84.94 5.00 127.13 2653.32
   01:01:42.284.28-May-2021 3649.00 3165.75 84.94 5.00 127.33 2653.32
   01:01:42.484.28-May-2021 3649.00 3165.73 84.94 5.00 127.53 2653.32
   01:01:42.684.28-May-2021 3649.00 3165.72 84.94 5.00 127.73 2653.32
   01:01:42.884.28-May-2021 3649.00 3165.73 84.94 5.00 127.93 2653.32
   01:01:43.085.28-May-2021 3649.00 3165.74 84.94 5.00 128.13 2653.32
   01:01:43.285.28-May-2021 3649.00 3165.74 84.94 5.00 128.33 2653.32
   01:01:43.485.28-May-2021 3649.00 3165.76 84.94 5.00 128.53 2653.32
   01:01:43.685.28-May-2021 3649.00 3165.69 84.94 5.00 128.73 2653.32
   01:01:43.885.28-May-2021 3649.00 3165.72 84.94 5.00 128.93 2653.32
   01:01:44.086.28-May-2021 3649.00 3165.73 84.94 5.00 129.13 2653.32
   01:01:44.286.28-May-2021 3649.00 3165.73 84.94 5.00 129.33 2653.32
   01:01:44.486.28-May-2021 3649.00 3165.74 84.94 5.00 129.53 2653.32
   01:01:44.686.28-May-2021 3649.00 3165.75 84.94 5.00 129.73 2653.32
   01:01:44.887.28-May-2021 3649.00 3165.76 84.94 5.00 129.94 2653.32
   01:01:45.087.28-May-2021 3649.00 3165.76 84.94 5.00 130.14 2653.32
   01:01:45.287.28-May-2021 3649.00 3165.76 84.94 5.00 130.34 2653.32
   01:01:45.487.28-May-2021 3649.00 3165.78 84.94 5.00 130.54 2653.32
   01:01:45.687.28-May-2021 3649.00 3165.78 84.94 5.00 130.74 2653.32
   01:01:45.888.28-May-2021 3649.00 3165.79 84.94 5.00 130.94 2653.32
   01:01:46.088.28-May-2021 3649.00 3165.78 84.94 5.00 131.14 2653.32
   01:01:46.288.28-May-2021 3649.00 3165.78 84.94 5.00 131.34 2653.32
   01:01:46.488.28-May-2021 3649.00 3165.74 84.94 5.00 131.54 2653.32
   01:01:46.688.28-May-2021 3649.00 3165.74 84.94 5.00 131.74 2653.32
   01:01:46.889.28-May-2021 3649.00 3165.75 84.94 5.00 131.94 2653.32
   01:01:47.089.28-May-2021 3649.00 3165.76 84.94 5.00 132.14 2653.32
   01:01:47.289.28-May-2021 3649.00 3165.76 84.94 5.00 132.34 2653.32
   01:01:47.489.28-May-2021 3649.00 3165.77 84.94 5.00 132.54 2653.32
   01:01:47.689.28-May-2021 3649.00 3165.79 84.94 5.00 132.74 2653.32
   01:01:47.890.28-May-2021 3649.00 3165.79 84.94 5.00 132.94 2653.32
   01:01:48.090.28-May-2021 3649.00 3165.80 84.94 5.00 133.14 2653.32
   01:01:48.290.28-May-2021 3649.00 3165.80 84.94 5.00 133.34 2653.32
   01:01:48.490.28-May-2021 3649.00 3165.80 84.94 5.00 133.54 2653.32
   01:01:48.690.28-May-2021 3649.00 3165.79 84.94 5.00 133.74 2653.32
   01:01:48.891.28-May-2021 3649.00 3165.72 84.94 5.00 133.94 2653.32
   01:01:49.091.28-May-2021 3649.00 3165.74 84.94 5.00 134.14 2653.32
   01:01:49.291.28-May-2021 3649.00 3165.74 84.94 5.00 134.34 2653.32
   01:01:49.491.28-May-2021 3649.00 3165.73 84.94 5.00 134.54 2653.32
   01:01:49.692.28-May-2021 3649.00 3165.72 84.94 5.00 134.74 2653.32
   01:01:49.892.28-May-2021 3649.00 3165.73 84.94 5.00 134.94 2653.32
   01:01:50.092.28-May-2021 3649.00 3165.73 84.94 5.00 135.14 2653.32
   01:01:50.292.28-May-2021 3649.00 3165.73 84.94 5.00 135.34 2653.32
   01:01:50.492.28-May-2021 3649.00 3165.72 84.94 5.00 135.54 2653.32
   01:01:50.693.28-May-2021 3649.00 3165.74 84.94 5.00 135.74 2653.32
   01:01:50.893.28-May-2021 3649.00 3165.72 84.94 5.00 135.94 2653.32
   01:01:51.093.28-May-2021 3649.00 3165.72 84.94 5.00 136.14 2653.32
   01:01:51.293.28-May-2021 3649.00 3165.72 84.94 5.00 136.34 2653.32
   01:01:51.493.28-May-2021 3649.00 3165.74 84.94 5.00 136.54 2653.32
   01:01:51.694.28-May-2021 3649.00 3165.74 84.94 5.00 136.74 2653.32
   01:01:51.894.28-May-2021 3649.00 3165.69 84.94 5.00 136.94 2653.32
   01:01:52.094.28-May-2021 3649.00 3165.72 84.94 5.00 137.14 2653.32
   01:01:52.294.28-May-2021 3649.00 3165.72 84.94 5.00 137.34 2653.32
   01:01:52.494.28-May-2021 3649.00 3165.73 84.94 5.00 137.54 2653.32
   01:01:52.695.28-May-2021 3649.00 3165.73 84.94 5.00 137.74 2653.32
   01:01:52.895.28-May-2021 3649.00 3165.74 84.94 5.00 137.94 2653.32
