~Version Information
 VERS.                  2.0:   CWLS log ASCII Standard -VERSION 2.0
 WRAP.                   NO:   One line per depth step
~Well Information Block
#MNEM.UNIT     VALUE/NAME     DESCRIPTION
#---------     -----------    ---------------------------
 STRT.S             02:05:55 28-May-21: START TIME 02:05:55 28-May-21
 STOP.S             02:13:01 28-May-21: STOP TIME  02:13:01 28-May-21
 STEP.S                   0.00: STEP TIME
 NULL.                 -999.25: NULL VALUE
 UWI .                     N/A:  UNIQUE WELL IDENTIFIER
 API .                     N/A:  API NUMBER
 UNIT.                     N/A:  LOGGING EQUIPMENT ID
 DCON.         Sperry Drilling:  DIRECTNL CONTR
 DOE .                     N/A:  DOE NUMBER
 MWDS.                    Baku:  MWD SHOP
 SRVC.     Turan Drilling and Engineering:  CONTRACTOR
 CTRY.              Azerbaijan:  COUNTRY NAME
 PROV.                    Baku:  PROVINCE
 STAT.                    Baku:  STATE NAME
 REGN.                   EESSA:  REGION
 BASE.              Azerbaijan:  LOGGING EQUIPMENT BASE LOCATION
 WTYP.                Deviated:  WELL TYPE
 RIG .              East Azeri:  RIG NAME
 WELL.                    D02y:  WELL NAME
 FLD .                     ACG:  FIELD NAME
 COMP.     BP Exploration (Caspian Sea) Ltd.:  COMPANY
 PDAT.          Mean Sea Level:  PERMANENT DATUM
 MDS .        Operator Entered:  MAG DATA SOURCE
 SON .        AZ-XX-0906997291:  JOB NUMBER
 FTOP.          Formation Tops:  FORM TOPS DESC
 ILTD.               Lithology:  INTERP LTH DESC
 SVYD.                  Survey:  SURVEY DESC
 DMOD.             Drill Model:  DRILL MOD DESC
 HPTY.       Minimum Curvature:  HOLE POS TYPE
 NREF.                    Grid:  NORTH REFERENCE
 SPUD.               05-May-21:  SPUD DATE
 DATE.      09.27.28 12-Jun-21:  END TIME
 STIM.      09.27.28 12-May-21:  START TIME
 DMF .             Drill Floor:  DRILL MEAS FROM
 DFST.                        :  DIST FSL TEXT
 DFWT.                        :  DIST FWL TEXT
 CNTY.                        :  COUNTY
 LOC .                        :  LOCATION
 LMF .             Drill Floor:  LOG MEASURED FROM
 DEP .m                2806.40:  DEPTH
 AGAP.m                  43.60:  AIR GAP
 VSNS.m                  -4.42:  VERT SEC N/S
 VSEW.m                  -7.31:  VERT SEC E/W
 APD .m                  43.60:  DEPTH ABOVE PD
 WDMS.m                 151.80:  WD ELEV
 EGL .m                   0.00:  GROUND ELEVATION
 EPD .m                   0.00:  ELEVATION
 AZTC.deg                 6.18:  AZM TOTAL CORR
 GRDC.deg                 0.29:  GRID CORRECTION
 MDEC.deg                 6.47:  MAGNETIC DECL
 MDIP.deg                59.50:  MAGNETIC DIP
 MFLD.nT              50350.00:  MAGNETIC FIELD
 GVFD.g                   1.00:  GRAVITY FIELD
 VSDR.deg               179.08:  VERT SEC DIRECT
 TDD .m                4300.00:  TOTAL DEPTH (DRILLER)
 SDEP.m                2800.00:  START DEPTH
 DFSL.m                   0.00:  DISTANCE FSL
 DFWL.m                   0.00:  DISTANCE FWL
 UTMY.m             4431871.34:  UTM Y
 UTMX.m              538762.90:  UTM X
 WHEW.m                  -7.31:  WELL HEAD E/W
 WHNS.m                  -4.42:  WELL HEAD N/S
 LONG.deg                51.45:  LONGITUDE
 LATI.deg                40.02:  LATITUDE
 TVDS.m                  43.60:  TVDSS CORRECTN
 EKB .m                  43.60:  KB ELEVATION
 EDF .m                  43.60:  DF ELEVATION
 TDL .m                 806.00:  TOTAL DEPTH (LOGGER)
 MAGU.                 1851231:  MAGUTM CHECKSUM
 VSC .                       0:  VS TO CLOSURE
~Parameter Information Block
#MNEM.UNIT       Value        Description
#---------     -----------    ---------------------------
 AV  .mps                 1.60:  Ann Velocity 
 AVMX.mps                 2.00:  Max Ann Veloc 
 AZIF.deg               140.24:  Azm, Final 
 BHAT.        Rotary Steerable:  BHA Type 
 BROT.°/30m               0.50:  Build Rotating 
 BS  .in                  8.50:  Bit Size 
 BTPL.psig              619.00:  Bit Press Loss 
 CABU.                     Yes:  Customer Abuse 
 CGEO.          Ilgar Gurbanov:  Customer Geo 
 COMM.                     „.V:  Run Comments 1 
 TCS .hr                 85.88:  Time Ciculation Ended 
 CV  .mps                 3.30:  Crit Velocity 
 CVMX.mps                 3.50:  Max Crit Veloc 
 DD1 .           Hamid Axmedov:  Direct Drillr 1 
 DD2 .           Teymur Aliyev:  Direct Drillr 2 
 DDSV.               Geo-Pilot:  DD Service 
 DEFF.%                 100.00:  % Det Eff 
 DLRX.°/30m               0.00:  Dogleg Rot Max 
 DLSO.°/30m               1.80:  Dogleg Oriented 
 DLSX.°/30m               3.34:  Dogleg Str Max 
 DRET.      11.50.00 27-May-21:  Drill End Time 
 DRST.      21.13.00 24-May-21:  Drill Start Tim 
 DTIM.hr                 45.11:  Time Drilling 
 EDEP.m                4054.00:  End Depth 
 ENG1.         Almaz Almadatov:  Engineer 1 
 ENG2.           Amrah Tahirov:  Engineer 2 
 ENG3.      Bakhtiyar Jabbarli:  Engineer 3 
 ENG4.          Nazrin Asgarli:  Engineer 4 
 ETIM.      10.00.00 30-May-21:  End Time 
 FLOI.gpm               530.00:  Flow In 
 FLON.gpm               400.00:  Flow In Min 
 FLOS.cptm                0.00:  Fluid Loss 
 FLOX.gpm               560.00:  Flow In Max 
 DFT .        Mineral Oil Base:  Mud Type 
 FTRO.       Formation Presure:  FTWD Run Obj 
 HFLO.                      No:  High Flow 
 HPRE.                      No:  High Pressure 
 HTEM.                      No:  High Temp 
 HYDO.m                   1.80:  Hydro Offset 
 IFIN.deg                73.83:  Inc, Final 
 IMAX.deg                73.83:  Inc Max 
 IMIN.deg                57.86:  Inc Min 
 IMND.m                3259.27:  Inc Min Depth 
 IMXD.m                4045.58:  Inc Max Depth 
 JARR.                     Yes:  Jarring 
 LETM.      11.50.00 27-May-21:  Log End Time 
 LOST.hr                     0:  Lost Rig Time 
 LSTM.      21.13.00 24-May-21:  Log Start Time 
 MDCL.ppm             42500.00:  Mud Chlorides 
 MDES.     Inversion Oil/Synthetic:  Mud Desc 
 DFD .sg                  1.52:  Mud Density 
 MDMN.sg                  1.52:  Dens Mud Min 
 MDMX.sg                  1.52:  Dens Mud Max 
 MOIL.                      70:  Run Mud Oil % 
 MOWR.                   70:30:  Run Mud OWR 
 MSND.                     0.2:  Run Mud Sand % 
 MSOL.                      22:  Run Mud Solids% 
 DFV .spqt               77.00:  Mud Viscosity 
 MWOD.in                  6.75:  MWD Tool OD 
 MWSI.                      No:  Serv Intrp, MWD 
 OTIM.hr                151.01:  Time Operating 
 PCON.          Wear / Scratch:  Pad Condition 
 PMAX.psia            11296.93:  Press Op, Max 
 PV  .cP                 37.00:  Mud PV 
 RUN .                     500:  Run Number 
 ROPA.m/hr               25.00:  ROP Avg 
 ROPN.m/hr                9.00:  ROP Min 
 ROPX.m/hr               28.00:  ROP Max 
 RPMA.rpm               140.00:  RPM Surface Avg 
 RPMN.rpm                90.00:  RPM Surface Min 
 RPMX.rpm               140.00:  RPM Surface Max 
 RRUN.                    0500:  Rig Run Number 
 SAZI.deg               172.17:  Azm, Start 
 SDEP.m                3248.00:  Start Depth 
 SIDD.                      No:  Serv Intrp, DD 
 SINC.deg                57.86:  Inc, Start 
 SPPA.psig             5620.00:  SPP Avg 
 SPPN.psig             5190.00:  SPP Min 
 SPPX.psig             6050.00:  SPP Max 
 STIM.      16.00.00 23-May-21:  Start Time 
 SVCS.                 DD, MWD:  Services 
 SVER.                    9.20:  Sperry Version 
 TDAT.m                 806.00:  Tot Depth Attmp 
 TDDF.                      No:  Trip for DD 
 TDLG.m                 806.00:  Tot Depth Loggd 
 TFF .                      No:  Trip for Fail 
 TQAA.f-kp               12.00:  Torque Abs Avg 
 TQAN.f-kp                8.00:  Torque Abs Min 
 TQAX.f-kp               15.00:  Torque Abs Max 
 TRRT.°/30m               0.30:  Turn Rotating 
 MRT .                  EWR-M5:  Maximum Recorded Temperature 
 TTMX.degC               93.00:  Max Tool Temp 
 VS01.                90649155:  Virtual Str1 SN 
 VS02.                90642264:  Virtual Str2 SN 
 VS03.                90642266:  Virtual Str3 SN 
 VS04.                90642261:  Virtual Str4 SN 
 WBMN.klb                 0.00:  WOB Min 
 WITN.             Anar Khalil:  Customer Rep 
 WITN.           Murad Guliyev:  Customer Rep 2 
 WOBA.klb                13.00:  WOB Avg 
 WOBX.klb                25.00:  WOB Max 
 YP  .lhf2               32.00:  Yield Point 
~Curve Information Block
#MNEM.UNIT                 API CODE     Curve Description
#---------               -----------    ---------------------------
 TIME.HHMMSS            00 000 000 000:  GT Time & Date
 GTDEPTH.m              00 000 000 000:  GT Depth
 GTPQH.psia             00 000 000 000:  GT HR Quartz Pressure
 GTTQ.degC              00 000 000 000:  GT Quartz Temperature
 GTTN.NONE              00 000 000 000:  GT Test Number
 GTET.sec               00 000 000 000:  GT Elapsed Test Time
 GTTVD.m                00 000 000 000:  GT True Vertical Depth
#Other Information
#
#WARRANTY: Halliburton will use its best efforts to furnish customers with 
#accurate information and interpretations that are part of, and incident to, the services 
#provided.  However, Halliburton cannot and does not warrant the accuracy 
#or correctness of such information and interpretations.  Under no circumstances should any 
#such information or interpretation be relied upon as the sole basis for any drilling, 
#completion, production, or financial decision or any procedure involving any risk to the 
#safety of any drilling venture, drilling rig or its crew or any other third party.  The 
#Customer has full responsibility for all drilling, completion and production operation.  
#Halliburton makes no representations or warranties, either expressed or 
#implied, including, but not limited to, the implied warranties of merchantability or fitness 
#for a particular purpose, with respect to the services rendered.  In no event will 
#Halliburton be liable for failure to obtain any particular results or for 
#any damages, including, but not limited to, indirect, special or consequential damages, 
#resulting from the use of any information or interpretation provided by Halliburton.
#
~A           TIME           GTDEPTH  GTPQH  GTTQ  GTTN  GTET   GTTVD  
# ...
   02:06:18.000.28-May-2021 3586.77 6148.15 84.60 6.00  23.00 2629.64
   02:06:18.200.28-May-2021 3586.77 6148.15 84.60 6.00  23.20 2629.64
   02:06:18.400.28-May-2021 3586.77 6148.46 84.60 6.00  23.40 2629.64
   02:06:18.600.28-May-2021 3586.77 6148.31 84.60 6.00  23.60 2629.64
   02:06:18.800.28-May-2021 3586.77 6148.20 84.60 6.00  23.80 2629.64
   02:06:19.000.28-May-2021 3586.77 6155.98 84.60 6.00  24.00 2629.64
   02:06:19.200.28-May-2021 3586.77 6155.98 84.60 6.00  24.20 2629.64
   02:06:19.400.28-May-2021 3586.77 6148.34 84.60 6.00  24.40 2629.64
   02:06:19.600.28-May-2021 3586.77 6149.02 84.60 6.00  24.60 2629.64
   02:06:19.800.28-May-2021 3586.77 6148.62 84.60 6.00  24.80 2629.64
   02:06:20.000.28-May-2021 3586.77 6148.92 84.60 6.00  25.00 2629.64
   02:06:20.200.28-May-2021 3586.77 6148.92 84.60 6.00  25.20 2629.64
   02:06:20.400.28-May-2021 3586.77 6149.11 84.60 6.00  25.40 2629.64
   02:06:20.600.28-May-2021 3586.77 6149.38 84.60 6.00  25.60 2629.64
   02:06:20.800.28-May-2021 3586.77 6149.71 84.60 6.00  25.80 2629.64
   02:06:21.000.28-May-2021 3586.77 6149.95 84.60 6.00  26.00 2629.64
   02:06:21.200.28-May-2021 3586.77 6149.95 84.60 6.00  26.20 2629.64
   02:06:21.400.28-May-2021 3586.77 6149.72 84.60 6.00  26.40 2629.64
   02:06:21.600.28-May-2021 3586.77 6149.79 84.60 6.00  26.60 2629.64
   02:06:21.800.28-May-2021 3586.77 6157.59 84.60 6.00  26.80 2629.64
   02:06:22.000.28-May-2021 3586.77 6146.30 84.60 6.00  27.00 2629.64
   02:06:22.200.28-May-2021 3586.77 6146.30 84.60 6.00  27.20 2629.64
   02:06:22.400.28-May-2021 3586.77 6150.35 84.60 6.00  27.40 2629.64
   02:06:22.600.28-May-2021 3586.77 6149.87 84.60 6.00  27.60 2629.64
   02:06:22.800.28-May-2021 3586.77 6150.33 84.60 6.00  27.80 2629.64
   02:06:23.000.28-May-2021 3586.77 6157.87 84.60 6.00  28.00 2629.64
   02:06:23.200.28-May-2021 3586.77 6157.87 84.60 6.00  28.20 2629.64
   02:06:23.400.28-May-2021 3586.77 6150.88 84.59 6.00  28.40 2629.64
   02:06:23.600.28-May-2021 3586.77 6151.55 84.59 6.00  28.60 2629.64
   02:06:23.800.28-May-2021 3586.77 6151.04 84.59 6.00  28.80 2629.64
   02:06:24.000.28-May-2021 3586.77 6151.28 84.59 6.00  29.00 2629.64
   02:06:24.200.28-May-2021 3586.77 6151.28 84.59 6.00  29.20 2629.64
   02:06:24.400.28-May-2021 3586.77 6149.73 84.59 6.00  29.40 2629.64
   02:06:24.600.28-May-2021 3586.77 6151.35 84.59 6.00  29.60 2629.64
   02:06:24.800.28-May-2021 3586.77 6159.61 84.59 6.00  29.80 2629.64
   02:06:25.000.28-May-2021 3586.77 6147.53 84.59 6.00  30.00 2629.64
   02:06:25.200.28-May-2021 3586.77 6147.53 84.59 6.00  30.20 2629.64
   02:06:25.400.28-May-2021 3586.77 6151.89 84.59 6.00  30.40 2629.64
   02:06:25.600.28-May-2021 3586.77 6151.88 84.59 6.00  30.60 2629.64
   02:06:25.800.28-May-2021 3586.77 6152.09 84.59 6.00  30.80 2629.64
   02:06:26.000.28-May-2021 3586.77 6152.02 84.59 6.00  31.00 2629.64
   02:06:26.200.28-May-2021 3586.77 6152.02 84.59 6.00  31.20 2629.64
   02:06:26.400.28-May-2021 3586.77 6152.51 84.59 6.00  31.40 2629.64
   02:06:26.600.28-May-2021 3586.77 6152.66 84.59 6.00  31.60 2629.64
   02:06:26.800.28-May-2021 3586.77 6152.60 84.59 6.00  31.80 2629.64
   02:06:27.000.28-May-2021 3586.77 6152.42 84.59 6.00  32.00 2629.64
   02:06:27.200.28-May-2021 3586.77 6152.42 84.59 6.00  32.20 2629.64
   02:06:27.400.28-May-2021 3586.77 6160.08 84.59 6.00  32.40 2629.64
   02:06:27.600.28-May-2021 3586.77 6148.66 84.59 6.00  32.60 2629.64
   02:06:27.800.28-May-2021 3586.77 6152.29 84.59 6.00  32.80 2629.64
   02:06:28.000.28-May-2021 3586.77 6153.04 84.59 6.00  33.00 2629.64
   02:06:28.200.28-May-2021 3586.77 6153.04 84.59 6.00  33.20 2629.64
   02:06:28.400.28-May-2021 3586.77 6152.74 84.59 6.00  33.40 2629.64
   02:06:28.600.28-May-2021 3586.77 6152.68 84.59 6.00  33.60 2629.64
   02:06:28.800.28-May-2021 3586.77 6152.92 84.59 6.00  33.80 2629.64
   02:06:29.000.28-May-2021 3586.77 6153.10 84.59 6.00  34.00 2629.64
   02:06:29.200.28-May-2021 3586.77 6153.10 84.59 6.00  34.20 2629.64
   02:06:29.400.28-May-2021 3586.77 6153.85 84.59 6.00  34.40 2629.64
   02:06:29.600.28-May-2021 3586.77 6153.70 84.59 6.00  34.60 2629.64
   02:06:29.800.28-May-2021 3586.77 6153.72 84.58 6.00  34.80 2629.64
   02:06:30.000.28-May-2021 3586.77 6157.02 84.58 6.00  35.00 2629.64
   02:06:30.200.28-May-2021 3586.77 6157.02 84.58 6.00  35.20 2629.64
   02:06:30.400.28-May-2021 3586.77 6153.57 84.58 6.00  35.40 2629.64
   02:06:30.600.28-May-2021 3586.77 6157.86 84.58 6.00  35.60 2629.64
   02:06:30.800.28-May-2021 3586.77 6154.75 84.58 6.00  35.80 2629.64
   02:06:31.000.28-May-2021 3586.77 6153.17 84.58 6.00  36.00 2629.64
   02:06:31.200.28-May-2021 3586.77 6153.17 84.58 6.00  36.20 2629.64
   02:06:31.400.28-May-2021 3586.77 6159.42 84.58 6.00  36.40 2629.64
   02:06:31.600.28-May-2021 3586.77 6152.64 84.58 6.00  36.60 2629.64
   02:06:31.800.28-May-2021 3586.77 6154.93 84.58 6.00  36.80 2629.64
   02:06:32.000.28-May-2021 3586.77 6154.48 84.58 6.00  37.00 2629.64
   02:06:32.200.28-May-2021 3586.77 6154.48 84.58 6.00  37.20 2629.64
   02:06:32.400.28-May-2021 3586.77 6158.28 84.58 6.00  37.40 2629.64
   02:06:32.600.28-May-2021 3586.77 6155.06 84.58 6.00  37.60 2629.64
   02:06:32.800.28-May-2021 3586.77 6154.47 84.58 6.00  37.80 2629.64
   02:06:33.000.28-May-2021 3586.77 6155.23 84.58 6.00  38.00 2629.64
   02:06:33.200.28-May-2021 3586.77 6155.23 84.58 6.00  38.20 2629.64
   02:06:33.400.28-May-2021 3586.77 6154.44 84.58 6.00  38.40 2629.64
   02:06:33.600.28-May-2021 3586.77 6155.07 84.58 6.00  38.60 2629.64
   02:06:33.800.28-May-2021 3586.77 6154.63 84.58 6.00  38.80 2629.64
   02:06:34.000.28-May-2021 3586.77 6155.13 84.58 6.00  39.00 2629.64
   02:06:34.200.28-May-2021 3586.77 6155.13 84.58 6.00  39.20 2629.64
   02:06:34.400.28-May-2021 3586.77 6155.66 84.58 6.00  39.40 2629.64
   02:06:34.600.28-May-2021 3586.77 6155.63 84.58 6.00  39.60 2629.64
   02:06:34.800.28-May-2021 3586.77 6155.43 84.58 6.00  39.80 2629.64
   02:06:35.000.28-May-2021 3586.77 6155.49 84.58 6.00  40.00 2629.64
   02:06:35.200.28-May-2021 3586.77 6155.49 84.58 6.00  40.20 2629.64
   02:06:35.400.28-May-2021 3586.77 6159.23 84.58 6.00  40.40 2629.64
   02:06:35.600.28-May-2021 3586.77 6155.32 84.58 6.00  40.60 2629.64
   02:06:35.800.28-May-2021 3586.77 6155.64 84.58 6.00  40.80 2629.64
   02:06:36.000.28-May-2021 3586.77 6155.41 84.58 6.00  41.00 2629.64
   02:06:36.200.28-May-2021 3586.77 6155.41 84.58 6.00  41.20 2629.64
   02:06:36.400.28-May-2021 3586.77 6155.56 84.57 6.00  41.40 2629.64
   02:06:36.600.28-May-2021 3586.77 6154.91 84.57 6.00  41.60 2629.64
   02:06:36.800.28-May-2021 3586.77 6155.68 84.57 6.00  41.80 2629.64
   02:06:37.000.28-May-2021 3586.77 6155.79 84.57 6.00  42.00 2629.64
   02:06:37.200.28-May-2021 3586.77 6155.79 84.57 6.00  42.20 2629.64
   02:06:37.400.28-May-2021 3586.77 6156.22 84.57 6.00  42.40 2629.64
   02:06:37.600.28-May-2021 3586.77 6156.48 84.57 6.00  42.60 2629.64
   02:06:37.800.28-May-2021 3586.77 6120.82 84.57 6.00  42.80 2629.64
   02:06:38.000.28-May-2021 3586.77 6101.06 84.57 6.00  43.00 2629.64
   02:06:38.200.28-May-2021 3586.77 6101.06 84.57 6.00  43.20 2629.64
   02:06:38.400.28-May-2021 3586.77 6165.76 84.57 6.00  43.40 2629.64
   02:06:38.600.28-May-2021 3586.77 6208.55 84.57 6.00  43.60 2629.64
   02:06:38.800.28-May-2021 3586.77 6240.54 84.57 6.00  43.80 2629.64
   02:06:39.000.28-May-2021 3586.77 6292.43 84.57 6.00  44.00 2629.64
   02:06:39.200.28-May-2021 3586.77 6292.43 84.57 6.00  44.20 2629.64
   02:06:39.400.28-May-2021 3586.77 6336.99 84.57 6.00  44.40 2629.64
   02:06:39.600.28-May-2021 3586.77 6361.95 84.57 6.00  44.60 2629.64
   02:06:39.800.28-May-2021 3586.77 6391.77 84.57 6.00  44.80 2629.64
   02:06:40.000.28-May-2021 3586.77 6424.84 84.57 6.00  45.00 2629.64
   02:06:40.200.28-May-2021 3586.77 6424.84 84.57 6.00  45.20 2629.64
   02:06:40.400.28-May-2021 3586.77 6396.94 84.57 6.00  45.40 2629.64
   02:06:40.600.28-May-2021 3586.77 6397.26 84.57 6.00  45.60 2629.64
   02:06:40.800.28-May-2021 3586.77 6402.27 84.57 6.00  45.80 2629.64
