~Version Information
 VERS.                  2.0:   CWLS log ASCII Standard -VERSION 2.0
 WRAP.                   NO:   One line per depth step
~Well Information Block
#MNEM.UNIT     VALUE/NAME     DESCRIPTION
#---------     -----------    ---------------------------
 STRT.S             00:16:40 28-May-21: START TIME 00:16:40 28-May-21
 STOP.S             00:23:42 28-May-21: STOP TIME  00:23:42 28-May-21
 STEP.S                   0.00: STEP TIME
 NULL.                 -999.25: NULL VALUE
 UWI .                     N/A:  UNIQUE WELL IDENTIFIER
 API .                     N/A:  API NUMBER
 UNIT.                     N/A:  LOGGING EQUIPMENT ID
 DCON.         Sperry Drilling:  DIRECTNL CONTR
 DOE .                     N/A:  DOE NUMBER
 MWDS.                    Baku:  MWD SHOP
 SRVC.     Turan Drilling and Engineering:  CONTRACTOR
 CTRY.              Azerbaijan:  COUNTRY NAME
 PROV.                    Baku:  PROVINCE
 STAT.                    Baku:  STATE NAME
 REGN.                   EESSA:  REGION
 BASE.              Azerbaijan:  LOGGING EQUIPMENT BASE LOCATION
 WTYP.                Deviated:  WELL TYPE
 RIG .              East Azeri:  RIG NAME
 WELL.                    D02y:  WELL NAME
 FLD .                     ACG:  FIELD NAME
 COMP.     BP Exploration (Caspian Sea) Ltd.:  COMPANY
 PDAT.          Mean Sea Level:  PERMANENT DATUM
 MDS .        Operator Entered:  MAG DATA SOURCE
 SON .        AZ-XX-0906997291:  JOB NUMBER
 FTOP.          Formation Tops:  FORM TOPS DESC
 ILTD.               Lithology:  INTERP LTH DESC
 SVYD.                  Survey:  SURVEY DESC
 DMOD.             Drill Model:  DRILL MOD DESC
 HPTY.       Minimum Curvature:  HOLE POS TYPE
 NREF.                    Grid:  NORTH REFERENCE
 SPUD.               05-May-21:  SPUD DATE
 DATE.      09.27.28 12-Jun-21:  END TIME
 STIM.      09.27.28 12-May-21:  START TIME
 DMF .             Drill Floor:  DRILL MEAS FROM
 DFST.                        :  DIST FSL TEXT
 DFWT.                        :  DIST FWL TEXT
 CNTY.                        :  COUNTY
 LOC .                        :  LOCATION
 LMF .             Drill Floor:  LOG MEASURED FROM
 DEP .m                2806.40:  DEPTH
 AGAP.m                  43.60:  AIR GAP
 VSNS.m                  -4.42:  VERT SEC N/S
 VSEW.m                  -7.31:  VERT SEC E/W
 APD .m                  43.60:  DEPTH ABOVE PD
 WDMS.m                 151.80:  WD ELEV
 EGL .m                   0.00:  GROUND ELEVATION
 EPD .m                   0.00:  ELEVATION
 AZTC.deg                 6.18:  AZM TOTAL CORR
 GRDC.deg                 0.29:  GRID CORRECTION
 MDEC.deg                 6.47:  MAGNETIC DECL
 MDIP.deg                59.50:  MAGNETIC DIP
 MFLD.nT              50350.00:  MAGNETIC FIELD
 GVFD.g                   1.00:  GRAVITY FIELD
 VSDR.deg               179.08:  VERT SEC DIRECT
 TDD .m                4300.00:  TOTAL DEPTH (DRILLER)
 SDEP.m                2800.00:  START DEPTH
 DFSL.m                   0.00:  DISTANCE FSL
 DFWL.m                   0.00:  DISTANCE FWL
 UTMY.m             4431871.34:  UTM Y
 UTMX.m              538762.90:  UTM X
 WHEW.m                  -7.31:  WELL HEAD E/W
 WHNS.m                  -4.42:  WELL HEAD N/S
 LONG.deg                51.45:  LONGITUDE
 LATI.deg                40.02:  LATITUDE
 TVDS.m                  43.60:  TVDSS CORRECTN
 EKB .m                  43.60:  KB ELEVATION
 EDF .m                  43.60:  DF ELEVATION
 TDL .m                 806.00:  TOTAL DEPTH (LOGGER)
 MAGU.                 1851231:  MAGUTM CHECKSUM
 VSC .                       0:  VS TO CLOSURE
~Parameter Information Block
#MNEM.UNIT       Value        Description
#---------     -----------    ---------------------------
 AV  .mps                 1.60:  Ann Velocity 
 AVMX.mps                 2.00:  Max Ann Veloc 
 AZIF.deg               140.24:  Azm, Final 
 BHAT.        Rotary Steerable:  BHA Type 
 BROT.°/30m               0.50:  Build Rotating 
 BS  .in                  8.50:  Bit Size 
 BTPL.psig              619.00:  Bit Press Loss 
 CABU.                     Yes:  Customer Abuse 
 CGEO.          Ilgar Gurbanov:  Customer Geo 
 COMM.                     ”)T:  Run Comments 1 
 TCS .hr                 85.88:  Time Ciculation Ended 
 CV  .mps                 3.30:  Crit Velocity 
 CVMX.mps                 3.50:  Max Crit Veloc 
 DD1 .           Hamid Axmedov:  Direct Drillr 1 
 DD2 .           Teymur Aliyev:  Direct Drillr 2 
 DDSV.               Geo-Pilot:  DD Service 
 DEFF.%                 100.00:  % Det Eff 
 DLRX.°/30m               0.00:  Dogleg Rot Max 
 DLSO.°/30m               1.80:  Dogleg Oriented 
 DLSX.°/30m               3.34:  Dogleg Str Max 
 DRET.      11.50.00 27-May-21:  Drill End Time 
 DRST.      21.13.00 24-May-21:  Drill Start Tim 
 DTIM.hr                 45.11:  Time Drilling 
 EDEP.m                4054.00:  End Depth 
 ENG1.         Almaz Almadatov:  Engineer 1 
 ENG2.           Amrah Tahirov:  Engineer 2 
 ENG3.      Bakhtiyar Jabbarli:  Engineer 3 
 ENG4.          Nazrin Asgarli:  Engineer 4 
 ETIM.      10.00.00 30-May-21:  End Time 
 FLOI.gpm               530.00:  Flow In 
 FLON.gpm               400.00:  Flow In Min 
 FLOS.cptm                0.00:  Fluid Loss 
 FLOX.gpm               560.00:  Flow In Max 
 DFT .        Mineral Oil Base:  Mud Type 
 FTRO.       Formation Presure:  FTWD Run Obj 
 HFLO.                      No:  High Flow 
 HPRE.                      No:  High Pressure 
 HTEM.                      No:  High Temp 
 HYDO.m                   1.80:  Hydro Offset 
 IFIN.deg                73.83:  Inc, Final 
 IMAX.deg                73.83:  Inc Max 
 IMIN.deg                57.86:  Inc Min 
 IMND.m                3259.27:  Inc Min Depth 
 IMXD.m                4045.58:  Inc Max Depth 
 JARR.                     Yes:  Jarring 
 LETM.      11.50.00 27-May-21:  Log End Time 
 LOST.hr                     0:  Lost Rig Time 
 LSTM.      21.13.00 24-May-21:  Log Start Time 
 MDCL.ppm             42500.00:  Mud Chlorides 
 MDES.     Inversion Oil/Synthetic:  Mud Desc 
 DFD .sg                  1.52:  Mud Density 
 MDMN.sg                  1.52:  Dens Mud Min 
 MDMX.sg                  1.52:  Dens Mud Max 
 MOIL.                      70:  Run Mud Oil % 
 MOWR.                   70:30:  Run Mud OWR 
 MSND.                     0.2:  Run Mud Sand % 
 MSOL.                      22:  Run Mud Solids% 
 DFV .spqt               77.00:  Mud Viscosity 
 MWOD.in                  6.75:  MWD Tool OD 
 MWSI.                      No:  Serv Intrp, MWD 
 OTIM.hr                151.01:  Time Operating 
 PCON.          Wear / Scratch:  Pad Condition 
 PMAX.psia            11296.93:  Press Op, Max 
 PV  .cP                 37.00:  Mud PV 
 RUN .                     500:  Run Number 
 ROPA.m/hr               25.00:  ROP Avg 
 ROPN.m/hr                9.00:  ROP Min 
 ROPX.m/hr               28.00:  ROP Max 
 RPMA.rpm               140.00:  RPM Surface Avg 
 RPMN.rpm                90.00:  RPM Surface Min 
 RPMX.rpm               140.00:  RPM Surface Max 
 RRUN.                    0500:  Rig Run Number 
 SAZI.deg               172.17:  Azm, Start 
 SDEP.m                3248.00:  Start Depth 
 SIDD.                      No:  Serv Intrp, DD 
 SINC.deg                57.86:  Inc, Start 
 SPPA.psig             5620.00:  SPP Avg 
 SPPN.psig             5190.00:  SPP Min 
 SPPX.psig             6050.00:  SPP Max 
 STIM.      16.00.00 23-May-21:  Start Time 
 SVCS.                 DD, MWD:  Services 
 SVER.                    9.20:  Sperry Version 
 TDAT.m                 806.00:  Tot Depth Attmp 
 TDDF.                      No:  Trip for DD 
 TDLG.m                 806.00:  Tot Depth Loggd 
 TFF .                      No:  Trip for Fail 
 TQAA.f-kp               12.00:  Torque Abs Avg 
 TQAN.f-kp                8.00:  Torque Abs Min 
 TQAX.f-kp               15.00:  Torque Abs Max 
 TRRT.°/30m               0.30:  Turn Rotating 
 MRT .                  EWR-M5:  Maximum Recorded Temperature 
 TTMX.degC               93.00:  Max Tool Temp 
 VS01.                90649155:  Virtual Str1 SN 
 VS02.                90642264:  Virtual Str2 SN 
 VS03.                90642266:  Virtual Str3 SN 
 VS04.                90642261:  Virtual Str4 SN 
 WBMN.klb                 0.00:  WOB Min 
 WITN.             Anar Khalil:  Customer Rep 
 WITN.           Murad Guliyev:  Customer Rep 2 
 WOBA.klb                13.00:  WOB Avg 
 WOBX.klb                25.00:  WOB Max 
 YP  .lhf2               32.00:  Yield Point 
~Curve Information Block
#MNEM.UNIT                 API CODE     Curve Description
#---------               -----------    ---------------------------
 TIME.HHMMSS            00 000 000 000:  GT Time & Date
 GTDEPTH.m              00 000 000 000:  GT Depth
 GTPQH.psia             00 000 000 000:  GT HR Quartz Pressure
 GTTQ.degC              00 000 000 000:  GT Quartz Temperature
 GTTN.NONE              00 000 000 000:  GT Test Number
 GTET.sec               00 000 000 000:  GT Elapsed Test Time
 GTTVD.m                00 000 000 000:  GT True Vertical Depth
#Other Information
#
#WARRANTY: Halliburton will use its best efforts to furnish customers with 
#accurate information and interpretations that are part of, and incident to, the services 
#provided.  However, Halliburton cannot and does not warrant the accuracy 
#or correctness of such information and interpretations.  Under no circumstances should any 
#such information or interpretation be relied upon as the sole basis for any drilling, 
#completion, production, or financial decision or any procedure involving any risk to the 
#safety of any drilling venture, drilling rig or its crew or any other third party.  The 
#Customer has full responsibility for all drilling, completion and production operation.  
#Halliburton makes no representations or warranties, either expressed or 
#implied, including, but not limited to, the implied warranties of merchantability or fitness 
#for a particular purpose, with respect to the services rendered.  In no event will 
#Halliburton be liable for failure to obtain any particular results or for 
#any damages, including, but not limited to, indirect, special or consequential damages, 
#resulting from the use of any information or interpretation provided by Halliburton.
#
~A           TIME           GTDEPTH  GTPQH  GTTQ  GTTN  GTET   GTTVD  
# ...
   00:22:48.000.28-May-2021 3671.00 6212.37 84.60 4.00 368.00 2661.36
   00:22:48.200.28-May-2021 3671.00 6212.37 84.60 4.00 368.20 2661.36
   00:22:48.400.28-May-2021 3671.00 6213.94 84.60 4.00 368.40 2661.36
   00:22:48.600.28-May-2021 3671.00 6214.85 84.60 4.00 368.60 2661.36
   00:22:48.800.28-May-2021 3671.00 6215.22 84.60 4.00 368.80 2661.36
   00:22:49.000.28-May-2021 3671.00 6217.33 84.61 4.00 369.00 2661.36
   00:22:49.200.28-May-2021 3671.00 6217.33 84.61 4.00 369.20 2661.36
   00:22:49.400.28-May-2021 3671.00 6217.44 84.61 4.00 369.40 2661.36
   00:22:49.600.28-May-2021 3671.00 6217.25 84.61 4.00 369.60 2661.36
   00:22:49.800.28-May-2021 3671.00 6218.23 84.62 4.00 369.80 2661.36
   00:22:50.000.28-May-2021 3671.00 6218.32 84.62 4.00 370.00 2661.36
   00:22:50.200.28-May-2021 3671.00 6218.32 84.62 4.00 370.20 2661.36
   00:22:50.400.28-May-2021 3671.00 6217.65 84.62 4.00 370.40 2661.36
   00:22:50.600.28-May-2021 3671.00 6217.92 84.63 4.00 370.60 2661.36
   00:22:50.800.28-May-2021 3671.00 6218.30 84.63 4.00 370.80 2661.36
   00:22:51.000.28-May-2021 3671.00 6218.71 84.63 4.00 371.00 2661.36
   00:22:51.200.28-May-2021 3671.00 6218.71 84.63 4.00 371.20 2661.36
   00:22:51.400.28-May-2021 3671.00 6219.16 84.64 4.00 371.40 2661.36
   00:22:51.600.28-May-2021 3671.00 6220.62 84.64 4.00 371.60 2661.36
   00:22:51.800.28-May-2021 3671.00 6222.67 84.64 4.00 371.80 2661.36
   00:22:52.000.28-May-2021 3671.00 6220.35 84.64 4.00 372.00 2661.36
   00:22:52.200.28-May-2021 3671.00 6220.35 84.64 4.00 372.20 2661.36
   00:22:52.400.28-May-2021 3671.00 6220.33 84.65 4.00 372.40 2661.36
   00:22:52.600.28-May-2021 3671.00 6224.65 84.65 4.00 372.60 2661.36
   00:22:52.800.28-May-2021 3671.00 6219.54 84.65 4.00 372.80 2661.36
   00:22:53.000.28-May-2021 3671.00 6219.56 84.65 4.00 373.00 2661.36
   00:22:53.200.28-May-2021 3671.00 6219.56 84.65 4.00 373.20 2661.36
   00:22:53.400.28-May-2021 3671.00 6221.07 84.66 4.00 373.40 2661.36
   00:22:53.600.28-May-2021 3671.00 6222.02 84.66 4.00 373.60 2661.36
   00:22:53.800.28-May-2021 3671.00 6220.27 84.66 4.00 373.80 2661.36
   00:22:54.000.28-May-2021 3671.00 6220.87 84.66 4.00 374.00 2661.36
   00:22:54.200.28-May-2021 3671.00 6220.87 84.66 4.00 374.20 2661.36
   00:22:54.400.28-May-2021 3671.00 6220.87 84.66 4.00 374.40 2661.36
   00:22:54.600.28-May-2021 3671.00 6219.88 84.66 4.00 374.60 2661.36
   00:22:54.800.28-May-2021 3671.00 6220.80 84.67 4.00 374.80 2661.36
   00:22:55.000.28-May-2021 3671.00 6220.53 84.67 4.00 375.00 2661.36
   00:22:55.200.28-May-2021 3671.00 6220.53 84.67 4.00 375.20 2661.36
   00:22:55.400.28-May-2021 3671.00 6220.19 84.67 4.00 375.40 2661.36
   00:22:55.600.28-May-2021 3671.00 6220.25 84.67 4.00 375.60 2661.36
   00:22:55.800.28-May-2021 3671.00 6220.04 84.67 4.00 375.80 2661.36
   00:22:56.000.28-May-2021 3671.00 6220.36 84.67 4.00 376.00 2661.36
   00:22:56.200.28-May-2021 3671.00 6220.36 84.67 4.00 376.20 2661.36
   00:22:56.400.28-May-2021 3671.00 6220.39 84.67 4.00 376.40 2661.36
   00:22:56.600.28-May-2021 3671.00 6221.88 84.67 4.00 376.60 2661.36
   00:22:56.800.28-May-2021 3671.00 6223.44 84.67 4.00 376.80 2661.36
   00:22:57.000.28-May-2021 3671.00 6220.94 84.68 4.00 377.00 2661.36
   00:22:57.200.28-May-2021 3671.00 6220.94 84.68 4.00 377.20 2661.36
   00:22:57.400.28-May-2021 3671.00 6221.05 84.68 4.00 377.40 2661.36
   00:22:57.600.28-May-2021 3671.00 6220.73 84.68 4.00 377.60 2661.36
   00:22:57.800.28-May-2021 3671.00 6220.03 84.68 4.00 377.80 2661.36
   00:22:58.000.28-May-2021 3671.00 6220.19 84.68 4.00 378.00 2661.36
   00:22:58.200.28-May-2021 3671.00 6220.19 84.68 4.00 378.20 2661.36
   00:22:58.400.28-May-2021 3671.00 6220.29 84.68 4.00 378.40 2661.36
   00:22:58.600.28-May-2021 3671.00 6220.57 84.68 4.00 378.60 2661.36
   00:22:58.800.28-May-2021 3671.00 6221.08 84.68 4.00 378.80 2661.36
   00:22:59.000.28-May-2021 3671.00 6220.93 84.68 4.00 379.00 2661.36
   00:22:59.200.28-May-2021 3671.00 6220.93 84.68 4.00 379.20 2661.36
   00:22:59.400.28-May-2021 3671.00 6221.01 84.68 4.00 379.40 2661.36
   00:22:59.600.28-May-2021 3671.00 6219.05 84.68 4.00 379.60 2661.36
   00:22:59.800.28-May-2021 3671.00 6221.33 84.68 4.00 379.80 2661.36
   00:23:00.000.28-May-2021 3671.00 6227.72 84.68 4.00 380.00 2661.36
   00:23:00.200.28-May-2021 3671.00 6227.72 84.68 4.00 380.20 2661.36
   00:23:00.400.28-May-2021 3671.00 6220.89 84.68 4.00 380.40 2661.36
   00:23:00.600.28-May-2021 3671.00 6220.36 84.68 4.00 380.60 2661.36
   00:23:00.800.28-May-2021 3671.00 6220.96 84.68 4.00 380.80 2661.36
   00:23:01.000.28-May-2021 3671.00 6225.60 84.68 4.00 381.00 2661.36
   00:23:01.200.28-May-2021 3671.00 6225.60 84.68 4.00 381.20 2661.36
   00:23:01.400.28-May-2021 3671.00 6220.60 84.68 4.00 381.40 2661.36
   00:23:01.600.28-May-2021 3671.00 6220.24 84.68 4.00 381.60 2661.36
   00:23:01.800.28-May-2021 3671.00 6221.02 84.68 4.00 381.80 2661.36
   00:23:02.000.28-May-2021 3671.00 6225.92 84.68 4.00 382.00 2661.36
   00:23:02.200.28-May-2021 3671.00 6225.92 84.68 4.00 382.20 2661.36
   00:23:02.400.28-May-2021 3671.00 6220.71 84.68 4.00 382.40 2661.36
   00:23:02.600.28-May-2021 3671.00 6220.51 84.68 4.00 382.60 2661.36
   00:23:02.800.28-May-2021 3671.00 6221.19 84.68 4.00 382.80 2661.36
   00:23:03.000.28-May-2021 3671.00 6221.36 84.68 4.00 383.00 2661.36
   00:23:03.200.28-May-2021 3671.00 6221.36 84.68 4.00 383.20 2661.36
   00:23:03.400.28-May-2021 3671.00 6220.77 84.68 4.00 383.40 2661.36
   00:23:03.600.28-May-2021 3671.00 6220.70 84.68 4.00 383.60 2661.36
   00:23:03.800.28-May-2021 3671.00 6220.92 84.68 4.00 383.80 2661.36
   00:23:04.000.28-May-2021 3671.00 6221.07 84.68 4.00 384.00 2661.36
   00:23:04.200.28-May-2021 3671.00 6221.07 84.68 4.00 384.20 2661.36
   00:23:04.400.28-May-2021 3671.00 6221.32 84.68 4.00 384.40 2661.36
   00:23:04.600.28-May-2021 3671.00 6225.88 84.68 4.00 384.60 2661.36
   00:23:04.800.28-May-2021 3671.00 6220.35 84.68 4.00 384.80 2661.36
   00:23:05.000.28-May-2021 3671.00 6221.41 84.68 4.00 385.00 2661.36
   00:23:05.200.28-May-2021 3671.00 6221.41 84.68 4.00 385.20 2661.36
   00:23:05.400.28-May-2021 3671.00 6221.68 84.68 4.00 385.40 2661.36
   00:23:05.600.28-May-2021 3671.00 6221.33 84.68 4.00 385.60 2661.36
   00:23:05.800.28-May-2021 3671.00 6220.52 84.68 4.00 385.80 2661.36
   00:23:06.000.28-May-2021 3671.00 6220.68 84.68 4.00 386.00 2661.36
   00:23:06.200.28-May-2021 3671.00 6220.68 84.68 4.00 386.20 2661.36
   00:23:06.400.28-May-2021 3671.00 6220.72 84.68 4.00 386.40 2661.36
   00:23:06.600.28-May-2021 3671.00 6221.00 84.68 4.00 386.60 2661.36
   00:23:06.800.28-May-2021 3671.00 6221.31 84.68 4.00 386.80 2661.36
   00:23:07.000.28-May-2021 3671.00 6221.15 84.68 4.00 387.00 2661.36
   00:23:07.200.28-May-2021 3671.00 6221.15 84.68 4.00 387.20 2661.36
   00:23:07.400.28-May-2021 3671.00 6221.16 84.68 4.00 387.40 2661.36
   00:23:07.600.28-May-2021 3671.00 6220.86 84.68 4.00 387.60 2661.36
   00:23:07.800.28-May-2021 3671.00 6220.87 84.68 4.00 387.80 2661.36
   00:23:08.000.28-May-2021 3671.00 6227.58 84.68 4.00 388.00 2661.36
   00:23:08.200.28-May-2021 3671.00 6227.58 84.68 4.00 388.20 2661.36
   00:23:08.400.28-May-2021 3671.00 6220.15 84.68 4.00 388.40 2661.36
   00:23:08.600.28-May-2021 3671.00 6220.27 84.68 4.00 388.60 2661.36
   00:23:08.800.28-May-2021 3671.00 6220.96 84.68 4.00 388.80 2661.36
   00:23:09.000.28-May-2021 3671.00 6226.63 84.68 4.00 389.00 2661.36
   00:23:09.200.28-May-2021 3671.00 6226.63 84.68 4.00 389.20 2661.36
   00:23:09.400.28-May-2021 3671.00 6220.36 84.68 4.00 389.40 2661.36
   00:23:09.600.28-May-2021 3671.00 6220.22 84.68 4.00 389.60 2661.36
   00:23:09.800.28-May-2021 3671.00 6227.43 84.68 4.00 389.80 2661.36
   00:23:10.000.28-May-2021 3671.00 6218.41 84.68 4.00 390.00 2661.36
   00:23:10.200.28-May-2021 3671.00 6218.41 84.68 4.00 390.20 2661.36
   00:23:10.400.28-May-2021 3671.00 6220.79 84.68 4.00 390.40 2661.36
   00:23:10.600.28-May-2021 3671.00 6221.30 84.68 4.00 390.60 2661.36
   00:23:10.800.28-May-2021 3671.00 6220.57 84.68 4.00 390.80 2661.36
