~Version Information
 VERS.                  2.0:   CWLS log ASCII Standard -VERSION 2.0
 WRAP.                   NO:   One line per depth step
~Well Information Block
#MNEM.UNIT     VALUE/NAME     DESCRIPTION
#---------     -----------    ---------------------------
 STRT.S             09:05:41 28-May-21: START TIME 09:05:41 28-May-21
 STOP.S             09:12:44 28-May-21: STOP TIME  09:12:44 28-May-21
 STEP.S                   0.00: STEP TIME
 NULL.                 -999.25: NULL VALUE
 UWI .                     N/A:  UNIQUE WELL IDENTIFIER
 API .                     N/A:  API NUMBER
 UNIT.                     N/A:  LOGGING EQUIPMENT ID
 DCON.         Sperry Drilling:  DIRECTNL CONTR
 DOE .                     N/A:  DOE NUMBER
 MWDS.                    Baku:  MWD SHOP
 SRVC.     Turan Drilling and Engineering:  CONTRACTOR
 CTRY.              Azerbaijan:  COUNTRY NAME
 PROV.                    Baku:  PROVINCE
 STAT.                    Baku:  STATE NAME
 REGN.                   EESSA:  REGION
 BASE.              Azerbaijan:  LOGGING EQUIPMENT BASE LOCATION
 WTYP.                Deviated:  WELL TYPE
 RIG .              East Azeri:  RIG NAME
 WELL.                    D02y:  WELL NAME
 FLD .                     ACG:  FIELD NAME
 COMP.     BP Exploration (Caspian Sea) Ltd.:  COMPANY
 PDAT.          Mean Sea Level:  PERMANENT DATUM
 MDS .        Operator Entered:  MAG DATA SOURCE
 SON .        AZ-XX-0906997291:  JOB NUMBER
 FTOP.          Formation Tops:  FORM TOPS DESC
 ILTD.               Lithology:  INTERP LTH DESC
 SVYD.                  Survey:  SURVEY DESC
 DMOD.             Drill Model:  DRILL MOD DESC
 HPTY.       Minimum Curvature:  HOLE POS TYPE
 NREF.                    Grid:  NORTH REFERENCE
 SPUD.               05-May-21:  SPUD DATE
 DATE.      09.27.28 12-Jun-21:  END TIME
 STIM.      09.27.28 12-May-21:  START TIME
 DMF .             Drill Floor:  DRILL MEAS FROM
 DFST.                        :  DIST FSL TEXT
 DFWT.                        :  DIST FWL TEXT
 CNTY.                        :  COUNTY
 LOC .                        :  LOCATION
 LMF .             Drill Floor:  LOG MEASURED FROM
 DEP .m                2806.40:  DEPTH
 AGAP.m                  43.60:  AIR GAP
 VSNS.m                  -4.42:  VERT SEC N/S
 VSEW.m                  -7.31:  VERT SEC E/W
 APD .m                  43.60:  DEPTH ABOVE PD
 WDMS.m                 151.80:  WD ELEV
 EGL .m                   0.00:  GROUND ELEVATION
 EPD .m                   0.00:  ELEVATION
 AZTC.deg                 6.18:  AZM TOTAL CORR
 GRDC.deg                 0.29:  GRID CORRECTION
 MDEC.deg                 6.47:  MAGNETIC DECL
 MDIP.deg                59.50:  MAGNETIC DIP
 MFLD.nT              50350.00:  MAGNETIC FIELD
 GVFD.g                   1.00:  GRAVITY FIELD
 VSDR.deg               179.08:  VERT SEC DIRECT
 TDD .m                4300.00:  TOTAL DEPTH (DRILLER)
 SDEP.m                2800.00:  START DEPTH
 DFSL.m                   0.00:  DISTANCE FSL
 DFWL.m                   0.00:  DISTANCE FWL
 UTMY.m             4431871.34:  UTM Y
 UTMX.m              538762.90:  UTM X
 WHEW.m                  -7.31:  WELL HEAD E/W
 WHNS.m                  -4.42:  WELL HEAD N/S
 LONG.deg                51.45:  LONGITUDE
 LATI.deg                40.02:  LATITUDE
 TVDS.m                  43.60:  TVDSS CORRECTN
 EKB .m                  43.60:  KB ELEVATION
 EDF .m                  43.60:  DF ELEVATION
 TDL .m                 806.00:  TOTAL DEPTH (LOGGER)
 MAGU.                 1851231:  MAGUTM CHECKSUM
 VSC .                       0:  VS TO CLOSURE
~Parameter Information Block
#MNEM.UNIT       Value        Description
#---------     -----------    ---------------------------
 AV  .mps                 1.60:  Ann Velocity 
 AVMX.mps                 2.00:  Max Ann Veloc 
 AZIF.deg               140.24:  Azm, Final 
 BHAT.        Rotary Steerable:  BHA Type 
 BROT.°/30m               0.50:  Build Rotating 
 BS  .in                  8.50:  Bit Size 
 BTPL.psig              619.00:  Bit Press Loss 
 CABU.                     Yes:  Customer Abuse 
 CGEO.          Ilgar Gurbanov:  Customer Geo 
 COMM.                     ÜøQ:  Run Comments 1 
 TCS .hr                 85.88:  Time Ciculation Ended 
 CV  .mps                 3.30:  Crit Velocity 
 CVMX.mps                 3.50:  Max Crit Veloc 
 DD1 .           Hamid Axmedov:  Direct Drillr 1 
 DD2 .           Teymur Aliyev:  Direct Drillr 2 
 DDSV.               Geo-Pilot:  DD Service 
 DEFF.%                 100.00:  % Det Eff 
 DLRX.°/30m               0.00:  Dogleg Rot Max 
 DLSO.°/30m               1.80:  Dogleg Oriented 
 DLSX.°/30m               3.34:  Dogleg Str Max 
 DRET.      11.50.00 27-May-21:  Drill End Time 
 DRST.      21.13.00 24-May-21:  Drill Start Tim 
 DTIM.hr                 45.11:  Time Drilling 
 EDEP.m                4054.00:  End Depth 
 ENG1.         Almaz Almadatov:  Engineer 1 
 ENG2.           Amrah Tahirov:  Engineer 2 
 ENG3.      Bakhtiyar Jabbarli:  Engineer 3 
 ENG4.          Nazrin Asgarli:  Engineer 4 
 ETIM.      10.00.00 30-May-21:  End Time 
 FLOI.gpm               530.00:  Flow In 
 FLON.gpm               400.00:  Flow In Min 
 FLOS.cptm                0.00:  Fluid Loss 
 FLOX.gpm               560.00:  Flow In Max 
 DFT .        Mineral Oil Base:  Mud Type 
 FTRO.       Formation Presure:  FTWD Run Obj 
 HFLO.                      No:  High Flow 
 HPRE.                      No:  High Pressure 
 HTEM.                      No:  High Temp 
 HYDO.m                   1.80:  Hydro Offset 
 IFIN.deg                73.83:  Inc, Final 
 IMAX.deg                73.83:  Inc Max 
 IMIN.deg                57.86:  Inc Min 
 IMND.m                3259.27:  Inc Min Depth 
 IMXD.m                4045.58:  Inc Max Depth 
 JARR.                     Yes:  Jarring 
 LETM.      11.50.00 27-May-21:  Log End Time 
 LOST.hr                     0:  Lost Rig Time 
 LSTM.      21.13.00 24-May-21:  Log Start Time 
 MDCL.ppm             42500.00:  Mud Chlorides 
 MDES.     Inversion Oil/Synthetic:  Mud Desc 
 DFD .sg                  1.52:  Mud Density 
 MDMN.sg                  1.52:  Dens Mud Min 
 MDMX.sg                  1.52:  Dens Mud Max 
 MOIL.                      70:  Run Mud Oil % 
 MOWR.                   70:30:  Run Mud OWR 
 MSND.                     0.2:  Run Mud Sand % 
 MSOL.                      22:  Run Mud Solids% 
 DFV .spqt               77.00:  Mud Viscosity 
 MWOD.in                  6.75:  MWD Tool OD 
 MWSI.                      No:  Serv Intrp, MWD 
 OTIM.hr                151.01:  Time Operating 
 PCON.          Wear / Scratch:  Pad Condition 
 PMAX.psia            11296.93:  Press Op, Max 
 PV  .cP                 37.00:  Mud PV 
 RUN .                     500:  Run Number 
 ROPA.m/hr               25.00:  ROP Avg 
 ROPN.m/hr                9.00:  ROP Min 
 ROPX.m/hr               28.00:  ROP Max 
 RPMA.rpm               140.00:  RPM Surface Avg 
 RPMN.rpm                90.00:  RPM Surface Min 
 RPMX.rpm               140.00:  RPM Surface Max 
 RRUN.                    0500:  Rig Run Number 
 SAZI.deg               172.17:  Azm, Start 
 SDEP.m                3248.00:  Start Depth 
 SIDD.                      No:  Serv Intrp, DD 
 SINC.deg                57.86:  Inc, Start 
 SPPA.psig             5620.00:  SPP Avg 
 SPPN.psig             5190.00:  SPP Min 
 SPPX.psig             6050.00:  SPP Max 
 STIM.      16.00.00 23-May-21:  Start Time 
 SVCS.                 DD, MWD:  Services 
 SVER.                    9.20:  Sperry Version 
 TDAT.m                 806.00:  Tot Depth Attmp 
 TDDF.                      No:  Trip for DD 
 TDLG.m                 806.00:  Tot Depth Loggd 
 TFF .                      No:  Trip for Fail 
 TQAA.f-kp               12.00:  Torque Abs Avg 
 TQAN.f-kp                8.00:  Torque Abs Min 
 TQAX.f-kp               15.00:  Torque Abs Max 
 TRRT.°/30m               0.30:  Turn Rotating 
 MRT .                  EWR-M5:  Maximum Recorded Temperature 
 TTMX.degC               93.00:  Max Tool Temp 
 VS01.                90649155:  Virtual Str1 SN 
 VS02.                90642264:  Virtual Str2 SN 
 VS03.                90642266:  Virtual Str3 SN 
 VS04.                90642261:  Virtual Str4 SN 
 WBMN.klb                 0.00:  WOB Min 
 WITN.             Anar Khalil:  Customer Rep 
 WITN.           Murad Guliyev:  Customer Rep 2 
 WOBA.klb                13.00:  WOB Avg 
 WOBX.klb                25.00:  WOB Max 
 YP  .lhf2               32.00:  Yield Point 
~Curve Information Block
#MNEM.UNIT                 API CODE     Curve Description
#---------               -----------    ---------------------------
 TIME.HHMMSS            00 000 000 000:  GT Time & Date
 GTDEPTH.m              00 000 000 000:  GT Depth
 GTPQH.psia             00 000 000 000:  GT HR Quartz Pressure
 GTTQ.degC              00 000 000 000:  GT Quartz Temperature
 GTTN.NONE              00 000 000 000:  GT Test Number
 GTET.sec               00 000 000 000:  GT Elapsed Test Time
 GTTVD.m                00 000 000 000:  GT True Vertical Depth
#Other Information
#
#WARRANTY: Halliburton will use its best efforts to furnish customers with 
#accurate information and interpretations that are part of, and incident to, the services 
#provided.  However, Halliburton cannot and does not warrant the accuracy 
#or correctness of such information and interpretations.  Under no circumstances should any 
#such information or interpretation be relied upon as the sole basis for any drilling, 
#completion, production, or financial decision or any procedure involving any risk to the 
#safety of any drilling venture, drilling rig or its crew or any other third party.  The 
#Customer has full responsibility for all drilling, completion and production operation.  
#Halliburton makes no representations or warranties, either expressed or 
#implied, including, but not limited to, the implied warranties of merchantability or fitness 
#for a particular purpose, with respect to the services rendered.  In no event will 
#Halliburton be liable for failure to obtain any particular results or for 
#any damages, including, but not limited to, indirect, special or consequential damages, 
#resulting from the use of any information or interpretation provided by Halliburton.
#
~A           TIME           GTDEPTH  GTPQH  GTTQ  GTTN   GTET   GTTVD  
# ...
   09:07:34.135.28-May-2021 3286.00 4017.97 82.25 15.00 113.02 2493.81
   09:07:34.335.28-May-2021 3286.00 4017.97 82.25 15.00 113.22 2493.81
   09:07:34.535.28-May-2021 3286.00 4017.95 82.25 15.00 113.42 2493.81
   09:07:34.735.28-May-2021 3286.00 4017.95 82.25 15.00 113.62 2493.81
   09:07:34.935.28-May-2021 3286.00 4017.93 82.25 15.00 113.82 2493.81
   09:07:35.135.28-May-2021 3286.00 4017.95 82.25 15.00 114.02 2493.81
   09:07:35.335.28-May-2021 3286.00 4017.95 82.25 15.00 114.22 2493.81
   09:07:35.535.28-May-2021 3286.00 4017.95 82.25 15.00 114.42 2493.81
   09:07:35.735.28-May-2021 3286.00 4017.95 82.25 15.00 114.62 2493.81
   09:07:35.935.28-May-2021 3286.00 4017.95 82.25 15.00 114.82 2493.81
   09:07:36.136.28-May-2021 3286.00 4017.35 82.25 15.00 115.02 2493.81
   09:07:36.336.28-May-2021 3286.00 4017.35 82.25 15.00 115.22 2493.81
   09:07:36.536.28-May-2021 3286.00 4017.94 82.25 15.00 115.42 2493.81
   09:07:36.736.28-May-2021 3286.00 4017.95 82.25 15.00 115.62 2493.81
   09:07:36.936.28-May-2021 3286.00 4017.95 82.24 15.00 115.82 2493.81
   09:07:37.136.28-May-2021 3286.00 4016.79 82.24 15.00 116.02 2493.81
   09:07:37.336.28-May-2021 3286.00 4016.79 82.24 15.00 116.22 2493.81
   09:07:37.536.28-May-2021 3286.00 4017.97 82.24 15.00 116.42 2493.81
   09:07:37.736.28-May-2021 3286.00 4017.99 82.24 15.00 116.62 2493.81
   09:07:37.936.28-May-2021 3286.00 4016.78 82.24 15.00 116.82 2493.81
   09:07:38.136.28-May-2021 3286.00 4018.60 82.24 15.00 117.02 2493.81
   09:07:38.336.28-May-2021 3286.00 4018.60 82.24 15.00 117.22 2493.81
   09:07:38.536.28-May-2021 3286.00 4017.99 82.24 15.00 117.42 2493.81
   09:07:38.736.28-May-2021 3286.00 4017.92 82.24 15.00 117.62 2493.81
   09:07:38.936.28-May-2021 3286.00 4016.78 82.24 15.00 117.82 2493.81
   09:07:39.136.28-May-2021 3286.00 4018.63 82.24 15.00 118.02 2493.81
   09:07:39.336.28-May-2021 3286.00 4018.63 82.24 15.00 118.22 2493.81
   09:07:39.536.28-May-2021 3286.00 4017.99 82.24 15.00 118.42 2493.81
   09:07:39.736.28-May-2021 3286.00 4017.93 82.24 15.00 118.62 2493.81
   09:07:39.936.28-May-2021 3286.00 4017.95 82.24 15.00 118.82 2493.81
   09:07:40.136.28-May-2021 3286.00 4017.94 82.24 15.00 119.02 2493.81
   09:07:40.336.28-May-2021 3286.00 4017.94 82.24 15.00 119.22 2493.81
   09:07:40.536.28-May-2021 3286.00 4017.94 82.24 15.00 119.42 2493.81
   09:07:40.736.28-May-2021 3286.00 4017.95 82.24 15.00 119.62 2493.81
   09:07:40.936.28-May-2021 3286.00 4017.94 82.24 15.00 119.82 2493.81
   09:07:41.136.28-May-2021 3286.00 4017.95 82.24 15.00 120.02 2493.81
   09:07:41.336.28-May-2021 3286.00 4017.95 82.24 15.00 120.22 2493.81
   09:07:41.536.28-May-2021 3286.00 4016.99 82.24 15.00 120.42 2493.81
   09:07:41.736.28-May-2021 3286.00 4018.39 82.24 15.00 120.62 2493.81
   09:07:41.936.28-May-2021 3286.00 4017.97 82.24 15.00 120.82 2493.81
   09:07:42.136.28-May-2021 3286.00 4017.97 82.24 15.00 121.02 2493.81
   09:07:42.336.28-May-2021 3286.00 4017.97 82.24 15.00 121.22 2493.81
   09:07:42.536.28-May-2021 3286.00 4017.94 82.24 15.00 121.42 2493.81
   09:07:42.736.28-May-2021 3286.00 4017.95 82.24 15.00 121.62 2493.81
   09:07:42.936.28-May-2021 3286.00 4017.95 82.24 15.00 121.82 2493.81
   09:07:43.136.28-May-2021 3286.00 4017.94 82.24 15.00 122.02 2493.81
   09:07:43.336.28-May-2021 3286.00 4017.94 82.24 15.00 122.22 2493.81
   09:07:43.537.28-May-2021 3286.00 4017.94 82.24 15.00 122.42 2493.81
   09:07:43.737.28-May-2021 3286.00 4017.93 82.24 15.00 122.62 2493.81
   09:07:43.937.28-May-2021 3286.00 4017.95 82.24 15.00 122.82 2493.81
   09:07:44.137.28-May-2021 3286.00 4017.52 82.24 15.00 123.02 2493.81
   09:07:44.337.28-May-2021 3286.00 4017.52 82.24 15.00 123.22 2493.81
   09:07:44.537.28-May-2021 3286.00 4018.01 82.24 15.00 123.42 2493.81
   09:07:44.737.28-May-2021 3286.00 4017.93 82.24 15.00 123.62 2493.81
   09:07:44.937.28-May-2021 3286.00 4017.97 82.24 15.00 123.82 2493.81
   09:07:45.137.28-May-2021 3286.00 4017.95 82.24 15.00 124.02 2493.81
   09:07:45.337.28-May-2021 3286.00 4017.95 82.24 15.00 124.22 2493.81
   09:07:45.537.28-May-2021 3286.00 4018.37 82.24 15.00 124.42 2493.81
   09:07:45.737.28-May-2021 3286.00 4017.96 82.24 15.00 124.62 2493.81
   09:07:45.937.28-May-2021 3286.00 4017.99 82.24 15.00 124.82 2493.81
   09:07:46.137.28-May-2021 3286.00 4017.03 82.24 15.00 125.02 2493.81
   09:07:46.337.28-May-2021 3286.00 4017.03 82.24 15.00 125.22 2493.81
   09:07:46.537.28-May-2021 3286.00 4017.98 82.24 15.00 125.42 2493.81
   09:07:46.737.28-May-2021 3286.00 4017.99 82.24 15.00 125.62 2493.81
   09:07:46.937.28-May-2021 3286.00 4017.93 82.24 15.00 125.82 2493.81
   09:07:47.137.28-May-2021 3286.00 4017.03 82.24 15.00 126.02 2493.81
   09:07:47.337.28-May-2021 3286.00 4017.03 82.24 15.00 126.22 2493.81
   09:07:47.537.28-May-2021 3286.00 4018.40 82.24 15.00 126.42 2493.81
   09:07:47.737.28-May-2021 3286.00 4017.99 82.24 15.00 126.62 2493.81
   09:07:47.937.28-May-2021 3286.00 4017.93 82.24 15.00 126.82 2493.81
   09:07:48.137.28-May-2021 3286.00 4017.94 82.24 15.00 127.02 2493.81
   09:07:48.337.28-May-2021 3286.00 4017.94 82.24 15.00 127.22 2493.81
   09:07:48.537.28-May-2021 3286.00 4017.95 82.24 15.00 127.42 2493.81
   09:07:48.737.28-May-2021 3286.00 4017.93 82.24 15.00 127.62 2493.81
   09:07:48.937.28-May-2021 3286.00 4017.95 82.24 15.00 127.82 2493.81
   09:07:49.137.28-May-2021 3286.00 4017.92 82.24 15.00 128.02 2493.81
   09:07:49.337.28-May-2021 3286.00 4017.92 82.24 15.00 128.22 2493.81
   09:07:49.537.28-May-2021 3286.00 4017.94 82.24 15.00 128.42 2493.81
   09:07:49.737.28-May-2021 3286.00 4016.77 82.24 15.00 128.62 2493.81
   09:07:49.937.28-May-2021 3286.00 4018.64 82.24 15.00 128.82 2493.81
   09:07:50.137.28-May-2021 3286.00 4017.99 82.23 15.00 129.02 2493.81
   09:07:50.337.28-May-2021 3286.00 4017.99 82.23 15.00 129.22 2493.81
   09:07:50.537.28-May-2021 3286.00 4017.95 82.23 15.00 129.42 2493.81
   09:07:50.737.28-May-2021 3286.00 4017.94 82.23 15.00 129.62 2493.81
   09:07:50.938.28-May-2021 3286.00 4017.94 82.23 15.00 129.82 2493.81
   09:07:51.138.28-May-2021 3286.00 4017.94 82.23 15.00 130.02 2493.81
   09:07:51.338.28-May-2021 3286.00 4017.94 82.23 15.00 130.22 2493.81
   09:07:51.538.28-May-2021 3286.00 4017.94 82.23 15.00 130.42 2493.81
   09:07:51.738.28-May-2021 3286.00 4017.94 82.23 15.00 130.62 2493.81
   09:07:51.938.28-May-2021 3286.00 4017.93 82.23 15.00 130.82 2493.81
   09:07:52.138.28-May-2021 3286.00 4017.93 82.23 15.00 131.02 2493.81
   09:07:52.338.28-May-2021 3286.00 4017.93 82.23 15.00 131.22 2493.81
   09:07:52.538.28-May-2021 3286.00 4018.39 82.23 15.00 131.42 2493.81
   09:07:52.738.28-May-2021 3286.00 4017.98 82.23 15.00 131.62 2493.81
   09:07:52.938.28-May-2021 3286.00 4017.98 82.23 15.00 131.82 2493.81
   09:07:53.138.28-May-2021 3286.00 4017.93 82.23 15.00 132.02 2493.81
   09:07:53.338.28-May-2021 3286.00 4017.93 82.23 15.00 132.22 2493.81
   09:07:53.538.28-May-2021 3286.00 4017.35 82.23 15.00 132.42 2493.81
   09:07:53.738.28-May-2021 3286.00 4018.08 82.23 15.00 132.62 2493.81
   09:07:53.938.28-May-2021 3286.00 4017.95 82.23 15.00 132.82 2493.81
   09:07:54.138.28-May-2021 3286.00 4017.96 82.23 15.00 133.02 2493.81
   09:07:54.338.28-May-2021 3286.00 4017.96 82.23 15.00 133.22 2493.81
   09:07:54.538.28-May-2021 3286.00 4018.09 82.23 15.00 133.42 2493.81
   09:07:54.738.28-May-2021 3286.00 4017.98 82.23 15.00 133.62 2493.81
   09:07:54.938.28-May-2021 3286.00 4017.96 82.23 15.00 133.82 2493.81
   09:07:55.138.28-May-2021 3286.00 4017.96 82.23 15.00 134.02 2493.81
   09:07:55.338.28-May-2021 3286.00 4017.96 82.23 15.00 134.22 2493.81
   09:07:55.538.28-May-2021 3286.00 4017.96 82.23 15.00 134.42 2493.81
   09:07:55.738.28-May-2021 3286.00 4017.97 82.23 15.00 134.62 2493.81
   09:07:55.938.28-May-2021 3286.00 4017.97 82.23 15.00 134.82 2493.81
   09:07:56.138.28-May-2021 3286.00 4017.97 82.23 15.00 135.02 2493.81
   09:07:56.338.28-May-2021 3286.00 4017.97 82.23 15.00 135.22 2493.81
   09:07:56.538.28-May-2021 3286.00 4017.95 82.23 15.00 135.42 2493.81
