~Version Information
 VERS.                  2.0:   CWLS log ASCII Standard -VERSION 2.0
 WRAP.                   NO:   One line per depth step
~Well Information Block
#MNEM.UNIT     VALUE/NAME     DESCRIPTION
#---------     -----------    ---------------------------
 STRT.S             04:01:58 28-May-21: START TIME 04:01:58 28-May-21
 STOP.S             04:09:02 28-May-21: STOP TIME  04:09:02 28-May-21
 STEP.S                   0.00: STEP TIME
 NULL.                 -999.25: NULL VALUE
 UWI .                     N/A:  UNIQUE WELL IDENTIFIER
 API .                     N/A:  API NUMBER
 UNIT.                     N/A:  LOGGING EQUIPMENT ID
 DCON.         Sperry Drilling:  DIRECTNL CONTR
 DOE .                     N/A:  DOE NUMBER
 MWDS.                    Baku:  MWD SHOP
 SRVC.     Turan Drilling and Engineering:  CONTRACTOR
 CTRY.              Azerbaijan:  COUNTRY NAME
 PROV.                    Baku:  PROVINCE
 STAT.                    Baku:  STATE NAME
 REGN.                   EESSA:  REGION
 BASE.              Azerbaijan:  LOGGING EQUIPMENT BASE LOCATION
 WTYP.                Deviated:  WELL TYPE
 RIG .              East Azeri:  RIG NAME
 WELL.                    D02y:  WELL NAME
 FLD .                     ACG:  FIELD NAME
 COMP.     BP Exploration (Caspian Sea) Ltd.:  COMPANY
 PDAT.          Mean Sea Level:  PERMANENT DATUM
 MDS .        Operator Entered:  MAG DATA SOURCE
 SON .        AZ-XX-0906997291:  JOB NUMBER
 FTOP.          Formation Tops:  FORM TOPS DESC
 ILTD.               Lithology:  INTERP LTH DESC
 SVYD.                  Survey:  SURVEY DESC
 DMOD.             Drill Model:  DRILL MOD DESC
 HPTY.       Minimum Curvature:  HOLE POS TYPE
 NREF.                    Grid:  NORTH REFERENCE
 SPUD.               05-May-21:  SPUD DATE
 DATE.      09.27.28 12-Jun-21:  END TIME
 STIM.      09.27.28 12-May-21:  START TIME
 DMF .             Drill Floor:  DRILL MEAS FROM
 DFST.                        :  DIST FSL TEXT
 DFWT.                        :  DIST FWL TEXT
 CNTY.                        :  COUNTY
 LOC .                        :  LOCATION
 LMF .             Drill Floor:  LOG MEASURED FROM
 DEP .m                2806.40:  DEPTH
 AGAP.m                  43.60:  AIR GAP
 VSNS.m                  -4.42:  VERT SEC N/S
 VSEW.m                  -7.31:  VERT SEC E/W
 APD .m                  43.60:  DEPTH ABOVE PD
 WDMS.m                 151.80:  WD ELEV
 EGL .m                   0.00:  GROUND ELEVATION
 EPD .m                   0.00:  ELEVATION
 AZTC.deg                 6.18:  AZM TOTAL CORR
 GRDC.deg                 0.29:  GRID CORRECTION
 MDEC.deg                 6.47:  MAGNETIC DECL
 MDIP.deg                59.50:  MAGNETIC DIP
 MFLD.nT              50350.00:  MAGNETIC FIELD
 GVFD.g                   1.00:  GRAVITY FIELD
 VSDR.deg               179.08:  VERT SEC DIRECT
 TDD .m                4300.00:  TOTAL DEPTH (DRILLER)
 SDEP.m                2800.00:  START DEPTH
 DFSL.m                   0.00:  DISTANCE FSL
 DFWL.m                   0.00:  DISTANCE FWL
 UTMY.m             4431871.34:  UTM Y
 UTMX.m              538762.90:  UTM X
 WHEW.m                  -7.31:  WELL HEAD E/W
 WHNS.m                  -4.42:  WELL HEAD N/S
 LONG.deg                51.45:  LONGITUDE
 LATI.deg                40.02:  LATITUDE
 TVDS.m                  43.60:  TVDSS CORRECTN
 EKB .m                  43.60:  KB ELEVATION
 EDF .m                  43.60:  DF ELEVATION
 TDL .m                 806.00:  TOTAL DEPTH (LOGGER)
 MAGU.                 1851231:  MAGUTM CHECKSUM
 VSC .                       0:  VS TO CLOSURE
~Parameter Information Block
#MNEM.UNIT       Value        Description
#---------     -----------    ---------------------------
 AV  .mps                 1.60:  Ann Velocity 
 AVMX.mps                 2.00:  Max Ann Veloc 
 AZIF.deg               140.24:  Azm, Final 
 BHAT.        Rotary Steerable:  BHA Type 
 BROT.°/30m               0.50:  Build Rotating 
 BS  .in                  8.50:  Bit Size 
 BTPL.psig              619.00:  Bit Press Loss 
 CABU.                     Yes:  Customer Abuse 
 CGEO.          Ilgar Gurbanov:  Customer Geo 
 COMM.                     4`:  Run Comments 1 
 TCS .hr                 85.88:  Time Ciculation Ended 
 CV  .mps                 3.30:  Crit Velocity 
 CVMX.mps                 3.50:  Max Crit Veloc 
 DD1 .           Hamid Axmedov:  Direct Drillr 1 
 DD2 .           Teymur Aliyev:  Direct Drillr 2 
 DDSV.               Geo-Pilot:  DD Service 
 DEFF.%                 100.00:  % Det Eff 
 DLRX.°/30m               0.00:  Dogleg Rot Max 
 DLSO.°/30m               1.80:  Dogleg Oriented 
 DLSX.°/30m               3.34:  Dogleg Str Max 
 DRET.      11.50.00 27-May-21:  Drill End Time 
 DRST.      21.13.00 24-May-21:  Drill Start Tim 
 DTIM.hr                 45.11:  Time Drilling 
 EDEP.m                4054.00:  End Depth 
 ENG1.         Almaz Almadatov:  Engineer 1 
 ENG2.           Amrah Tahirov:  Engineer 2 
 ENG3.      Bakhtiyar Jabbarli:  Engineer 3 
 ENG4.          Nazrin Asgarli:  Engineer 4 
 ETIM.      10.00.00 30-May-21:  End Time 
 FLOI.gpm               530.00:  Flow In 
 FLON.gpm               400.00:  Flow In Min 
 FLOS.cptm                0.00:  Fluid Loss 
 FLOX.gpm               560.00:  Flow In Max 
 DFT .        Mineral Oil Base:  Mud Type 
 FTRO.       Formation Presure:  FTWD Run Obj 
 HFLO.                      No:  High Flow 
 HPRE.                      No:  High Pressure 
 HTEM.                      No:  High Temp 
 HYDO.m                   1.80:  Hydro Offset 
 IFIN.deg                73.83:  Inc, Final 
 IMAX.deg                73.83:  Inc Max 
 IMIN.deg                57.86:  Inc Min 
 IMND.m                3259.27:  Inc Min Depth 
 IMXD.m                4045.58:  Inc Max Depth 
 JARR.                     Yes:  Jarring 
 LETM.      11.50.00 27-May-21:  Log End Time 
 LOST.hr                     0:  Lost Rig Time 
 LSTM.      21.13.00 24-May-21:  Log Start Time 
 MDCL.ppm             42500.00:  Mud Chlorides 
 MDES.     Inversion Oil/Synthetic:  Mud Desc 
 DFD .sg                  1.52:  Mud Density 
 MDMN.sg                  1.52:  Dens Mud Min 
 MDMX.sg                  1.52:  Dens Mud Max 
 MOIL.                      70:  Run Mud Oil % 
 MOWR.                   70:30:  Run Mud OWR 
 MSND.                     0.2:  Run Mud Sand % 
 MSOL.                      22:  Run Mud Solids% 
 DFV .spqt               77.00:  Mud Viscosity 
 MWOD.in                  6.75:  MWD Tool OD 
 MWSI.                      No:  Serv Intrp, MWD 
 OTIM.hr                151.01:  Time Operating 
 PCON.          Wear / Scratch:  Pad Condition 
 PMAX.psia            11296.93:  Press Op, Max 
 PV  .cP                 37.00:  Mud PV 
 RUN .                     500:  Run Number 
 ROPA.m/hr               25.00:  ROP Avg 
 ROPN.m/hr                9.00:  ROP Min 
 ROPX.m/hr               28.00:  ROP Max 
 RPMA.rpm               140.00:  RPM Surface Avg 
 RPMN.rpm                90.00:  RPM Surface Min 
 RPMX.rpm               140.00:  RPM Surface Max 
 RRUN.                    0500:  Rig Run Number 
 SAZI.deg               172.17:  Azm, Start 
 SDEP.m                3248.00:  Start Depth 
 SIDD.                      No:  Serv Intrp, DD 
 SINC.deg                57.86:  Inc, Start 
 SPPA.psig             5620.00:  SPP Avg 
 SPPN.psig             5190.00:  SPP Min 
 SPPX.psig             6050.00:  SPP Max 
 STIM.      16.00.00 23-May-21:  Start Time 
 SVCS.                 DD, MWD:  Services 
 SVER.                    9.20:  Sperry Version 
 TDAT.m                 806.00:  Tot Depth Attmp 
 TDDF.                      No:  Trip for DD 
 TDLG.m                 806.00:  Tot Depth Loggd 
 TFF .                      No:  Trip for Fail 
 TQAA.f-kp               12.00:  Torque Abs Avg 
 TQAN.f-kp                8.00:  Torque Abs Min 
 TQAX.f-kp               15.00:  Torque Abs Max 
 TRRT.°/30m               0.30:  Turn Rotating 
 MRT .                  EWR-M5:  Maximum Recorded Temperature 
 TTMX.degC               93.00:  Max Tool Temp 
 VS01.                90649155:  Virtual Str1 SN 
 VS02.                90642264:  Virtual Str2 SN 
 VS03.                90642266:  Virtual Str3 SN 
 VS04.                90642261:  Virtual Str4 SN 
 WBMN.klb                 0.00:  WOB Min 
 WITN.             Anar Khalil:  Customer Rep 
 WITN.           Murad Guliyev:  Customer Rep 2 
 WOBA.klb                13.00:  WOB Avg 
 WOBX.klb                25.00:  WOB Max 
 YP  .lhf2               32.00:  Yield Point 
~Curve Information Block
#MNEM.UNIT                 API CODE     Curve Description
#---------               -----------    ---------------------------
 TIME.HHMMSS            00 000 000 000:  GT Time & Date
 GTDEPTH.m              00 000 000 000:  GT Depth
 GTPQH.psia             00 000 000 000:  GT HR Quartz Pressure
 GTTQ.degC              00 000 000 000:  GT Quartz Temperature
 GTTN.NONE              00 000 000 000:  GT Test Number
 GTET.sec               00 000 000 000:  GT Elapsed Test Time
 GTTVD.m                00 000 000 000:  GT True Vertical Depth
#Other Information
#
#WARRANTY: Halliburton will use its best efforts to furnish customers with 
#accurate information and interpretations that are part of, and incident to, the services 
#provided.  However, Halliburton cannot and does not warrant the accuracy 
#or correctness of such information and interpretations.  Under no circumstances should any 
#such information or interpretation be relied upon as the sole basis for any drilling, 
#completion, production, or financial decision or any procedure involving any risk to the 
#safety of any drilling venture, drilling rig or its crew or any other third party.  The 
#Customer has full responsibility for all drilling, completion and production operation.  
#Halliburton makes no representations or warranties, either expressed or 
#implied, including, but not limited to, the implied warranties of merchantability or fitness 
#for a particular purpose, with respect to the services rendered.  In no event will 
#Halliburton be liable for failure to obtain any particular results or for 
#any damages, including, but not limited to, indirect, special or consequential damages, 
#resulting from the use of any information or interpretation provided by Halliburton.
#
~A           TIME           GTDEPTH  GTPQH  GTTQ  GTTN  GTET   GTTVD  
# ...
   04:08:29.472.28-May-2021 3493.50 6070.65 83.04 8.00 391.13 2592.27
   04:08:29.672.28-May-2021 3493.50 6070.65 83.04 8.00 391.33 2592.27
   04:08:29.872.28-May-2021 3493.50 6070.26 83.04 8.00 391.53 2592.27
   04:08:30.072.28-May-2021 3493.50 6070.36 83.04 8.00 391.73 2592.27
   04:08:30.272.28-May-2021 3493.50 6070.17 83.04 8.00 391.93 2592.27
   04:08:30.472.28-May-2021 3493.50 6070.13 83.04 8.00 392.13 2592.27
   04:08:30.672.28-May-2021 3493.50 6070.13 83.04 8.00 392.33 2592.27
   04:08:30.872.28-May-2021 3493.50 6067.00 83.04 8.00 392.53 2592.27
   04:08:31.072.28-May-2021 3493.50 6070.23 83.04 8.00 392.73 2592.27
   04:08:31.272.28-May-2021 3493.50 6070.17 83.04 8.00 392.93 2592.27
   04:08:31.472.28-May-2021 3493.50 6070.05 83.04 8.00 393.13 2592.27
   04:08:31.672.28-May-2021 3493.50 6070.05 83.04 8.00 393.33 2592.27
   04:08:31.872.28-May-2021 3493.50 6073.85 83.04 8.00 393.53 2592.27
   04:08:32.072.28-May-2021 3493.50 6070.56 83.04 8.00 393.73 2592.27
   04:08:32.273.28-May-2021 3493.50 6070.51 83.04 8.00 393.93 2592.27
   04:08:32.473.28-May-2021 3493.50 6070.20 83.04 8.00 394.13 2592.27
   04:08:32.673.28-May-2021 3493.50 6070.20 83.04 8.00 394.33 2592.27
   04:08:32.873.28-May-2021 3493.50 6068.85 83.04 8.00 394.53 2592.27
   04:08:33.073.28-May-2021 3493.50 6070.26 83.04 8.00 394.73 2592.27
   04:08:33.273.28-May-2021 3493.50 6070.10 83.04 8.00 394.93 2592.27
   04:08:33.473.28-May-2021 3493.50 6073.69 83.04 8.00 395.13 2592.27
   04:08:33.673.28-May-2021 3493.50 6073.69 83.04 8.00 395.33 2592.27
   04:08:33.873.28-May-2021 3493.50 6070.73 83.04 8.00 395.53 2592.27
   04:08:34.073.28-May-2021 3493.50 6070.16 83.04 8.00 395.73 2592.27
   04:08:34.273.28-May-2021 3493.50 6070.54 83.04 8.00 395.93 2592.27
   04:08:34.473.28-May-2021 3493.50 6070.15 83.04 8.00 396.13 2592.27
   04:08:34.673.28-May-2021 3493.50 6070.15 83.04 8.00 396.33 2592.27
   04:08:34.873.28-May-2021 3493.50 6070.03 83.04 8.00 396.53 2592.27
   04:08:35.073.28-May-2021 3493.50 6070.28 83.04 8.00 396.73 2592.27
   04:08:35.274.28-May-2021 3493.50 6070.23 83.04 8.00 396.93 2592.27
   04:08:35.474.28-May-2021 3493.50 6069.97 83.04 8.00 397.13 2592.27
   04:08:35.674.28-May-2021 3493.50 6069.97 83.04 8.00 397.33 2592.27
   04:08:35.874.28-May-2021 3493.50 6069.79 83.04 8.00 397.53 2592.27
   04:08:36.074.28-May-2021 3493.50 6076.08 83.04 8.00 397.73 2592.27
   04:08:36.274.28-May-2021 3493.50 6067.96 83.04 8.00 397.93 2592.27
   04:08:36.474.28-May-2021 3493.50 6070.71 83.03 8.00 398.13 2592.27
   04:08:36.674.28-May-2021 3493.50 6070.71 83.03 8.00 398.33 2592.27
   04:08:36.874.28-May-2021 3493.50 6070.74 83.03 8.00 398.53 2592.27
   04:08:37.074.28-May-2021 3493.50 6070.39 83.03 8.00 398.73 2592.27
   04:08:37.274.28-May-2021 3493.50 6070.27 83.03 8.00 398.93 2592.27
   04:08:37.474.28-May-2021 3493.50 6070.20 83.03 8.00 399.13 2592.27
   04:08:37.674.28-May-2021 3493.50 6070.20 83.03 8.00 399.33 2592.27
   04:08:37.874.28-May-2021 3493.50 6070.71 83.03 8.00 399.53 2592.27
   04:08:38.074.28-May-2021 3493.50 6070.59 83.03 8.00 399.73 2592.27
   04:08:38.274.28-May-2021 3493.50 6070.34 83.03 8.00 399.93 2592.27
   04:08:38.475.28-May-2021 3493.50 6070.14 83.03 8.00 400.13 2592.27
   04:08:38.675.28-May-2021 3493.50 6070.14 83.03 8.00 400.33 2592.27
   04:08:38.875.28-May-2021 3493.50 6076.33 83.03 8.00 400.53 2592.27
   04:08:39.075.28-May-2021 3493.50 6068.03 83.03 8.00 400.73 2592.27
   04:08:39.275.28-May-2021 3493.50 6070.36 83.03 8.00 400.93 2592.27
   04:08:39.475.28-May-2021 3493.50 6069.89 83.03 8.00 401.13 2592.27
   04:08:39.675.28-May-2021 3493.50 6069.89 83.03 8.00 401.33 2592.27
   04:08:39.875.28-May-2021 3493.50 6069.60 83.03 8.00 401.53 2592.27
   04:08:40.075.28-May-2021 3493.50 6074.98 83.03 8.00 401.73 2592.27
   04:08:40.275.28-May-2021 3493.50 6068.60 83.03 8.00 401.93 2592.27
   04:08:40.475.28-May-2021 3493.50 6070.05 83.03 8.00 402.13 2592.27
   04:08:40.675.28-May-2021 3493.50 6070.05 83.03 8.00 402.33 2592.27
   04:08:40.875.28-May-2021 3493.50 6070.00 83.03 8.00 402.53 2592.27
   04:08:41.075.28-May-2021 3493.50 6066.46 83.03 8.00 402.73 2592.27
   04:08:41.275.28-May-2021 3493.50 6070.18 83.03 8.00 402.93 2592.27
   04:08:41.476.28-May-2021 3493.50 6069.86 83.03 8.00 403.13 2592.27
   04:08:41.676.28-May-2021 3493.50 6069.86 83.03 8.00 403.33 2592.27
   04:08:41.876.28-May-2021 3493.50 6073.33 83.03 8.00 403.53 2592.27
   04:08:42.076.28-May-2021 3493.50 6070.70 83.03 8.00 403.73 2592.27
   04:08:42.276.28-May-2021 3493.50 6069.89 83.03 8.00 403.93 2592.27
   04:08:42.476.28-May-2021 3493.50 6070.51 83.03 8.00 404.13 2592.27
   04:08:42.676.28-May-2021 3493.50 6070.51 83.03 8.00 404.33 2592.27
   04:08:42.876.28-May-2021 3493.50 6069.71 83.03 8.00 404.53 2592.27
   04:08:43.076.28-May-2021 3493.50 6070.04 83.03 8.00 404.73 2592.27
   04:08:43.276.28-May-2021 3493.50 6070.06 83.03 8.00 404.93 2592.27
   04:08:43.476.28-May-2021 3493.50 6070.29 83.03 8.00 405.13 2592.27
   04:08:43.676.28-May-2021 3493.50 6070.29 83.03 8.00 405.33 2592.27
   04:08:43.876.28-May-2021 3493.50 6069.77 83.03 8.00 405.53 2592.27
   04:08:44.076.28-May-2021 3493.50 6069.64 83.03 8.00 405.73 2592.27
   04:08:44.276.28-May-2021 3493.50 6073.00 83.03 8.00 405.93 2592.27
   04:08:44.476.28-May-2021 3493.50 6070.11 83.03 8.00 406.13 2592.27
   04:08:44.677.28-May-2021 3493.50 6070.11 83.03 8.00 406.33 2592.27
   04:08:44.877.28-May-2021 3493.50 6069.84 83.03 8.00 406.53 2592.27
   04:08:45.077.28-May-2021 3493.50 6069.61 83.03 8.00 406.73 2592.27
   04:08:45.277.28-May-2021 3493.50 6069.82 83.03 8.00 406.93 2592.27
   04:08:45.477.28-May-2021 3493.50 6069.27 83.03 8.00 407.13 2592.27
   04:08:45.677.28-May-2021 3493.50 6069.27 83.03 8.00 407.33 2592.27
   04:08:45.877.28-May-2021 3493.50 6069.77 83.03 8.00 407.53 2592.27
   04:08:46.077.28-May-2021 3493.50 6070.15 83.03 8.00 407.73 2592.27
   04:08:46.277.28-May-2021 3493.50 6069.84 83.03 8.00 407.93 2592.27
   04:08:46.477.28-May-2021 3493.50 6069.79 83.03 8.00 408.13 2592.27
   04:08:46.677.28-May-2021 3493.50 6069.79 83.03 8.00 408.33 2592.27
   04:08:46.877.28-May-2021 3493.50 6069.55 83.03 8.00 408.53 2592.27
   04:08:47.077.28-May-2021 3493.50 6072.90 83.03 8.00 408.73 2592.27
   04:08:47.277.28-May-2021 3493.50 6070.03 83.03 8.00 408.93 2592.27
   04:08:47.477.28-May-2021 3493.50 6069.89 83.03 8.00 409.13 2592.27
   04:08:47.678.28-May-2021 3493.50 6069.89 83.03 8.00 409.33 2592.27
   04:08:47.878.28-May-2021 3493.50 6069.11 83.03 8.00 409.53 2592.27
   04:08:48.078.28-May-2021 3493.50 6069.40 83.03 8.00 409.73 2592.27
   04:08:48.278.28-May-2021 3493.50 6076.54 83.03 8.00 409.93 2592.27
   04:08:48.478.28-May-2021 3493.50 6066.06 83.03 8.00 410.13 2592.27
   04:08:48.678.28-May-2021 3493.50 6066.06 83.03 8.00 410.33 2592.27
   04:08:48.878.28-May-2021 3493.50 6069.57 83.02 8.00 410.53 2592.27
   04:08:49.078.28-May-2021 3493.50 6075.76 83.02 8.00 410.73 2592.27
   04:08:49.278.28-May-2021 3493.50 6067.29 83.02 8.00 410.93 2592.27
   04:08:49.478.28-May-2021 3493.50 6070.03 83.02 8.00 411.13 2592.27
   04:08:49.678.28-May-2021 3493.50 6070.03 83.02 8.00 411.33 2592.27
   04:08:49.878.28-May-2021 3493.50 6069.89 83.02 8.00 411.53 2592.27
   04:08:50.078.28-May-2021 3493.50 6075.04 83.02 8.00 411.73 2592.27
   04:08:50.278.28-May-2021 3493.50 6068.75 83.02 8.00 411.93 2592.27
   04:08:50.478.28-May-2021 3493.50 6069.59 83.02 8.00 412.13 2592.27
   04:08:50.678.28-May-2021 3493.50 6069.59 83.02 8.00 412.33 2592.27
   04:08:50.879.28-May-2021 3493.50 6069.87 83.02 8.00 412.53 2592.27
   04:08:51.079.28-May-2021 3493.50 6069.52 83.02 8.00 412.73 2592.27
   04:08:51.279.28-May-2021 3493.50 6069.87 83.02 8.00 412.93 2592.27
   04:08:51.479.28-May-2021 3493.50 6069.65 83.02 8.00 413.13 2592.27
   04:08:51.679.28-May-2021 3493.50 6069.65 83.02 8.00 413.33 2592.27
   04:08:51.879.28-May-2021 3493.50 6069.58 83.02 8.00 413.53 2592.27
   04:08:52.079.28-May-2021 3493.50 6069.61 83.02 8.00 413.73 2592.27
   04:08:52.279.28-May-2021 3493.50 6069.46 83.02 8.00 413.93 2592.27
