~Version Information
 VERS.                  2.0:   CWLS log ASCII Standard -VERSION 2.0
 WRAP.                   NO:   One line per depth step
~Well Information Block
#MNEM.UNIT     VALUE/NAME     DESCRIPTION
#---------     -----------    ---------------------------
 STRT.S             00:16:40 28-May-21: START TIME 00:16:40 28-May-21
 STOP.S             00:23:42 28-May-21: STOP TIME  00:23:42 28-May-21
 STEP.S                   0.00: STEP TIME
 NULL.                 -999.25: NULL VALUE
 UWI .                     N/A:  UNIQUE WELL IDENTIFIER
 API .                     N/A:  API NUMBER
 UNIT.                     N/A:  LOGGING EQUIPMENT ID
 DCON.         Sperry Drilling:  DIRECTNL CONTR
 DOE .                     N/A:  DOE NUMBER
 MWDS.                    Baku:  MWD SHOP
 SRVC.     Turan Drilling and Engineering:  CONTRACTOR
 CTRY.              Azerbaijan:  COUNTRY NAME
 PROV.                    Baku:  PROVINCE
 STAT.                    Baku:  STATE NAME
 REGN.                   EESSA:  REGION
 BASE.              Azerbaijan:  LOGGING EQUIPMENT BASE LOCATION
 WTYP.                Deviated:  WELL TYPE
 RIG .              East Azeri:  RIG NAME
 WELL.                    D02y:  WELL NAME
 FLD .                     ACG:  FIELD NAME
 COMP.     BP Exploration (Caspian Sea) Ltd.:  COMPANY
 PDAT.          Mean Sea Level:  PERMANENT DATUM
 MDS .        Operator Entered:  MAG DATA SOURCE
 SON .        AZ-XX-0906997291:  JOB NUMBER
 FTOP.          Formation Tops:  FORM TOPS DESC
 ILTD.               Lithology:  INTERP LTH DESC
 SVYD.                  Survey:  SURVEY DESC
 DMOD.             Drill Model:  DRILL MOD DESC
 HPTY.       Minimum Curvature:  HOLE POS TYPE
 NREF.                    Grid:  NORTH REFERENCE
 SPUD.               05-May-21:  SPUD DATE
 DATE.      09.27.28 12-Jun-21:  END TIME
 STIM.      09.27.28 12-May-21:  START TIME
 DMF .             Drill Floor:  DRILL MEAS FROM
 DFST.                        :  DIST FSL TEXT
 DFWT.                        :  DIST FWL TEXT
 CNTY.                        :  COUNTY
 LOC .                        :  LOCATION
 LMF .             Drill Floor:  LOG MEASURED FROM
 DEP .m                2806.40:  DEPTH
 AGAP.m                  43.60:  AIR GAP
 VSNS.m                  -4.42:  VERT SEC N/S
 VSEW.m                  -7.31:  VERT SEC E/W
 APD .m                  43.60:  DEPTH ABOVE PD
 WDMS.m                 151.80:  WD ELEV
 EGL .m                   0.00:  GROUND ELEVATION
 EPD .m                   0.00:  ELEVATION
 AZTC.deg                 6.18:  AZM TOTAL CORR
 GRDC.deg                 0.29:  GRID CORRECTION
 MDEC.deg                 6.47:  MAGNETIC DECL
 MDIP.deg                59.50:  MAGNETIC DIP
 MFLD.nT              50350.00:  MAGNETIC FIELD
 GVFD.g                   1.00:  GRAVITY FIELD
 VSDR.deg               179.08:  VERT SEC DIRECT
 TDD .m                4300.00:  TOTAL DEPTH (DRILLER)
 SDEP.m                2800.00:  START DEPTH
 DFSL.m                   0.00:  DISTANCE FSL
 DFWL.m                   0.00:  DISTANCE FWL
 UTMY.m             4431871.34:  UTM Y
 UTMX.m              538762.90:  UTM X
 WHEW.m                  -7.31:  WELL HEAD E/W
 WHNS.m                  -4.42:  WELL HEAD N/S
 LONG.deg                51.45:  LONGITUDE
 LATI.deg                40.02:  LATITUDE
 TVDS.m                  43.60:  TVDSS CORRECTN
 EKB .m                  43.60:  KB ELEVATION
 EDF .m                  43.60:  DF ELEVATION
 TDL .m                 806.00:  TOTAL DEPTH (LOGGER)
 MAGU.                 1851231:  MAGUTM CHECKSUM
 VSC .                       0:  VS TO CLOSURE
~Parameter Information Block
#MNEM.UNIT       Value        Description
#---------     -----------    ---------------------------
 AV  .mps                 1.60:  Ann Velocity 
 AVMX.mps                 2.00:  Max Ann Veloc 
 AZIF.deg               140.24:  Azm, Final 
 BHAT.        Rotary Steerable:  BHA Type 
 BROT.°/30m               0.50:  Build Rotating 
 BS  .in                  8.50:  Bit Size 
 BTPL.psig              619.00:  Bit Press Loss 
 CABU.                     Yes:  Customer Abuse 
 CGEO.          Ilgar Gurbanov:  Customer Geo 
 COMM.                     ”)T:  Run Comments 1 
 TCS .hr                 85.88:  Time Ciculation Ended 
 CV  .mps                 3.30:  Crit Velocity 
 CVMX.mps                 3.50:  Max Crit Veloc 
 DD1 .           Hamid Axmedov:  Direct Drillr 1 
 DD2 .           Teymur Aliyev:  Direct Drillr 2 
 DDSV.               Geo-Pilot:  DD Service 
 DEFF.%                 100.00:  % Det Eff 
 DLRX.°/30m               0.00:  Dogleg Rot Max 
 DLSO.°/30m               1.80:  Dogleg Oriented 
 DLSX.°/30m               3.34:  Dogleg Str Max 
 DRET.      11.50.00 27-May-21:  Drill End Time 
 DRST.      21.13.00 24-May-21:  Drill Start Tim 
 DTIM.hr                 45.11:  Time Drilling 
 EDEP.m                4054.00:  End Depth 
 ENG1.         Almaz Almadatov:  Engineer 1 
 ENG2.           Amrah Tahirov:  Engineer 2 
 ENG3.      Bakhtiyar Jabbarli:  Engineer 3 
 ENG4.          Nazrin Asgarli:  Engineer 4 
 ETIM.      10.00.00 30-May-21:  End Time 
 FLOI.gpm               530.00:  Flow In 
 FLON.gpm               400.00:  Flow In Min 
 FLOS.cptm                0.00:  Fluid Loss 
 FLOX.gpm               560.00:  Flow In Max 
 DFT .        Mineral Oil Base:  Mud Type 
 FTRO.       Formation Presure:  FTWD Run Obj 
 HFLO.                      No:  High Flow 
 HPRE.                      No:  High Pressure 
 HTEM.                      No:  High Temp 
 HYDO.m                   1.80:  Hydro Offset 
 IFIN.deg                73.83:  Inc, Final 
 IMAX.deg                73.83:  Inc Max 
 IMIN.deg                57.86:  Inc Min 
 IMND.m                3259.27:  Inc Min Depth 
 IMXD.m                4045.58:  Inc Max Depth 
 JARR.                     Yes:  Jarring 
 LETM.      11.50.00 27-May-21:  Log End Time 
 LOST.hr                     0:  Lost Rig Time 
 LSTM.      21.13.00 24-May-21:  Log Start Time 
 MDCL.ppm             42500.00:  Mud Chlorides 
 MDES.     Inversion Oil/Synthetic:  Mud Desc 
 DFD .sg                  1.52:  Mud Density 
 MDMN.sg                  1.52:  Dens Mud Min 
 MDMX.sg                  1.52:  Dens Mud Max 
 MOIL.                      70:  Run Mud Oil % 
 MOWR.                   70:30:  Run Mud OWR 
 MSND.                     0.2:  Run Mud Sand % 
 MSOL.                      22:  Run Mud Solids% 
 DFV .spqt               77.00:  Mud Viscosity 
 MWOD.in                  6.75:  MWD Tool OD 
 MWSI.                      No:  Serv Intrp, MWD 
 OTIM.hr                151.01:  Time Operating 
 PCON.          Wear / Scratch:  Pad Condition 
 PMAX.psia            11296.93:  Press Op, Max 
 PV  .cP                 37.00:  Mud PV 
 RUN .                     500:  Run Number 
 ROPA.m/hr               25.00:  ROP Avg 
 ROPN.m/hr                9.00:  ROP Min 
 ROPX.m/hr               28.00:  ROP Max 
 RPMA.rpm               140.00:  RPM Surface Avg 
 RPMN.rpm                90.00:  RPM Surface Min 
 RPMX.rpm               140.00:  RPM Surface Max 
 RRUN.                    0500:  Rig Run Number 
 SAZI.deg               172.17:  Azm, Start 
 SDEP.m                3248.00:  Start Depth 
 SIDD.                      No:  Serv Intrp, DD 
 SINC.deg                57.86:  Inc, Start 
 SPPA.psig             5620.00:  SPP Avg 
 SPPN.psig             5190.00:  SPP Min 
 SPPX.psig             6050.00:  SPP Max 
 STIM.      16.00.00 23-May-21:  Start Time 
 SVCS.                 DD, MWD:  Services 
 SVER.                    9.20:  Sperry Version 
 TDAT.m                 806.00:  Tot Depth Attmp 
 TDDF.                      No:  Trip for DD 
 TDLG.m                 806.00:  Tot Depth Loggd 
 TFF .                      No:  Trip for Fail 
 TQAA.f-kp               12.00:  Torque Abs Avg 
 TQAN.f-kp                8.00:  Torque Abs Min 
 TQAX.f-kp               15.00:  Torque Abs Max 
 TRRT.°/30m               0.30:  Turn Rotating 
 MRT .                  EWR-M5:  Maximum Recorded Temperature 
 TTMX.degC               93.00:  Max Tool Temp 
 VS01.                90649155:  Virtual Str1 SN 
 VS02.                90642264:  Virtual Str2 SN 
 VS03.                90642266:  Virtual Str3 SN 
 VS04.                90642261:  Virtual Str4 SN 
 WBMN.klb                 0.00:  WOB Min 
 WITN.             Anar Khalil:  Customer Rep 
 WITN.           Murad Guliyev:  Customer Rep 2 
 WOBA.klb                13.00:  WOB Avg 
 WOBX.klb                25.00:  WOB Max 
 YP  .lhf2               32.00:  Yield Point 
~Curve Information Block
#MNEM.UNIT                 API CODE     Curve Description
#---------               -----------    ---------------------------
 TIME.HHMMSS            00 000 000 000:  GT Time & Date
 GTDEPTH.m              00 000 000 000:  GT Depth
 GTPQH.psia             00 000 000 000:  GT HR Quartz Pressure
 GTTQ.degC              00 000 000 000:  GT Quartz Temperature
 GTTN.NONE              00 000 000 000:  GT Test Number
 GTET.sec               00 000 000 000:  GT Elapsed Test Time
 GTTVD.m                00 000 000 000:  GT True Vertical Depth
#Other Information
#
#WARRANTY: Halliburton will use its best efforts to furnish customers with 
#accurate information and interpretations that are part of, and incident to, the services 
#provided.  However, Halliburton cannot and does not warrant the accuracy 
#or correctness of such information and interpretations.  Under no circumstances should any 
#such information or interpretation be relied upon as the sole basis for any drilling, 
#completion, production, or financial decision or any procedure involving any risk to the 
#safety of any drilling venture, drilling rig or its crew or any other third party.  The 
#Customer has full responsibility for all drilling, completion and production operation.  
#Halliburton makes no representations or warranties, either expressed or 
#implied, including, but not limited to, the implied warranties of merchantability or fitness 
#for a particular purpose, with respect to the services rendered.  In no event will 
#Halliburton be liable for failure to obtain any particular results or for 
#any damages, including, but not limited to, indirect, special or consequential damages, 
#resulting from the use of any information or interpretation provided by Halliburton.
#
~A           TIME           GTDEPTH  GTPQH  GTTQ  GTTN  GTET   GTTVD  
# ...
   00:22:25.000.28-May-2021 3671.00 3177.78 84.58 4.00 345.00 2661.36
   00:22:25.200.28-May-2021 3671.00 3177.78 84.58 4.00 345.20 2661.36
   00:22:25.400.28-May-2021 3671.00 3177.79 84.58 4.00 345.40 2661.36
   00:22:25.600.28-May-2021 3671.00 3177.80 84.58 4.00 345.60 2661.36
   00:22:25.800.28-May-2021 3671.00 3177.80 84.58 4.00 345.80 2661.36
   00:22:26.000.28-May-2021 3671.00 3177.80 84.58 4.00 346.00 2661.36
   00:22:26.200.28-May-2021 3671.00 3177.80 84.58 4.00 346.20 2661.36
   00:22:26.400.28-May-2021 3671.00 3177.90 84.58 4.00 346.40 2661.36
   00:22:26.600.28-May-2021 3671.00 3177.79 84.58 4.00 346.60 2661.36
   00:22:26.800.28-May-2021 3671.00 3177.78 84.58 4.00 346.80 2661.36
   00:22:27.000.28-May-2021 3671.00 3177.81 84.58 4.00 347.00 2661.36
   00:22:27.200.28-May-2021 3671.00 3177.81 84.58 4.00 347.20 2661.36
   00:22:27.400.28-May-2021 3671.00 3177.79 84.58 4.00 347.40 2661.36
   00:22:27.600.28-May-2021 3671.00 3177.80 84.58 4.00 347.60 2661.36
   00:22:27.800.28-May-2021 3671.00 3177.79 84.58 4.00 347.80 2661.36
   00:22:28.000.28-May-2021 3671.00 3177.80 84.59 4.00 348.00 2661.36
   00:22:28.200.28-May-2021 3671.00 3177.80 84.59 4.00 348.20 2661.36
   00:22:28.400.28-May-2021 3671.00 3177.79 84.59 4.00 348.40 2661.36
   00:22:28.600.28-May-2021 3671.00 3177.80 84.59 4.00 348.60 2661.36
   00:22:28.800.28-May-2021 3671.00 3177.70 84.59 4.00 348.80 2661.36
   00:22:29.000.28-May-2021 3671.00 3177.88 84.59 4.00 349.00 2661.36
   00:22:29.200.28-May-2021 3671.00 3177.88 84.59 4.00 349.20 2661.36
   00:22:29.400.28-May-2021 3671.00 3177.80 84.59 4.00 349.40 2661.36
   00:22:29.600.28-May-2021 3671.00 3177.80 84.59 4.00 349.60 2661.36
   00:22:29.800.28-May-2021 3671.00 3177.82 84.59 4.00 349.80 2661.36
   00:22:30.000.28-May-2021 3671.00 3177.77 84.59 4.00 350.00 2661.36
   00:22:30.200.28-May-2021 3671.00 3177.77 84.59 4.00 350.20 2661.36
   00:22:30.400.28-May-2021 3671.00 3177.80 84.59 4.00 350.40 2661.36
   00:22:30.600.28-May-2021 3671.00 3177.70 84.59 4.00 350.60 2661.36
   00:22:30.800.28-May-2021 3671.00 3177.87 84.59 4.00 350.80 2661.36
   00:22:31.000.28-May-2021 3671.00 3177.80 84.59 4.00 351.00 2661.36
   00:22:31.200.28-May-2021 3671.00 3177.80 84.59 4.00 351.20 2661.36
   00:22:31.400.28-May-2021 3671.00 3177.69 84.59 4.00 351.40 2661.36
   00:22:31.600.28-May-2021 3671.00 3177.81 84.59 4.00 351.60 2661.36
   00:22:31.800.28-May-2021 3671.00 3177.78 84.59 4.00 351.80 2661.36
   00:22:32.000.28-May-2021 3671.00 3177.79 84.59 4.00 352.00 2661.36
   00:22:32.200.28-May-2021 3671.00 3177.79 84.59 4.00 352.20 2661.36
   00:22:32.400.28-May-2021 3671.00 3177.79 84.59 4.00 352.40 2661.36
   00:22:32.600.28-May-2021 3671.00 3177.79 84.59 4.00 352.60 2661.36
   00:22:32.800.28-May-2021 3671.00 3177.80 84.59 4.00 352.80 2661.36
   00:22:33.000.28-May-2021 3671.00 3177.79 84.59 4.00 353.00 2661.36
   00:22:33.200.28-May-2021 3671.00 3177.79 84.59 4.00 353.20 2661.36
   00:22:33.400.28-May-2021 3671.00 3177.80 84.59 4.00 353.40 2661.36
   00:22:33.600.28-May-2021 3671.00 3177.79 84.59 4.00 353.60 2661.36
   00:22:33.800.28-May-2021 3671.00 3177.70 84.59 4.00 353.80 2661.36
   00:22:34.000.28-May-2021 3671.00 3177.89 84.59 4.00 354.00 2661.36
   00:22:34.200.28-May-2021 3671.00 3177.89 84.59 4.00 354.20 2661.36
   00:22:34.400.28-May-2021 3671.00 3177.89 84.59 4.00 354.40 2661.36
   00:22:34.600.28-May-2021 3671.00 3177.80 84.59 4.00 354.60 2661.36
   00:22:34.800.28-May-2021 3671.00 3177.80 84.59 4.00 354.80 2661.36
   00:22:35.000.28-May-2021 3671.00 3177.78 84.59 4.00 355.00 2661.36
   00:22:35.200.28-May-2021 3671.00 3177.78 84.59 4.00 355.20 2661.36
   00:22:35.400.28-May-2021 3671.00 3177.79 84.59 4.00 355.40 2661.36
   00:22:35.600.28-May-2021 3671.00 3177.79 84.59 4.00 355.60 2661.36
   00:22:35.800.28-May-2021 3671.00 3177.81 84.59 4.00 355.80 2661.36
   00:22:36.000.28-May-2021 3671.00 3177.79 84.59 4.00 356.00 2661.36
   00:22:36.200.28-May-2021 3671.00 3177.79 84.59 4.00 356.20 2661.36
   00:22:36.400.28-May-2021 3671.00 3177.70 84.59 4.00 356.40 2661.36
   00:22:36.600.28-May-2021 3671.00 3177.88 84.59 4.00 356.60 2661.36
   00:22:36.800.28-May-2021 3671.00 3177.79 84.59 4.00 356.80 2661.36
   00:22:37.000.28-May-2021 3671.00 3177.80 84.59 4.00 357.00 2661.36
   00:22:37.200.28-May-2021 3671.00 3177.80 84.59 4.00 357.20 2661.36
   00:22:37.400.28-May-2021 3671.00 3177.81 84.59 4.00 357.40 2661.36
   00:22:37.600.28-May-2021 3671.00 3177.77 84.59 4.00 357.60 2661.36
   00:22:37.800.28-May-2021 3671.00 3177.78 84.59 4.00 357.80 2661.36
   00:22:38.000.28-May-2021 3671.00 3177.79 84.59 4.00 358.00 2661.36
   00:22:38.200.28-May-2021 3671.00 3177.79 84.59 4.00 358.20 2661.36
   00:22:38.400.28-May-2021 3671.00 3177.88 84.59 4.00 358.40 2661.36
   00:22:38.600.28-May-2021 3671.00 3177.79 84.59 4.00 358.60 2661.36
   00:22:38.800.28-May-2021 3671.00 3177.69 84.59 4.00 358.80 2661.36
   00:22:39.000.28-May-2021 3671.00 3177.88 84.59 4.00 359.00 2661.36
   00:22:39.200.28-May-2021 3671.00 3177.88 84.59 4.00 359.20 2661.36
   00:22:39.400.28-May-2021 3671.00 3177.79 84.59 4.00 359.40 2661.36
   00:22:39.600.28-May-2021 3671.00 3177.79 84.59 4.00 359.60 2661.36
   00:22:39.800.28-May-2021 3671.00 3177.79 84.59 4.00 359.80 2661.36
   00:22:40.000.28-May-2021 3671.00 3177.80 84.59 4.00 360.00 2661.36
   00:22:40.200.28-May-2021 3671.00 3177.80 84.59 4.00 360.20 2661.36
   00:22:40.400.28-May-2021 3671.00 3177.80 84.59 4.00 360.40 2661.36
   00:22:40.600.28-May-2021 3671.00 3177.79 84.59 4.00 360.60 2661.36
   00:22:40.800.28-May-2021 3671.00 3177.79 84.59 4.00 360.80 2661.36
   00:22:41.000.28-May-2021 3671.00 3177.80 84.59 4.00 361.00 2661.36
   00:22:41.200.28-May-2021 3671.00 3177.80 84.59 4.00 361.20 2661.36
   00:22:41.400.28-May-2021 3671.00 3177.69 84.59 4.00 361.40 2661.36
   00:22:41.600.28-May-2021 3671.00 3177.90 84.59 4.00 361.60 2661.36
   00:22:41.800.28-May-2021 3671.00 3177.79 84.59 4.00 361.80 2661.36
   00:22:42.000.28-May-2021 3671.00 3177.77 84.59 4.00 362.00 2661.36
   00:22:42.200.28-May-2021 3671.00 3177.77 84.59 4.00 362.20 2661.36
   00:22:42.400.28-May-2021 3671.00 3177.79 84.59 4.00 362.40 2661.36
   00:22:42.600.28-May-2021 3671.00 3177.78 84.59 4.00 362.60 2661.36
   00:22:42.800.28-May-2021 3671.00 3177.79 84.59 4.00 362.80 2661.36
   00:22:43.000.28-May-2021 3671.00 3177.79 84.59 4.00 363.00 2661.36
   00:22:43.200.28-May-2021 3671.00 3177.79 84.59 4.00 363.20 2661.36
   00:22:43.400.28-May-2021 3671.00 3177.78 84.59 4.00 363.40 2661.36
   00:22:43.600.28-May-2021 3671.00 3177.79 84.59 4.00 363.60 2661.36
   00:22:43.800.28-May-2021 3671.00 3177.78 84.59 4.00 363.80 2661.36
   00:22:44.000.28-May-2021 3671.00 3177.71 84.59 4.00 364.00 2661.36
   00:22:44.200.28-May-2021 3671.00 3177.71 84.59 4.00 364.20 2661.36
   00:22:44.400.28-May-2021 3671.00 3177.79 84.59 4.00 364.40 2661.36
   00:22:44.600.28-May-2021 3671.00 3177.78 84.59 4.00 364.60 2661.36
   00:22:44.800.28-May-2021 3671.00 3177.79 84.59 4.00 364.80 2661.36
   00:22:45.000.28-May-2021 3671.00 3177.81 84.59 4.00 365.00 2661.36
   00:22:45.200.28-May-2021 3671.00 3177.81 84.59 4.00 365.20 2661.36
   00:22:45.400.28-May-2021 3671.00 3177.77 84.59 4.00 365.40 2661.36
   00:22:45.600.28-May-2021 3671.00 3177.78 84.59 4.00 365.60 2661.36
   00:22:45.800.28-May-2021 3671.00 3177.69 84.59 4.00 365.80 2661.36
   00:22:46.000.28-May-2021 3671.00 3177.86 84.59 4.00 366.00 2661.36
   00:22:46.200.28-May-2021 3671.00 3177.86 84.59 4.00 366.20 2661.36
   00:22:46.400.28-May-2021 3671.00 3179.86 84.59 4.00 366.40 2661.36
   00:22:46.600.28-May-2021 3671.00 3209.73 84.59 4.00 366.60 2661.36
   00:22:46.800.28-May-2021 3671.00 3298.79 84.59 4.00 366.80 2661.36
   00:22:47.000.28-May-2021 3671.00 5183.10 84.59 4.00 367.00 2661.36
   00:22:47.200.28-May-2021 3671.00 5183.10 84.59 4.00 367.20 2661.36
   00:22:47.400.28-May-2021 3671.00 6213.19 84.59 4.00 367.40 2661.36
   00:22:47.600.28-May-2021 3671.00 6210.42 84.59 4.00 367.60 2661.36
   00:22:47.800.28-May-2021 3671.00 6211.73 84.60 4.00 367.80 2661.36
