~Version Information
 VERS.                  2.0:   CWLS log ASCII Standard -VERSION 2.0
 WRAP.                   NO:   One line per depth step
~Well Information Block
#MNEM.UNIT     VALUE/NAME     DESCRIPTION
#---------     -----------    ---------------------------
 STRT.S             22:21:57 27-May-21: START TIME 22:21:57 27-May-21
 STOP.S             22:28:58 27-May-21: STOP TIME  22:28:58 27-May-21
 STEP.S                   0.00: STEP TIME
 NULL.                 -999.25: NULL VALUE
 UWI .                     N/A:  UNIQUE WELL IDENTIFIER
 API .                     N/A:  API NUMBER
 UNIT.                     N/A:  LOGGING EQUIPMENT ID
 DCON.         Sperry Drilling:  DIRECTNL CONTR
 DOE .                     N/A:  DOE NUMBER
 MWDS.                    Baku:  MWD SHOP
 SRVC.     Turan Drilling and Engineering:  CONTRACTOR
 CTRY.              Azerbaijan:  COUNTRY NAME
 PROV.                    Baku:  PROVINCE
 STAT.                    Baku:  STATE NAME
 REGN.                   EESSA:  REGION
 BASE.              Azerbaijan:  LOGGING EQUIPMENT BASE LOCATION
 WTYP.                Deviated:  WELL TYPE
 RIG .              East Azeri:  RIG NAME
 WELL.                    D02y:  WELL NAME
 FLD .                     ACG:  FIELD NAME
 COMP.     BP Exploration (Caspian Sea) Ltd.:  COMPANY
 PDAT.          Mean Sea Level:  PERMANENT DATUM
 MDS .        Operator Entered:  MAG DATA SOURCE
 SON .        AZ-XX-0906997291:  JOB NUMBER
 FTOP.          Formation Tops:  FORM TOPS DESC
 ILTD.               Lithology:  INTERP LTH DESC
 SVYD.                  Survey:  SURVEY DESC
 DMOD.             Drill Model:  DRILL MOD DESC
 HPTY.       Minimum Curvature:  HOLE POS TYPE
 NREF.                    Grid:  NORTH REFERENCE
 SPUD.               05-May-21:  SPUD DATE
 DATE.      09.27.28 12-Jun-21:  END TIME
 STIM.      09.27.28 12-May-21:  START TIME
 DMF .             Drill Floor:  DRILL MEAS FROM
 DFST.                        :  DIST FSL TEXT
 DFWT.                        :  DIST FWL TEXT
 CNTY.                        :  COUNTY
 LOC .                        :  LOCATION
 LMF .             Drill Floor:  LOG MEASURED FROM
 DEP .m                2806.40:  DEPTH
 AGAP.m                  43.60:  AIR GAP
 VSNS.m                  -4.42:  VERT SEC N/S
 VSEW.m                  -7.31:  VERT SEC E/W
 APD .m                  43.60:  DEPTH ABOVE PD
 WDMS.m                 151.80:  WD ELEV
 EGL .m                   0.00:  GROUND ELEVATION
 EPD .m                   0.00:  ELEVATION
 AZTC.deg                 6.18:  AZM TOTAL CORR
 GRDC.deg                 0.29:  GRID CORRECTION
 MDEC.deg                 6.47:  MAGNETIC DECL
 MDIP.deg                59.50:  MAGNETIC DIP
 MFLD.nT              50350.00:  MAGNETIC FIELD
 GVFD.g                   1.00:  GRAVITY FIELD
 VSDR.deg               179.08:  VERT SEC DIRECT
 TDD .m                4300.00:  TOTAL DEPTH (DRILLER)
 SDEP.m                2800.00:  START DEPTH
 DFSL.m                   0.00:  DISTANCE FSL
 DFWL.m                   0.00:  DISTANCE FWL
 UTMY.m             4431871.34:  UTM Y
 UTMX.m              538762.90:  UTM X
 WHEW.m                  -7.31:  WELL HEAD E/W
 WHNS.m                  -4.42:  WELL HEAD N/S
 LONG.deg                51.45:  LONGITUDE
 LATI.deg                40.02:  LATITUDE
 TVDS.m                  43.60:  TVDSS CORRECTN
 EKB .m                  43.60:  KB ELEVATION
 EDF .m                  43.60:  DF ELEVATION
 TDL .m                 806.00:  TOTAL DEPTH (LOGGER)
 MAGU.                 1851231:  MAGUTM CHECKSUM
 VSC .                       0:  VS TO CLOSURE
~Parameter Information Block
#MNEM.UNIT       Value        Description
#---------     -----------    ---------------------------
 AV  .mps                 1.60:  Ann Velocity 
 AVMX.mps                 2.00:  Max Ann Veloc 
 AZIF.deg               140.24:  Azm, Final 
 BHAT.        Rotary Steerable:  BHA Type 
 BROT.°/30m               0.50:  Build Rotating 
 BS  .in                  8.50:  Bit Size 
 BTPL.psig              619.00:  Bit Press Loss 
 CABU.                     Yes:  Customer Abuse 
 CGEO.          Ilgar Gurbanov:  Customer Geo 
 COMM.                     ¼ƒj:  Run Comments 1 
 TCS .hr                 85.88:  Time Ciculation Ended 
 CV  .mps                 3.30:  Crit Velocity 
 CVMX.mps                 3.50:  Max Crit Veloc 
 DD1 .           Hamid Axmedov:  Direct Drillr 1 
 DD2 .           Teymur Aliyev:  Direct Drillr 2 
 DDSV.               Geo-Pilot:  DD Service 
 DEFF.%                 100.00:  % Det Eff 
 DLRX.°/30m               0.00:  Dogleg Rot Max 
 DLSO.°/30m               1.80:  Dogleg Oriented 
 DLSX.°/30m               3.34:  Dogleg Str Max 
 DRET.      11.50.00 27-May-21:  Drill End Time 
 DRST.      21.13.00 24-May-21:  Drill Start Tim 
 DTIM.hr                 45.11:  Time Drilling 
 EDEP.m                4054.00:  End Depth 
 ENG1.         Almaz Almadatov:  Engineer 1 
 ENG2.           Amrah Tahirov:  Engineer 2 
 ENG3.      Bakhtiyar Jabbarli:  Engineer 3 
 ENG4.          Nazrin Asgarli:  Engineer 4 
 ETIM.      10.00.00 30-May-21:  End Time 
 FLOI.gpm               530.00:  Flow In 
 FLON.gpm               400.00:  Flow In Min 
 FLOS.cptm                0.00:  Fluid Loss 
 FLOX.gpm               560.00:  Flow In Max 
 DFT .        Mineral Oil Base:  Mud Type 
 FTRO.       Formation Presure:  FTWD Run Obj 
 HFLO.                      No:  High Flow 
 HPRE.                      No:  High Pressure 
 HTEM.                      No:  High Temp 
 HYDO.m                   1.80:  Hydro Offset 
 IFIN.deg                73.83:  Inc, Final 
 IMAX.deg                73.83:  Inc Max 
 IMIN.deg                57.86:  Inc Min 
 IMND.m                3259.27:  Inc Min Depth 
 IMXD.m                4045.58:  Inc Max Depth 
 JARR.                     Yes:  Jarring 
 LETM.      11.50.00 27-May-21:  Log End Time 
 LOST.hr                     0:  Lost Rig Time 
 LSTM.      21.13.00 24-May-21:  Log Start Time 
 MDCL.ppm             42500.00:  Mud Chlorides 
 MDES.     Inversion Oil/Synthetic:  Mud Desc 
 DFD .sg                  1.52:  Mud Density 
 MDMN.sg                  1.52:  Dens Mud Min 
 MDMX.sg                  1.52:  Dens Mud Max 
 MOIL.                      70:  Run Mud Oil % 
 MOWR.                   70:30:  Run Mud OWR 
 MSND.                     0.2:  Run Mud Sand % 
 MSOL.                      22:  Run Mud Solids% 
 DFV .spqt               77.00:  Mud Viscosity 
 MWOD.in                  6.75:  MWD Tool OD 
 MWSI.                      No:  Serv Intrp, MWD 
 OTIM.hr                151.01:  Time Operating 
 PCON.          Wear / Scratch:  Pad Condition 
 PMAX.psia            11296.93:  Press Op, Max 
 PV  .cP                 37.00:  Mud PV 
 RUN .                     500:  Run Number 
 ROPA.m/hr               25.00:  ROP Avg 
 ROPN.m/hr                9.00:  ROP Min 
 ROPX.m/hr               28.00:  ROP Max 
 RPMA.rpm               140.00:  RPM Surface Avg 
 RPMN.rpm                90.00:  RPM Surface Min 
 RPMX.rpm               140.00:  RPM Surface Max 
 RRUN.                    0500:  Rig Run Number 
 SAZI.deg               172.17:  Azm, Start 
 SDEP.m                3248.00:  Start Depth 
 SIDD.                      No:  Serv Intrp, DD 
 SINC.deg                57.86:  Inc, Start 
 SPPA.psig             5620.00:  SPP Avg 
 SPPN.psig             5190.00:  SPP Min 
 SPPX.psig             6050.00:  SPP Max 
 STIM.      16.00.00 23-May-21:  Start Time 
 SVCS.                 DD, MWD:  Services 
 SVER.                    9.20:  Sperry Version 
 TDAT.m                 806.00:  Tot Depth Attmp 
 TDDF.                      No:  Trip for DD 
 TDLG.m                 806.00:  Tot Depth Loggd 
 TFF .                      No:  Trip for Fail 
 TQAA.f-kp               12.00:  Torque Abs Avg 
 TQAN.f-kp                8.00:  Torque Abs Min 
 TQAX.f-kp               15.00:  Torque Abs Max 
 TRRT.°/30m               0.30:  Turn Rotating 
 MRT .                  EWR-M5:  Maximum Recorded Temperature 
 TTMX.degC               93.00:  Max Tool Temp 
 VS01.                90649155:  Virtual Str1 SN 
 VS02.                90642264:  Virtual Str2 SN 
 VS03.                90642266:  Virtual Str3 SN 
 VS04.                90642261:  Virtual Str4 SN 
 WBMN.klb                 0.00:  WOB Min 
 WITN.             Anar Khalil:  Customer Rep 
 WITN.           Murad Guliyev:  Customer Rep 2 
 WOBA.klb                13.00:  WOB Avg 
 WOBX.klb                25.00:  WOB Max 
 YP  .lhf2               32.00:  Yield Point 
~Curve Information Block
#MNEM.UNIT                 API CODE     Curve Description
#---------               -----------    ---------------------------
 TIME.HHMMSS            00 000 000 000:  GT Time & Date
 GTDEPTH.m              00 000 000 000:  GT Depth
 GTPQH.psia             00 000 000 000:  GT HR Quartz Pressure
 GTTQ.degC              00 000 000 000:  GT Quartz Temperature
 GTTN.NONE              00 000 000 000:  GT Test Number
 GTET.sec               00 000 000 000:  GT Elapsed Test Time
 GTTVD.m                00 000 000 000:  GT True Vertical Depth
#Other Information
#
#WARRANTY: Halliburton will use its best efforts to furnish customers with 
#accurate information and interpretations that are part of, and incident to, the services 
#provided.  However, Halliburton cannot and does not warrant the accuracy 
#or correctness of such information and interpretations.  Under no circumstances should any 
#such information or interpretation be relied upon as the sole basis for any drilling, 
#completion, production, or financial decision or any procedure involving any risk to the 
#safety of any drilling venture, drilling rig or its crew or any other third party.  The 
#Customer has full responsibility for all drilling, completion and production operation.  
#Halliburton makes no representations or warranties, either expressed or 
#implied, including, but not limited to, the implied warranties of merchantability or fitness 
#for a particular purpose, with respect to the services rendered.  In no event will 
#Halliburton be liable for failure to obtain any particular results or for 
#any damages, including, but not limited to, indirect, special or consequential damages, 
#resulting from the use of any information or interpretation provided by Halliburton.
#
~A           TIME           GTDEPTH  GTPQH  GTTQ  GTTN  GTET   GTTVD  
# ...
   22:25:01.735.27-May-2021 3723.00 3141.49 84.30 1.00 184.03 2680.40
   22:25:01.935.27-May-2021 3723.00 3141.49 84.30 1.00 184.23 2680.40
   22:25:02.135.27-May-2021 3723.00 3141.50 84.30 1.00 184.43 2680.40
   22:25:02.335.27-May-2021 3723.00 3141.48 84.30 1.00 184.63 2680.40
   22:25:02.535.27-May-2021 3723.00 3141.37 84.30 1.00 184.83 2680.40
   22:25:02.735.27-May-2021 3723.00 3141.61 84.30 1.00 185.03 2680.40
   22:25:02.935.27-May-2021 3723.00 3141.61 84.30 1.00 185.23 2680.40
   22:25:03.135.27-May-2021 3723.00 3141.37 84.30 1.00 185.43 2680.40
   22:25:03.335.27-May-2021 3723.00 3141.59 84.30 1.00 185.63 2680.40
   22:25:03.535.27-May-2021 3723.00 3141.48 84.30 1.00 185.83 2680.40
   22:25:03.735.27-May-2021 3723.00 3141.49 84.30 1.00 186.03 2680.40
   22:25:03.935.27-May-2021 3723.00 3141.49 84.30 1.00 186.23 2680.40
   22:25:04.135.27-May-2021 3723.00 3141.35 84.30 1.00 186.43 2680.40
   22:25:04.335.27-May-2021 3723.00 3141.60 84.30 1.00 186.63 2680.40
   22:25:04.535.27-May-2021 3723.00 3141.48 84.30 1.00 186.83 2680.40
   22:25:04.735.27-May-2021 3723.00 3141.49 84.30 1.00 187.03 2680.40
   22:25:04.935.27-May-2021 3723.00 3141.49 84.30 1.00 187.23 2680.40
   22:25:05.135.27-May-2021 3723.00 3141.48 84.30 1.00 187.43 2680.40
   22:25:05.335.27-May-2021 3723.00 3141.51 84.30 1.00 187.63 2680.40
   22:25:05.535.27-May-2021 3723.00 3141.45 84.30 1.00 187.83 2680.40
   22:25:05.735.27-May-2021 3723.00 3141.47 84.30 1.00 188.03 2680.40
   22:25:05.935.27-May-2021 3723.00 3141.47 84.30 1.00 188.23 2680.40
   22:25:06.135.27-May-2021 3723.00 3141.49 84.30 1.00 188.43 2680.40
   22:25:06.335.27-May-2021 3723.00 3141.48 84.30 1.00 188.63 2680.40
   22:25:06.535.27-May-2021 3723.00 3141.48 84.30 1.00 188.83 2680.40
   22:25:06.735.27-May-2021 3723.00 3141.49 84.30 1.00 189.03 2680.40
   22:25:06.935.27-May-2021 3723.00 3141.49 84.30 1.00 189.23 2680.40
   22:25:07.135.27-May-2021 3723.00 3141.48 84.30 1.00 189.43 2680.40
   22:25:07.335.27-May-2021 3723.00 3141.48 84.30 1.00 189.63 2680.40
   22:25:07.535.27-May-2021 3723.00 3141.48 84.30 1.00 189.83 2680.40
   22:25:07.736.27-May-2021 3723.00 3141.49 84.30 1.00 190.03 2680.40
   22:25:07.936.27-May-2021 3723.00 3141.49 84.30 1.00 190.23 2680.40
   22:25:08.136.27-May-2021 3723.00 3141.44 84.30 1.00 190.43 2680.40
   22:25:08.336.27-May-2021 3723.00 3141.48 84.30 1.00 190.63 2680.40
   22:25:08.536.27-May-2021 3723.00 3141.48 84.30 1.00 190.83 2680.40
   22:25:08.736.27-May-2021 3723.00 3141.47 84.30 1.00 191.03 2680.40
   22:25:08.936.27-May-2021 3723.00 3141.47 84.30 1.00 191.23 2680.40
   22:25:09.136.27-May-2021 3723.00 3141.48 84.30 1.00 191.43 2680.40
   22:25:09.336.27-May-2021 3723.00 3141.47 84.30 1.00 191.63 2680.40
   22:25:09.536.27-May-2021 3723.00 3141.49 84.30 1.00 191.83 2680.40
   22:25:09.736.27-May-2021 3723.00 3141.48 84.30 1.00 192.03 2680.40
   22:25:09.936.27-May-2021 3723.00 3141.48 84.30 1.00 192.23 2680.40
   22:25:10.136.27-May-2021 3723.00 3141.49 84.30 1.00 192.43 2680.40
   22:25:10.336.27-May-2021 3723.00 3141.48 84.30 1.00 192.63 2680.40
   22:25:10.536.27-May-2021 3723.00 3141.51 84.30 1.00 192.83 2680.40
   22:25:10.736.27-May-2021 3723.00 3141.45 84.30 1.00 193.03 2680.40
   22:25:10.936.27-May-2021 3723.00 3141.45 84.30 1.00 193.23 2680.40
   22:25:11.136.27-May-2021 3723.00 3141.52 84.30 1.00 193.43 2680.40
   22:25:11.336.27-May-2021 3723.00 3141.45 84.30 1.00 193.63 2680.40
   22:25:11.536.27-May-2021 3723.00 3141.47 84.30 1.00 193.83 2680.40
   22:25:11.736.27-May-2021 3723.00 3141.47 84.30 1.00 194.03 2680.40
   22:25:11.936.27-May-2021 3723.00 3141.47 84.30 1.00 194.23 2680.40
   22:25:12.136.27-May-2021 3723.00 3141.36 84.30 1.00 194.43 2680.40
   22:25:12.336.27-May-2021 3723.00 3141.60 84.30 1.00 194.63 2680.40
   22:25:12.536.27-May-2021 3723.00 3141.47 84.30 1.00 194.83 2680.40
   22:25:12.736.27-May-2021 3723.00 3141.49 84.30 1.00 195.03 2680.40
   22:25:12.936.27-May-2021 3723.00 3141.49 84.30 1.00 195.23 2680.40
   22:25:13.136.27-May-2021 3723.00 3141.48 84.30 1.00 195.43 2680.40
   22:25:13.336.27-May-2021 3723.00 3141.47 84.30 1.00 195.63 2680.40
   22:25:13.536.27-May-2021 3723.00 3141.48 84.30 1.00 195.83 2680.40
   22:25:13.736.27-May-2021 3723.00 3141.45 84.30 1.00 196.03 2680.40
   22:25:13.937.27-May-2021 3723.00 3141.45 84.30 1.00 196.23 2680.40
   22:25:14.137.27-May-2021 3723.00 3141.48 84.30 1.00 196.43 2680.40
   22:25:14.337.27-May-2021 3723.00 3141.47 84.30 1.00 196.63 2680.40
   22:25:14.537.27-May-2021 3723.00 3141.47 84.30 1.00 196.83 2680.40
   22:25:14.737.27-May-2021 3723.00 3141.48 84.30 1.00 197.03 2680.40
   22:25:14.937.27-May-2021 3723.00 3141.48 84.30 1.00 197.23 2680.40
   22:25:15.137.27-May-2021 3723.00 3141.47 84.30 1.00 197.43 2680.40
   22:25:15.337.27-May-2021 3723.00 3141.48 84.30 1.00 197.63 2680.40
   22:25:15.537.27-May-2021 3723.00 3141.47 84.30 1.00 197.83 2680.40
   22:25:15.737.27-May-2021 3723.00 3141.48 84.30 1.00 198.03 2680.40
   22:25:15.937.27-May-2021 3723.00 3141.48 84.30 1.00 198.23 2680.40
   22:25:16.137.27-May-2021 3723.00 3141.46 84.30 1.00 198.43 2680.40
   22:25:16.337.27-May-2021 3723.00 3141.46 84.30 1.00 198.63 2680.40
   22:25:16.537.27-May-2021 3723.00 3141.47 84.30 1.00 198.83 2680.40
   22:25:16.737.27-May-2021 3723.00 3141.47 84.30 1.00 199.03 2680.40
   22:25:16.937.27-May-2021 3723.00 3141.47 84.30 1.00 199.23 2680.40
   22:25:17.137.27-May-2021 3723.00 3141.46 84.30 1.00 199.43 2680.40
   22:25:17.337.27-May-2021 3723.00 3141.47 84.30 1.00 199.63 2680.40
   22:25:17.537.27-May-2021 3723.00 3141.47 84.30 1.00 199.83 2680.40
   22:25:17.737.27-May-2021 3723.00 3141.47 84.30 1.00 200.03 2680.40
   22:25:17.937.27-May-2021 3723.00 3141.47 84.30 1.00 200.23 2680.40
   22:25:18.137.27-May-2021 3723.00 3141.48 84.30 1.00 200.43 2680.40
   22:25:18.337.27-May-2021 3723.00 3141.47 84.30 1.00 200.63 2680.40
   22:25:18.537.27-May-2021 3723.00 3141.47 84.30 1.00 200.83 2680.40
   22:25:18.737.27-May-2021 3723.00 3141.46 84.30 1.00 201.03 2680.40
   22:25:18.937.27-May-2021 3723.00 3141.46 84.30 1.00 201.23 2680.40
   22:25:19.137.27-May-2021 3723.00 3141.48 84.30 1.00 201.43 2680.40
   22:25:19.337.27-May-2021 3723.00 3141.46 84.30 1.00 201.63 2680.40
   22:25:19.537.27-May-2021 3723.00 3141.45 84.30 1.00 201.83 2680.40
   22:25:19.737.27-May-2021 3723.00 3141.47 84.31 1.00 202.03 2680.40
   22:25:19.938.27-May-2021 3723.00 3141.47 84.31 1.00 202.23 2680.40
   22:25:20.138.27-May-2021 3723.00 3141.50 84.30 1.00 202.43 2680.40
   22:25:20.338.27-May-2021 3723.00 3141.42 84.30 1.00 202.63 2680.40
   22:25:20.538.27-May-2021 3723.00 3141.46 84.30 1.00 202.83 2680.40
   22:25:20.738.27-May-2021 3723.00 3141.46 84.31 1.00 203.03 2680.40
   22:25:20.938.27-May-2021 3723.00 3141.46 84.31 1.00 203.23 2680.40
   22:25:21.138.27-May-2021 3723.00 3141.32 84.30 1.00 203.43 2680.40
   22:25:21.338.27-May-2021 3723.00 3141.59 84.31 1.00 203.63 2680.40
   22:25:21.538.27-May-2021 3723.00 3141.46 84.31 1.00 203.83 2680.40
   22:25:21.738.27-May-2021 3723.00 3141.46 84.31 1.00 204.03 2680.40
   22:25:21.938.27-May-2021 3723.00 3141.46 84.31 1.00 204.23 2680.40
   22:25:22.138.27-May-2021 3723.00 3141.47 84.31 1.00 204.43 2680.40
   22:25:22.338.27-May-2021 3723.00 3141.45 84.31 1.00 204.63 2680.40
   22:25:22.538.27-May-2021 3723.00 3141.47 84.31 1.00 204.83 2680.40
   22:25:22.738.27-May-2021 3723.00 3141.46 84.31 1.00 205.03 2680.40
   22:25:22.938.27-May-2021 3723.00 3141.46 84.31 1.00 205.23 2680.40
   22:25:23.138.27-May-2021 3723.00 3141.46 84.31 1.00 205.43 2680.40
   22:25:23.338.27-May-2021 3723.00 3141.46 84.30 1.00 205.63 2680.40
   22:25:23.538.27-May-2021 3723.00 3141.46 84.31 1.00 205.83 2680.40
   22:25:23.738.27-May-2021 3723.00 3141.33 84.31 1.00 206.03 2680.40
   22:25:23.938.27-May-2021 3723.00 3141.33 84.31 1.00 206.23 2680.40
   22:25:24.138.27-May-2021 3723.00 3141.44 84.31 1.00 206.43 2680.40
   22:25:24.338.27-May-2021 3723.00 3141.47 84.31 1.00 206.63 2680.40
   22:25:24.538.27-May-2021 3723.00 3141.45 84.31 1.00 206.83 2680.40
