~Version Information
 VERS.                  2.0:   CWLS log ASCII Standard -VERSION 2.0
 WRAP.                   NO:   One line per depth step
~Well Information Block
#MNEM.UNIT     VALUE/NAME     DESCRIPTION
#---------     -----------    ---------------------------
 STRT.S             04:01:58 28-May-21: START TIME 04:01:58 28-May-21
 STOP.S             04:09:02 28-May-21: STOP TIME  04:09:02 28-May-21
 STEP.S                   0.00: STEP TIME
 NULL.                 -999.25: NULL VALUE
 UWI .                     N/A:  UNIQUE WELL IDENTIFIER
 API .                     N/A:  API NUMBER
 UNIT.                     N/A:  LOGGING EQUIPMENT ID
 DCON.         Sperry Drilling:  DIRECTNL CONTR
 DOE .                     N/A:  DOE NUMBER
 MWDS.                    Baku:  MWD SHOP
 SRVC.     Turan Drilling and Engineering:  CONTRACTOR
 CTRY.              Azerbaijan:  COUNTRY NAME
 PROV.                    Baku:  PROVINCE
 STAT.                    Baku:  STATE NAME
 REGN.                   EESSA:  REGION
 BASE.              Azerbaijan:  LOGGING EQUIPMENT BASE LOCATION
 WTYP.                Deviated:  WELL TYPE
 RIG .              East Azeri:  RIG NAME
 WELL.                    D02y:  WELL NAME
 FLD .                     ACG:  FIELD NAME
 COMP.     BP Exploration (Caspian Sea) Ltd.:  COMPANY
 PDAT.          Mean Sea Level:  PERMANENT DATUM
 MDS .        Operator Entered:  MAG DATA SOURCE
 SON .        AZ-XX-0906997291:  JOB NUMBER
 FTOP.          Formation Tops:  FORM TOPS DESC
 ILTD.               Lithology:  INTERP LTH DESC
 SVYD.                  Survey:  SURVEY DESC
 DMOD.             Drill Model:  DRILL MOD DESC
 HPTY.       Minimum Curvature:  HOLE POS TYPE
 NREF.                    Grid:  NORTH REFERENCE
 SPUD.               05-May-21:  SPUD DATE
 DATE.      09.27.28 12-Jun-21:  END TIME
 STIM.      09.27.28 12-May-21:  START TIME
 DMF .             Drill Floor:  DRILL MEAS FROM
 DFST.                        :  DIST FSL TEXT
 DFWT.                        :  DIST FWL TEXT
 CNTY.                        :  COUNTY
 LOC .                        :  LOCATION
 LMF .             Drill Floor:  LOG MEASURED FROM
 DEP .m                2806.40:  DEPTH
 AGAP.m                  43.60:  AIR GAP
 VSNS.m                  -4.42:  VERT SEC N/S
 VSEW.m                  -7.31:  VERT SEC E/W
 APD .m                  43.60:  DEPTH ABOVE PD
 WDMS.m                 151.80:  WD ELEV
 EGL .m                   0.00:  GROUND ELEVATION
 EPD .m                   0.00:  ELEVATION
 AZTC.deg                 6.18:  AZM TOTAL CORR
 GRDC.deg                 0.29:  GRID CORRECTION
 MDEC.deg                 6.47:  MAGNETIC DECL
 MDIP.deg                59.50:  MAGNETIC DIP
 MFLD.nT              50350.00:  MAGNETIC FIELD
 GVFD.g                   1.00:  GRAVITY FIELD
 VSDR.deg               179.08:  VERT SEC DIRECT
 TDD .m                4300.00:  TOTAL DEPTH (DRILLER)
 SDEP.m                2800.00:  START DEPTH
 DFSL.m                   0.00:  DISTANCE FSL
 DFWL.m                   0.00:  DISTANCE FWL
 UTMY.m             4431871.34:  UTM Y
 UTMX.m              538762.90:  UTM X
 WHEW.m                  -7.31:  WELL HEAD E/W
 WHNS.m                  -4.42:  WELL HEAD N/S
 LONG.deg                51.45:  LONGITUDE
 LATI.deg                40.02:  LATITUDE
 TVDS.m                  43.60:  TVDSS CORRECTN
 EKB .m                  43.60:  KB ELEVATION
 EDF .m                  43.60:  DF ELEVATION
 TDL .m                 806.00:  TOTAL DEPTH (LOGGER)
 MAGU.                 1851231:  MAGUTM CHECKSUM
 VSC .                       0:  VS TO CLOSURE
~Parameter Information Block
#MNEM.UNIT       Value        Description
#---------     -----------    ---------------------------
 AV  .mps                 1.60:  Ann Velocity 
 AVMX.mps                 2.00:  Max Ann Veloc 
 AZIF.deg               140.24:  Azm, Final 
 BHAT.        Rotary Steerable:  BHA Type 
 BROT.°/30m               0.50:  Build Rotating 
 BS  .in                  8.50:  Bit Size 
 BTPL.psig              619.00:  Bit Press Loss 
 CABU.                     Yes:  Customer Abuse 
 CGEO.          Ilgar Gurbanov:  Customer Geo 
 COMM.                     4`:  Run Comments 1 
 TCS .hr                 85.88:  Time Ciculation Ended 
 CV  .mps                 3.30:  Crit Velocity 
 CVMX.mps                 3.50:  Max Crit Veloc 
 DD1 .           Hamid Axmedov:  Direct Drillr 1 
 DD2 .           Teymur Aliyev:  Direct Drillr 2 
 DDSV.               Geo-Pilot:  DD Service 
 DEFF.%                 100.00:  % Det Eff 
 DLRX.°/30m               0.00:  Dogleg Rot Max 
 DLSO.°/30m               1.80:  Dogleg Oriented 
 DLSX.°/30m               3.34:  Dogleg Str Max 
 DRET.      11.50.00 27-May-21:  Drill End Time 
 DRST.      21.13.00 24-May-21:  Drill Start Tim 
 DTIM.hr                 45.11:  Time Drilling 
 EDEP.m                4054.00:  End Depth 
 ENG1.         Almaz Almadatov:  Engineer 1 
 ENG2.           Amrah Tahirov:  Engineer 2 
 ENG3.      Bakhtiyar Jabbarli:  Engineer 3 
 ENG4.          Nazrin Asgarli:  Engineer 4 
 ETIM.      10.00.00 30-May-21:  End Time 
 FLOI.gpm               530.00:  Flow In 
 FLON.gpm               400.00:  Flow In Min 
 FLOS.cptm                0.00:  Fluid Loss 
 FLOX.gpm               560.00:  Flow In Max 
 DFT .        Mineral Oil Base:  Mud Type 
 FTRO.       Formation Presure:  FTWD Run Obj 
 HFLO.                      No:  High Flow 
 HPRE.                      No:  High Pressure 
 HTEM.                      No:  High Temp 
 HYDO.m                   1.80:  Hydro Offset 
 IFIN.deg                73.83:  Inc, Final 
 IMAX.deg                73.83:  Inc Max 
 IMIN.deg                57.86:  Inc Min 
 IMND.m                3259.27:  Inc Min Depth 
 IMXD.m                4045.58:  Inc Max Depth 
 JARR.                     Yes:  Jarring 
 LETM.      11.50.00 27-May-21:  Log End Time 
 LOST.hr                     0:  Lost Rig Time 
 LSTM.      21.13.00 24-May-21:  Log Start Time 
 MDCL.ppm             42500.00:  Mud Chlorides 
 MDES.     Inversion Oil/Synthetic:  Mud Desc 
 DFD .sg                  1.52:  Mud Density 
 MDMN.sg                  1.52:  Dens Mud Min 
 MDMX.sg                  1.52:  Dens Mud Max 
 MOIL.                      70:  Run Mud Oil % 
 MOWR.                   70:30:  Run Mud OWR 
 MSND.                     0.2:  Run Mud Sand % 
 MSOL.                      22:  Run Mud Solids% 
 DFV .spqt               77.00:  Mud Viscosity 
 MWOD.in                  6.75:  MWD Tool OD 
 MWSI.                      No:  Serv Intrp, MWD 
 OTIM.hr                151.01:  Time Operating 
 PCON.          Wear / Scratch:  Pad Condition 
 PMAX.psia            11296.93:  Press Op, Max 
 PV  .cP                 37.00:  Mud PV 
 RUN .                     500:  Run Number 
 ROPA.m/hr               25.00:  ROP Avg 
 ROPN.m/hr                9.00:  ROP Min 
 ROPX.m/hr               28.00:  ROP Max 
 RPMA.rpm               140.00:  RPM Surface Avg 
 RPMN.rpm                90.00:  RPM Surface Min 
 RPMX.rpm               140.00:  RPM Surface Max 
 RRUN.                    0500:  Rig Run Number 
 SAZI.deg               172.17:  Azm, Start 
 SDEP.m                3248.00:  Start Depth 
 SIDD.                      No:  Serv Intrp, DD 
 SINC.deg                57.86:  Inc, Start 
 SPPA.psig             5620.00:  SPP Avg 
 SPPN.psig             5190.00:  SPP Min 
 SPPX.psig             6050.00:  SPP Max 
 STIM.      16.00.00 23-May-21:  Start Time 
 SVCS.                 DD, MWD:  Services 
 SVER.                    9.20:  Sperry Version 
 TDAT.m                 806.00:  Tot Depth Attmp 
 TDDF.                      No:  Trip for DD 
 TDLG.m                 806.00:  Tot Depth Loggd 
 TFF .                      No:  Trip for Fail 
 TQAA.f-kp               12.00:  Torque Abs Avg 
 TQAN.f-kp                8.00:  Torque Abs Min 
 TQAX.f-kp               15.00:  Torque Abs Max 
 TRRT.°/30m               0.30:  Turn Rotating 
 MRT .                  EWR-M5:  Maximum Recorded Temperature 
 TTMX.degC               93.00:  Max Tool Temp 
 VS01.                90649155:  Virtual Str1 SN 
 VS02.                90642264:  Virtual Str2 SN 
 VS03.                90642266:  Virtual Str3 SN 
 VS04.                90642261:  Virtual Str4 SN 
 WBMN.klb                 0.00:  WOB Min 
 WITN.             Anar Khalil:  Customer Rep 
 WITN.           Murad Guliyev:  Customer Rep 2 
 WOBA.klb                13.00:  WOB Avg 
 WOBX.klb                25.00:  WOB Max 
 YP  .lhf2               32.00:  Yield Point 
~Curve Information Block
#MNEM.UNIT                 API CODE     Curve Description
#---------               -----------    ---------------------------
 TIME.HHMMSS            00 000 000 000:  GT Time & Date
 GTDEPTH.m              00 000 000 000:  GT Depth
 GTPQH.psia             00 000 000 000:  GT HR Quartz Pressure
 GTTQ.degC              00 000 000 000:  GT Quartz Temperature
 GTTN.NONE              00 000 000 000:  GT Test Number
 GTET.sec               00 000 000 000:  GT Elapsed Test Time
 GTTVD.m                00 000 000 000:  GT True Vertical Depth
#Other Information
#
#WARRANTY: Halliburton will use its best efforts to furnish customers with 
#accurate information and interpretations that are part of, and incident to, the services 
#provided.  However, Halliburton cannot and does not warrant the accuracy 
#or correctness of such information and interpretations.  Under no circumstances should any 
#such information or interpretation be relied upon as the sole basis for any drilling, 
#completion, production, or financial decision or any procedure involving any risk to the 
#safety of any drilling venture, drilling rig or its crew or any other third party.  The 
#Customer has full responsibility for all drilling, completion and production operation.  
#Halliburton makes no representations or warranties, either expressed or 
#implied, including, but not limited to, the implied warranties of merchantability or fitness 
#for a particular purpose, with respect to the services rendered.  In no event will 
#Halliburton be liable for failure to obtain any particular results or for 
#any damages, including, but not limited to, indirect, special or consequential damages, 
#resulting from the use of any information or interpretation provided by Halliburton.
#
~A           TIME           GTDEPTH  GTPQH  GTTQ  GTTN  GTET   GTTVD  
# ...
   04:03:53.383.28-May-2021 3493.50 4217.04 83.17 8.00 115.04 2592.27
   04:03:53.583.28-May-2021 3493.50 4217.04 83.17 8.00 115.24 2592.27
   04:03:53.783.28-May-2021 3493.50 4217.05 83.17 8.00 115.44 2592.27
   04:03:53.983.28-May-2021 3493.50 4217.05 83.17 8.00 115.64 2592.27
   04:03:54.183.28-May-2021 3493.50 4217.08 83.17 8.00 115.84 2592.27
   04:03:54.383.28-May-2021 3493.50 4217.06 83.17 8.00 116.04 2592.27
   04:03:54.583.28-May-2021 3493.50 4217.06 83.17 8.00 116.24 2592.27
   04:03:54.783.28-May-2021 3493.50 4217.31 83.17 8.00 116.44 2592.27
   04:03:54.983.28-May-2021 3493.50 4217.06 83.17 8.00 116.64 2592.27
   04:03:55.183.28-May-2021 3493.50 4217.07 83.17 8.00 116.84 2592.27
   04:03:55.383.28-May-2021 3493.50 4216.68 83.17 8.00 117.04 2592.27
   04:03:55.583.28-May-2021 3493.50 4216.68 83.17 8.00 117.24 2592.27
   04:03:55.784.28-May-2021 3493.50 4217.04 83.17 8.00 117.44 2592.27
   04:03:55.984.28-May-2021 3493.50 4217.06 83.17 8.00 117.64 2592.27
   04:03:56.184.28-May-2021 3493.50 4217.04 83.17 8.00 117.84 2592.27
   04:03:56.384.28-May-2021 3493.50 4217.05 83.17 8.00 118.04 2592.27
   04:03:56.584.28-May-2021 3493.50 4217.05 83.17 8.00 118.24 2592.27
   04:03:56.784.28-May-2021 3493.50 4216.88 83.17 8.00 118.44 2592.27
   04:03:56.984.28-May-2021 3493.50 4217.05 83.17 8.00 118.64 2592.27
   04:03:57.184.28-May-2021 3493.50 4217.06 83.16 8.00 118.84 2592.27
   04:03:57.384.28-May-2021 3493.50 4217.03 83.16 8.00 119.04 2592.27
   04:03:57.584.28-May-2021 3493.50 4217.03 83.16 8.00 119.24 2592.27
   04:03:57.784.28-May-2021 3493.50 4216.93 83.16 8.00 119.44 2592.27
   04:03:57.984.28-May-2021 3493.50 4217.04 83.16 8.00 119.64 2592.27
   04:03:58.184.28-May-2021 3493.50 4217.04 83.16 8.00 119.84 2592.27
   04:03:58.384.28-May-2021 3493.50 4217.05 83.16 8.00 120.04 2592.27
   04:03:58.584.28-May-2021 3493.50 4217.05 83.16 8.00 120.24 2592.27
   04:03:58.784.28-May-2021 3493.50 4217.04 83.16 8.00 120.44 2592.27
   04:03:58.985.28-May-2021 3493.50 4217.05 83.16 8.00 120.64 2592.27
   04:03:59.185.28-May-2021 3493.50 4217.05 83.16 8.00 120.84 2592.27
   04:03:59.385.28-May-2021 3493.50 4217.04 83.16 8.00 121.04 2592.27
   04:03:59.585.28-May-2021 3493.50 4217.04 83.16 8.00 121.24 2592.27
   04:03:59.785.28-May-2021 3493.50 4217.05 83.16 8.00 121.44 2592.27
   04:03:59.985.28-May-2021 3493.50 4216.70 83.16 8.00 121.64 2592.27
   04:04:00.185.28-May-2021 3493.50 4217.36 83.16 8.00 121.84 2592.27
   04:04:00.385.28-May-2021 3493.50 4217.04 83.16 8.00 122.04 2592.27
   04:04:00.585.28-May-2021 3493.50 4217.04 83.16 8.00 122.24 2592.27
   04:04:00.785.28-May-2021 3493.50 4217.06 83.16 8.00 122.44 2592.27
   04:04:00.985.28-May-2021 3493.50 4217.03 83.16 8.00 122.64 2592.27
   04:04:01.185.28-May-2021 3493.50 4217.05 83.16 8.00 122.84 2592.27
   04:04:01.385.28-May-2021 3493.50 4217.05 83.16 8.00 123.04 2592.27
   04:04:01.585.28-May-2021 3493.50 4217.05 83.16 8.00 123.24 2592.27
   04:04:01.785.28-May-2021 3493.50 4217.05 83.16 8.00 123.44 2592.27
   04:04:01.986.28-May-2021 3493.50 4217.08 83.16 8.00 123.64 2592.27
   04:04:02.186.28-May-2021 3493.50 4217.05 83.16 8.00 123.84 2592.27
   04:04:02.386.28-May-2021 3493.50 4217.04 83.16 8.00 124.04 2592.27
   04:04:02.586.28-May-2021 3493.50 4217.04 83.16 8.00 124.24 2592.27
   04:04:02.786.28-May-2021 3493.50 4217.13 83.16 8.00 124.44 2592.27
   04:04:02.986.28-May-2021 3493.50 4216.92 83.16 8.00 124.64 2592.27
   04:04:03.186.28-May-2021 3493.50 4217.03 83.16 8.00 124.84 2592.27
   04:04:03.386.28-May-2021 3493.50 4217.04 83.16 8.00 125.04 2592.27
   04:04:03.586.28-May-2021 3493.50 4217.04 83.16 8.00 125.24 2592.27
   04:04:03.786.28-May-2021 3493.50 4217.16 83.16 8.00 125.44 2592.27
   04:04:03.986.28-May-2021 3493.50 4217.03 83.16 8.00 125.64 2592.27
   04:04:04.186.28-May-2021 3493.50 4217.07 83.16 8.00 125.84 2592.27
   04:04:04.386.28-May-2021 3493.50 4217.02 83.16 8.00 126.04 2592.27
   04:04:04.586.28-May-2021 3493.50 4217.02 83.16 8.00 126.24 2592.27
   04:04:04.786.28-May-2021 3493.50 4217.13 83.16 8.00 126.44 2592.27
   04:04:04.986.28-May-2021 3493.50 4217.03 83.16 8.00 126.64 2592.27
   04:04:05.187.28-May-2021 3493.50 4217.02 83.16 8.00 126.84 2592.27
   04:04:05.387.28-May-2021 3493.50 4217.04 83.16 8.00 127.04 2592.27
   04:04:05.587.28-May-2021 3493.50 4217.04 83.16 8.00 127.24 2592.27
   04:04:05.787.28-May-2021 3493.50 4217.36 83.16 8.00 127.44 2592.27
   04:04:05.987.28-May-2021 3493.50 4217.04 83.16 8.00 127.64 2592.27
   04:04:06.187.28-May-2021 3493.50 4217.04 83.16 8.00 127.84 2592.27
   04:04:06.387.28-May-2021 3493.50 4217.04 83.16 8.00 128.04 2592.27
   04:04:06.587.28-May-2021 3493.50 4217.04 83.16 8.00 128.24 2592.27
   04:04:06.787.28-May-2021 3493.50 4217.03 83.16 8.00 128.44 2592.27
   04:04:06.987.28-May-2021 3493.50 4217.04 83.16 8.00 128.64 2592.27
   04:04:07.187.28-May-2021 3493.50 4217.04 83.16 8.00 128.84 2592.27
   04:04:07.387.28-May-2021 3493.50 4217.04 83.16 8.00 129.04 2592.27
   04:04:07.587.28-May-2021 3493.50 4217.04 83.16 8.00 129.24 2592.27
   04:04:07.787.28-May-2021 3493.50 4217.04 83.16 8.00 129.44 2592.27
   04:04:07.987.28-May-2021 3493.50 4217.04 83.16 8.00 129.64 2592.27
   04:04:08.188.28-May-2021 3493.50 4216.88 83.16 8.00 129.84 2592.27
   04:04:08.388.28-May-2021 3493.50 4217.18 83.16 8.00 130.04 2592.27
   04:04:08.588.28-May-2021 3493.50 4217.18 83.16 8.00 130.24 2592.27
   04:04:08.788.28-May-2021 3493.50 4217.04 83.16 8.00 130.44 2592.27
   04:04:08.988.28-May-2021 3493.50 4217.01 83.16 8.00 130.64 2592.27
   04:04:09.188.28-May-2021 3493.50 4217.04 83.16 8.00 130.84 2592.27
   04:04:09.388.28-May-2021 3493.50 4217.04 83.16 8.00 131.04 2592.27
   04:04:09.588.28-May-2021 3493.50 4217.04 83.16 8.00 131.24 2592.27
   04:04:09.788.28-May-2021 3493.50 4217.04 83.15 8.00 131.44 2592.27
   04:04:09.988.28-May-2021 3493.50 4217.03 83.15 8.00 131.64 2592.27
   04:04:10.188.28-May-2021 3493.50 4217.04 83.15 8.00 131.84 2592.27
   04:04:10.388.28-May-2021 3493.50 4217.04 83.15 8.00 132.04 2592.27
   04:04:10.588.28-May-2021 3493.50 4217.04 83.15 8.00 132.24 2592.27
   04:04:10.788.28-May-2021 3493.50 4216.69 83.15 8.00 132.44 2592.27
   04:04:10.988.28-May-2021 3493.50 4217.38 83.15 8.00 132.64 2592.27
   04:04:11.188.28-May-2021 3493.50 4217.02 83.15 8.00 132.84 2592.27
   04:04:11.389.28-May-2021 3493.50 4217.04 83.15 8.00 133.04 2592.27
   04:04:11.589.28-May-2021 3493.50 4217.04 83.15 8.00 133.24 2592.27
   04:04:11.789.28-May-2021 3493.50 4217.12 83.15 8.00 133.44 2592.27
   04:04:11.989.28-May-2021 3493.50 4217.02 83.15 8.00 133.64 2592.27
   04:04:12.189.28-May-2021 3493.50 4217.02 83.15 8.00 133.84 2592.27
   04:04:12.389.28-May-2021 3493.50 4217.03 83.15 8.00 134.04 2592.27
   04:04:12.589.28-May-2021 3493.50 4217.03 83.15 8.00 134.24 2592.27
   04:04:12.789.28-May-2021 3493.50 4217.03 83.15 8.00 134.44 2592.27
   04:04:12.989.28-May-2021 3493.50 4217.26 83.15 8.00 134.64 2592.27
   04:04:13.189.28-May-2021 3493.50 4217.04 83.15 8.00 134.84 2592.27
   04:04:13.389.28-May-2021 3493.50 4217.05 83.15 8.00 135.04 2592.27
   04:04:13.589.28-May-2021 3493.50 4217.05 83.15 8.00 135.24 2592.27
   04:04:13.789.28-May-2021 3493.50 4216.89 83.15 8.00 135.44 2592.27
   04:04:13.989.28-May-2021 3493.50 4217.16 83.15 8.00 135.64 2592.27
   04:04:14.189.28-May-2021 3493.50 4217.03 83.15 8.00 135.84 2592.27
   04:04:14.390.28-May-2021 3493.50 4217.07 83.15 8.00 136.04 2592.27
   04:04:14.590.28-May-2021 3493.50 4217.07 83.15 8.00 136.24 2592.27
   04:04:14.790.28-May-2021 3493.50 4217.04 83.15 8.00 136.44 2592.27
   04:04:14.990.28-May-2021 3493.50 4217.04 83.15 8.00 136.64 2592.27
   04:04:15.190.28-May-2021 3493.50 4217.03 83.15 8.00 136.84 2592.27
   04:04:15.390.28-May-2021 3493.50 4217.04 83.15 8.00 137.04 2592.27
   04:04:15.590.28-May-2021 3493.50 4217.04 83.15 8.00 137.24 2592.27
   04:04:15.790.28-May-2021 3493.50 4217.03 83.15 8.00 137.44 2592.27
   04:04:15.990.28-May-2021 3493.50 4217.03 83.15 8.00 137.64 2592.27
   04:04:16.190.28-May-2021 3493.50 4216.94 83.15 8.00 137.84 2592.27
