~Version Information
 VERS.                  2.0:   CWLS log ASCII Standard -VERSION 2.0
 WRAP.                   NO:   One line per depth step
~Well Information Block
#MNEM.UNIT     VALUE/NAME     DESCRIPTION
#---------     -----------    ---------------------------
 STRT.S             05:48:37 28-May-21: START TIME 05:48:37 28-May-21
 STOP.S             05:55:44 28-May-21: STOP TIME  05:55:44 28-May-21
 STEP.S                   0.00: STEP TIME
 NULL.                 -999.25: NULL VALUE
 UWI .                     N/A:  UNIQUE WELL IDENTIFIER
 API .                     N/A:  API NUMBER
 UNIT.                     N/A:  LOGGING EQUIPMENT ID
 DCON.         Sperry Drilling:  DIRECTNL CONTR
 DOE .                     N/A:  DOE NUMBER
 MWDS.                    Baku:  MWD SHOP
 SRVC.     Turan Drilling and Engineering:  CONTRACTOR
 CTRY.              Azerbaijan:  COUNTRY NAME
 PROV.                    Baku:  PROVINCE
 STAT.                    Baku:  STATE NAME
 REGN.                   EESSA:  REGION
 BASE.              Azerbaijan:  LOGGING EQUIPMENT BASE LOCATION
 WTYP.                Deviated:  WELL TYPE
 RIG .              East Azeri:  RIG NAME
 WELL.                    D02y:  WELL NAME
 FLD .                     ACG:  FIELD NAME
 COMP.     BP Exploration (Caspian Sea) Ltd.:  COMPANY
 PDAT.          Mean Sea Level:  PERMANENT DATUM
 MDS .        Operator Entered:  MAG DATA SOURCE
 SON .        AZ-XX-0906997291:  JOB NUMBER
 FTOP.          Formation Tops:  FORM TOPS DESC
 ILTD.               Lithology:  INTERP LTH DESC
 SVYD.                  Survey:  SURVEY DESC
 DMOD.             Drill Model:  DRILL MOD DESC
 HPTY.       Minimum Curvature:  HOLE POS TYPE
 NREF.                    Grid:  NORTH REFERENCE
 SPUD.               05-May-21:  SPUD DATE
 DATE.      09.27.28 12-Jun-21:  END TIME
 STIM.      09.27.28 12-May-21:  START TIME
 DMF .             Drill Floor:  DRILL MEAS FROM
 DFST.                        :  DIST FSL TEXT
 DFWT.                        :  DIST FWL TEXT
 CNTY.                        :  COUNTY
 LOC .                        :  LOCATION
 LMF .             Drill Floor:  LOG MEASURED FROM
 DEP .m                2806.40:  DEPTH
 AGAP.m                  43.60:  AIR GAP
 VSNS.m                  -4.42:  VERT SEC N/S
 VSEW.m                  -7.31:  VERT SEC E/W
 APD .m                  43.60:  DEPTH ABOVE PD
 WDMS.m                 151.80:  WD ELEV
 EGL .m                   0.00:  GROUND ELEVATION
 EPD .m                   0.00:  ELEVATION
 AZTC.deg                 6.18:  AZM TOTAL CORR
 GRDC.deg                 0.29:  GRID CORRECTION
 MDEC.deg                 6.47:  MAGNETIC DECL
 MDIP.deg                59.50:  MAGNETIC DIP
 MFLD.nT              50350.00:  MAGNETIC FIELD
 GVFD.g                   1.00:  GRAVITY FIELD
 VSDR.deg               179.08:  VERT SEC DIRECT
 TDD .m                4300.00:  TOTAL DEPTH (DRILLER)
 SDEP.m                2800.00:  START DEPTH
 DFSL.m                   0.00:  DISTANCE FSL
 DFWL.m                   0.00:  DISTANCE FWL
 UTMY.m             4431871.34:  UTM Y
 UTMX.m              538762.90:  UTM X
 WHEW.m                  -7.31:  WELL HEAD E/W
 WHNS.m                  -4.42:  WELL HEAD N/S
 LONG.deg                51.45:  LONGITUDE
 LATI.deg                40.02:  LATITUDE
 TVDS.m                  43.60:  TVDSS CORRECTN
 EKB .m                  43.60:  KB ELEVATION
 EDF .m                  43.60:  DF ELEVATION
 TDL .m                 806.00:  TOTAL DEPTH (LOGGER)
 MAGU.                 1851231:  MAGUTM CHECKSUM
 VSC .                       0:  VS TO CLOSURE
~Parameter Information Block
#MNEM.UNIT       Value        Description
#---------     -----------    ---------------------------
 AV  .mps                 1.60:  Ann Velocity 
 AVMX.mps                 2.00:  Max Ann Veloc 
 AZIF.deg               140.24:  Azm, Final 
 BHAT.        Rotary Steerable:  BHA Type 
 BROT.°/30m               0.50:  Build Rotating 
 BS  .in                  8.50:  Bit Size 
 BTPL.psig              619.00:  Bit Press Loss 
 CABU.                     Yes:  Customer Abuse 
 CGEO.          Ilgar Gurbanov:  Customer Geo 
 COMM.                     dAY:  Run Comments 1 
 TCS .hr                 85.88:  Time Ciculation Ended 
 CV  .mps                 3.30:  Crit Velocity 
 CVMX.mps                 3.50:  Max Crit Veloc 
 DD1 .           Hamid Axmedov:  Direct Drillr 1 
 DD2 .           Teymur Aliyev:  Direct Drillr 2 
 DDSV.               Geo-Pilot:  DD Service 
 DEFF.%                 100.00:  % Det Eff 
 DLRX.°/30m               0.00:  Dogleg Rot Max 
 DLSO.°/30m               1.80:  Dogleg Oriented 
 DLSX.°/30m               3.34:  Dogleg Str Max 
 DRET.      11.50.00 27-May-21:  Drill End Time 
 DRST.      21.13.00 24-May-21:  Drill Start Tim 
 DTIM.hr                 45.11:  Time Drilling 
 EDEP.m                4054.00:  End Depth 
 ENG1.         Almaz Almadatov:  Engineer 1 
 ENG2.           Amrah Tahirov:  Engineer 2 
 ENG3.      Bakhtiyar Jabbarli:  Engineer 3 
 ENG4.          Nazrin Asgarli:  Engineer 4 
 ETIM.      10.00.00 30-May-21:  End Time 
 FLOI.gpm               530.00:  Flow In 
 FLON.gpm               400.00:  Flow In Min 
 FLOS.cptm                0.00:  Fluid Loss 
 FLOX.gpm               560.00:  Flow In Max 
 DFT .        Mineral Oil Base:  Mud Type 
 FTRO.       Formation Presure:  FTWD Run Obj 
 HFLO.                      No:  High Flow 
 HPRE.                      No:  High Pressure 
 HTEM.                      No:  High Temp 
 HYDO.m                   1.80:  Hydro Offset 
 IFIN.deg                73.83:  Inc, Final 
 IMAX.deg                73.83:  Inc Max 
 IMIN.deg                57.86:  Inc Min 
 IMND.m                3259.27:  Inc Min Depth 
 IMXD.m                4045.58:  Inc Max Depth 
 JARR.                     Yes:  Jarring 
 LETM.      11.50.00 27-May-21:  Log End Time 
 LOST.hr                     0:  Lost Rig Time 
 LSTM.      21.13.00 24-May-21:  Log Start Time 
 MDCL.ppm             42500.00:  Mud Chlorides 
 MDES.     Inversion Oil/Synthetic:  Mud Desc 
 DFD .sg                  1.52:  Mud Density 
 MDMN.sg                  1.52:  Dens Mud Min 
 MDMX.sg                  1.52:  Dens Mud Max 
 MOIL.                      70:  Run Mud Oil % 
 MOWR.                   70:30:  Run Mud OWR 
 MSND.                     0.2:  Run Mud Sand % 
 MSOL.                      22:  Run Mud Solids% 
 DFV .spqt               77.00:  Mud Viscosity 
 MWOD.in                  6.75:  MWD Tool OD 
 MWSI.                      No:  Serv Intrp, MWD 
 OTIM.hr                151.01:  Time Operating 
 PCON.          Wear / Scratch:  Pad Condition 
 PMAX.psia            11296.93:  Press Op, Max 
 PV  .cP                 37.00:  Mud PV 
 RUN .                     500:  Run Number 
 ROPA.m/hr               25.00:  ROP Avg 
 ROPN.m/hr                9.00:  ROP Min 
 ROPX.m/hr               28.00:  ROP Max 
 RPMA.rpm               140.00:  RPM Surface Avg 
 RPMN.rpm                90.00:  RPM Surface Min 
 RPMX.rpm               140.00:  RPM Surface Max 
 RRUN.                    0500:  Rig Run Number 
 SAZI.deg               172.17:  Azm, Start 
 SDEP.m                3248.00:  Start Depth 
 SIDD.                      No:  Serv Intrp, DD 
 SINC.deg                57.86:  Inc, Start 
 SPPA.psig             5620.00:  SPP Avg 
 SPPN.psig             5190.00:  SPP Min 
 SPPX.psig             6050.00:  SPP Max 
 STIM.      16.00.00 23-May-21:  Start Time 
 SVCS.                 DD, MWD:  Services 
 SVER.                    9.20:  Sperry Version 
 TDAT.m                 806.00:  Tot Depth Attmp 
 TDDF.                      No:  Trip for DD 
 TDLG.m                 806.00:  Tot Depth Loggd 
 TFF .                      No:  Trip for Fail 
 TQAA.f-kp               12.00:  Torque Abs Avg 
 TQAN.f-kp                8.00:  Torque Abs Min 
 TQAX.f-kp               15.00:  Torque Abs Max 
 TRRT.°/30m               0.30:  Turn Rotating 
 MRT .                  EWR-M5:  Maximum Recorded Temperature 
 TTMX.degC               93.00:  Max Tool Temp 
 VS01.                90649155:  Virtual Str1 SN 
 VS02.                90642264:  Virtual Str2 SN 
 VS03.                90642266:  Virtual Str3 SN 
 VS04.                90642261:  Virtual Str4 SN 
 WBMN.klb                 0.00:  WOB Min 
 WITN.             Anar Khalil:  Customer Rep 
 WITN.           Murad Guliyev:  Customer Rep 2 
 WOBA.klb                13.00:  WOB Avg 
 WOBX.klb                25.00:  WOB Max 
 YP  .lhf2               32.00:  Yield Point 
~Curve Information Block
#MNEM.UNIT                 API CODE     Curve Description
#---------               -----------    ---------------------------
 TIME.HHMMSS            00 000 000 000:  GT Time & Date
 GTDEPTH.m              00 000 000 000:  GT Depth
 GTPQH.psia             00 000 000 000:  GT HR Quartz Pressure
 GTTQ.degC              00 000 000 000:  GT Quartz Temperature
 GTTN.NONE              00 000 000 000:  GT Test Number
 GTET.sec               00 000 000 000:  GT Elapsed Test Time
 GTTVD.m                00 000 000 000:  GT True Vertical Depth
#Other Information
#
#WARRANTY: Halliburton will use its best efforts to furnish customers with 
#accurate information and interpretations that are part of, and incident to, the services 
#provided.  However, Halliburton cannot and does not warrant the accuracy 
#or correctness of such information and interpretations.  Under no circumstances should any 
#such information or interpretation be relied upon as the sole basis for any drilling, 
#completion, production, or financial decision or any procedure involving any risk to the 
#safety of any drilling venture, drilling rig or its crew or any other third party.  The 
#Customer has full responsibility for all drilling, completion and production operation.  
#Halliburton makes no representations or warranties, either expressed or 
#implied, including, but not limited to, the implied warranties of merchantability or fitness 
#for a particular purpose, with respect to the services rendered.  In no event will 
#Halliburton be liable for failure to obtain any particular results or for 
#any damages, including, but not limited to, indirect, special or consequential damages, 
#resulting from the use of any information or interpretation provided by Halliburton.
#
~A           TIME           GTDEPTH  GTPQH  GTTQ  GTTN   GTET   GTTVD  
# ...
   05:53:31.701.28-May-2021 3439.00 4526.53 82.97 11.00 293.92 2568.67
   05:53:31.901.28-May-2021 3439.00 4526.64 82.97 11.00 294.12 2568.67
   05:53:32.101.28-May-2021 3439.00 4526.64 82.97 11.00 294.32 2568.67
   05:53:32.301.28-May-2021 3439.00 4527.79 82.97 11.00 294.52 2568.67
   05:53:32.501.28-May-2021 3439.00 4527.70 82.97 11.00 294.72 2568.67
   05:53:32.701.28-May-2021 3439.00 4527.61 82.97 11.00 294.92 2568.67
   05:53:32.901.28-May-2021 3439.00 4527.52 82.97 11.00 295.12 2568.67
   05:53:33.101.28-May-2021 3439.00 4527.52 82.97 11.00 295.32 2568.67
   05:53:33.302.28-May-2021 3439.00 4527.33 82.97 11.00 295.52 2568.67
   05:53:33.502.28-May-2021 3439.00 4527.33 82.97 11.00 295.72 2568.67
   05:53:33.702.28-May-2021 3439.00 4527.07 82.97 11.00 295.92 2568.67
   05:53:33.902.28-May-2021 3439.00 4526.92 82.97 11.00 296.12 2568.67
   05:53:34.102.28-May-2021 3439.00 4526.92 82.97 11.00 296.32 2568.67
   05:53:34.302.28-May-2021 3439.00 4526.86 82.97 11.00 296.52 2568.67
   05:53:34.502.28-May-2021 3439.00 4525.81 82.97 11.00 296.72 2568.67
   05:53:34.702.28-May-2021 3439.00 4526.42 82.97 11.00 296.92 2568.67
   05:53:34.902.28-May-2021 3439.00 4526.58 82.97 11.00 297.12 2568.67
   05:53:35.102.28-May-2021 3439.00 4526.58 82.97 11.00 297.32 2568.67
   05:53:35.302.28-May-2021 3439.00 4525.49 82.97 11.00 297.52 2568.67
   05:53:35.502.28-May-2021 3439.00 4526.06 82.97 11.00 297.72 2568.67
   05:53:35.703.28-May-2021 3439.00 4526.23 82.97 11.00 297.92 2568.67
   05:53:35.903.28-May-2021 3439.00 4526.17 82.97 11.00 298.12 2568.67
   05:53:36.103.28-May-2021 3439.00 4526.17 82.97 11.00 298.32 2568.67
   05:53:36.303.28-May-2021 3439.00 4988.35 82.97 11.00 298.52 2568.67
   05:53:36.503.28-May-2021 3439.00 5197.60 82.97 11.00 298.72 2568.67
   05:53:36.703.28-May-2021 3439.00 5195.83 82.97 11.00 298.92 2568.67
   05:53:36.903.28-May-2021 3439.00 5193.61 82.97 11.00 299.13 2568.67
   05:53:37.103.28-May-2021 3439.00 5193.61 82.97 11.00 299.33 2568.67
   05:53:37.303.28-May-2021 3439.00 5192.50 82.97 11.00 299.53 2568.67
   05:53:37.503.28-May-2021 3439.00 5191.67 82.97 11.00 299.73 2568.67
   05:53:37.703.28-May-2021 3439.00 5199.22 82.97 11.00 299.93 2568.67
   05:53:37.903.28-May-2021 3439.00 5240.44 82.97 11.00 300.13 2568.67
   05:53:38.104.28-May-2021 3439.00 5240.44 82.97 11.00 300.33 2568.67
   05:53:38.304.28-May-2021 3439.00 5238.36 82.97 11.00 300.53 2568.67
   05:53:38.504.28-May-2021 3439.00 5237.59 82.97 11.00 300.73 2568.67
   05:53:38.704.28-May-2021 3439.00 5236.90 82.98 11.00 300.93 2568.67
   05:53:38.904.28-May-2021 3439.00 5236.23 82.98 11.00 301.13 2568.67
   05:53:39.104.28-May-2021 3439.00 5236.23 82.98 11.00 301.33 2568.67
   05:53:39.304.28-May-2021 3439.00 5234.52 82.98 11.00 301.53 2568.67
   05:53:39.504.28-May-2021 3439.00 5233.88 82.98 11.00 301.73 2568.67
   05:53:39.704.28-May-2021 3439.00 5233.54 82.98 11.00 301.93 2568.67
   05:53:39.904.28-May-2021 3439.00 5232.95 82.98 11.00 302.13 2568.67
   05:53:40.104.28-May-2021 3439.00 5232.95 82.98 11.00 302.33 2568.67
   05:53:40.304.28-May-2021 3439.00 5232.04 82.98 11.00 302.53 2568.67
   05:53:40.505.28-May-2021 3439.00 5231.63 82.98 11.00 302.73 2568.67
   05:53:40.705.28-May-2021 3439.00 5231.17 82.98 11.00 302.93 2568.67
   05:53:40.905.28-May-2021 3439.00 5228.29 82.98 11.00 303.13 2568.67
   05:53:41.105.28-May-2021 3439.00 5228.29 82.98 11.00 303.33 2568.67
   05:53:41.305.28-May-2021 3439.00 5227.81 82.98 11.00 303.53 2568.67
   05:53:41.505.28-May-2021 3439.00 5227.54 82.99 11.00 303.73 2568.67
   05:53:41.705.28-May-2021 3439.00 5227.13 82.99 11.00 303.93 2568.67
   05:53:41.905.28-May-2021 3439.00 5225.62 82.99 11.00 304.13 2568.67
   05:53:42.105.28-May-2021 3439.00 5225.62 82.99 11.00 304.33 2568.67
   05:53:42.305.28-May-2021 3439.00 5226.06 82.99 11.00 304.53 2568.67
   05:53:42.505.28-May-2021 3439.00 5225.75 82.99 11.00 304.73 2568.67
   05:53:42.705.28-May-2021 3439.00 5223.97 82.99 11.00 304.93 2568.67
   05:53:42.906.28-May-2021 3439.00 5225.02 82.99 11.00 305.13 2568.67
   05:53:43.106.28-May-2021 3439.00 5225.02 82.99 11.00 305.33 2568.67
   05:53:43.306.28-May-2021 3439.00 5224.57 82.99 11.00 305.53 2568.67
   05:53:43.506.28-May-2021 3439.00 5223.04 82.99 11.00 305.73 2568.67
   05:53:43.706.28-May-2021 3439.00 5223.61 82.99 11.00 305.93 2568.67
   05:53:43.906.28-May-2021 3439.00 5223.59 82.99 11.00 306.13 2568.67
   05:53:44.106.28-May-2021 3439.00 5223.59 82.99 11.00 306.33 2568.67
   05:53:44.306.28-May-2021 3439.00 5223.16 82.99 11.00 306.53 2568.67
   05:53:44.506.28-May-2021 3439.00 5222.86 82.99 11.00 306.73 2568.67
   05:53:44.706.28-May-2021 3439.00 5222.71 82.99 11.00 306.93 2568.67
   05:53:44.906.28-May-2021 3439.00 5222.42 82.99 11.00 307.13 2568.67
   05:53:45.106.28-May-2021 3439.00 5222.42 82.99 11.00 307.33 2568.67
   05:53:45.307.28-May-2021 3439.00 5221.99 82.99 11.00 307.53 2568.67
   05:53:45.507.28-May-2021 3439.00 5221.75 82.99 11.00 307.73 2568.67
   05:53:45.707.28-May-2021 3439.00 5221.53 82.99 11.00 307.93 2568.67
   05:53:45.907.28-May-2021 3439.00 5221.33 82.99 11.00 308.13 2568.67
   05:53:46.107.28-May-2021 3439.00 5221.33 82.99 11.00 308.33 2568.67
   05:53:46.307.28-May-2021 3439.00 5220.80 82.99 11.00 308.53 2568.67
   05:53:46.507.28-May-2021 3439.00 5220.53 82.99 11.00 308.73 2568.67
   05:53:46.707.28-May-2021 3439.00 5220.42 82.99 11.00 308.93 2568.67
   05:53:46.907.28-May-2021 3439.00 5220.14 82.99 11.00 309.13 2568.67
   05:53:47.107.28-May-2021 3439.00 5220.14 82.99 11.00 309.33 2568.67
   05:53:47.307.28-May-2021 3439.00 5219.78 82.99 11.00 309.53 2568.67
   05:53:47.507.28-May-2021 3439.00 5219.58 82.99 11.00 309.73 2568.67
   05:53:47.708.28-May-2021 3439.00 5219.42 82.99 11.00 309.93 2568.67
   05:53:47.908.28-May-2021 3439.00 5219.22 82.99 11.00 310.13 2568.67
   05:53:48.108.28-May-2021 3439.00 5219.22 82.99 11.00 310.33 2568.67
   05:53:48.308.28-May-2021 3439.00 5218.82 82.99 11.00 310.53 2568.67
   05:53:48.508.28-May-2021 3439.00 5218.65 82.99 11.00 310.73 2568.67
   05:53:48.708.28-May-2021 3439.00 5218.49 82.99 11.00 310.93 2568.67
   05:53:48.908.28-May-2021 3439.00 5216.78 82.99 11.00 311.13 2568.67
   05:53:49.108.28-May-2021 3439.00 5216.78 82.99 11.00 311.33 2568.67
   05:53:49.308.28-May-2021 3439.00 5217.77 82.99 11.00 311.53 2568.67
   05:53:49.508.28-May-2021 3439.00 5217.76 82.99 11.00 311.73 2568.67
   05:53:49.708.28-May-2021 3439.00 5215.99 82.99 11.00 311.93 2568.67
   05:53:49.908.28-May-2021 3439.00 5217.28 82.99 11.00 312.13 2568.67
   05:53:50.109.28-May-2021 3439.00 5217.28 82.99 11.00 312.33 2568.67
   05:53:50.309.28-May-2021 3439.00 5217.04 82.99 11.00 312.53 2568.67
   05:53:50.509.28-May-2021 3439.00 5216.80 82.99 11.00 312.73 2568.67
   05:53:50.709.28-May-2021 3439.00 5214.98 82.99 11.00 312.93 2568.67
   05:53:50.909.28-May-2021 3439.00 5216.63 82.99 11.00 313.13 2568.67
   05:53:51.109.28-May-2021 3439.00 5216.63 82.99 11.00 313.33 2568.67
   05:53:51.309.28-May-2021 3439.00 5216.19 82.99 11.00 313.53 2568.67
   05:53:51.509.28-May-2021 3439.00 5214.78 82.99 11.00 313.73 2568.67
   05:53:51.709.28-May-2021 3439.00 5215.50 82.99 11.00 313.93 2568.67
   05:53:51.909.28-May-2021 3439.00 5215.65 82.99 11.00 314.13 2568.67
   05:53:52.109.28-May-2021 3439.00 5215.65 82.99 11.00 314.33 2568.67
   05:53:52.309.28-May-2021 3439.00 5215.44 82.99 11.00 314.53 2568.67
   05:53:52.510.28-May-2021 3439.00 5215.22 82.99 11.00 314.73 2568.67
   05:53:52.710.28-May-2021 3439.00 5215.15 82.99 11.00 314.93 2568.67
   05:53:52.910.28-May-2021 3439.00 5214.99 82.99 11.00 315.13 2568.67
   05:53:53.110.28-May-2021 3439.00 5214.99 82.99 11.00 315.33 2568.67
   05:53:53.310.28-May-2021 3439.00 5214.73 82.99 11.00 315.53 2568.67
   05:53:53.510.28-May-2021 3439.00 5214.62 82.99 11.00 315.73 2568.67
   05:53:53.710.28-May-2021 3439.00 5214.47 82.99 11.00 315.93 2568.67
   05:53:53.910.28-May-2021 3439.00 5214.33 82.99 11.00 316.13 2568.67
   05:53:54.110.28-May-2021 3439.00 5214.33 82.99 11.00 316.33 2568.67
