~Version Information
 VERS.                  2.0:   CWLS log ASCII Standard -VERSION 2.0
 WRAP.                   NO:   One line per depth step
~Well Information Block
#MNEM.UNIT     VALUE/NAME     DESCRIPTION
#---------     -----------    ---------------------------
 STRT.S             06:06:39 28-May-21: START TIME 06:06:39 28-May-21
 STOP.S             06:13:42 28-May-21: STOP TIME  06:13:42 28-May-21
 STEP.S                   0.00: STEP TIME
 NULL.                 -999.25: NULL VALUE
 UWI .                     N/A:  UNIQUE WELL IDENTIFIER
 API .                     N/A:  API NUMBER
 UNIT.                     N/A:  LOGGING EQUIPMENT ID
 DCON.         Sperry Drilling:  DIRECTNL CONTR
 DOE .                     N/A:  DOE NUMBER
 MWDS.                    Baku:  MWD SHOP
 SRVC.     Turan Drilling and Engineering:  CONTRACTOR
 CTRY.              Azerbaijan:  COUNTRY NAME
 PROV.                    Baku:  PROVINCE
 STAT.                    Baku:  STATE NAME
 REGN.                   EESSA:  REGION
 BASE.              Azerbaijan:  LOGGING EQUIPMENT BASE LOCATION
 WTYP.                Deviated:  WELL TYPE
 RIG .              East Azeri:  RIG NAME
 WELL.                    D02y:  WELL NAME
 FLD .                     ACG:  FIELD NAME
 COMP.     BP Exploration (Caspian Sea) Ltd.:  COMPANY
 PDAT.          Mean Sea Level:  PERMANENT DATUM
 MDS .        Operator Entered:  MAG DATA SOURCE
 SON .        AZ-XX-0906997291:  JOB NUMBER
 FTOP.          Formation Tops:  FORM TOPS DESC
 ILTD.               Lithology:  INTERP LTH DESC
 SVYD.                  Survey:  SURVEY DESC
 DMOD.             Drill Model:  DRILL MOD DESC
 HPTY.       Minimum Curvature:  HOLE POS TYPE
 NREF.                    Grid:  NORTH REFERENCE
 SPUD.               05-May-21:  SPUD DATE
 DATE.      09.27.28 12-Jun-21:  END TIME
 STIM.      09.27.28 12-May-21:  START TIME
 DMF .             Drill Floor:  DRILL MEAS FROM
 DFST.                        :  DIST FSL TEXT
 DFWT.                        :  DIST FWL TEXT
 CNTY.                        :  COUNTY
 LOC .                        :  LOCATION
 LMF .             Drill Floor:  LOG MEASURED FROM
 DEP .m                2806.40:  DEPTH
 AGAP.m                  43.60:  AIR GAP
 VSNS.m                  -4.42:  VERT SEC N/S
 VSEW.m                  -7.31:  VERT SEC E/W
 APD .m                  43.60:  DEPTH ABOVE PD
 WDMS.m                 151.80:  WD ELEV
 EGL .m                   0.00:  GROUND ELEVATION
 EPD .m                   0.00:  ELEVATION
 AZTC.deg                 6.18:  AZM TOTAL CORR
 GRDC.deg                 0.29:  GRID CORRECTION
 MDEC.deg                 6.47:  MAGNETIC DECL
 MDIP.deg                59.50:  MAGNETIC DIP
 MFLD.nT              50350.00:  MAGNETIC FIELD
 GVFD.g                   1.00:  GRAVITY FIELD
 VSDR.deg               179.08:  VERT SEC DIRECT
 TDD .m                4300.00:  TOTAL DEPTH (DRILLER)
 SDEP.m                2800.00:  START DEPTH
 DFSL.m                   0.00:  DISTANCE FSL
 DFWL.m                   0.00:  DISTANCE FWL
 UTMY.m             4431871.34:  UTM Y
 UTMX.m              538762.90:  UTM X
 WHEW.m                  -7.31:  WELL HEAD E/W
 WHNS.m                  -4.42:  WELL HEAD N/S
 LONG.deg                51.45:  LONGITUDE
 LATI.deg                40.02:  LATITUDE
 TVDS.m                  43.60:  TVDSS CORRECTN
 EKB .m                  43.60:  KB ELEVATION
 EDF .m                  43.60:  DF ELEVATION
 TDL .m                 806.00:  TOTAL DEPTH (LOGGER)
 MAGU.                 1851231:  MAGUTM CHECKSUM
 VSC .                       0:  VS TO CLOSURE
~Parameter Information Block
#MNEM.UNIT       Value        Description
#---------     -----------    ---------------------------
 AV  .mps                 1.60:  Ann Velocity 
 AVMX.mps                 2.00:  Max Ann Veloc 
 AZIF.deg               140.24:  Azm, Final 
 BHAT.        Rotary Steerable:  BHA Type 
 BROT.°/30m               0.50:  Build Rotating 
 BS  .in                  8.50:  Bit Size 
 BTPL.psig              619.00:  Bit Press Loss 
 CABU.                     Yes:  Customer Abuse 
 CGEO.          Ilgar Gurbanov:  Customer Geo 
 COMM.                     ´.T:  Run Comments 1 
 TCS .hr                 85.88:  Time Ciculation Ended 
 CV  .mps                 3.30:  Crit Velocity 
 CVMX.mps                 3.50:  Max Crit Veloc 
 DD1 .           Hamid Axmedov:  Direct Drillr 1 
 DD2 .           Teymur Aliyev:  Direct Drillr 2 
 DDSV.               Geo-Pilot:  DD Service 
 DEFF.%                 100.00:  % Det Eff 
 DLRX.°/30m               0.00:  Dogleg Rot Max 
 DLSO.°/30m               1.80:  Dogleg Oriented 
 DLSX.°/30m               3.34:  Dogleg Str Max 
 DRET.      11.50.00 27-May-21:  Drill End Time 
 DRST.      21.13.00 24-May-21:  Drill Start Tim 
 DTIM.hr                 45.11:  Time Drilling 
 EDEP.m                4054.00:  End Depth 
 ENG1.         Almaz Almadatov:  Engineer 1 
 ENG2.           Amrah Tahirov:  Engineer 2 
 ENG3.      Bakhtiyar Jabbarli:  Engineer 3 
 ENG4.          Nazrin Asgarli:  Engineer 4 
 ETIM.      10.00.00 30-May-21:  End Time 
 FLOI.gpm               530.00:  Flow In 
 FLON.gpm               400.00:  Flow In Min 
 FLOS.cptm                0.00:  Fluid Loss 
 FLOX.gpm               560.00:  Flow In Max 
 DFT .        Mineral Oil Base:  Mud Type 
 FTRO.       Formation Presure:  FTWD Run Obj 
 HFLO.                      No:  High Flow 
 HPRE.                      No:  High Pressure 
 HTEM.                      No:  High Temp 
 HYDO.m                   1.80:  Hydro Offset 
 IFIN.deg                73.83:  Inc, Final 
 IMAX.deg                73.83:  Inc Max 
 IMIN.deg                57.86:  Inc Min 
 IMND.m                3259.27:  Inc Min Depth 
 IMXD.m                4045.58:  Inc Max Depth 
 JARR.                     Yes:  Jarring 
 LETM.      11.50.00 27-May-21:  Log End Time 
 LOST.hr                     0:  Lost Rig Time 
 LSTM.      21.13.00 24-May-21:  Log Start Time 
 MDCL.ppm             42500.00:  Mud Chlorides 
 MDES.     Inversion Oil/Synthetic:  Mud Desc 
 DFD .sg                  1.52:  Mud Density 
 MDMN.sg                  1.52:  Dens Mud Min 
 MDMX.sg                  1.52:  Dens Mud Max 
 MOIL.                      70:  Run Mud Oil % 
 MOWR.                   70:30:  Run Mud OWR 
 MSND.                     0.2:  Run Mud Sand % 
 MSOL.                      22:  Run Mud Solids% 
 DFV .spqt               77.00:  Mud Viscosity 
 MWOD.in                  6.75:  MWD Tool OD 
 MWSI.                      No:  Serv Intrp, MWD 
 OTIM.hr                151.01:  Time Operating 
 PCON.          Wear / Scratch:  Pad Condition 
 PMAX.psia            11296.93:  Press Op, Max 
 PV  .cP                 37.00:  Mud PV 
 RUN .                     500:  Run Number 
 ROPA.m/hr               25.00:  ROP Avg 
 ROPN.m/hr                9.00:  ROP Min 
 ROPX.m/hr               28.00:  ROP Max 
 RPMA.rpm               140.00:  RPM Surface Avg 
 RPMN.rpm                90.00:  RPM Surface Min 
 RPMX.rpm               140.00:  RPM Surface Max 
 RRUN.                    0500:  Rig Run Number 
 SAZI.deg               172.17:  Azm, Start 
 SDEP.m                3248.00:  Start Depth 
 SIDD.                      No:  Serv Intrp, DD 
 SINC.deg                57.86:  Inc, Start 
 SPPA.psig             5620.00:  SPP Avg 
 SPPN.psig             5190.00:  SPP Min 
 SPPX.psig             6050.00:  SPP Max 
 STIM.      16.00.00 23-May-21:  Start Time 
 SVCS.                 DD, MWD:  Services 
 SVER.                    9.20:  Sperry Version 
 TDAT.m                 806.00:  Tot Depth Attmp 
 TDDF.                      No:  Trip for DD 
 TDLG.m                 806.00:  Tot Depth Loggd 
 TFF .                      No:  Trip for Fail 
 TQAA.f-kp               12.00:  Torque Abs Avg 
 TQAN.f-kp                8.00:  Torque Abs Min 
 TQAX.f-kp               15.00:  Torque Abs Max 
 TRRT.°/30m               0.30:  Turn Rotating 
 MRT .                  EWR-M5:  Maximum Recorded Temperature 
 TTMX.degC               93.00:  Max Tool Temp 
 VS01.                90649155:  Virtual Str1 SN 
 VS02.                90642264:  Virtual Str2 SN 
 VS03.                90642266:  Virtual Str3 SN 
 VS04.                90642261:  Virtual Str4 SN 
 WBMN.klb                 0.00:  WOB Min 
 WITN.             Anar Khalil:  Customer Rep 
 WITN.           Murad Guliyev:  Customer Rep 2 
 WOBA.klb                13.00:  WOB Avg 
 WOBX.klb                25.00:  WOB Max 
 YP  .lhf2               32.00:  Yield Point 
~Curve Information Block
#MNEM.UNIT                 API CODE     Curve Description
#---------               -----------    ---------------------------
 TIME.HHMMSS            00 000 000 000:  GT Time & Date
 GTDEPTH.m              00 000 000 000:  GT Depth
 GTPQH.psia             00 000 000 000:  GT HR Quartz Pressure
 GTTQ.degC              00 000 000 000:  GT Quartz Temperature
 GTTN.NONE              00 000 000 000:  GT Test Number
 GTET.sec               00 000 000 000:  GT Elapsed Test Time
 GTTVD.m                00 000 000 000:  GT True Vertical Depth
#Other Information
#
#WARRANTY: Halliburton will use its best efforts to furnish customers with 
#accurate information and interpretations that are part of, and incident to, the services 
#provided.  However, Halliburton cannot and does not warrant the accuracy 
#or correctness of such information and interpretations.  Under no circumstances should any 
#such information or interpretation be relied upon as the sole basis for any drilling, 
#completion, production, or financial decision or any procedure involving any risk to the 
#safety of any drilling venture, drilling rig or its crew or any other third party.  The 
#Customer has full responsibility for all drilling, completion and production operation.  
#Halliburton makes no representations or warranties, either expressed or 
#implied, including, but not limited to, the implied warranties of merchantability or fitness 
#for a particular purpose, with respect to the services rendered.  In no event will 
#Halliburton be liable for failure to obtain any particular results or for 
#any damages, including, but not limited to, indirect, special or consequential damages, 
#resulting from the use of any information or interpretation provided by Halliburton.
#
~A           TIME           GTDEPTH  GTPQH  GTTQ  GTTN   GTET   GTTVD  
# ...
   06:07:01.839.28-May-2021 3440.00 6001.27 83.27 12.00  22.61 2569.12
   06:07:02.040.28-May-2021 3440.00 6001.26 83.27 12.00  22.81 2569.12
   06:07:02.240.28-May-2021 3440.00 6001.59 83.27 12.00  23.01 2569.12
   06:07:02.440.28-May-2021 3440.00 6001.59 83.27 12.00  23.21 2569.12
   06:07:02.640.28-May-2021 3440.00 6001.45 83.27 12.00  23.41 2569.12
   06:07:02.840.28-May-2021 3440.00 6001.44 83.27 12.00  23.61 2569.12
   06:07:03.040.28-May-2021 3440.00 6001.58 83.27 12.00  23.81 2569.12
   06:07:03.240.28-May-2021 3440.00 6008.25 83.27 12.00  24.01 2569.12
   06:07:03.440.28-May-2021 3440.00 6008.25 83.27 12.00  24.21 2569.12
   06:07:03.640.28-May-2021 3440.00 6002.22 83.27 12.00  24.41 2569.12
   06:07:03.840.28-May-2021 3440.00 6001.98 83.27 12.00  24.61 2569.12
   06:07:04.040.28-May-2021 3440.00 6002.29 83.27 12.00  24.81 2569.12
   06:07:04.240.28-May-2021 3440.00 6001.84 83.27 12.00  25.01 2569.12
   06:07:04.441.28-May-2021 3440.00 6001.84 83.27 12.00  25.21 2569.12
   06:07:04.641.28-May-2021 3440.00 6002.65 83.27 12.00  25.41 2569.12
   06:07:04.841.28-May-2021 3440.00 6003.08 83.27 12.00  25.61 2569.12
   06:07:05.041.28-May-2021 3440.00 6002.94 83.26 12.00  25.81 2569.12
   06:07:05.241.28-May-2021 3440.00 6002.85 83.26 12.00  26.01 2569.12
   06:07:05.441.28-May-2021 3440.00 6002.85 83.26 12.00  26.21 2569.12
   06:07:05.641.28-May-2021 3440.00 6002.75 83.26 12.00  26.41 2569.12
   06:07:05.841.28-May-2021 3440.00 6002.76 83.26 12.00  26.61 2569.12
   06:07:06.041.28-May-2021 3440.00 6009.11 83.26 12.00  26.81 2569.12
   06:07:06.241.28-May-2021 3440.00 6000.51 83.26 12.00  27.01 2569.12
   06:07:06.441.28-May-2021 3440.00 6000.51 83.26 12.00  27.21 2569.12
   06:07:06.641.28-May-2021 3440.00 6002.75 83.26 12.00  27.41 2569.12
   06:07:06.842.28-May-2021 3440.00 6008.13 83.26 12.00  27.61 2569.12
   06:07:07.042.28-May-2021 3440.00 6001.91 83.26 12.00  27.81 2569.12
   06:07:07.242.28-May-2021 3440.00 6003.66 83.26 12.00  28.01 2569.12
   06:07:07.442.28-May-2021 3440.00 6003.66 83.26 12.00  28.21 2569.12
   06:07:07.642.28-May-2021 3440.00 6004.13 83.26 12.00  28.41 2569.12
   06:07:07.842.28-May-2021 3440.00 6005.40 83.26 12.00  28.61 2569.12
   06:07:08.042.28-May-2021 3440.00 6005.86 83.26 12.00  28.81 2569.12
   06:07:08.242.28-May-2021 3440.00 6003.80 83.26 12.00  29.01 2569.12
   06:07:08.442.28-May-2021 3440.00 6003.80 83.26 12.00  29.21 2569.12
   06:07:08.642.28-May-2021 3440.00 6004.01 83.26 12.00  29.41 2569.12
   06:07:08.842.28-May-2021 3440.00 6003.13 83.26 12.00  29.61 2569.12
   06:07:09.042.28-May-2021 3440.00 6010.41 83.26 12.00  29.81 2569.12
   06:07:09.243.28-May-2021 3440.00 6001.54 83.26 12.00  30.01 2569.12
   06:07:09.443.28-May-2021 3440.00 6001.54 83.26 12.00  30.21 2569.12
   06:07:09.643.28-May-2021 3440.00 6004.21 83.26 12.00  30.41 2569.12
   06:07:09.843.28-May-2021 3440.00 6004.67 83.26 12.00  30.61 2569.12
   06:07:10.043.28-May-2021 3440.00 6003.99 83.26 12.00  30.81 2569.12
   06:07:10.243.28-May-2021 3440.00 6004.48 83.26 12.00  31.01 2569.12
   06:07:10.443.28-May-2021 3440.00 6004.48 83.26 12.00  31.21 2569.12
   06:07:10.643.28-May-2021 3440.00 6004.90 83.26 12.00  31.41 2569.12
   06:07:10.843.28-May-2021 3440.00 6004.75 83.26 12.00  31.61 2569.12
   06:07:11.043.28-May-2021 3440.00 6004.66 83.26 12.00  31.81 2569.12
   06:07:11.243.28-May-2021 3440.00 6004.60 83.26 12.00  32.01 2569.12
   06:07:11.443.28-May-2021 3440.00 6004.60 83.26 12.00  32.21 2569.12
   06:07:11.644.28-May-2021 3440.00 6010.28 83.26 12.00  32.41 2569.12
   06:07:11.844.28-May-2021 3440.00 6003.30 83.26 12.00  32.61 2569.12
   06:07:12.044.28-May-2021 3440.00 6005.11 83.26 12.00  32.81 2569.12
   06:07:12.244.28-May-2021 3440.00 6004.97 83.26 12.00  33.01 2569.12
   06:07:12.444.28-May-2021 3440.00 6004.97 83.26 12.00  33.21 2569.12
   06:07:12.644.28-May-2021 3440.00 6004.74 83.26 12.00  33.41 2569.12
   06:07:12.844.28-May-2021 3440.00 6004.88 83.26 12.00  33.61 2569.12
   06:07:13.044.28-May-2021 3440.00 6005.36 83.26 12.00  33.81 2569.12
   06:07:13.244.28-May-2021 3440.00 6005.71 83.26 12.00  34.01 2569.12
   06:07:13.444.28-May-2021 3440.00 6005.71 83.26 12.00  34.21 2569.12
   06:07:13.644.28-May-2021 3440.00 6005.44 83.26 12.00  34.41 2569.12
   06:07:13.844.28-May-2021 3440.00 6005.39 83.26 12.00  34.61 2569.12
   06:07:14.045.28-May-2021 3440.00 6005.33 83.26 12.00  34.81 2569.12
   06:07:14.245.28-May-2021 3440.00 6005.39 83.26 12.00  35.01 2569.12
   06:07:14.445.28-May-2021 3440.00 6005.39 83.26 12.00  35.21 2569.12
   06:07:14.645.28-May-2021 3440.00 6003.99 83.26 12.00  35.41 2569.12
   06:07:14.845.28-May-2021 3440.00 6005.66 83.26 12.00  35.61 2569.12
   06:07:15.045.28-May-2021 3440.00 6005.57 83.26 12.00  35.81 2569.12
   06:07:15.245.28-May-2021 3440.00 6009.51 83.26 12.00  36.02 2569.12
   06:07:15.445.28-May-2021 3440.00 6009.51 83.26 12.00  36.22 2569.12
   06:07:15.645.28-May-2021 3440.00 6005.66 83.26 12.00  36.42 2569.12
   06:07:15.845.28-May-2021 3440.00 6006.23 83.26 12.00  36.62 2569.12
   06:07:16.045.28-May-2021 3440.00 6005.79 83.26 12.00  36.82 2569.12
   06:07:16.245.28-May-2021 3440.00 6011.28 83.26 12.00  37.02 2569.12
   06:07:16.446.28-May-2021 3440.00 6011.28 83.26 12.00  37.22 2569.12
   06:07:16.646.28-May-2021 3440.00 6006.86 83.26 12.00  37.42 2569.12
   06:07:16.846.28-May-2021 3440.00 6006.19 83.26 12.00  37.62 2569.12
   06:07:17.046.28-May-2021 3440.00 6006.74 83.26 12.00  37.82 2569.12
   06:07:17.246.28-May-2021 3440.00 6012.19 83.26 12.00  38.02 2569.12
   06:07:17.446.28-May-2021 3440.00 6012.19 83.26 12.00  38.22 2569.12
   06:07:17.646.28-May-2021 3440.00 6006.85 83.26 12.00  38.42 2569.12
   06:07:17.846.28-May-2021 3440.00 6007.01 83.26 12.00  38.62 2569.12
   06:07:18.046.28-May-2021 3440.00 6007.02 83.26 12.00  38.82 2569.12
   06:07:18.246.28-May-2021 3440.00 6006.38 83.26 12.00  39.02 2569.12
   06:07:18.446.28-May-2021 3440.00 6006.38 83.26 12.00  39.22 2569.12
   06:07:18.646.28-May-2021 3440.00 6006.87 83.26 12.00  39.42 2569.12
   06:07:18.847.28-May-2021 3440.00 6007.18 83.26 12.00  39.62 2569.12
   06:07:19.047.28-May-2021 3440.00 6006.76 83.26 12.00  39.82 2569.12
   06:07:19.247.28-May-2021 3440.00 6178.61 83.26 12.00  40.02 2569.12
   06:07:19.447.28-May-2021 3440.00 6178.61 83.26 12.00  40.22 2569.12
   06:07:19.647.28-May-2021 3440.00 6418.62 83.26 12.00  40.42 2569.12
   06:07:19.847.28-May-2021 3440.00 6440.03 83.26 12.00  40.62 2569.12
   06:07:20.047.28-May-2021 3440.00 6466.47 83.26 12.00  40.82 2569.12
   06:07:20.247.28-May-2021 3440.00 6442.32 83.26 12.00  41.02 2569.12
   06:07:20.447.28-May-2021 3440.00 6442.32 83.26 12.00  41.22 2569.12
   06:07:20.647.28-May-2021 3440.00 6312.02 83.26 12.00  41.42 2569.12
   06:07:20.847.28-May-2021 3440.00 6247.47 83.26 12.00  41.62 2569.12
   06:07:21.048.28-May-2021 3440.00 6197.28 83.26 12.00  41.82 2569.12
   06:07:21.248.28-May-2021 3440.00 6155.93 83.26 12.00  42.02 2569.12
   06:07:21.448.28-May-2021 3440.00 6155.93 83.26 12.00  42.22 2569.12
   06:07:21.648.28-May-2021 3440.00 6090.74 83.26 12.00  42.42 2569.12
   06:07:21.848.28-May-2021 3440.00 6065.88 83.26 12.00  42.62 2569.12
   06:07:22.048.28-May-2021 3440.00 6044.14 83.26 12.00  42.82 2569.12
   06:07:22.248.28-May-2021 3440.00 6026.02 83.26 12.00  43.02 2569.12
   06:07:22.448.28-May-2021 3440.00 6026.02 83.26 12.00  43.22 2569.12
   06:07:22.648.28-May-2021 3440.00 5998.65 83.26 12.00  43.42 2569.12
   06:07:22.848.28-May-2021 3440.00 5988.58 83.26 12.00  43.62 2569.12
   06:07:23.048.28-May-2021 3440.00 5974.15 83.26 12.00  43.82 2569.12
   06:07:23.248.28-May-2021 3440.00 5970.86 83.26 12.00  44.02 2569.12
   06:07:23.449.28-May-2021 3440.00 5970.86 83.26 12.00  44.22 2569.12
   06:07:23.649.28-May-2021 3440.00 5989.88 83.26 12.00  44.42 2569.12
   06:07:23.849.28-May-2021 3440.00 5998.94 83.26 12.00  44.62 2569.12
   06:07:24.049.28-May-2021 3440.00 6001.32 83.26 12.00  44.82 2569.12
   06:07:24.249.28-May-2021 3440.00 6006.69 83.26 12.00  45.02 2569.12
