~Version Information
 VERS.                  2.0:   CWLS log ASCII Standard -VERSION 2.0
 WRAP.                   NO:   One line per depth step
~Well Information Block
#MNEM.UNIT     VALUE/NAME     DESCRIPTION
#---------     -----------    ---------------------------
 STRT.S             05:48:37 28-May-21: START TIME 05:48:37 28-May-21
 STOP.S             05:55:44 28-May-21: STOP TIME  05:55:44 28-May-21
 STEP.S                   0.00: STEP TIME
 NULL.                 -999.25: NULL VALUE
 UWI .                     N/A:  UNIQUE WELL IDENTIFIER
 API .                     N/A:  API NUMBER
 UNIT.                     N/A:  LOGGING EQUIPMENT ID
 DCON.         Sperry Drilling:  DIRECTNL CONTR
 DOE .                     N/A:  DOE NUMBER
 MWDS.                    Baku:  MWD SHOP
 SRVC.     Turan Drilling and Engineering:  CONTRACTOR
 CTRY.              Azerbaijan:  COUNTRY NAME
 PROV.                    Baku:  PROVINCE
 STAT.                    Baku:  STATE NAME
 REGN.                   EESSA:  REGION
 BASE.              Azerbaijan:  LOGGING EQUIPMENT BASE LOCATION
 WTYP.                Deviated:  WELL TYPE
 RIG .              East Azeri:  RIG NAME
 WELL.                    D02y:  WELL NAME
 FLD .                     ACG:  FIELD NAME
 COMP.     BP Exploration (Caspian Sea) Ltd.:  COMPANY
 PDAT.          Mean Sea Level:  PERMANENT DATUM
 MDS .        Operator Entered:  MAG DATA SOURCE
 SON .        AZ-XX-0906997291:  JOB NUMBER
 FTOP.          Formation Tops:  FORM TOPS DESC
 ILTD.               Lithology:  INTERP LTH DESC
 SVYD.                  Survey:  SURVEY DESC
 DMOD.             Drill Model:  DRILL MOD DESC
 HPTY.       Minimum Curvature:  HOLE POS TYPE
 NREF.                    Grid:  NORTH REFERENCE
 SPUD.               05-May-21:  SPUD DATE
 DATE.      09.27.28 12-Jun-21:  END TIME
 STIM.      09.27.28 12-May-21:  START TIME
 DMF .             Drill Floor:  DRILL MEAS FROM
 DFST.                        :  DIST FSL TEXT
 DFWT.                        :  DIST FWL TEXT
 CNTY.                        :  COUNTY
 LOC .                        :  LOCATION
 LMF .             Drill Floor:  LOG MEASURED FROM
 DEP .m                2806.40:  DEPTH
 AGAP.m                  43.60:  AIR GAP
 VSNS.m                  -4.42:  VERT SEC N/S
 VSEW.m                  -7.31:  VERT SEC E/W
 APD .m                  43.60:  DEPTH ABOVE PD
 WDMS.m                 151.80:  WD ELEV
 EGL .m                   0.00:  GROUND ELEVATION
 EPD .m                   0.00:  ELEVATION
 AZTC.deg                 6.18:  AZM TOTAL CORR
 GRDC.deg                 0.29:  GRID CORRECTION
 MDEC.deg                 6.47:  MAGNETIC DECL
 MDIP.deg                59.50:  MAGNETIC DIP
 MFLD.nT              50350.00:  MAGNETIC FIELD
 GVFD.g                   1.00:  GRAVITY FIELD
 VSDR.deg               179.08:  VERT SEC DIRECT
 TDD .m                4300.00:  TOTAL DEPTH (DRILLER)
 SDEP.m                2800.00:  START DEPTH
 DFSL.m                   0.00:  DISTANCE FSL
 DFWL.m                   0.00:  DISTANCE FWL
 UTMY.m             4431871.34:  UTM Y
 UTMX.m              538762.90:  UTM X
 WHEW.m                  -7.31:  WELL HEAD E/W
 WHNS.m                  -4.42:  WELL HEAD N/S
 LONG.deg                51.45:  LONGITUDE
 LATI.deg                40.02:  LATITUDE
 TVDS.m                  43.60:  TVDSS CORRECTN
 EKB .m                  43.60:  KB ELEVATION
 EDF .m                  43.60:  DF ELEVATION
 TDL .m                 806.00:  TOTAL DEPTH (LOGGER)
 MAGU.                 1851231:  MAGUTM CHECKSUM
 VSC .                       0:  VS TO CLOSURE
~Parameter Information Block
#MNEM.UNIT       Value        Description
#---------     -----------    ---------------------------
 AV  .mps                 1.60:  Ann Velocity 
 AVMX.mps                 2.00:  Max Ann Veloc 
 AZIF.deg               140.24:  Azm, Final 
 BHAT.        Rotary Steerable:  BHA Type 
 BROT.°/30m               0.50:  Build Rotating 
 BS  .in                  8.50:  Bit Size 
 BTPL.psig              619.00:  Bit Press Loss 
 CABU.                     Yes:  Customer Abuse 
 CGEO.          Ilgar Gurbanov:  Customer Geo 
 COMM.                     dAY:  Run Comments 1 
 TCS .hr                 85.88:  Time Ciculation Ended 
 CV  .mps                 3.30:  Crit Velocity 
 CVMX.mps                 3.50:  Max Crit Veloc 
 DD1 .           Hamid Axmedov:  Direct Drillr 1 
 DD2 .           Teymur Aliyev:  Direct Drillr 2 
 DDSV.               Geo-Pilot:  DD Service 
 DEFF.%                 100.00:  % Det Eff 
 DLRX.°/30m               0.00:  Dogleg Rot Max 
 DLSO.°/30m               1.80:  Dogleg Oriented 
 DLSX.°/30m               3.34:  Dogleg Str Max 
 DRET.      11.50.00 27-May-21:  Drill End Time 
 DRST.      21.13.00 24-May-21:  Drill Start Tim 
 DTIM.hr                 45.11:  Time Drilling 
 EDEP.m                4054.00:  End Depth 
 ENG1.         Almaz Almadatov:  Engineer 1 
 ENG2.           Amrah Tahirov:  Engineer 2 
 ENG3.      Bakhtiyar Jabbarli:  Engineer 3 
 ENG4.          Nazrin Asgarli:  Engineer 4 
 ETIM.      10.00.00 30-May-21:  End Time 
 FLOI.gpm               530.00:  Flow In 
 FLON.gpm               400.00:  Flow In Min 
 FLOS.cptm                0.00:  Fluid Loss 
 FLOX.gpm               560.00:  Flow In Max 
 DFT .        Mineral Oil Base:  Mud Type 
 FTRO.       Formation Presure:  FTWD Run Obj 
 HFLO.                      No:  High Flow 
 HPRE.                      No:  High Pressure 
 HTEM.                      No:  High Temp 
 HYDO.m                   1.80:  Hydro Offset 
 IFIN.deg                73.83:  Inc, Final 
 IMAX.deg                73.83:  Inc Max 
 IMIN.deg                57.86:  Inc Min 
 IMND.m                3259.27:  Inc Min Depth 
 IMXD.m                4045.58:  Inc Max Depth 
 JARR.                     Yes:  Jarring 
 LETM.      11.50.00 27-May-21:  Log End Time 
 LOST.hr                     0:  Lost Rig Time 
 LSTM.      21.13.00 24-May-21:  Log Start Time 
 MDCL.ppm             42500.00:  Mud Chlorides 
 MDES.     Inversion Oil/Synthetic:  Mud Desc 
 DFD .sg                  1.52:  Mud Density 
 MDMN.sg                  1.52:  Dens Mud Min 
 MDMX.sg                  1.52:  Dens Mud Max 
 MOIL.                      70:  Run Mud Oil % 
 MOWR.                   70:30:  Run Mud OWR 
 MSND.                     0.2:  Run Mud Sand % 
 MSOL.                      22:  Run Mud Solids% 
 DFV .spqt               77.00:  Mud Viscosity 
 MWOD.in                  6.75:  MWD Tool OD 
 MWSI.                      No:  Serv Intrp, MWD 
 OTIM.hr                151.01:  Time Operating 
 PCON.          Wear / Scratch:  Pad Condition 
 PMAX.psia            11296.93:  Press Op, Max 
 PV  .cP                 37.00:  Mud PV 
 RUN .                     500:  Run Number 
 ROPA.m/hr               25.00:  ROP Avg 
 ROPN.m/hr                9.00:  ROP Min 
 ROPX.m/hr               28.00:  ROP Max 
 RPMA.rpm               140.00:  RPM Surface Avg 
 RPMN.rpm                90.00:  RPM Surface Min 
 RPMX.rpm               140.00:  RPM Surface Max 
 RRUN.                    0500:  Rig Run Number 
 SAZI.deg               172.17:  Azm, Start 
 SDEP.m                3248.00:  Start Depth 
 SIDD.                      No:  Serv Intrp, DD 
 SINC.deg                57.86:  Inc, Start 
 SPPA.psig             5620.00:  SPP Avg 
 SPPN.psig             5190.00:  SPP Min 
 SPPX.psig             6050.00:  SPP Max 
 STIM.      16.00.00 23-May-21:  Start Time 
 SVCS.                 DD, MWD:  Services 
 SVER.                    9.20:  Sperry Version 
 TDAT.m                 806.00:  Tot Depth Attmp 
 TDDF.                      No:  Trip for DD 
 TDLG.m                 806.00:  Tot Depth Loggd 
 TFF .                      No:  Trip for Fail 
 TQAA.f-kp               12.00:  Torque Abs Avg 
 TQAN.f-kp                8.00:  Torque Abs Min 
 TQAX.f-kp               15.00:  Torque Abs Max 
 TRRT.°/30m               0.30:  Turn Rotating 
 MRT .                  EWR-M5:  Maximum Recorded Temperature 
 TTMX.degC               93.00:  Max Tool Temp 
 VS01.                90649155:  Virtual Str1 SN 
 VS02.                90642264:  Virtual Str2 SN 
 VS03.                90642266:  Virtual Str3 SN 
 VS04.                90642261:  Virtual Str4 SN 
 WBMN.klb                 0.00:  WOB Min 
 WITN.             Anar Khalil:  Customer Rep 
 WITN.           Murad Guliyev:  Customer Rep 2 
 WOBA.klb                13.00:  WOB Avg 
 WOBX.klb                25.00:  WOB Max 
 YP  .lhf2               32.00:  Yield Point 
~Curve Information Block
#MNEM.UNIT                 API CODE     Curve Description
#---------               -----------    ---------------------------
 TIME.HHMMSS            00 000 000 000:  GT Time & Date
 GTDEPTH.m              00 000 000 000:  GT Depth
 GTPQH.psia             00 000 000 000:  GT HR Quartz Pressure
 GTTQ.degC              00 000 000 000:  GT Quartz Temperature
 GTTN.NONE              00 000 000 000:  GT Test Number
 GTET.sec               00 000 000 000:  GT Elapsed Test Time
 GTTVD.m                00 000 000 000:  GT True Vertical Depth
#Other Information
#
#WARRANTY: Halliburton will use its best efforts to furnish customers with 
#accurate information and interpretations that are part of, and incident to, the services 
#provided.  However, Halliburton cannot and does not warrant the accuracy 
#or correctness of such information and interpretations.  Under no circumstances should any 
#such information or interpretation be relied upon as the sole basis for any drilling, 
#completion, production, or financial decision or any procedure involving any risk to the 
#safety of any drilling venture, drilling rig or its crew or any other third party.  The 
#Customer has full responsibility for all drilling, completion and production operation.  
#Halliburton makes no representations or warranties, either expressed or 
#implied, including, but not limited to, the implied warranties of merchantability or fitness 
#for a particular purpose, with respect to the services rendered.  In no event will 
#Halliburton be liable for failure to obtain any particular results or for 
#any damages, including, but not limited to, indirect, special or consequential damages, 
#resulting from the use of any information or interpretation provided by Halliburton.
#
~A           TIME           GTDEPTH  GTPQH  GTTQ  GTTN   GTET   GTTVD  
# ...
   05:50:53.435.28-May-2021 3439.00 5143.83 82.94 11.00 135.66 2568.67
   05:50:53.635.28-May-2021 3439.00 5143.80 82.94 11.00 135.86 2568.67
   05:50:53.835.28-May-2021 3439.00 5144.14 82.94 11.00 136.06 2568.67
   05:50:54.035.28-May-2021 3439.00 5144.14 82.94 11.00 136.26 2568.67
   05:50:54.235.28-May-2021 3439.00 5144.11 82.94 11.00 136.46 2568.67
   05:50:54.435.28-May-2021 3439.00 5144.06 82.94 11.00 136.66 2568.67
   05:50:54.635.28-May-2021 3439.00 5143.39 82.94 11.00 136.86 2568.67
   05:50:54.835.28-May-2021 3439.00 5143.03 82.94 11.00 137.06 2568.67
   05:50:55.035.28-May-2021 3439.00 5143.03 82.94 11.00 137.26 2568.67
   05:50:55.235.28-May-2021 3439.00 5144.39 82.94 11.00 137.46 2568.67
   05:50:55.436.28-May-2021 3439.00 5144.70 82.94 11.00 137.66 2568.67
   05:50:55.636.28-May-2021 3439.00 5144.66 82.94 11.00 137.86 2568.67
   05:50:55.836.28-May-2021 3439.00 5144.77 82.94 11.00 138.06 2568.67
   05:50:56.036.28-May-2021 3439.00 5144.77 82.94 11.00 138.26 2568.67
   05:50:56.236.28-May-2021 3439.00 5144.92 82.94 11.00 138.46 2568.67
   05:50:56.436.28-May-2021 3439.00 5145.01 82.94 11.00 138.66 2568.67
   05:50:56.636.28-May-2021 3439.00 5145.06 82.94 11.00 138.86 2568.67
   05:50:56.836.28-May-2021 3439.00 5145.19 82.94 11.00 139.06 2568.67
   05:50:57.036.28-May-2021 3439.00 5145.19 82.94 11.00 139.26 2568.67
   05:50:57.236.28-May-2021 3439.00 5142.66 82.94 11.00 139.46 2568.67
   05:50:57.436.28-May-2021 3439.00 5145.70 82.94 11.00 139.66 2568.67
   05:50:57.636.28-May-2021 3439.00 5145.43 82.94 11.00 139.86 2568.67
   05:50:57.837.28-May-2021 3439.00 5145.56 82.94 11.00 140.06 2568.67
   05:50:58.037.28-May-2021 3439.00 5145.56 82.94 11.00 140.26 2568.67
   05:50:58.237.28-May-2021 3439.00 5145.67 82.94 11.00 140.46 2568.67
   05:50:58.437.28-May-2021 3439.00 5145.73 82.94 11.00 140.66 2568.67
   05:50:58.637.28-May-2021 3439.00 5145.82 82.94 11.00 140.86 2568.67
   05:50:58.837.28-May-2021 3439.00 5145.90 82.94 11.00 141.06 2568.67
   05:50:59.037.28-May-2021 3439.00 5145.90 82.94 11.00 141.26 2568.67
   05:50:59.237.28-May-2021 3439.00 5146.05 82.94 11.00 141.46 2568.67
   05:50:59.437.28-May-2021 3439.00 5146.11 82.94 11.00 141.66 2568.67
   05:50:59.637.28-May-2021 3439.00 5146.15 82.94 11.00 141.86 2568.67
   05:50:59.837.28-May-2021 3439.00 5146.26 82.94 11.00 142.06 2568.67
   05:51:00.037.28-May-2021 3439.00 5146.26 82.94 11.00 142.26 2568.67
   05:51:00.238.28-May-2021 3439.00 5146.40 82.94 11.00 142.46 2568.67
   05:51:00.438.28-May-2021 3439.00 5146.38 82.94 11.00 142.66 2568.67
   05:51:00.638.28-May-2021 3439.00 5144.24 82.94 11.00 142.86 2568.67
   05:51:00.838.28-May-2021 3439.00 5146.54 82.94 11.00 143.06 2568.67
   05:51:01.038.28-May-2021 3439.00 5146.54 82.94 11.00 143.26 2568.67
   05:51:01.238.28-May-2021 3439.00 5146.76 82.94 11.00 143.46 2568.67
   05:51:01.438.28-May-2021 3439.00 5144.10 82.94 11.00 143.66 2568.67
   05:51:01.638.28-May-2021 3439.00 5147.13 82.94 11.00 143.86 2568.67
   05:51:01.838.28-May-2021 3439.00 5146.85 82.94 11.00 144.06 2568.67
   05:51:02.038.28-May-2021 3439.00 5146.85 82.94 11.00 144.26 2568.67
   05:51:02.238.28-May-2021 3439.00 5145.17 82.94 11.00 144.46 2568.67
   05:51:02.438.28-May-2021 3439.00 5146.61 82.94 11.00 144.66 2568.67
   05:51:02.639.28-May-2021 3439.00 5147.17 82.94 11.00 144.86 2568.67
   05:51:02.839.28-May-2021 3439.00 5147.27 82.94 11.00 145.06 2568.67
   05:51:03.039.28-May-2021 3439.00 5147.27 82.94 11.00 145.26 2568.67
   05:51:03.239.28-May-2021 3439.00 5147.40 82.94 11.00 145.46 2568.67
   05:51:03.439.28-May-2021 3439.00 5147.55 82.94 11.00 145.66 2568.67
   05:51:03.639.28-May-2021 3439.00 5147.56 82.94 11.00 145.86 2568.67
   05:51:03.839.28-May-2021 3439.00 5147.69 82.94 11.00 146.06 2568.67
   05:51:04.039.28-May-2021 3439.00 5147.69 82.94 11.00 146.26 2568.67
   05:51:04.239.28-May-2021 3439.00 5147.83 82.94 11.00 146.46 2568.67
   05:51:04.439.28-May-2021 3439.00 5147.88 82.94 11.00 146.66 2568.67
   05:51:04.639.28-May-2021 3439.00 5147.96 82.94 11.00 146.86 2568.67
   05:51:04.840.28-May-2021 3439.00 5145.64 82.94 11.00 147.06 2568.67
   05:51:05.040.28-May-2021 3439.00 5145.64 82.94 11.00 147.26 2568.67
   05:51:05.240.28-May-2021 3439.00 5148.11 82.94 11.00 147.46 2568.67
   05:51:05.440.28-May-2021 3439.00 5148.30 82.94 11.00 147.66 2568.67
   05:51:05.640.28-May-2021 3439.00 5148.27 82.94 11.00 147.86 2568.67
   05:51:05.840.28-May-2021 3439.00 5148.37 82.94 11.00 148.06 2568.67
   05:51:06.040.28-May-2021 3439.00 5148.37 82.94 11.00 148.26 2568.67
   05:51:06.240.28-May-2021 3439.00 5148.53 82.94 11.00 148.46 2568.67
   05:51:06.440.28-May-2021 3439.00 5148.61 82.94 11.00 148.66 2568.67
   05:51:06.640.28-May-2021 3439.00 5148.68 82.94 11.00 148.86 2568.67
   05:51:06.840.28-May-2021 3439.00 5148.75 82.94 11.00 149.06 2568.67
   05:51:07.040.28-May-2021 3439.00 5148.75 82.94 11.00 149.26 2568.67
   05:51:07.241.28-May-2021 3439.00 5148.88 82.94 11.00 149.46 2568.67
   05:51:07.441.28-May-2021 3439.00 5148.93 82.94 11.00 149.66 2568.67
   05:51:07.641.28-May-2021 3439.00 5146.73 82.94 11.00 149.86 2568.67
   05:51:07.841.28-May-2021 3439.00 5148.99 82.94 11.00 150.06 2568.67
   05:51:08.041.28-May-2021 3439.00 5148.99 82.94 11.00 150.26 2568.67
   05:51:08.241.28-May-2021 3439.00 5146.92 82.94 11.00 150.46 2568.67
   05:51:08.441.28-May-2021 3439.00 5149.25 82.94 11.00 150.66 2568.67
   05:51:08.641.28-May-2021 3439.00 5149.23 82.94 11.00 150.86 2568.67
   05:51:08.841.28-May-2021 3439.00 5149.42 82.94 11.00 151.06 2568.67
   05:51:09.041.28-May-2021 3439.00 5149.42 82.94 11.00 151.26 2568.67
   05:51:09.241.28-May-2021 3439.00 5149.79 82.94 11.00 151.46 2568.67
   05:51:09.441.28-May-2021 3439.00 5149.51 82.94 11.00 151.66 2568.67
   05:51:09.642.28-May-2021 3439.00 5148.68 82.94 11.00 151.86 2568.67
   05:51:09.842.28-May-2021 3439.00 5148.34 82.94 11.00 152.06 2568.67
   05:51:10.042.28-May-2021 3439.00 5148.34 82.94 11.00 152.26 2568.67
   05:51:10.242.28-May-2021 3439.00 5149.70 82.94 11.00 152.46 2568.67
   05:51:10.442.28-May-2021 3439.00 5150.03 82.94 11.00 152.66 2568.67
   05:51:10.642.28-May-2021 3439.00 5149.96 82.94 11.00 152.86 2568.67
   05:51:10.842.28-May-2021 3439.00 5150.08 82.94 11.00 153.06 2568.67
   05:51:11.042.28-May-2021 3439.00 5150.08 82.94 11.00 153.26 2568.67
   05:51:11.242.28-May-2021 3439.00 5150.18 82.94 11.00 153.46 2568.67
   05:51:11.442.28-May-2021 3439.00 5150.28 82.94 11.00 153.66 2568.67
   05:51:11.642.28-May-2021 3439.00 5150.35 82.94 11.00 153.86 2568.67
   05:51:11.842.28-May-2021 3439.00 5150.44 82.94 11.00 154.06 2568.67
   05:51:12.043.28-May-2021 3439.00 5150.44 82.94 11.00 154.26 2568.67
   05:51:12.243.28-May-2021 3439.00 5147.91 82.94 11.00 154.46 2568.67
   05:51:12.443.28-May-2021 3439.00 5150.93 82.94 11.00 154.66 2568.67
   05:51:12.643.28-May-2021 3439.00 5150.65 82.94 11.00 154.86 2568.67
   05:51:12.843.28-May-2021 3439.00 5150.82 82.94 11.00 155.06 2568.67
   05:51:13.043.28-May-2021 3439.00 5150.82 82.94 11.00 155.26 2568.67
   05:51:13.243.28-May-2021 3439.00 5150.89 82.94 11.00 155.46 2568.67
   05:51:13.443.28-May-2021 3439.00 5150.99 82.94 11.00 155.67 2568.67
   05:51:13.643.28-May-2021 3439.00 5151.04 82.94 11.00 155.87 2568.67
   05:51:13.843.28-May-2021 3439.00 5151.12 82.94 11.00 156.07 2568.67
   05:51:14.043.28-May-2021 3439.00 5151.12 82.94 11.00 156.27 2568.67
   05:51:14.243.28-May-2021 3439.00 5151.25 82.94 11.00 156.47 2568.67
   05:51:14.444.28-May-2021 3439.00 5151.33 82.94 11.00 156.67 2568.67
   05:51:14.644.28-May-2021 3439.00 5151.36 82.94 11.00 156.87 2568.67
   05:51:14.844.28-May-2021 3439.00 5151.41 82.94 11.00 157.07 2568.67
   05:51:15.044.28-May-2021 3439.00 5151.41 82.94 11.00 157.27 2568.67
   05:51:15.244.28-May-2021 3439.00 4173.30 82.94 11.00 157.47 2568.67
   05:51:15.444.28-May-2021 3439.00 4905.52 82.94 11.00 157.67 2568.67
   05:51:15.644.28-May-2021 3439.00 4697.14 82.94 11.00 157.87 2568.67
   05:51:15.844.28-May-2021 3439.00 4266.14 82.94 11.00 158.07 2568.67
