~Version Information
 VERS.                  2.0:   CWLS log ASCII Standard -VERSION 2.0
 WRAP.                   NO:   One line per depth step
~Well Information Block
#MNEM.UNIT     VALUE/NAME     DESCRIPTION
#---------     -----------    ---------------------------
 STRT.S             23:03:24 27-May-21: START TIME 23:03:24 27-May-21
 STOP.S             23:10:28 27-May-21: STOP TIME  23:10:28 27-May-21
 STEP.S                   0.00: STEP TIME
 NULL.                 -999.25: NULL VALUE
 UWI .                     N/A:  UNIQUE WELL IDENTIFIER
 API .                     N/A:  API NUMBER
 UNIT.                     N/A:  LOGGING EQUIPMENT ID
 DCON.         Sperry Drilling:  DIRECTNL CONTR
 DOE .                     N/A:  DOE NUMBER
 MWDS.                    Baku:  MWD SHOP
 SRVC.     Turan Drilling and Engineering:  CONTRACTOR
 CTRY.              Azerbaijan:  COUNTRY NAME
 PROV.                    Baku:  PROVINCE
 STAT.                    Baku:  STATE NAME
 REGN.                   EESSA:  REGION
 BASE.              Azerbaijan:  LOGGING EQUIPMENT BASE LOCATION
 WTYP.                Deviated:  WELL TYPE
 RIG .              East Azeri:  RIG NAME
 WELL.                    D02y:  WELL NAME
 FLD .                     ACG:  FIELD NAME
 COMP.     BP Exploration (Caspian Sea) Ltd.:  COMPANY
 PDAT.          Mean Sea Level:  PERMANENT DATUM
 MDS .        Operator Entered:  MAG DATA SOURCE
 SON .        AZ-XX-0906997291:  JOB NUMBER
 FTOP.          Formation Tops:  FORM TOPS DESC
 ILTD.               Lithology:  INTERP LTH DESC
 SVYD.                  Survey:  SURVEY DESC
 DMOD.             Drill Model:  DRILL MOD DESC
 HPTY.       Minimum Curvature:  HOLE POS TYPE
 NREF.                    Grid:  NORTH REFERENCE
 SPUD.               05-May-21:  SPUD DATE
 DATE.      09.27.28 12-Jun-21:  END TIME
 STIM.      09.27.28 12-May-21:  START TIME
 DMF .             Drill Floor:  DRILL MEAS FROM
 DFST.                        :  DIST FSL TEXT
 DFWT.                        :  DIST FWL TEXT
 CNTY.                        :  COUNTY
 LOC .                        :  LOCATION
 LMF .             Drill Floor:  LOG MEASURED FROM
 DEP .m                2806.40:  DEPTH
 AGAP.m                  43.60:  AIR GAP
 VSNS.m                  -4.42:  VERT SEC N/S
 VSEW.m                  -7.31:  VERT SEC E/W
 APD .m                  43.60:  DEPTH ABOVE PD
 WDMS.m                 151.80:  WD ELEV
 EGL .m                   0.00:  GROUND ELEVATION
 EPD .m                   0.00:  ELEVATION
 AZTC.deg                 6.18:  AZM TOTAL CORR
 GRDC.deg                 0.29:  GRID CORRECTION
 MDEC.deg                 6.47:  MAGNETIC DECL
 MDIP.deg                59.50:  MAGNETIC DIP
 MFLD.nT              50350.00:  MAGNETIC FIELD
 GVFD.g                   1.00:  GRAVITY FIELD
 VSDR.deg               179.08:  VERT SEC DIRECT
 TDD .m                4300.00:  TOTAL DEPTH (DRILLER)
 SDEP.m                2800.00:  START DEPTH
 DFSL.m                   0.00:  DISTANCE FSL
 DFWL.m                   0.00:  DISTANCE FWL
 UTMY.m             4431871.34:  UTM Y
 UTMX.m              538762.90:  UTM X
 WHEW.m                  -7.31:  WELL HEAD E/W
 WHNS.m                  -4.42:  WELL HEAD N/S
 LONG.deg                51.45:  LONGITUDE
 LATI.deg                40.02:  LATITUDE
 TVDS.m                  43.60:  TVDSS CORRECTN
 EKB .m                  43.60:  KB ELEVATION
 EDF .m                  43.60:  DF ELEVATION
 TDL .m                 806.00:  TOTAL DEPTH (LOGGER)
 MAGU.                 1851231:  MAGUTM CHECKSUM
 VSC .                       0:  VS TO CLOSURE
~Parameter Information Block
#MNEM.UNIT       Value        Description
#---------     -----------    ---------------------------
 AV  .mps                 1.60:  Ann Velocity 
 AVMX.mps                 2.00:  Max Ann Veloc 
 AZIF.deg               140.24:  Azm, Final 
 BHAT.        Rotary Steerable:  BHA Type 
 BROT.°/30m               0.50:  Build Rotating 
 BS  .in                  8.50:  Bit Size 
 BTPL.psig              619.00:  Bit Press Loss 
 CABU.                     Yes:  Customer Abuse 
 CGEO.          Ilgar Gurbanov:  Customer Geo 
 COMM.                     |¡U:  Run Comments 1 
 TCS .hr                 85.88:  Time Ciculation Ended 
 CV  .mps                 3.30:  Crit Velocity 
 CVMX.mps                 3.50:  Max Crit Veloc 
 DD1 .           Hamid Axmedov:  Direct Drillr 1 
 DD2 .           Teymur Aliyev:  Direct Drillr 2 
 DDSV.               Geo-Pilot:  DD Service 
 DEFF.%                 100.00:  % Det Eff 
 DLRX.°/30m               0.00:  Dogleg Rot Max 
 DLSO.°/30m               1.80:  Dogleg Oriented 
 DLSX.°/30m               3.34:  Dogleg Str Max 
 DRET.      11.50.00 27-May-21:  Drill End Time 
 DRST.      21.13.00 24-May-21:  Drill Start Tim 
 DTIM.hr                 45.11:  Time Drilling 
 EDEP.m                4054.00:  End Depth 
 ENG1.         Almaz Almadatov:  Engineer 1 
 ENG2.           Amrah Tahirov:  Engineer 2 
 ENG3.      Bakhtiyar Jabbarli:  Engineer 3 
 ENG4.          Nazrin Asgarli:  Engineer 4 
 ETIM.      10.00.00 30-May-21:  End Time 
 FLOI.gpm               530.00:  Flow In 
 FLON.gpm               400.00:  Flow In Min 
 FLOS.cptm                0.00:  Fluid Loss 
 FLOX.gpm               560.00:  Flow In Max 
 DFT .        Mineral Oil Base:  Mud Type 
 FTRO.       Formation Presure:  FTWD Run Obj 
 HFLO.                      No:  High Flow 
 HPRE.                      No:  High Pressure 
 HTEM.                      No:  High Temp 
 HYDO.m                   1.80:  Hydro Offset 
 IFIN.deg                73.83:  Inc, Final 
 IMAX.deg                73.83:  Inc Max 
 IMIN.deg                57.86:  Inc Min 
 IMND.m                3259.27:  Inc Min Depth 
 IMXD.m                4045.58:  Inc Max Depth 
 JARR.                     Yes:  Jarring 
 LETM.      11.50.00 27-May-21:  Log End Time 
 LOST.hr                     0:  Lost Rig Time 
 LSTM.      21.13.00 24-May-21:  Log Start Time 
 MDCL.ppm             42500.00:  Mud Chlorides 
 MDES.     Inversion Oil/Synthetic:  Mud Desc 
 DFD .sg                  1.52:  Mud Density 
 MDMN.sg                  1.52:  Dens Mud Min 
 MDMX.sg                  1.52:  Dens Mud Max 
 MOIL.                      70:  Run Mud Oil % 
 MOWR.                   70:30:  Run Mud OWR 
 MSND.                     0.2:  Run Mud Sand % 
 MSOL.                      22:  Run Mud Solids% 
 DFV .spqt               77.00:  Mud Viscosity 
 MWOD.in                  6.75:  MWD Tool OD 
 MWSI.                      No:  Serv Intrp, MWD 
 OTIM.hr                151.01:  Time Operating 
 PCON.          Wear / Scratch:  Pad Condition 
 PMAX.psia            11296.93:  Press Op, Max 
 PV  .cP                 37.00:  Mud PV 
 RUN .                     500:  Run Number 
 ROPA.m/hr               25.00:  ROP Avg 
 ROPN.m/hr                9.00:  ROP Min 
 ROPX.m/hr               28.00:  ROP Max 
 RPMA.rpm               140.00:  RPM Surface Avg 
 RPMN.rpm                90.00:  RPM Surface Min 
 RPMX.rpm               140.00:  RPM Surface Max 
 RRUN.                    0500:  Rig Run Number 
 SAZI.deg               172.17:  Azm, Start 
 SDEP.m                3248.00:  Start Depth 
 SIDD.                      No:  Serv Intrp, DD 
 SINC.deg                57.86:  Inc, Start 
 SPPA.psig             5620.00:  SPP Avg 
 SPPN.psig             5190.00:  SPP Min 
 SPPX.psig             6050.00:  SPP Max 
 STIM.      16.00.00 23-May-21:  Start Time 
 SVCS.                 DD, MWD:  Services 
 SVER.                    9.20:  Sperry Version 
 TDAT.m                 806.00:  Tot Depth Attmp 
 TDDF.                      No:  Trip for DD 
 TDLG.m                 806.00:  Tot Depth Loggd 
 TFF .                      No:  Trip for Fail 
 TQAA.f-kp               12.00:  Torque Abs Avg 
 TQAN.f-kp                8.00:  Torque Abs Min 
 TQAX.f-kp               15.00:  Torque Abs Max 
 TRRT.°/30m               0.30:  Turn Rotating 
 MRT .                  EWR-M5:  Maximum Recorded Temperature 
 TTMX.degC               93.00:  Max Tool Temp 
 VS01.                90649155:  Virtual Str1 SN 
 VS02.                90642264:  Virtual Str2 SN 
 VS03.                90642266:  Virtual Str3 SN 
 VS04.                90642261:  Virtual Str4 SN 
 WBMN.klb                 0.00:  WOB Min 
 WITN.             Anar Khalil:  Customer Rep 
 WITN.           Murad Guliyev:  Customer Rep 2 
 WOBA.klb                13.00:  WOB Avg 
 WOBX.klb                25.00:  WOB Max 
 YP  .lhf2               32.00:  Yield Point 
~Curve Information Block
#MNEM.UNIT                 API CODE     Curve Description
#---------               -----------    ---------------------------
 TIME.HHMMSS            00 000 000 000:  GT Time & Date
 GTDEPTH.m              00 000 000 000:  GT Depth
 GTPQH.psia             00 000 000 000:  GT HR Quartz Pressure
 GTTQ.degC              00 000 000 000:  GT Quartz Temperature
 GTTN.NONE              00 000 000 000:  GT Test Number
 GTET.sec               00 000 000 000:  GT Elapsed Test Time
 GTTVD.m                00 000 000 000:  GT True Vertical Depth
#Other Information
#
#WARRANTY: Halliburton will use its best efforts to furnish customers with 
#accurate information and interpretations that are part of, and incident to, the services 
#provided.  However, Halliburton cannot and does not warrant the accuracy 
#or correctness of such information and interpretations.  Under no circumstances should any 
#such information or interpretation be relied upon as the sole basis for any drilling, 
#completion, production, or financial decision or any procedure involving any risk to the 
#safety of any drilling venture, drilling rig or its crew or any other third party.  The 
#Customer has full responsibility for all drilling, completion and production operation.  
#Halliburton makes no representations or warranties, either expressed or 
#implied, including, but not limited to, the implied warranties of merchantability or fitness 
#for a particular purpose, with respect to the services rendered.  In no event will 
#Halliburton be liable for failure to obtain any particular results or for 
#any damages, including, but not limited to, indirect, special or consequential damages, 
#resulting from the use of any information or interpretation provided by Halliburton.
#
~A           TIME           GTDEPTH  GTPQH  GTTQ  GTTN  GTET   GTTVD  
# ...
   23:05:19.308.27-May-2021 3710.50 3139.70 84.61 2.00 115.05 2675.83
   23:05:19.509.27-May-2021 3710.50 3139.70 84.61 2.00 115.25 2675.83
   23:05:19.709.27-May-2021 3710.50 3139.70 84.61 2.00 115.45 2675.83
   23:05:19.909.27-May-2021 3710.50 3139.71 84.61 2.00 115.65 2675.83
   23:05:20.109.27-May-2021 3710.50 3139.72 84.61 2.00 115.85 2675.83
   23:05:20.309.27-May-2021 3710.50 3139.72 84.61 2.00 116.05 2675.83
   23:05:20.509.27-May-2021 3710.50 3139.72 84.61 2.00 116.25 2675.83
   23:05:20.709.27-May-2021 3710.50 3139.74 84.61 2.00 116.45 2675.83
   23:05:20.909.27-May-2021 3710.50 3139.74 84.61 2.00 116.65 2675.83
   23:05:21.109.27-May-2021 3710.50 3139.75 84.61 2.00 116.85 2675.83
   23:05:21.309.27-May-2021 3710.50 3139.65 84.61 2.00 117.05 2675.83
   23:05:21.509.27-May-2021 3710.50 3139.65 84.61 2.00 117.25 2675.83
   23:05:21.709.27-May-2021 3710.50 3139.69 84.61 2.00 117.45 2675.83
   23:05:21.909.27-May-2021 3710.50 3139.71 84.61 2.00 117.65 2675.83
   23:05:22.110.27-May-2021 3710.50 3139.71 84.61 2.00 117.85 2675.83
   23:05:22.310.27-May-2021 3710.50 3139.71 84.61 2.00 118.05 2675.83
   23:05:22.510.27-May-2021 3710.50 3139.71 84.61 2.00 118.25 2675.83
   23:05:22.710.27-May-2021 3710.50 3139.72 84.61 2.00 118.45 2675.83
   23:05:22.910.27-May-2021 3710.50 3139.74 84.61 2.00 118.65 2675.83
   23:05:23.110.27-May-2021 3710.50 3139.75 84.61 2.00 118.85 2675.83
   23:05:23.310.27-May-2021 3710.50 3139.75 84.61 2.00 119.05 2675.83
   23:05:23.510.27-May-2021 3710.50 3139.75 84.61 2.00 119.25 2675.83
   23:05:23.710.27-May-2021 3710.50 3139.76 84.61 2.00 119.45 2675.83
   23:05:23.910.27-May-2021 3710.50 3139.67 84.61 2.00 119.65 2675.83
   23:05:24.110.27-May-2021 3710.50 3139.77 84.61 2.00 119.85 2675.83
   23:05:24.310.27-May-2021 3710.50 3139.70 84.61 2.00 120.05 2675.83
   23:05:24.510.27-May-2021 3710.50 3139.70 84.61 2.00 120.25 2675.83
   23:05:24.711.27-May-2021 3710.50 3139.77 84.61 2.00 120.45 2675.83
   23:05:24.911.27-May-2021 3710.50 3139.69 84.61 2.00 120.65 2675.83
   23:05:25.111.27-May-2021 3710.50 3139.70 84.61 2.00 120.85 2675.83
   23:05:25.311.27-May-2021 3710.50 3139.71 84.61 2.00 121.05 2675.83
   23:05:25.511.27-May-2021 3710.50 3139.71 84.61 2.00 121.25 2675.83
   23:05:25.711.27-May-2021 3710.50 3139.76 84.61 2.00 121.45 2675.83
   23:05:25.911.27-May-2021 3710.50 3139.70 84.61 2.00 121.65 2675.83
   23:05:26.111.27-May-2021 3710.50 3139.70 84.61 2.00 121.85 2675.83
   23:05:26.311.27-May-2021 3710.50 3139.70 84.61 2.00 122.05 2675.83
   23:05:26.511.27-May-2021 3710.50 3139.70 84.61 2.00 122.25 2675.83
   23:05:26.711.27-May-2021 3710.50 3139.70 84.61 2.00 122.45 2675.83
   23:05:26.911.27-May-2021 3710.50 3139.70 84.61 2.00 122.65 2675.83
   23:05:27.111.27-May-2021 3710.50 3139.69 84.61 2.00 122.85 2675.83
   23:05:27.312.27-May-2021 3710.50 3139.70 84.61 2.00 123.05 2675.83
   23:05:27.512.27-May-2021 3710.50 3139.70 84.61 2.00 123.25 2675.83
   23:05:27.712.27-May-2021 3710.50 3139.71 84.61 2.00 123.45 2675.83
   23:05:27.912.27-May-2021 3710.50 3139.72 84.61 2.00 123.65 2675.83
   23:05:28.112.27-May-2021 3710.50 3139.72 84.61 2.00 123.85 2675.83
   23:05:28.312.27-May-2021 3710.50 3139.74 84.61 2.00 124.05 2675.83
   23:05:28.512.27-May-2021 3710.50 3139.74 84.61 2.00 124.25 2675.83
   23:05:28.712.27-May-2021 3710.50 3139.74 84.61 2.00 124.45 2675.83
   23:05:28.912.27-May-2021 3710.50 3139.74 84.61 2.00 124.65 2675.83
   23:05:29.112.27-May-2021 3710.50 3139.72 84.61 2.00 124.85 2675.83
   23:05:29.312.27-May-2021 3710.50 3139.73 84.61 2.00 125.05 2675.83
   23:05:29.512.27-May-2021 3710.50 3139.73 84.61 2.00 125.25 2675.83
   23:05:29.712.27-May-2021 3710.50 3139.70 84.61 2.00 125.45 2675.83
   23:05:29.913.27-May-2021 3710.50 3139.73 84.61 2.00 125.65 2675.83
   23:05:30.113.27-May-2021 3710.50 3139.71 84.61 2.00 125.85 2675.83
   23:05:30.313.27-May-2021 3710.50 3139.73 84.61 2.00 126.05 2675.83
   23:05:30.513.27-May-2021 3710.50 3139.73 84.61 2.00 126.25 2675.83
   23:05:30.713.27-May-2021 3710.50 3139.73 84.61 2.00 126.45 2675.83
   23:05:30.913.27-May-2021 3710.50 3139.74 84.61 2.00 126.65 2675.83
   23:05:31.113.27-May-2021 3710.50 3139.74 84.61 2.00 126.85 2675.83
   23:05:31.313.27-May-2021 3710.50 3139.75 84.61 2.00 127.05 2675.83
   23:05:31.513.27-May-2021 3710.50 3139.75 84.61 2.00 127.25 2675.83
   23:05:31.713.27-May-2021 3710.50 3139.74 84.61 2.00 127.45 2675.83
   23:05:31.913.27-May-2021 3710.50 3139.73 84.61 2.00 127.65 2675.83
   23:05:32.113.27-May-2021 3710.50 3139.73 84.61 2.00 127.85 2675.83
   23:05:32.314.27-May-2021 3710.50 3139.71 84.61 2.00 128.05 2675.83
   23:05:32.514.27-May-2021 3710.50 3139.71 84.61 2.00 128.25 2675.83
   23:05:32.714.27-May-2021 3710.50 3139.64 84.61 2.00 128.45 2675.83
   23:05:32.914.27-May-2021 3710.50 3139.71 84.61 2.00 128.65 2675.83
   23:05:33.114.27-May-2021 3710.50 3139.70 84.61 2.00 128.85 2675.83
   23:05:33.314.27-May-2021 3710.50 3139.69 84.61 2.00 129.05 2675.83
   23:05:33.514.27-May-2021 3710.50 3139.69 84.61 2.00 129.25 2675.83
   23:05:33.714.27-May-2021 3710.50 3139.72 84.61 2.00 129.45 2675.83
   23:05:33.914.27-May-2021 3710.50 3139.70 84.61 2.00 129.65 2675.83
   23:05:34.114.27-May-2021 3710.50 3139.72 84.61 2.00 129.85 2675.83
   23:05:34.314.27-May-2021 3710.50 3139.71 84.61 2.00 130.05 2675.83
   23:05:34.514.27-May-2021 3710.50 3139.71 84.61 2.00 130.25 2675.83
   23:05:34.714.27-May-2021 3710.50 3139.80 84.61 2.00 130.45 2675.83
   23:05:34.915.27-May-2021 3710.50 3139.69 84.61 2.00 130.65 2675.83
   23:05:35.115.27-May-2021 3710.50 3139.72 84.61 2.00 130.85 2675.83
   23:05:35.315.27-May-2021 3710.50 3139.71 84.61 2.00 131.05 2675.83
   23:05:35.515.27-May-2021 3710.50 3139.71 84.61 2.00 131.25 2675.83
   23:05:35.715.27-May-2021 3710.50 3139.72 84.61 2.00 131.45 2675.83
   23:05:35.915.27-May-2021 3710.50 3139.72 84.61 2.00 131.65 2675.83
   23:05:36.115.27-May-2021 3710.50 3139.72 84.61 2.00 131.85 2675.83
   23:05:36.315.27-May-2021 3710.50 3139.73 84.61 2.00 132.05 2675.83
   23:05:36.515.27-May-2021 3710.50 3139.73 84.61 2.00 132.25 2675.83
   23:05:36.715.27-May-2021 3710.50 3139.74 84.61 2.00 132.45 2675.83
   23:05:36.915.27-May-2021 3710.50 3139.74 84.61 2.00 132.65 2675.83
   23:05:37.115.27-May-2021 3710.50 3139.64 84.61 2.00 132.85 2675.83
   23:05:37.315.27-May-2021 3710.50 3139.79 84.61 2.00 133.05 2675.83
   23:05:37.516.27-May-2021 3710.50 3139.79 84.61 2.00 133.25 2675.83
   23:05:37.716.27-May-2021 3710.50 3139.72 84.61 2.00 133.45 2675.83
   23:05:37.916.27-May-2021 3710.50 3139.71 84.61 2.00 133.65 2675.83
   23:05:38.116.27-May-2021 3710.50 3139.72 84.61 2.00 133.85 2675.83
   23:05:38.316.27-May-2021 3710.50 3139.72 84.61 2.00 134.05 2675.83
   23:05:38.516.27-May-2021 3710.50 3139.72 84.61 2.00 134.25 2675.83
   23:05:38.716.27-May-2021 3710.50 3139.73 84.61 2.00 134.45 2675.83
   23:05:38.916.27-May-2021 3710.50 3139.74 84.61 2.00 134.65 2675.83
   23:05:39.116.27-May-2021 3710.50 3139.74 84.61 2.00 134.85 2675.83
   23:05:39.316.27-May-2021 3710.50 3139.76 84.61 2.00 135.05 2675.83
   23:05:39.516.27-May-2021 3710.50 3139.76 84.61 2.00 135.25 2675.83
   23:05:39.716.27-May-2021 3710.50 3139.65 84.61 2.00 135.45 2675.83
   23:05:39.916.27-May-2021 3710.50 3139.81 84.61 2.00 135.65 2675.83
   23:05:40.117.27-May-2021 3710.50 3139.72 84.61 2.00 135.85 2675.83
   23:05:40.317.27-May-2021 3710.50 3139.59 84.61 2.00 136.05 2675.83
   23:05:40.517.27-May-2021 3710.50 3139.59 84.61 2.00 136.25 2675.83
   23:05:40.717.27-May-2021 3710.50 3139.70 84.61 2.00 136.45 2675.83
   23:05:40.917.27-May-2021 3710.50 3139.70 84.61 2.00 136.65 2675.83
   23:05:41.117.27-May-2021 3710.50 3139.71 84.61 2.00 136.85 2675.83
   23:05:41.317.27-May-2021 3710.50 3139.61 84.61 2.00 137.05 2675.83
   23:05:41.517.27-May-2021 3710.50 3139.61 84.61 2.00 137.25 2675.83
   23:05:41.717.27-May-2021 3710.50 3139.71 84.61 2.00 137.45 2675.83
   23:05:41.917.27-May-2021 3710.50 3139.71 84.61 2.00 137.65 2675.83
   23:05:42.117.27-May-2021 3710.50 3139.70 84.61 2.00 137.85 2675.83
