~Version Information
 VERS.                  2.0:   CWLS log ASCII Standard -VERSION 2.0
 WRAP.                   NO:   One line per depth step
~Well Information Block
#MNEM.UNIT     VALUE/NAME     DESCRIPTION
#---------     -----------    ---------------------------
 STRT.S             05:48:37 28-May-21: START TIME 05:48:37 28-May-21
 STOP.S             05:55:44 28-May-21: STOP TIME  05:55:44 28-May-21
 STEP.S                   0.00: STEP TIME
 NULL.                 -999.25: NULL VALUE
 UWI .                     N/A:  UNIQUE WELL IDENTIFIER
 API .                     N/A:  API NUMBER
 UNIT.                     N/A:  LOGGING EQUIPMENT ID
 DCON.         Sperry Drilling:  DIRECTNL CONTR
 DOE .                     N/A:  DOE NUMBER
 MWDS.                    Baku:  MWD SHOP
 SRVC.     Turan Drilling and Engineering:  CONTRACTOR
 CTRY.              Azerbaijan:  COUNTRY NAME
 PROV.                    Baku:  PROVINCE
 STAT.                    Baku:  STATE NAME
 REGN.                   EESSA:  REGION
 BASE.              Azerbaijan:  LOGGING EQUIPMENT BASE LOCATION
 WTYP.                Deviated:  WELL TYPE
 RIG .              East Azeri:  RIG NAME
 WELL.                    D02y:  WELL NAME
 FLD .                     ACG:  FIELD NAME
 COMP.     BP Exploration (Caspian Sea) Ltd.:  COMPANY
 PDAT.          Mean Sea Level:  PERMANENT DATUM
 MDS .        Operator Entered:  MAG DATA SOURCE
 SON .        AZ-XX-0906997291:  JOB NUMBER
 FTOP.          Formation Tops:  FORM TOPS DESC
 ILTD.               Lithology:  INTERP LTH DESC
 SVYD.                  Survey:  SURVEY DESC
 DMOD.             Drill Model:  DRILL MOD DESC
 HPTY.       Minimum Curvature:  HOLE POS TYPE
 NREF.                    Grid:  NORTH REFERENCE
 SPUD.               05-May-21:  SPUD DATE
 DATE.      09.27.28 12-Jun-21:  END TIME
 STIM.      09.27.28 12-May-21:  START TIME
 DMF .             Drill Floor:  DRILL MEAS FROM
 DFST.                        :  DIST FSL TEXT
 DFWT.                        :  DIST FWL TEXT
 CNTY.                        :  COUNTY
 LOC .                        :  LOCATION
 LMF .             Drill Floor:  LOG MEASURED FROM
 DEP .m                2806.40:  DEPTH
 AGAP.m                  43.60:  AIR GAP
 VSNS.m                  -4.42:  VERT SEC N/S
 VSEW.m                  -7.31:  VERT SEC E/W
 APD .m                  43.60:  DEPTH ABOVE PD
 WDMS.m                 151.80:  WD ELEV
 EGL .m                   0.00:  GROUND ELEVATION
 EPD .m                   0.00:  ELEVATION
 AZTC.deg                 6.18:  AZM TOTAL CORR
 GRDC.deg                 0.29:  GRID CORRECTION
 MDEC.deg                 6.47:  MAGNETIC DECL
 MDIP.deg                59.50:  MAGNETIC DIP
 MFLD.nT              50350.00:  MAGNETIC FIELD
 GVFD.g                   1.00:  GRAVITY FIELD
 VSDR.deg               179.08:  VERT SEC DIRECT
 TDD .m                4300.00:  TOTAL DEPTH (DRILLER)
 SDEP.m                2800.00:  START DEPTH
 DFSL.m                   0.00:  DISTANCE FSL
 DFWL.m                   0.00:  DISTANCE FWL
 UTMY.m             4431871.34:  UTM Y
 UTMX.m              538762.90:  UTM X
 WHEW.m                  -7.31:  WELL HEAD E/W
 WHNS.m                  -4.42:  WELL HEAD N/S
 LONG.deg                51.45:  LONGITUDE
 LATI.deg                40.02:  LATITUDE
 TVDS.m                  43.60:  TVDSS CORRECTN
 EKB .m                  43.60:  KB ELEVATION
 EDF .m                  43.60:  DF ELEVATION
 TDL .m                 806.00:  TOTAL DEPTH (LOGGER)
 MAGU.                 1851231:  MAGUTM CHECKSUM
 VSC .                       0:  VS TO CLOSURE
~Parameter Information Block
#MNEM.UNIT       Value        Description
#---------     -----------    ---------------------------
 AV  .mps                 1.60:  Ann Velocity 
 AVMX.mps                 2.00:  Max Ann Veloc 
 AZIF.deg               140.24:  Azm, Final 
 BHAT.        Rotary Steerable:  BHA Type 
 BROT.°/30m               0.50:  Build Rotating 
 BS  .in                  8.50:  Bit Size 
 BTPL.psig              619.00:  Bit Press Loss 
 CABU.                     Yes:  Customer Abuse 
 CGEO.          Ilgar Gurbanov:  Customer Geo 
 COMM.                     dAY:  Run Comments 1 
 TCS .hr                 85.88:  Time Ciculation Ended 
 CV  .mps                 3.30:  Crit Velocity 
 CVMX.mps                 3.50:  Max Crit Veloc 
 DD1 .           Hamid Axmedov:  Direct Drillr 1 
 DD2 .           Teymur Aliyev:  Direct Drillr 2 
 DDSV.               Geo-Pilot:  DD Service 
 DEFF.%                 100.00:  % Det Eff 
 DLRX.°/30m               0.00:  Dogleg Rot Max 
 DLSO.°/30m               1.80:  Dogleg Oriented 
 DLSX.°/30m               3.34:  Dogleg Str Max 
 DRET.      11.50.00 27-May-21:  Drill End Time 
 DRST.      21.13.00 24-May-21:  Drill Start Tim 
 DTIM.hr                 45.11:  Time Drilling 
 EDEP.m                4054.00:  End Depth 
 ENG1.         Almaz Almadatov:  Engineer 1 
 ENG2.           Amrah Tahirov:  Engineer 2 
 ENG3.      Bakhtiyar Jabbarli:  Engineer 3 
 ENG4.          Nazrin Asgarli:  Engineer 4 
 ETIM.      10.00.00 30-May-21:  End Time 
 FLOI.gpm               530.00:  Flow In 
 FLON.gpm               400.00:  Flow In Min 
 FLOS.cptm                0.00:  Fluid Loss 
 FLOX.gpm               560.00:  Flow In Max 
 DFT .        Mineral Oil Base:  Mud Type 
 FTRO.       Formation Presure:  FTWD Run Obj 
 HFLO.                      No:  High Flow 
 HPRE.                      No:  High Pressure 
 HTEM.                      No:  High Temp 
 HYDO.m                   1.80:  Hydro Offset 
 IFIN.deg                73.83:  Inc, Final 
 IMAX.deg                73.83:  Inc Max 
 IMIN.deg                57.86:  Inc Min 
 IMND.m                3259.27:  Inc Min Depth 
 IMXD.m                4045.58:  Inc Max Depth 
 JARR.                     Yes:  Jarring 
 LETM.      11.50.00 27-May-21:  Log End Time 
 LOST.hr                     0:  Lost Rig Time 
 LSTM.      21.13.00 24-May-21:  Log Start Time 
 MDCL.ppm             42500.00:  Mud Chlorides 
 MDES.     Inversion Oil/Synthetic:  Mud Desc 
 DFD .sg                  1.52:  Mud Density 
 MDMN.sg                  1.52:  Dens Mud Min 
 MDMX.sg                  1.52:  Dens Mud Max 
 MOIL.                      70:  Run Mud Oil % 
 MOWR.                   70:30:  Run Mud OWR 
 MSND.                     0.2:  Run Mud Sand % 
 MSOL.                      22:  Run Mud Solids% 
 DFV .spqt               77.00:  Mud Viscosity 
 MWOD.in                  6.75:  MWD Tool OD 
 MWSI.                      No:  Serv Intrp, MWD 
 OTIM.hr                151.01:  Time Operating 
 PCON.          Wear / Scratch:  Pad Condition 
 PMAX.psia            11296.93:  Press Op, Max 
 PV  .cP                 37.00:  Mud PV 
 RUN .                     500:  Run Number 
 ROPA.m/hr               25.00:  ROP Avg 
 ROPN.m/hr                9.00:  ROP Min 
 ROPX.m/hr               28.00:  ROP Max 
 RPMA.rpm               140.00:  RPM Surface Avg 
 RPMN.rpm                90.00:  RPM Surface Min 
 RPMX.rpm               140.00:  RPM Surface Max 
 RRUN.                    0500:  Rig Run Number 
 SAZI.deg               172.17:  Azm, Start 
 SDEP.m                3248.00:  Start Depth 
 SIDD.                      No:  Serv Intrp, DD 
 SINC.deg                57.86:  Inc, Start 
 SPPA.psig             5620.00:  SPP Avg 
 SPPN.psig             5190.00:  SPP Min 
 SPPX.psig             6050.00:  SPP Max 
 STIM.      16.00.00 23-May-21:  Start Time 
 SVCS.                 DD, MWD:  Services 
 SVER.                    9.20:  Sperry Version 
 TDAT.m                 806.00:  Tot Depth Attmp 
 TDDF.                      No:  Trip for DD 
 TDLG.m                 806.00:  Tot Depth Loggd 
 TFF .                      No:  Trip for Fail 
 TQAA.f-kp               12.00:  Torque Abs Avg 
 TQAN.f-kp                8.00:  Torque Abs Min 
 TQAX.f-kp               15.00:  Torque Abs Max 
 TRRT.°/30m               0.30:  Turn Rotating 
 MRT .                  EWR-M5:  Maximum Recorded Temperature 
 TTMX.degC               93.00:  Max Tool Temp 
 VS01.                90649155:  Virtual Str1 SN 
 VS02.                90642264:  Virtual Str2 SN 
 VS03.                90642266:  Virtual Str3 SN 
 VS04.                90642261:  Virtual Str4 SN 
 WBMN.klb                 0.00:  WOB Min 
 WITN.             Anar Khalil:  Customer Rep 
 WITN.           Murad Guliyev:  Customer Rep 2 
 WOBA.klb                13.00:  WOB Avg 
 WOBX.klb                25.00:  WOB Max 
 YP  .lhf2               32.00:  Yield Point 
~Curve Information Block
#MNEM.UNIT                 API CODE     Curve Description
#---------               -----------    ---------------------------
 TIME.HHMMSS            00 000 000 000:  GT Time & Date
 GTDEPTH.m              00 000 000 000:  GT Depth
 GTPQH.psia             00 000 000 000:  GT HR Quartz Pressure
 GTTQ.degC              00 000 000 000:  GT Quartz Temperature
 GTTN.NONE              00 000 000 000:  GT Test Number
 GTET.sec               00 000 000 000:  GT Elapsed Test Time
 GTTVD.m                00 000 000 000:  GT True Vertical Depth
#Other Information
#
#WARRANTY: Halliburton will use its best efforts to furnish customers with 
#accurate information and interpretations that are part of, and incident to, the services 
#provided.  However, Halliburton cannot and does not warrant the accuracy 
#or correctness of such information and interpretations.  Under no circumstances should any 
#such information or interpretation be relied upon as the sole basis for any drilling, 
#completion, production, or financial decision or any procedure involving any risk to the 
#safety of any drilling venture, drilling rig or its crew or any other third party.  The 
#Customer has full responsibility for all drilling, completion and production operation.  
#Halliburton makes no representations or warranties, either expressed or 
#implied, including, but not limited to, the implied warranties of merchantability or fitness 
#for a particular purpose, with respect to the services rendered.  In no event will 
#Halliburton be liable for failure to obtain any particular results or for 
#any damages, including, but not limited to, indirect, special or consequential damages, 
#resulting from the use of any information or interpretation provided by Halliburton.
#
~A           TIME           GTDEPTH  GTPQH  GTTQ  GTTN   GTET   GTTVD  
# ...
   05:49:00.387.28-May-2021 3439.00 6005.78 82.98 11.00  22.61 2568.67
   05:49:00.588.28-May-2021 3439.00 6005.80 82.98 11.00  22.81 2568.67
   05:49:00.788.28-May-2021 3439.00 6006.56 82.98 11.00  23.01 2568.67
   05:49:00.988.28-May-2021 3439.00 6006.56 82.98 11.00  23.21 2568.67
   05:49:01.188.28-May-2021 3439.00 6007.88 82.98 11.00  23.41 2568.67
   05:49:01.388.28-May-2021 3439.00 6006.25 82.98 11.00  23.61 2568.67
   05:49:01.588.28-May-2021 3439.00 6006.33 82.98 11.00  23.81 2568.67
   05:49:01.788.28-May-2021 3439.00 6006.55 82.98 11.00  24.01 2568.67
   05:49:01.988.28-May-2021 3439.00 6006.55 82.98 11.00  24.21 2568.67
   05:49:02.188.28-May-2021 3439.00 6010.95 82.98 11.00  24.41 2568.67
   05:49:02.388.28-May-2021 3439.00 6006.87 82.98 11.00  24.61 2568.67
   05:49:02.588.28-May-2021 3439.00 6007.20 82.98 11.00  24.81 2568.67
   05:49:02.788.28-May-2021 3439.00 6007.37 82.98 11.00  25.01 2568.67
   05:49:02.989.28-May-2021 3439.00 6007.37 82.98 11.00  25.21 2568.67
   05:49:03.189.28-May-2021 3439.00 6007.50 82.98 11.00  25.41 2568.67
   05:49:03.389.28-May-2021 3439.00 6007.15 82.98 11.00  25.61 2568.67
   05:49:03.589.28-May-2021 3439.00 6007.81 82.98 11.00  25.81 2568.67
   05:49:03.789.28-May-2021 3439.00 6007.51 82.98 11.00  26.01 2568.67
   05:49:03.989.28-May-2021 3439.00 6007.51 82.98 11.00  26.21 2568.67
   05:49:04.189.28-May-2021 3439.00 6007.53 82.97 11.00  26.41 2568.67
   05:49:04.389.28-May-2021 3439.00 6007.42 82.97 11.00  26.61 2568.67
   05:49:04.589.28-May-2021 3439.00 6010.39 82.97 11.00  26.81 2568.67
   05:49:04.789.28-May-2021 3439.00 6009.28 82.97 11.00  27.01 2568.67
   05:49:04.989.28-May-2021 3439.00 6009.28 82.97 11.00  27.21 2568.67
   05:49:05.189.28-May-2021 3439.00 6007.83 82.97 11.00  27.41 2568.67
   05:49:05.390.28-May-2021 3439.00 6008.40 82.97 11.00  27.61 2568.67
   05:49:05.590.28-May-2021 3439.00 6007.57 82.97 11.00  27.81 2568.67
   05:49:05.790.28-May-2021 3439.00 6008.57 82.97 11.00  28.01 2568.67
   05:49:05.990.28-May-2021 3439.00 6008.57 82.97 11.00  28.21 2568.67
   05:49:06.190.28-May-2021 3439.00 6008.86 82.97 11.00  28.41 2568.67
   05:49:06.390.28-May-2021 3439.00 6008.77 82.97 11.00  28.61 2568.67
   05:49:06.590.28-May-2021 3439.00 6008.66 82.97 11.00  28.81 2568.67
   05:49:06.790.28-May-2021 3439.00 6008.63 82.97 11.00  29.01 2568.67
   05:49:06.990.28-May-2021 3439.00 6008.63 82.97 11.00  29.21 2568.67
   05:49:07.190.28-May-2021 3439.00 6008.68 82.97 11.00  29.41 2568.67
   05:49:07.390.28-May-2021 3439.00 6011.46 82.97 11.00  29.61 2568.67
   05:49:07.590.28-May-2021 3439.00 6010.02 82.97 11.00  29.81 2568.67
   05:49:07.791.28-May-2021 3439.00 6009.05 82.97 11.00  30.01 2568.67
   05:49:07.991.28-May-2021 3439.00 6009.05 82.97 11.00  30.21 2568.67
   05:49:08.191.28-May-2021 3439.00 6012.12 82.97 11.00  30.41 2568.67
   05:49:08.391.28-May-2021 3439.00 6009.80 82.97 11.00  30.61 2568.67
   05:49:08.591.28-May-2021 3439.00 6009.56 82.97 11.00  30.81 2568.67
   05:49:08.791.28-May-2021 3439.00 6009.06 82.97 11.00  31.01 2568.67
   05:49:08.991.28-May-2021 3439.00 6009.06 82.97 11.00  31.21 2568.67
   05:49:09.191.28-May-2021 3439.00 6008.92 82.97 11.00  31.41 2568.67
   05:49:09.391.28-May-2021 3439.00 6017.02 82.97 11.00  31.61 2568.67
   05:49:09.591.28-May-2021 3439.00 6006.51 82.97 11.00  31.81 2568.67
   05:49:09.791.28-May-2021 3439.00 6010.02 82.97 11.00  32.01 2568.67
   05:49:09.992.28-May-2021 3439.00 6010.02 82.97 11.00  32.21 2568.67
   05:49:10.192.28-May-2021 3439.00 6009.80 82.97 11.00  32.41 2568.67
   05:49:10.392.28-May-2021 3439.00 6009.37 82.97 11.00  32.61 2568.67
   05:49:10.592.28-May-2021 3439.00 6014.01 82.97 11.00  32.81 2568.67
   05:49:10.792.28-May-2021 3439.00 6010.38 82.97 11.00  33.01 2568.67
   05:49:10.992.28-May-2021 3439.00 6010.38 82.97 11.00  33.21 2568.67
   05:49:11.192.28-May-2021 3439.00 6010.92 82.97 11.00  33.41 2568.67
   05:49:11.392.28-May-2021 3439.00 6010.19 82.97 11.00  33.61 2568.67
   05:49:11.592.28-May-2021 3439.00 6010.73 82.97 11.00  33.81 2568.67
   05:49:11.792.28-May-2021 3439.00 6010.49 82.97 11.00  34.01 2568.67
   05:49:11.992.28-May-2021 3439.00 6010.49 82.97 11.00  34.21 2568.67
   05:49:12.192.28-May-2021 3439.00 6010.73 82.97 11.00  34.41 2568.67
   05:49:12.393.28-May-2021 3439.00 6010.61 82.97 11.00  34.61 2568.67
   05:49:12.593.28-May-2021 3439.00 6010.65 82.97 11.00  34.81 2568.67
   05:49:12.793.28-May-2021 3439.00 6010.60 82.97 11.00  35.01 2568.67
   05:49:12.993.28-May-2021 3439.00 6010.60 82.97 11.00  35.21 2568.67
   05:49:13.193.28-May-2021 3439.00 6010.79 82.97 11.00  35.41 2568.67
   05:49:13.393.28-May-2021 3439.00 6016.57 82.97 11.00  35.61 2568.67
   05:49:13.593.28-May-2021 3439.00 6009.60 82.97 11.00  35.81 2568.67
   05:49:13.793.28-May-2021 3439.00 6011.33 82.97 11.00  36.02 2568.67
   05:49:13.993.28-May-2021 3439.00 6011.33 82.97 11.00  36.22 2568.67
   05:49:14.193.28-May-2021 3439.00 6011.13 82.97 11.00  36.42 2568.67
   05:49:14.393.28-May-2021 3439.00 6011.11 82.97 11.00  36.62 2568.67
   05:49:14.593.28-May-2021 3439.00 6011.37 82.97 11.00  36.82 2568.67
   05:49:14.794.28-May-2021 3439.00 6011.89 82.97 11.00  37.02 2568.67
   05:49:14.994.28-May-2021 3439.00 6011.89 82.97 11.00  37.22 2568.67
   05:49:15.194.28-May-2021 3439.00 6011.76 82.97 11.00  37.42 2568.67
   05:49:15.394.28-May-2021 3439.00 6011.79 82.97 11.00  37.62 2568.67
   05:49:15.594.28-May-2021 3439.00 6011.72 82.97 11.00  37.82 2568.67
   05:49:15.794.28-May-2021 3439.00 6011.42 82.97 11.00  38.02 2568.67
   05:49:15.994.28-May-2021 3439.00 6011.42 82.97 11.00  38.22 2568.67
   05:49:16.194.28-May-2021 3439.00 6015.58 82.97 11.00  38.42 2568.67
   05:49:16.394.28-May-2021 3439.00 6011.87 82.97 11.00  38.62 2568.67
   05:49:16.594.28-May-2021 3439.00 6011.79 82.97 11.00  38.82 2568.67
   05:49:16.794.28-May-2021 3439.00 6011.86 82.97 11.00  39.02 2568.67
   05:49:16.994.28-May-2021 3439.00 6011.86 82.97 11.00  39.22 2568.67
   05:49:17.195.28-May-2021 3439.00 6013.27 82.97 11.00  39.42 2568.67
   05:49:17.395.28-May-2021 3439.00 6011.95 82.97 11.00  39.62 2568.67
   05:49:17.595.28-May-2021 3439.00 6012.23 82.97 11.00  39.82 2568.67
   05:49:17.795.28-May-2021 3439.00 6012.55 82.97 11.00  40.02 2568.67
   05:49:17.995.28-May-2021 3439.00 6012.55 82.97 11.00  40.22 2568.67
   05:49:18.195.28-May-2021 3439.00 6011.00 82.97 11.00  40.42 2568.67
   05:49:18.395.28-May-2021 3439.00 6012.33 82.97 11.00  40.62 2568.67
   05:49:18.595.28-May-2021 3439.00 6012.28 82.97 11.00  40.82 2568.67
   05:49:18.795.28-May-2021 3439.00 6012.51 82.97 11.00  41.02 2568.67
   05:49:18.995.28-May-2021 3439.00 6012.51 82.97 11.00  41.22 2568.67
   05:49:19.195.28-May-2021 3439.00 6011.67 82.97 11.00  41.42 2568.67
   05:49:19.395.28-May-2021 3439.00 6013.19 82.97 11.00  41.62 2568.67
   05:49:19.596.28-May-2021 3439.00 6020.69 82.97 11.00  41.82 2568.67
   05:49:19.796.28-May-2021 3439.00 6009.98 82.97 11.00  42.02 2568.67
   05:49:19.996.28-May-2021 3439.00 6009.98 82.97 11.00  42.22 2568.67
   05:49:20.196.28-May-2021 3439.00 6012.96 82.97 11.00  42.42 2568.67
   05:49:20.396.28-May-2021 3439.00 6013.41 82.97 11.00  42.62 2568.67
   05:49:20.596.28-May-2021 3439.00 6012.72 82.97 11.00  42.82 2568.67
   05:49:20.796.28-May-2021 3439.00 6017.00 82.97 11.00  43.02 2568.67
   05:49:20.996.28-May-2021 3439.00 6017.00 82.97 11.00  43.22 2568.67
   05:49:21.196.28-May-2021 3439.00 6013.40 82.97 11.00  43.42 2568.67
   05:49:21.396.28-May-2021 3439.00 6013.39 82.97 11.00  43.62 2568.67
   05:49:21.596.28-May-2021 3439.00 6012.72 82.97 11.00  43.82 2568.67
   05:49:21.796.28-May-2021 3439.00 5903.55 82.97 11.00  44.02 2568.67
   05:49:21.997.28-May-2021 3439.00 5903.55 82.97 11.00  44.22 2568.67
   05:49:22.197.28-May-2021 3439.00 5914.90 82.97 11.00  44.42 2568.67
   05:49:22.397.28-May-2021 3439.00 6013.54 82.97 11.00  44.62 2568.67
   05:49:22.597.28-May-2021 3439.00 6013.48 82.97 11.00  44.82 2568.67
   05:49:22.797.28-May-2021 3439.00 6013.45 82.97 11.00  45.02 2568.67
