~Version Information
 VERS.                  2.0:   CWLS log ASCII Standard -VERSION 2.0
 WRAP.                   NO:   One line per depth step
~Well Information Block
#MNEM.UNIT     VALUE/NAME     DESCRIPTION
#---------     -----------    ---------------------------
 STRT.S             09:05:41 28-May-21: START TIME 09:05:41 28-May-21
 STOP.S             09:12:44 28-May-21: STOP TIME  09:12:44 28-May-21
 STEP.S                   0.00: STEP TIME
 NULL.                 -999.25: NULL VALUE
 UWI .                     N/A:  UNIQUE WELL IDENTIFIER
 API .                     N/A:  API NUMBER
 UNIT.                     N/A:  LOGGING EQUIPMENT ID
 DCON.         Sperry Drilling:  DIRECTNL CONTR
 DOE .                     N/A:  DOE NUMBER
 MWDS.                    Baku:  MWD SHOP
 SRVC.     Turan Drilling and Engineering:  CONTRACTOR
 CTRY.              Azerbaijan:  COUNTRY NAME
 PROV.                    Baku:  PROVINCE
 STAT.                    Baku:  STATE NAME
 REGN.                   EESSA:  REGION
 BASE.              Azerbaijan:  LOGGING EQUIPMENT BASE LOCATION
 WTYP.                Deviated:  WELL TYPE
 RIG .              East Azeri:  RIG NAME
 WELL.                    D02y:  WELL NAME
 FLD .                     ACG:  FIELD NAME
 COMP.     BP Exploration (Caspian Sea) Ltd.:  COMPANY
 PDAT.          Mean Sea Level:  PERMANENT DATUM
 MDS .        Operator Entered:  MAG DATA SOURCE
 SON .        AZ-XX-0906997291:  JOB NUMBER
 FTOP.          Formation Tops:  FORM TOPS DESC
 ILTD.               Lithology:  INTERP LTH DESC
 SVYD.                  Survey:  SURVEY DESC
 DMOD.             Drill Model:  DRILL MOD DESC
 HPTY.       Minimum Curvature:  HOLE POS TYPE
 NREF.                    Grid:  NORTH REFERENCE
 SPUD.               05-May-21:  SPUD DATE
 DATE.      09.27.28 12-Jun-21:  END TIME
 STIM.      09.27.28 12-May-21:  START TIME
 DMF .             Drill Floor:  DRILL MEAS FROM
 DFST.                        :  DIST FSL TEXT
 DFWT.                        :  DIST FWL TEXT
 CNTY.                        :  COUNTY
 LOC .                        :  LOCATION
 LMF .             Drill Floor:  LOG MEASURED FROM
 DEP .m                2806.40:  DEPTH
 AGAP.m                  43.60:  AIR GAP
 VSNS.m                  -4.42:  VERT SEC N/S
 VSEW.m                  -7.31:  VERT SEC E/W
 APD .m                  43.60:  DEPTH ABOVE PD
 WDMS.m                 151.80:  WD ELEV
 EGL .m                   0.00:  GROUND ELEVATION
 EPD .m                   0.00:  ELEVATION
 AZTC.deg                 6.18:  AZM TOTAL CORR
 GRDC.deg                 0.29:  GRID CORRECTION
 MDEC.deg                 6.47:  MAGNETIC DECL
 MDIP.deg                59.50:  MAGNETIC DIP
 MFLD.nT              50350.00:  MAGNETIC FIELD
 GVFD.g                   1.00:  GRAVITY FIELD
 VSDR.deg               179.08:  VERT SEC DIRECT
 TDD .m                4300.00:  TOTAL DEPTH (DRILLER)
 SDEP.m                2800.00:  START DEPTH
 DFSL.m                   0.00:  DISTANCE FSL
 DFWL.m                   0.00:  DISTANCE FWL
 UTMY.m             4431871.34:  UTM Y
 UTMX.m              538762.90:  UTM X
 WHEW.m                  -7.31:  WELL HEAD E/W
 WHNS.m                  -4.42:  WELL HEAD N/S
 LONG.deg                51.45:  LONGITUDE
 LATI.deg                40.02:  LATITUDE
 TVDS.m                  43.60:  TVDSS CORRECTN
 EKB .m                  43.60:  KB ELEVATION
 EDF .m                  43.60:  DF ELEVATION
 TDL .m                 806.00:  TOTAL DEPTH (LOGGER)
 MAGU.                 1851231:  MAGUTM CHECKSUM
 VSC .                       0:  VS TO CLOSURE
~Parameter Information Block
#MNEM.UNIT       Value        Description
#---------     -----------    ---------------------------
 AV  .mps                 1.60:  Ann Velocity 
 AVMX.mps                 2.00:  Max Ann Veloc 
 AZIF.deg               140.24:  Azm, Final 
 BHAT.        Rotary Steerable:  BHA Type 
 BROT.°/30m               0.50:  Build Rotating 
 BS  .in                  8.50:  Bit Size 
 BTPL.psig              619.00:  Bit Press Loss 
 CABU.                     Yes:  Customer Abuse 
 CGEO.          Ilgar Gurbanov:  Customer Geo 
 COMM.                     ÜøQ:  Run Comments 1 
 TCS .hr                 85.88:  Time Ciculation Ended 
 CV  .mps                 3.30:  Crit Velocity 
 CVMX.mps                 3.50:  Max Crit Veloc 
 DD1 .           Hamid Axmedov:  Direct Drillr 1 
 DD2 .           Teymur Aliyev:  Direct Drillr 2 
 DDSV.               Geo-Pilot:  DD Service 
 DEFF.%                 100.00:  % Det Eff 
 DLRX.°/30m               0.00:  Dogleg Rot Max 
 DLSO.°/30m               1.80:  Dogleg Oriented 
 DLSX.°/30m               3.34:  Dogleg Str Max 
 DRET.      11.50.00 27-May-21:  Drill End Time 
 DRST.      21.13.00 24-May-21:  Drill Start Tim 
 DTIM.hr                 45.11:  Time Drilling 
 EDEP.m                4054.00:  End Depth 
 ENG1.         Almaz Almadatov:  Engineer 1 
 ENG2.           Amrah Tahirov:  Engineer 2 
 ENG3.      Bakhtiyar Jabbarli:  Engineer 3 
 ENG4.          Nazrin Asgarli:  Engineer 4 
 ETIM.      10.00.00 30-May-21:  End Time 
 FLOI.gpm               530.00:  Flow In 
 FLON.gpm               400.00:  Flow In Min 
 FLOS.cptm                0.00:  Fluid Loss 
 FLOX.gpm               560.00:  Flow In Max 
 DFT .        Mineral Oil Base:  Mud Type 
 FTRO.       Formation Presure:  FTWD Run Obj 
 HFLO.                      No:  High Flow 
 HPRE.                      No:  High Pressure 
 HTEM.                      No:  High Temp 
 HYDO.m                   1.80:  Hydro Offset 
 IFIN.deg                73.83:  Inc, Final 
 IMAX.deg                73.83:  Inc Max 
 IMIN.deg                57.86:  Inc Min 
 IMND.m                3259.27:  Inc Min Depth 
 IMXD.m                4045.58:  Inc Max Depth 
 JARR.                     Yes:  Jarring 
 LETM.      11.50.00 27-May-21:  Log End Time 
 LOST.hr                     0:  Lost Rig Time 
 LSTM.      21.13.00 24-May-21:  Log Start Time 
 MDCL.ppm             42500.00:  Mud Chlorides 
 MDES.     Inversion Oil/Synthetic:  Mud Desc 
 DFD .sg                  1.52:  Mud Density 
 MDMN.sg                  1.52:  Dens Mud Min 
 MDMX.sg                  1.52:  Dens Mud Max 
 MOIL.                      70:  Run Mud Oil % 
 MOWR.                   70:30:  Run Mud OWR 
 MSND.                     0.2:  Run Mud Sand % 
 MSOL.                      22:  Run Mud Solids% 
 DFV .spqt               77.00:  Mud Viscosity 
 MWOD.in                  6.75:  MWD Tool OD 
 MWSI.                      No:  Serv Intrp, MWD 
 OTIM.hr                151.01:  Time Operating 
 PCON.          Wear / Scratch:  Pad Condition 
 PMAX.psia            11296.93:  Press Op, Max 
 PV  .cP                 37.00:  Mud PV 
 RUN .                     500:  Run Number 
 ROPA.m/hr               25.00:  ROP Avg 
 ROPN.m/hr                9.00:  ROP Min 
 ROPX.m/hr               28.00:  ROP Max 
 RPMA.rpm               140.00:  RPM Surface Avg 
 RPMN.rpm                90.00:  RPM Surface Min 
 RPMX.rpm               140.00:  RPM Surface Max 
 RRUN.                    0500:  Rig Run Number 
 SAZI.deg               172.17:  Azm, Start 
 SDEP.m                3248.00:  Start Depth 
 SIDD.                      No:  Serv Intrp, DD 
 SINC.deg                57.86:  Inc, Start 
 SPPA.psig             5620.00:  SPP Avg 
 SPPN.psig             5190.00:  SPP Min 
 SPPX.psig             6050.00:  SPP Max 
 STIM.      16.00.00 23-May-21:  Start Time 
 SVCS.                 DD, MWD:  Services 
 SVER.                    9.20:  Sperry Version 
 TDAT.m                 806.00:  Tot Depth Attmp 
 TDDF.                      No:  Trip for DD 
 TDLG.m                 806.00:  Tot Depth Loggd 
 TFF .                      No:  Trip for Fail 
 TQAA.f-kp               12.00:  Torque Abs Avg 
 TQAN.f-kp                8.00:  Torque Abs Min 
 TQAX.f-kp               15.00:  Torque Abs Max 
 TRRT.°/30m               0.30:  Turn Rotating 
 MRT .                  EWR-M5:  Maximum Recorded Temperature 
 TTMX.degC               93.00:  Max Tool Temp 
 VS01.                90649155:  Virtual Str1 SN 
 VS02.                90642264:  Virtual Str2 SN 
 VS03.                90642266:  Virtual Str3 SN 
 VS04.                90642261:  Virtual Str4 SN 
 WBMN.klb                 0.00:  WOB Min 
 WITN.             Anar Khalil:  Customer Rep 
 WITN.           Murad Guliyev:  Customer Rep 2 
 WOBA.klb                13.00:  WOB Avg 
 WOBX.klb                25.00:  WOB Max 
 YP  .lhf2               32.00:  Yield Point 
~Curve Information Block
#MNEM.UNIT                 API CODE     Curve Description
#---------               -----------    ---------------------------
 TIME.HHMMSS            00 000 000 000:  GT Time & Date
 GTDEPTH.m              00 000 000 000:  GT Depth
 GTPQH.psia             00 000 000 000:  GT HR Quartz Pressure
 GTTQ.degC              00 000 000 000:  GT Quartz Temperature
 GTTN.NONE              00 000 000 000:  GT Test Number
 GTET.sec               00 000 000 000:  GT Elapsed Test Time
 GTTVD.m                00 000 000 000:  GT True Vertical Depth
#Other Information
#
#WARRANTY: Halliburton will use its best efforts to furnish customers with 
#accurate information and interpretations that are part of, and incident to, the services 
#provided.  However, Halliburton cannot and does not warrant the accuracy 
#or correctness of such information and interpretations.  Under no circumstances should any 
#such information or interpretation be relied upon as the sole basis for any drilling, 
#completion, production, or financial decision or any procedure involving any risk to the 
#safety of any drilling venture, drilling rig or its crew or any other third party.  The 
#Customer has full responsibility for all drilling, completion and production operation.  
#Halliburton makes no representations or warranties, either expressed or 
#implied, including, but not limited to, the implied warranties of merchantability or fitness 
#for a particular purpose, with respect to the services rendered.  In no event will 
#Halliburton be liable for failure to obtain any particular results or for 
#any damages, including, but not limited to, indirect, special or consequential damages, 
#resulting from the use of any information or interpretation provided by Halliburton.
#
~A           TIME           GTDEPTH  GTPQH  GTTQ  GTTN   GTET   GTTVD  
# ...
   09:12:05.372.28-May-2021 3286.00 5814.71 82.12 15.00 384.25 2493.81
   09:12:05.572.28-May-2021 3286.00 5813.08 82.12 15.00 384.45 2493.81
   09:12:05.772.28-May-2021 3286.00 5815.57 82.12 15.00 384.65 2493.81
   09:12:05.972.28-May-2021 3286.00 5814.31 82.12 15.00 384.85 2493.81
   09:12:06.172.28-May-2021 3286.00 5815.61 82.12 15.00 385.05 2493.81
   09:12:06.372.28-May-2021 3286.00 5815.61 82.12 15.00 385.25 2493.81
   09:12:06.572.28-May-2021 3286.00 5821.99 82.12 15.00 385.45 2493.81
   09:12:06.772.28-May-2021 3286.00 5811.79 82.12 15.00 385.65 2493.81
   09:12:06.972.28-May-2021 3286.00 5815.30 82.12 15.00 385.85 2493.81
   09:12:07.172.28-May-2021 3286.00 5815.03 82.12 15.00 386.05 2493.81
   09:12:07.372.28-May-2021 3286.00 5815.03 82.12 15.00 386.25 2493.81
   09:12:07.572.28-May-2021 3286.00 5811.80 82.12 15.00 386.45 2493.81
   09:12:07.772.28-May-2021 3286.00 5815.85 82.12 15.00 386.65 2493.81
   09:12:07.972.28-May-2021 3286.00 5821.77 82.12 15.00 386.85 2493.81
   09:12:08.172.28-May-2021 3286.00 5811.96 82.12 15.00 387.05 2493.81
   09:12:08.372.28-May-2021 3286.00 5811.96 82.12 15.00 387.25 2493.81
   09:12:08.572.28-May-2021 3286.00 5815.08 82.11 15.00 387.45 2493.81
   09:12:08.772.28-May-2021 3286.00 5815.81 82.11 15.00 387.65 2493.81
   09:12:08.972.28-May-2021 3286.00 5815.47 82.11 15.00 387.85 2493.81
   09:12:09.172.28-May-2021 3286.00 5815.60 82.11 15.00 388.05 2493.81
   09:12:09.372.28-May-2021 3286.00 5815.60 82.11 15.00 388.25 2493.81
   09:12:09.572.28-May-2021 3286.00 5815.17 82.11 15.00 388.45 2493.81
   09:12:09.772.28-May-2021 3286.00 5814.94 82.11 15.00 388.65 2493.81
   09:12:09.972.28-May-2021 3286.00 5814.64 82.11 15.00 388.85 2493.81
   09:12:10.172.28-May-2021 3286.00 5814.47 82.11 15.00 389.05 2493.81
   09:12:10.373.28-May-2021 3286.00 5814.47 82.11 15.00 389.25 2493.81
   09:12:10.573.28-May-2021 3286.00 5821.21 82.11 15.00 389.45 2493.81
   09:12:10.773.28-May-2021 3286.00 5811.71 82.11 15.00 389.65 2493.81
   09:12:10.973.28-May-2021 3286.00 5815.24 82.11 15.00 389.85 2493.81
   09:12:11.173.28-May-2021 3286.00 5814.96 82.11 15.00 390.05 2493.81
   09:12:11.373.28-May-2021 3286.00 5814.96 82.11 15.00 390.25 2493.81
   09:12:11.573.28-May-2021 3286.00 5815.37 82.11 15.00 390.45 2493.81
   09:12:11.773.28-May-2021 3286.00 5815.39 82.11 15.00 390.65 2493.81
   09:12:11.973.28-May-2021 3286.00 5815.02 82.11 15.00 390.85 2493.81
   09:12:12.173.28-May-2021 3286.00 5815.00 82.11 15.00 391.05 2493.81
   09:12:12.373.28-May-2021 3286.00 5815.00 82.11 15.00 391.25 2493.81
   09:12:12.573.28-May-2021 3286.00 5814.69 82.11 15.00 391.45 2493.81
   09:12:12.773.28-May-2021 3286.00 5814.61 82.11 15.00 391.65 2493.81
   09:12:12.973.28-May-2021 3286.00 5814.49 82.11 15.00 391.85 2493.81
   09:12:13.173.28-May-2021 3286.00 5814.40 82.11 15.00 392.05 2493.81
   09:12:13.373.28-May-2021 3286.00 5814.40 82.11 15.00 392.25 2493.81
   09:12:13.573.28-May-2021 3286.00 5814.28 82.11 15.00 392.45 2493.81
   09:12:13.773.28-May-2021 3286.00 5814.73 82.11 15.00 392.65 2493.81
   09:12:13.973.28-May-2021 3286.00 5815.29 82.11 15.00 392.85 2493.81
   09:12:14.173.28-May-2021 3286.00 5814.51 82.11 15.00 393.05 2493.81
   09:12:14.373.28-May-2021 3286.00 5814.51 82.11 15.00 393.25 2493.81
   09:12:14.573.28-May-2021 3286.00 5816.48 82.11 15.00 393.45 2493.81
   09:12:14.773.28-May-2021 3286.00 5815.04 82.11 15.00 393.65 2493.81
   09:12:14.973.28-May-2021 3286.00 5814.20 82.11 15.00 393.85 2493.81
   09:12:15.173.28-May-2021 3286.00 5820.67 82.11 15.00 394.05 2493.81
   09:12:15.373.28-May-2021 3286.00 5820.67 82.11 15.00 394.25 2493.81
   09:12:15.573.28-May-2021 3286.00 5816.06 82.11 15.00 394.45 2493.81
   09:12:15.773.28-May-2021 3286.00 5814.04 82.11 15.00 394.65 2493.81
   09:12:15.973.28-May-2021 3286.00 5815.65 82.11 15.00 394.85 2493.81
   09:12:16.173.28-May-2021 3286.00 5821.62 82.11 15.00 395.05 2493.81
   09:12:16.373.28-May-2021 3286.00 5821.62 82.11 15.00 395.25 2493.81
   09:12:16.573.28-May-2021 3286.00 5815.40 82.11 15.00 395.45 2493.81
   09:12:16.773.28-May-2021 3286.00 5815.11 82.11 15.00 395.65 2493.81
   09:12:16.973.28-May-2021 3286.00 5815.28 82.11 15.00 395.85 2493.81
   09:12:17.173.28-May-2021 3286.00 5815.44 82.11 15.00 396.05 2493.81
   09:12:17.373.28-May-2021 3286.00 5815.44 82.11 15.00 396.25 2493.81
   09:12:17.573.28-May-2021 3286.00 5814.75 82.11 15.00 396.45 2493.81
   09:12:17.774.28-May-2021 3286.00 5814.52 82.11 15.00 396.65 2493.81
   09:12:17.974.28-May-2021 3286.00 5814.60 82.11 15.00 396.85 2493.81
   09:12:18.174.28-May-2021 3286.00 5814.48 82.11 15.00 397.05 2493.81
   09:12:18.374.28-May-2021 3286.00 5814.48 82.11 15.00 397.25 2493.81
   09:12:18.574.28-May-2021 3286.00 5814.30 82.10 15.00 397.45 2493.81
   09:12:18.774.28-May-2021 3286.00 5818.75 82.10 15.00 397.65 2493.81
   09:12:18.974.28-May-2021 3286.00 5814.18 82.10 15.00 397.85 2493.81
   09:12:19.174.28-May-2021 3286.00 5814.72 82.10 15.00 398.05 2493.81
   09:12:19.374.28-May-2021 3286.00 5814.72 82.10 15.00 398.25 2493.81
   09:12:19.574.28-May-2021 3286.00 5814.47 82.10 15.00 398.45 2493.81
   09:12:19.774.28-May-2021 3286.00 5815.24 82.10 15.00 398.65 2493.81
   09:12:19.974.28-May-2021 3286.00 5815.58 82.10 15.00 398.85 2493.81
   09:12:20.174.28-May-2021 3286.00 5815.40 82.10 15.00 399.05 2493.81
   09:12:20.374.28-May-2021 3286.00 5815.40 82.10 15.00 399.25 2493.81
   09:12:20.574.28-May-2021 3286.00 5815.04 82.10 15.00 399.45 2493.81
   09:12:20.774.28-May-2021 3286.00 5814.88 82.10 15.00 399.65 2493.81
   09:12:20.974.28-May-2021 3286.00 5814.82 82.10 15.00 399.85 2493.81
   09:12:21.174.28-May-2021 3286.00 5814.80 82.10 15.00 400.05 2493.81
   09:12:21.374.28-May-2021 3286.00 5814.80 82.10 15.00 400.25 2493.81
   09:12:21.574.28-May-2021 3286.00 5816.35 82.10 15.00 400.45 2493.81
   09:12:21.774.28-May-2021 3286.00 5815.10 82.10 15.00 400.65 2493.81
   09:12:21.974.28-May-2021 3286.00 5814.29 82.10 15.00 400.85 2493.81
   09:12:22.174.28-May-2021 3286.00 5815.66 82.10 15.00 401.05 2493.81
   09:12:22.374.28-May-2021 3286.00 5815.66 82.10 15.00 401.25 2493.81
   09:12:22.574.28-May-2021 3286.00 5822.31 82.10 15.00 401.45 2493.81
   09:12:22.774.28-May-2021 3286.00 5810.99 82.10 15.00 401.65 2493.81
   09:12:22.974.28-May-2021 3286.00 5815.25 82.10 15.00 401.85 2493.81
   09:12:23.174.28-May-2021 3286.00 5814.08 82.10 15.00 402.05 2493.81
   09:12:23.374.28-May-2021 3286.00 5814.08 82.10 15.00 402.25 2493.81
   09:12:23.574.28-May-2021 3286.00 5816.53 82.10 15.00 402.45 2493.81
   09:12:23.774.28-May-2021 3286.00 5815.34 82.10 15.00 402.65 2493.81
   09:12:23.974.28-May-2021 3286.00 5814.01 82.10 15.00 402.85 2493.81
   09:12:24.174.28-May-2021 3286.00 5822.08 82.10 15.00 403.05 2493.81
   09:12:24.374.28-May-2021 3286.00 5822.08 82.10 15.00 403.25 2493.81
   09:12:24.574.28-May-2021 3286.00 5816.02 82.10 15.00 403.45 2493.81
   09:12:24.774.28-May-2021 3286.00 5814.90 82.10 15.00 403.65 2493.81
   09:12:24.974.28-May-2021 3286.00 5814.80 82.10 15.00 403.85 2493.81
   09:12:25.175.28-May-2021 3286.00 5815.30 82.10 15.00 404.05 2493.81
   09:12:25.375.28-May-2021 3286.00 5815.30 82.10 15.00 404.25 2493.81
   09:12:25.575.28-May-2021 3286.00 5814.85 82.10 15.00 404.45 2493.81
   09:12:25.775.28-May-2021 3286.00 5814.48 82.10 15.00 404.65 2493.81
   09:12:25.975.28-May-2021 3286.00 5814.46 82.10 15.00 404.85 2493.81
   09:12:26.175.28-May-2021 3286.00 5814.19 82.10 15.00 405.05 2493.81
   09:12:26.375.28-May-2021 3286.00 5814.19 82.10 15.00 405.25 2493.81
   09:12:26.575.28-May-2021 3286.00 5814.16 82.10 15.00 405.45 2493.81
   09:12:26.775.28-May-2021 3286.00 5818.48 82.10 15.00 405.65 2493.81
   09:12:26.975.28-May-2021 3286.00 5813.96 82.10 15.00 405.85 2493.81
   09:12:27.175.28-May-2021 3286.00 5814.59 82.10 15.00 406.05 2493.81
   09:12:27.375.28-May-2021 3286.00 5814.59 82.10 15.00 406.25 2493.81
   09:12:27.575.28-May-2021 3286.00 5814.24 82.10 15.00 406.45 2493.81
   09:12:27.775.28-May-2021 3286.00 5815.19 82.10 15.00 406.65 2493.81
