~Version Information
 VERS.                  2.0:   CWLS log ASCII Standard -VERSION 2.0
 WRAP.                   NO:   One line per depth step
~Well Information Block
#MNEM.UNIT     VALUE/NAME     DESCRIPTION
#---------     -----------    ---------------------------
 STRT.S             04:01:58 28-May-21: START TIME 04:01:58 28-May-21
 STOP.S             04:09:02 28-May-21: STOP TIME  04:09:02 28-May-21
 STEP.S                   0.00: STEP TIME
 NULL.                 -999.25: NULL VALUE
 UWI .                     N/A:  UNIQUE WELL IDENTIFIER
 API .                     N/A:  API NUMBER
 UNIT.                     N/A:  LOGGING EQUIPMENT ID
 DCON.         Sperry Drilling:  DIRECTNL CONTR
 DOE .                     N/A:  DOE NUMBER
 MWDS.                    Baku:  MWD SHOP
 SRVC.     Turan Drilling and Engineering:  CONTRACTOR
 CTRY.              Azerbaijan:  COUNTRY NAME
 PROV.                    Baku:  PROVINCE
 STAT.                    Baku:  STATE NAME
 REGN.                   EESSA:  REGION
 BASE.              Azerbaijan:  LOGGING EQUIPMENT BASE LOCATION
 WTYP.                Deviated:  WELL TYPE
 RIG .              East Azeri:  RIG NAME
 WELL.                    D02y:  WELL NAME
 FLD .                     ACG:  FIELD NAME
 COMP.     BP Exploration (Caspian Sea) Ltd.:  COMPANY
 PDAT.          Mean Sea Level:  PERMANENT DATUM
 MDS .        Operator Entered:  MAG DATA SOURCE
 SON .        AZ-XX-0906997291:  JOB NUMBER
 FTOP.          Formation Tops:  FORM TOPS DESC
 ILTD.               Lithology:  INTERP LTH DESC
 SVYD.                  Survey:  SURVEY DESC
 DMOD.             Drill Model:  DRILL MOD DESC
 HPTY.       Minimum Curvature:  HOLE POS TYPE
 NREF.                    Grid:  NORTH REFERENCE
 SPUD.               05-May-21:  SPUD DATE
 DATE.      09.27.28 12-Jun-21:  END TIME
 STIM.      09.27.28 12-May-21:  START TIME
 DMF .             Drill Floor:  DRILL MEAS FROM
 DFST.                        :  DIST FSL TEXT
 DFWT.                        :  DIST FWL TEXT
 CNTY.                        :  COUNTY
 LOC .                        :  LOCATION
 LMF .             Drill Floor:  LOG MEASURED FROM
 DEP .m                2806.40:  DEPTH
 AGAP.m                  43.60:  AIR GAP
 VSNS.m                  -4.42:  VERT SEC N/S
 VSEW.m                  -7.31:  VERT SEC E/W
 APD .m                  43.60:  DEPTH ABOVE PD
 WDMS.m                 151.80:  WD ELEV
 EGL .m                   0.00:  GROUND ELEVATION
 EPD .m                   0.00:  ELEVATION
 AZTC.deg                 6.18:  AZM TOTAL CORR
 GRDC.deg                 0.29:  GRID CORRECTION
 MDEC.deg                 6.47:  MAGNETIC DECL
 MDIP.deg                59.50:  MAGNETIC DIP
 MFLD.nT              50350.00:  MAGNETIC FIELD
 GVFD.g                   1.00:  GRAVITY FIELD
 VSDR.deg               179.08:  VERT SEC DIRECT
 TDD .m                4300.00:  TOTAL DEPTH (DRILLER)
 SDEP.m                2800.00:  START DEPTH
 DFSL.m                   0.00:  DISTANCE FSL
 DFWL.m                   0.00:  DISTANCE FWL
 UTMY.m             4431871.34:  UTM Y
 UTMX.m              538762.90:  UTM X
 WHEW.m                  -7.31:  WELL HEAD E/W
 WHNS.m                  -4.42:  WELL HEAD N/S
 LONG.deg                51.45:  LONGITUDE
 LATI.deg                40.02:  LATITUDE
 TVDS.m                  43.60:  TVDSS CORRECTN
 EKB .m                  43.60:  KB ELEVATION
 EDF .m                  43.60:  DF ELEVATION
 TDL .m                 806.00:  TOTAL DEPTH (LOGGER)
 MAGU.                 1851231:  MAGUTM CHECKSUM
 VSC .                       0:  VS TO CLOSURE
~Parameter Information Block
#MNEM.UNIT       Value        Description
#---------     -----------    ---------------------------
 AV  .mps                 1.60:  Ann Velocity 
 AVMX.mps                 2.00:  Max Ann Veloc 
 AZIF.deg               140.24:  Azm, Final 
 BHAT.        Rotary Steerable:  BHA Type 
 BROT.°/30m               0.50:  Build Rotating 
 BS  .in                  8.50:  Bit Size 
 BTPL.psig              619.00:  Bit Press Loss 
 CABU.                     Yes:  Customer Abuse 
 CGEO.          Ilgar Gurbanov:  Customer Geo 
 COMM.                     4`:  Run Comments 1 
 TCS .hr                 85.88:  Time Ciculation Ended 
 CV  .mps                 3.30:  Crit Velocity 
 CVMX.mps                 3.50:  Max Crit Veloc 
 DD1 .           Hamid Axmedov:  Direct Drillr 1 
 DD2 .           Teymur Aliyev:  Direct Drillr 2 
 DDSV.               Geo-Pilot:  DD Service 
 DEFF.%                 100.00:  % Det Eff 
 DLRX.°/30m               0.00:  Dogleg Rot Max 
 DLSO.°/30m               1.80:  Dogleg Oriented 
 DLSX.°/30m               3.34:  Dogleg Str Max 
 DRET.      11.50.00 27-May-21:  Drill End Time 
 DRST.      21.13.00 24-May-21:  Drill Start Tim 
 DTIM.hr                 45.11:  Time Drilling 
 EDEP.m                4054.00:  End Depth 
 ENG1.         Almaz Almadatov:  Engineer 1 
 ENG2.           Amrah Tahirov:  Engineer 2 
 ENG3.      Bakhtiyar Jabbarli:  Engineer 3 
 ENG4.          Nazrin Asgarli:  Engineer 4 
 ETIM.      10.00.00 30-May-21:  End Time 
 FLOI.gpm               530.00:  Flow In 
 FLON.gpm               400.00:  Flow In Min 
 FLOS.cptm                0.00:  Fluid Loss 
 FLOX.gpm               560.00:  Flow In Max 
 DFT .        Mineral Oil Base:  Mud Type 
 FTRO.       Formation Presure:  FTWD Run Obj 
 HFLO.                      No:  High Flow 
 HPRE.                      No:  High Pressure 
 HTEM.                      No:  High Temp 
 HYDO.m                   1.80:  Hydro Offset 
 IFIN.deg                73.83:  Inc, Final 
 IMAX.deg                73.83:  Inc Max 
 IMIN.deg                57.86:  Inc Min 
 IMND.m                3259.27:  Inc Min Depth 
 IMXD.m                4045.58:  Inc Max Depth 
 JARR.                     Yes:  Jarring 
 LETM.      11.50.00 27-May-21:  Log End Time 
 LOST.hr                     0:  Lost Rig Time 
 LSTM.      21.13.00 24-May-21:  Log Start Time 
 MDCL.ppm             42500.00:  Mud Chlorides 
 MDES.     Inversion Oil/Synthetic:  Mud Desc 
 DFD .sg                  1.52:  Mud Density 
 MDMN.sg                  1.52:  Dens Mud Min 
 MDMX.sg                  1.52:  Dens Mud Max 
 MOIL.                      70:  Run Mud Oil % 
 MOWR.                   70:30:  Run Mud OWR 
 MSND.                     0.2:  Run Mud Sand % 
 MSOL.                      22:  Run Mud Solids% 
 DFV .spqt               77.00:  Mud Viscosity 
 MWOD.in                  6.75:  MWD Tool OD 
 MWSI.                      No:  Serv Intrp, MWD 
 OTIM.hr                151.01:  Time Operating 
 PCON.          Wear / Scratch:  Pad Condition 
 PMAX.psia            11296.93:  Press Op, Max 
 PV  .cP                 37.00:  Mud PV 
 RUN .                     500:  Run Number 
 ROPA.m/hr               25.00:  ROP Avg 
 ROPN.m/hr                9.00:  ROP Min 
 ROPX.m/hr               28.00:  ROP Max 
 RPMA.rpm               140.00:  RPM Surface Avg 
 RPMN.rpm                90.00:  RPM Surface Min 
 RPMX.rpm               140.00:  RPM Surface Max 
 RRUN.                    0500:  Rig Run Number 
 SAZI.deg               172.17:  Azm, Start 
 SDEP.m                3248.00:  Start Depth 
 SIDD.                      No:  Serv Intrp, DD 
 SINC.deg                57.86:  Inc, Start 
 SPPA.psig             5620.00:  SPP Avg 
 SPPN.psig             5190.00:  SPP Min 
 SPPX.psig             6050.00:  SPP Max 
 STIM.      16.00.00 23-May-21:  Start Time 
 SVCS.                 DD, MWD:  Services 
 SVER.                    9.20:  Sperry Version 
 TDAT.m                 806.00:  Tot Depth Attmp 
 TDDF.                      No:  Trip for DD 
 TDLG.m                 806.00:  Tot Depth Loggd 
 TFF .                      No:  Trip for Fail 
 TQAA.f-kp               12.00:  Torque Abs Avg 
 TQAN.f-kp                8.00:  Torque Abs Min 
 TQAX.f-kp               15.00:  Torque Abs Max 
 TRRT.°/30m               0.30:  Turn Rotating 
 MRT .                  EWR-M5:  Maximum Recorded Temperature 
 TTMX.degC               93.00:  Max Tool Temp 
 VS01.                90649155:  Virtual Str1 SN 
 VS02.                90642264:  Virtual Str2 SN 
 VS03.                90642266:  Virtual Str3 SN 
 VS04.                90642261:  Virtual Str4 SN 
 WBMN.klb                 0.00:  WOB Min 
 WITN.             Anar Khalil:  Customer Rep 
 WITN.           Murad Guliyev:  Customer Rep 2 
 WOBA.klb                13.00:  WOB Avg 
 WOBX.klb                25.00:  WOB Max 
 YP  .lhf2               32.00:  Yield Point 
~Curve Information Block
#MNEM.UNIT                 API CODE     Curve Description
#---------               -----------    ---------------------------
 TIME.HHMMSS            00 000 000 000:  GT Time & Date
 GTDEPTH.m              00 000 000 000:  GT Depth
 GTPQH.psia             00 000 000 000:  GT HR Quartz Pressure
 GTTQ.degC              00 000 000 000:  GT Quartz Temperature
 GTTN.NONE              00 000 000 000:  GT Test Number
 GTET.sec               00 000 000 000:  GT Elapsed Test Time
 GTTVD.m                00 000 000 000:  GT True Vertical Depth
#Other Information
#
#WARRANTY: Halliburton will use its best efforts to furnish customers with 
#accurate information and interpretations that are part of, and incident to, the services 
#provided.  However, Halliburton cannot and does not warrant the accuracy 
#or correctness of such information and interpretations.  Under no circumstances should any 
#such information or interpretation be relied upon as the sole basis for any drilling, 
#completion, production, or financial decision or any procedure involving any risk to the 
#safety of any drilling venture, drilling rig or its crew or any other third party.  The 
#Customer has full responsibility for all drilling, completion and production operation.  
#Halliburton makes no representations or warranties, either expressed or 
#implied, including, but not limited to, the implied warranties of merchantability or fitness 
#for a particular purpose, with respect to the services rendered.  In no event will 
#Halliburton be liable for failure to obtain any particular results or for 
#any damages, including, but not limited to, indirect, special or consequential damages, 
#resulting from the use of any information or interpretation provided by Halliburton.
#
~A           TIME           GTDEPTH  GTPQH  GTTQ  GTTN  GTET   GTTVD  
# ...
   04:04:39.398.28-May-2021 3493.50 4126.99 83.13 8.00 161.05 2592.27
   04:04:39.598.28-May-2021 3493.50 4126.99 83.13 8.00 161.25 2592.27
   04:04:39.798.28-May-2021 3493.50 4126.05 83.13 8.00 161.45 2592.27
   04:04:39.998.28-May-2021 3493.50 4125.28 83.13 8.00 161.65 2592.27
   04:04:40.198.28-May-2021 3493.50 4126.20 83.13 8.00 161.85 2592.27
   04:04:40.398.28-May-2021 3493.50 4125.95 83.13 8.00 162.05 2592.27
   04:04:40.598.28-May-2021 3493.50 4125.95 83.13 8.00 162.25 2592.27
   04:04:40.798.28-May-2021 3493.50 4127.02 83.13 8.00 162.45 2592.27
   04:04:40.998.28-May-2021 3493.50 4124.24 83.13 8.00 162.65 2592.27
   04:04:41.198.28-May-2021 3493.50 4128.36 83.13 8.00 162.85 2592.27
   04:04:41.398.28-May-2021 3493.50 4209.02 83.13 8.00 163.05 2592.27
   04:04:41.598.28-May-2021 3493.50 4209.02 83.13 8.00 163.25 2592.27
   04:04:41.798.28-May-2021 3493.50 4215.94 83.13 8.00 163.45 2592.27
   04:04:41.998.28-May-2021 3493.50 4215.98 83.13 8.00 163.65 2592.27
   04:04:42.198.28-May-2021 3493.50 4216.02 83.13 8.00 163.85 2592.27
   04:04:42.399.28-May-2021 3493.50 4216.07 83.13 8.00 164.05 2592.27
   04:04:42.599.28-May-2021 3493.50 4216.07 83.13 8.00 164.25 2592.27
   04:04:42.799.28-May-2021 3493.50 4216.15 83.13 8.00 164.45 2592.27
   04:04:42.999.28-May-2021 3493.50 4216.19 83.13 8.00 164.65 2592.27
   04:04:43.199.28-May-2021 3493.50 4216.22 83.13 8.00 164.85 2592.27
   04:04:43.399.28-May-2021 3493.50 4216.11 83.13 8.00 165.05 2592.27
   04:04:43.599.28-May-2021 3493.50 4216.11 83.13 8.00 165.25 2592.27
   04:04:43.799.28-May-2021 3493.50 4216.62 83.13 8.00 165.45 2592.27
   04:04:43.999.28-May-2021 3493.50 4216.57 83.13 8.00 165.65 2592.27
   04:04:44.199.28-May-2021 3493.50 4216.69 83.13 8.00 165.85 2592.27
   04:04:44.399.28-May-2021 3493.50 4216.71 83.13 8.00 166.05 2592.27
   04:04:44.599.28-May-2021 3493.50 4216.71 83.13 8.00 166.25 2592.27
   04:04:44.799.28-May-2021 3493.50 4216.71 83.13 8.00 166.45 2592.27
   04:04:44.999.28-May-2021 3493.50 4216.80 83.13 8.00 166.65 2592.27
   04:04:45.199.28-May-2021 3493.50 4216.68 83.13 8.00 166.85 2592.27
   04:04:45.400.28-May-2021 3493.50 4216.76 83.13 8.00 167.05 2592.27
   04:04:45.600.28-May-2021 3493.50 4216.76 83.13 8.00 167.25 2592.27
   04:04:45.800.28-May-2021 3493.50 4216.78 83.12 8.00 167.45 2592.27
   04:04:46.000.28-May-2021 3493.50 4216.59 83.12 8.00 167.65 2592.27
   04:04:46.200.28-May-2021 3493.50 4216.96 83.12 8.00 167.85 2592.27
   04:04:46.400.28-May-2021 3493.50 4216.81 83.12 8.00 168.05 2592.27
   04:04:46.600.28-May-2021 3493.50 4216.81 83.12 8.00 168.25 2592.27
   04:04:46.800.28-May-2021 3493.50 4216.78 83.12 8.00 168.45 2592.27
   04:04:47.000.28-May-2021 3493.50 4216.81 83.12 8.00 168.65 2592.27
   04:04:47.200.28-May-2021 3493.50 4216.80 83.12 8.00 168.85 2592.27
   04:04:47.400.28-May-2021 3493.50 4216.80 83.12 8.00 169.05 2592.27
   04:04:47.600.28-May-2021 3493.50 4216.80 83.12 8.00 169.25 2592.27
   04:04:47.800.28-May-2021 3493.50 4216.79 83.12 8.00 169.45 2592.27
   04:04:48.000.28-May-2021 3493.50 4216.80 83.12 8.00 169.65 2592.27
   04:04:48.200.28-May-2021 3493.50 4216.79 83.12 8.00 169.85 2592.27
   04:04:48.400.28-May-2021 3493.50 4216.70 83.12 8.00 170.05 2592.27
   04:04:48.601.28-May-2021 3493.50 4216.70 83.12 8.00 170.25 2592.27
   04:04:48.801.28-May-2021 3493.50 4216.86 83.12 8.00 170.45 2592.27
   04:04:49.001.28-May-2021 3493.50 4216.81 83.12 8.00 170.65 2592.27
   04:04:49.201.28-May-2021 3493.50 4216.84 83.12 8.00 170.86 2592.27
   04:04:49.401.28-May-2021 3493.50 4216.83 83.12 8.00 171.06 2592.27
   04:04:49.601.28-May-2021 3493.50 4216.83 83.12 8.00 171.26 2592.27
   04:04:49.801.28-May-2021 3493.50 4216.83 83.12 8.00 171.46 2592.27
   04:04:50.001.28-May-2021 3493.50 4216.82 83.12 8.00 171.66 2592.27
   04:04:50.201.28-May-2021 3493.50 4216.82 83.12 8.00 171.86 2592.27
   04:04:50.401.28-May-2021 3493.50 4216.81 83.12 8.00 172.06 2592.27
   04:04:50.601.28-May-2021 3493.50 4216.81 83.12 8.00 172.26 2592.27
   04:04:50.801.28-May-2021 3493.50 4216.81 83.12 8.00 172.46 2592.27
   04:04:51.001.28-May-2021 3493.50 4216.80 83.12 8.00 172.66 2592.27
   04:04:51.201.28-May-2021 3493.50 4216.62 83.12 8.00 172.86 2592.27
   04:04:51.401.28-May-2021 3493.50 4217.00 83.12 8.00 173.06 2592.27
   04:04:51.601.28-May-2021 3493.50 4217.00 83.12 8.00 173.26 2592.27
   04:04:51.802.28-May-2021 3493.50 4216.52 83.12 8.00 173.46 2592.27
   04:04:52.002.28-May-2021 3493.50 4217.13 83.12 8.00 173.66 2592.27
   04:04:52.202.28-May-2021 3493.50 4216.86 83.12 8.00 173.86 2592.27
   04:04:52.402.28-May-2021 3493.50 4216.86 83.12 8.00 174.06 2592.27
   04:04:52.602.28-May-2021 3493.50 4216.86 83.12 8.00 174.26 2592.27
   04:04:52.802.28-May-2021 3493.50 4216.86 83.12 8.00 174.46 2592.27
   04:04:53.002.28-May-2021 3493.50 4216.77 83.12 8.00 174.66 2592.27
   04:04:53.202.28-May-2021 3493.50 4216.86 83.12 8.00 174.86 2592.27
   04:04:53.402.28-May-2021 3493.50 4216.86 83.12 8.00 175.06 2592.27
   04:04:53.602.28-May-2021 3493.50 4216.86 83.12 8.00 175.26 2592.27
   04:04:53.802.28-May-2021 3493.50 4216.53 83.12 8.00 175.46 2592.27
   04:04:54.002.28-May-2021 3493.50 4217.18 83.12 8.00 175.66 2592.27
   04:04:54.202.28-May-2021 3493.50 4216.86 83.12 8.00 175.86 2592.27
   04:04:54.402.28-May-2021 3493.50 4216.89 83.12 8.00 176.06 2592.27
   04:04:54.602.28-May-2021 3493.50 4216.89 83.12 8.00 176.26 2592.27
   04:04:54.803.28-May-2021 3493.50 4216.87 83.12 8.00 176.46 2592.27
   04:04:55.003.28-May-2021 3493.50 4216.86 83.12 8.00 176.66 2592.27
   04:04:55.203.28-May-2021 3493.50 4216.86 83.12 8.00 176.86 2592.27
   04:04:55.403.28-May-2021 3493.50 4216.87 83.12 8.00 177.06 2592.27
   04:04:55.603.28-May-2021 3493.50 4216.87 83.12 8.00 177.26 2592.27
   04:04:55.803.28-May-2021 3493.50 4216.85 83.12 8.00 177.46 2592.27
   04:04:56.003.28-May-2021 3493.50 4216.85 83.12 8.00 177.66 2592.27
   04:04:56.203.28-May-2021 3493.50 4216.85 83.12 8.00 177.86 2592.27
   04:04:56.403.28-May-2021 3493.50 4216.67 83.12 8.00 178.06 2592.27
   04:04:56.603.28-May-2021 3493.50 4216.67 83.12 8.00 178.26 2592.27
   04:04:56.803.28-May-2021 3493.50 4217.03 83.12 8.00 178.46 2592.27
   04:04:57.003.28-May-2021 3493.50 4216.89 83.12 8.00 178.66 2592.27
   04:04:57.203.28-May-2021 3493.50 4216.85 83.12 8.00 178.86 2592.27
   04:04:57.403.28-May-2021 3493.50 4216.86 83.12 8.00 179.06 2592.27
   04:04:57.603.28-May-2021 3493.50 4216.86 83.12 8.00 179.26 2592.27
   04:04:57.803.28-May-2021 3493.50 4216.86 83.12 8.00 179.46 2592.27
   04:04:58.004.28-May-2021 3493.50 4216.86 83.12 8.00 179.66 2592.27
   04:04:58.204.28-May-2021 3493.50 4216.86 83.12 8.00 179.86 2592.27
   04:04:58.404.28-May-2021 3493.50 4216.85 83.12 8.00 180.06 2592.27
   04:04:58.604.28-May-2021 3493.50 4216.85 83.12 8.00 180.26 2592.27
   04:04:58.804.28-May-2021 3493.50 4216.84 83.12 8.00 180.46 2592.27
   04:04:59.004.28-May-2021 3493.50 4216.52 83.12 8.00 180.66 2592.27
   04:04:59.204.28-May-2021 3493.50 4217.16 83.12 8.00 180.86 2592.27
   04:04:59.404.28-May-2021 3493.50 4216.87 83.12 8.00 181.06 2592.27
   04:04:59.604.28-May-2021 3493.50 4216.87 83.12 8.00 181.26 2592.27
   04:04:59.804.28-May-2021 3493.50 4216.79 83.12 8.00 181.46 2592.27
   04:05:00.004.28-May-2021 3493.50 4216.93 83.12 8.00 181.66 2592.27
   04:05:00.204.28-May-2021 3493.50 4216.87 83.12 8.00 181.86 2592.27
   04:05:00.404.28-May-2021 3493.50 4216.84 83.12 8.00 182.06 2592.27
   04:05:00.604.28-May-2021 3493.50 4216.84 83.12 8.00 182.26 2592.27
   04:05:00.804.28-May-2021 3493.50 4216.89 83.11 8.00 182.46 2592.27
   04:05:01.005.28-May-2021 3493.50 4216.68 83.11 8.00 182.66 2592.27
   04:05:01.205.28-May-2021 3493.50 4217.04 83.11 8.00 182.86 2592.27
   04:05:01.405.28-May-2021 3493.50 4216.88 83.11 8.00 183.06 2592.27
   04:05:01.605.28-May-2021 3493.50 4216.88 83.11 8.00 183.26 2592.27
   04:05:01.805.28-May-2021 3493.50 4216.86 83.11 8.00 183.46 2592.27
   04:05:02.005.28-May-2021 3493.50 4216.60 83.11 8.00 183.66 2592.27
   04:05:02.205.28-May-2021 3493.50 4217.13 83.11 8.00 183.86 2592.27
