~Version Information
 VERS.                  2.0:   CWLS log ASCII Standard -VERSION 2.0
 WRAP.                   NO:   One line per depth step
~Well Information Block
#MNEM.UNIT     VALUE/NAME     DESCRIPTION
#---------     -----------    ---------------------------
 STRT.S             00:59:34 28-May-21: START TIME 00:59:34 28-May-21
 STOP.S             01:06:40 28-May-21: STOP TIME  01:06:40 28-May-21
 STEP.S                   0.00: STEP TIME
 NULL.                 -999.25: NULL VALUE
 UWI .                     N/A:  UNIQUE WELL IDENTIFIER
 API .                     N/A:  API NUMBER
 UNIT.                     N/A:  LOGGING EQUIPMENT ID
 DCON.         Sperry Drilling:  DIRECTNL CONTR
 DOE .                     N/A:  DOE NUMBER
 MWDS.                    Baku:  MWD SHOP
 SRVC.     Turan Drilling and Engineering:  CONTRACTOR
 CTRY.              Azerbaijan:  COUNTRY NAME
 PROV.                    Baku:  PROVINCE
 STAT.                    Baku:  STATE NAME
 REGN.                   EESSA:  REGION
 BASE.              Azerbaijan:  LOGGING EQUIPMENT BASE LOCATION
 WTYP.                Deviated:  WELL TYPE
 RIG .              East Azeri:  RIG NAME
 WELL.                    D02y:  WELL NAME
 FLD .                     ACG:  FIELD NAME
 COMP.     BP Exploration (Caspian Sea) Ltd.:  COMPANY
 PDAT.          Mean Sea Level:  PERMANENT DATUM
 MDS .        Operator Entered:  MAG DATA SOURCE
 SON .        AZ-XX-0906997291:  JOB NUMBER
 FTOP.          Formation Tops:  FORM TOPS DESC
 ILTD.               Lithology:  INTERP LTH DESC
 SVYD.                  Survey:  SURVEY DESC
 DMOD.             Drill Model:  DRILL MOD DESC
 HPTY.       Minimum Curvature:  HOLE POS TYPE
 NREF.                    Grid:  NORTH REFERENCE
 SPUD.               05-May-21:  SPUD DATE
 DATE.      09.27.28 12-Jun-21:  END TIME
 STIM.      09.27.28 12-May-21:  START TIME
 DMF .             Drill Floor:  DRILL MEAS FROM
 DFST.                        :  DIST FSL TEXT
 DFWT.                        :  DIST FWL TEXT
 CNTY.                        :  COUNTY
 LOC .                        :  LOCATION
 LMF .             Drill Floor:  LOG MEASURED FROM
 DEP .m                2806.40:  DEPTH
 AGAP.m                  43.60:  AIR GAP
 VSNS.m                  -4.42:  VERT SEC N/S
 VSEW.m                  -7.31:  VERT SEC E/W
 APD .m                  43.60:  DEPTH ABOVE PD
 WDMS.m                 151.80:  WD ELEV
 EGL .m                   0.00:  GROUND ELEVATION
 EPD .m                   0.00:  ELEVATION
 AZTC.deg                 6.18:  AZM TOTAL CORR
 GRDC.deg                 0.29:  GRID CORRECTION
 MDEC.deg                 6.47:  MAGNETIC DECL
 MDIP.deg                59.50:  MAGNETIC DIP
 MFLD.nT              50350.00:  MAGNETIC FIELD
 GVFD.g                   1.00:  GRAVITY FIELD
 VSDR.deg               179.08:  VERT SEC DIRECT
 TDD .m                4300.00:  TOTAL DEPTH (DRILLER)
 SDEP.m                2800.00:  START DEPTH
 DFSL.m                   0.00:  DISTANCE FSL
 DFWL.m                   0.00:  DISTANCE FWL
 UTMY.m             4431871.34:  UTM Y
 UTMX.m              538762.90:  UTM X
 WHEW.m                  -7.31:  WELL HEAD E/W
 WHNS.m                  -4.42:  WELL HEAD N/S
 LONG.deg                51.45:  LONGITUDE
 LATI.deg                40.02:  LATITUDE
 TVDS.m                  43.60:  TVDSS CORRECTN
 EKB .m                  43.60:  KB ELEVATION
 EDF .m                  43.60:  DF ELEVATION
 TDL .m                 806.00:  TOTAL DEPTH (LOGGER)
 MAGU.                 1851231:  MAGUTM CHECKSUM
 VSC .                       0:  VS TO CLOSURE
~Parameter Information Block
#MNEM.UNIT       Value        Description
#---------     -----------    ---------------------------
 AV  .mps                 1.60:  Ann Velocity 
 AVMX.mps                 2.00:  Max Ann Veloc 
 AZIF.deg               140.24:  Azm, Final 
 BHAT.        Rotary Steerable:  BHA Type 
 BROT.°/30m               0.50:  Build Rotating 
 BS  .in                  8.50:  Bit Size 
 BTPL.psig              619.00:  Bit Press Loss 
 CABU.                     Yes:  Customer Abuse 
 CGEO.          Ilgar Gurbanov:  Customer Geo 
 COMM.                     ô:r:  Run Comments 1 
 TCS .hr                 85.88:  Time Ciculation Ended 
 CV  .mps                 3.30:  Crit Velocity 
 CVMX.mps                 3.50:  Max Crit Veloc 
 DD1 .           Hamid Axmedov:  Direct Drillr 1 
 DD2 .           Teymur Aliyev:  Direct Drillr 2 
 DDSV.               Geo-Pilot:  DD Service 
 DEFF.%                 100.00:  % Det Eff 
 DLRX.°/30m               0.00:  Dogleg Rot Max 
 DLSO.°/30m               1.80:  Dogleg Oriented 
 DLSX.°/30m               3.34:  Dogleg Str Max 
 DRET.      11.50.00 27-May-21:  Drill End Time 
 DRST.      21.13.00 24-May-21:  Drill Start Tim 
 DTIM.hr                 45.11:  Time Drilling 
 EDEP.m                4054.00:  End Depth 
 ENG1.         Almaz Almadatov:  Engineer 1 
 ENG2.           Amrah Tahirov:  Engineer 2 
 ENG3.      Bakhtiyar Jabbarli:  Engineer 3 
 ENG4.          Nazrin Asgarli:  Engineer 4 
 ETIM.      10.00.00 30-May-21:  End Time 
 FLOI.gpm               530.00:  Flow In 
 FLON.gpm               400.00:  Flow In Min 
 FLOS.cptm                0.00:  Fluid Loss 
 FLOX.gpm               560.00:  Flow In Max 
 DFT .        Mineral Oil Base:  Mud Type 
 FTRO.       Formation Presure:  FTWD Run Obj 
 HFLO.                      No:  High Flow 
 HPRE.                      No:  High Pressure 
 HTEM.                      No:  High Temp 
 HYDO.m                   1.80:  Hydro Offset 
 IFIN.deg                73.83:  Inc, Final 
 IMAX.deg                73.83:  Inc Max 
 IMIN.deg                57.86:  Inc Min 
 IMND.m                3259.27:  Inc Min Depth 
 IMXD.m                4045.58:  Inc Max Depth 
 JARR.                     Yes:  Jarring 
 LETM.      11.50.00 27-May-21:  Log End Time 
 LOST.hr                     0:  Lost Rig Time 
 LSTM.      21.13.00 24-May-21:  Log Start Time 
 MDCL.ppm             42500.00:  Mud Chlorides 
 MDES.     Inversion Oil/Synthetic:  Mud Desc 
 DFD .sg                  1.52:  Mud Density 
 MDMN.sg                  1.52:  Dens Mud Min 
 MDMX.sg                  1.52:  Dens Mud Max 
 MOIL.                      70:  Run Mud Oil % 
 MOWR.                   70:30:  Run Mud OWR 
 MSND.                     0.2:  Run Mud Sand % 
 MSOL.                      22:  Run Mud Solids% 
 DFV .spqt               77.00:  Mud Viscosity 
 MWOD.in                  6.75:  MWD Tool OD 
 MWSI.                      No:  Serv Intrp, MWD 
 OTIM.hr                151.01:  Time Operating 
 PCON.          Wear / Scratch:  Pad Condition 
 PMAX.psia            11296.93:  Press Op, Max 
 PV  .cP                 37.00:  Mud PV 
 RUN .                     500:  Run Number 
 ROPA.m/hr               25.00:  ROP Avg 
 ROPN.m/hr                9.00:  ROP Min 
 ROPX.m/hr               28.00:  ROP Max 
 RPMA.rpm               140.00:  RPM Surface Avg 
 RPMN.rpm                90.00:  RPM Surface Min 
 RPMX.rpm               140.00:  RPM Surface Max 
 RRUN.                    0500:  Rig Run Number 
 SAZI.deg               172.17:  Azm, Start 
 SDEP.m                3248.00:  Start Depth 
 SIDD.                      No:  Serv Intrp, DD 
 SINC.deg                57.86:  Inc, Start 
 SPPA.psig             5620.00:  SPP Avg 
 SPPN.psig             5190.00:  SPP Min 
 SPPX.psig             6050.00:  SPP Max 
 STIM.      16.00.00 23-May-21:  Start Time 
 SVCS.                 DD, MWD:  Services 
 SVER.                    9.20:  Sperry Version 
 TDAT.m                 806.00:  Tot Depth Attmp 
 TDDF.                      No:  Trip for DD 
 TDLG.m                 806.00:  Tot Depth Loggd 
 TFF .                      No:  Trip for Fail 
 TQAA.f-kp               12.00:  Torque Abs Avg 
 TQAN.f-kp                8.00:  Torque Abs Min 
 TQAX.f-kp               15.00:  Torque Abs Max 
 TRRT.°/30m               0.30:  Turn Rotating 
 MRT .                  EWR-M5:  Maximum Recorded Temperature 
 TTMX.degC               93.00:  Max Tool Temp 
 VS01.                90649155:  Virtual Str1 SN 
 VS02.                90642264:  Virtual Str2 SN 
 VS03.                90642266:  Virtual Str3 SN 
 VS04.                90642261:  Virtual Str4 SN 
 WBMN.klb                 0.00:  WOB Min 
 WITN.             Anar Khalil:  Customer Rep 
 WITN.           Murad Guliyev:  Customer Rep 2 
 WOBA.klb                13.00:  WOB Avg 
 WOBX.klb                25.00:  WOB Max 
 YP  .lhf2               32.00:  Yield Point 
~Curve Information Block
#MNEM.UNIT                 API CODE     Curve Description
#---------               -----------    ---------------------------
 TIME.HHMMSS            00 000 000 000:  GT Time & Date
 GTDEPTH.m              00 000 000 000:  GT Depth
 GTPQH.psia             00 000 000 000:  GT HR Quartz Pressure
 GTTQ.degC              00 000 000 000:  GT Quartz Temperature
 GTTN.NONE              00 000 000 000:  GT Test Number
 GTET.sec               00 000 000 000:  GT Elapsed Test Time
 GTTVD.m                00 000 000 000:  GT True Vertical Depth
#Other Information
#
#WARRANTY: Halliburton will use its best efforts to furnish customers with 
#accurate information and interpretations that are part of, and incident to, the services 
#provided.  However, Halliburton cannot and does not warrant the accuracy 
#or correctness of such information and interpretations.  Under no circumstances should any 
#such information or interpretation be relied upon as the sole basis for any drilling, 
#completion, production, or financial decision or any procedure involving any risk to the 
#safety of any drilling venture, drilling rig or its crew or any other third party.  The 
#Customer has full responsibility for all drilling, completion and production operation.  
#Halliburton makes no representations or warranties, either expressed or 
#implied, including, but not limited to, the implied warranties of merchantability or fitness 
#for a particular purpose, with respect to the services rendered.  In no event will 
#Halliburton be liable for failure to obtain any particular results or for 
#any damages, including, but not limited to, indirect, special or consequential damages, 
#resulting from the use of any information or interpretation provided by Halliburton.
#
~A           TIME           GTDEPTH  GTPQH  GTTQ  GTTN  GTET   GTTVD  
# ...
   01:05:20.311.28-May-2021 3649.00 3165.37 84.92 5.00 345.36 2653.32
   01:05:20.511.28-May-2021 3649.00 3165.37 84.92 5.00 345.56 2653.32
   01:05:20.711.28-May-2021 3649.00 3165.38 84.92 5.00 345.76 2653.32
   01:05:20.911.28-May-2021 3649.00 3165.37 84.92 5.00 345.96 2653.32
   01:05:21.111.28-May-2021 3649.00 3165.37 84.92 5.00 346.16 2653.32
   01:05:21.312.28-May-2021 3649.00 3165.36 84.92 5.00 346.36 2653.32
   01:05:21.512.28-May-2021 3649.00 3165.36 84.92 5.00 346.56 2653.32
   01:05:21.712.28-May-2021 3649.00 3165.37 84.92 5.00 346.76 2653.32
   01:05:21.912.28-May-2021 3649.00 3165.38 84.92 5.00 346.96 2653.32
   01:05:22.112.28-May-2021 3649.00 3165.37 84.92 5.00 347.16 2653.32
   01:05:22.313.28-May-2021 3649.00 3165.37 84.92 5.00 347.36 2653.32
   01:05:22.513.28-May-2021 3649.00 3165.37 84.92 5.00 347.56 2653.32
   01:05:22.713.28-May-2021 3649.00 3165.38 84.92 5.00 347.76 2653.32
   01:05:22.913.28-May-2021 3649.00 3165.37 84.92 5.00 347.96 2653.32
   01:05:23.114.28-May-2021 3649.00 3165.37 84.92 5.00 348.16 2653.32
   01:05:23.314.28-May-2021 3649.00 3165.38 84.92 5.00 348.36 2653.32
   01:05:23.514.28-May-2021 3649.00 3165.38 84.92 5.00 348.56 2653.32
   01:05:23.714.28-May-2021 3649.00 3165.38 84.92 5.00 348.76 2653.32
   01:05:23.914.28-May-2021 3649.00 3165.37 84.92 5.00 348.96 2653.32
   01:05:24.115.28-May-2021 3649.00 3165.36 84.92 5.00 349.16 2653.32
   01:05:24.315.28-May-2021 3649.00 3165.38 84.92 5.00 349.36 2653.32
   01:05:24.515.28-May-2021 3649.00 3165.38 84.92 5.00 349.56 2653.32
   01:05:24.715.28-May-2021 3649.00 3165.37 84.92 5.00 349.76 2653.32
   01:05:24.915.28-May-2021 3649.00 3165.36 84.92 5.00 349.96 2653.32
   01:05:25.116.28-May-2021 3649.00 3165.37 84.92 5.00 350.16 2653.32
   01:05:25.316.28-May-2021 3649.00 3165.36 84.92 5.00 350.36 2653.32
   01:05:25.516.28-May-2021 3649.00 3165.36 84.92 5.00 350.56 2653.32
   01:05:25.716.28-May-2021 3649.00 3165.37 84.92 5.00 350.76 2653.32
   01:05:25.916.28-May-2021 3649.00 3165.37 84.92 5.00 350.97 2653.32
   01:05:26.117.28-May-2021 3649.00 3165.36 84.92 5.00 351.17 2653.32
   01:05:26.317.28-May-2021 3649.00 3165.38 84.92 5.00 351.37 2653.32
   01:05:26.517.28-May-2021 3649.00 3165.38 84.92 5.00 351.57 2653.32
   01:05:26.717.28-May-2021 3649.00 3165.37 84.92 5.00 351.77 2653.32
   01:05:26.917.28-May-2021 3649.00 3165.37 84.92 5.00 351.97 2653.32
   01:05:27.118.28-May-2021 3649.00 3165.37 84.92 5.00 352.17 2653.32
   01:05:27.318.28-May-2021 3649.00 3165.37 84.92 5.00 352.37 2653.32
   01:05:27.518.28-May-2021 3649.00 3165.37 84.92 5.00 352.57 2653.32
   01:05:27.718.28-May-2021 3649.00 3165.36 84.92 5.00 352.77 2653.32
   01:05:27.919.28-May-2021 3649.00 3165.37 84.92 5.00 352.97 2653.32
   01:05:28.119.28-May-2021 3649.00 3165.37 84.92 5.00 353.17 2653.32
   01:05:28.319.28-May-2021 3649.00 3165.37 84.92 5.00 353.37 2653.32
   01:05:28.519.28-May-2021 3649.00 3165.37 84.92 5.00 353.57 2653.32
   01:05:28.719.28-May-2021 3649.00 3165.36 84.92 5.00 353.77 2653.32
   01:05:28.920.28-May-2021 3649.00 3165.36 84.92 5.00 353.97 2653.32
   01:05:29.120.28-May-2021 3649.00 3165.36 84.92 5.00 354.17 2653.32
   01:05:29.320.28-May-2021 3649.00 3165.36 84.92 5.00 354.37 2653.32
   01:05:29.520.28-May-2021 3649.00 3165.36 84.92 5.00 354.57 2653.32
   01:05:29.720.28-May-2021 3649.00 3165.37 84.92 5.00 354.77 2653.32
   01:05:29.921.28-May-2021 3649.00 3165.36 84.92 5.00 354.97 2653.32
   01:05:30.121.28-May-2021 3649.00 3165.37 84.92 5.00 355.17 2653.32
   01:05:30.321.28-May-2021 3649.00 3165.36 84.92 5.00 355.37 2653.32
   01:05:30.521.28-May-2021 3649.00 3165.36 84.92 5.00 355.57 2653.32
   01:05:30.721.28-May-2021 3649.00 3165.34 84.92 5.00 355.77 2653.32
   01:05:30.922.28-May-2021 3649.00 3165.38 84.92 5.00 355.97 2653.32
   01:05:31.122.28-May-2021 3649.00 3165.36 84.92 5.00 356.17 2653.32
   01:05:31.322.28-May-2021 3649.00 3165.37 84.92 5.00 356.37 2653.32
   01:05:31.522.28-May-2021 3649.00 3165.37 84.92 5.00 356.57 2653.32
   01:05:31.722.28-May-2021 3649.00 3165.36 84.92 5.00 356.77 2653.32
   01:05:31.923.28-May-2021 3649.00 3165.37 84.92 5.00 356.97 2653.32
   01:05:32.123.28-May-2021 3649.00 3165.35 84.92 5.00 357.17 2653.32
   01:05:32.323.28-May-2021 3649.00 3165.37 84.92 5.00 357.37 2653.32
   01:05:32.523.28-May-2021 3649.00 3165.37 84.92 5.00 357.57 2653.32
   01:05:32.724.28-May-2021 3649.00 3165.36 84.92 5.00 357.77 2653.32
   01:05:32.924.28-May-2021 3649.00 3165.36 84.92 5.00 357.97 2653.32
   01:05:33.124.28-May-2021 3649.00 3165.36 84.92 5.00 358.17 2653.32
   01:05:33.324.28-May-2021 3649.00 3165.35 84.92 5.00 358.37 2653.32
   01:05:33.524.28-May-2021 3649.00 3165.35 84.92 5.00 358.57 2653.32
   01:05:33.725.28-May-2021 3649.00 3165.36 84.92 5.00 358.77 2653.32
   01:05:33.925.28-May-2021 3649.00 3165.37 84.92 5.00 358.97 2653.32
   01:05:34.125.28-May-2021 3649.00 3165.36 84.92 5.00 359.17 2653.32
   01:05:34.325.28-May-2021 3649.00 3165.36 84.92 5.00 359.37 2653.32
   01:05:34.525.28-May-2021 3649.00 3165.36 84.92 5.00 359.57 2653.32
   01:05:34.726.28-May-2021 3649.00 3165.35 84.92 5.00 359.77 2653.32
   01:05:34.926.28-May-2021 3649.00 3165.36 84.92 5.00 359.97 2653.32
   01:05:35.126.28-May-2021 3649.00 3165.36 84.92 5.00 360.17 2653.32
   01:05:35.326.28-May-2021 3649.00 3165.36 84.92 5.00 360.37 2653.32
   01:05:35.526.28-May-2021 3649.00 3165.36 84.92 5.00 360.58 2653.32
   01:05:35.727.28-May-2021 3649.00 3165.37 84.92 5.00 360.78 2653.32
   01:05:35.927.28-May-2021 3649.00 3165.35 84.92 5.00 360.98 2653.32
   01:05:36.127.28-May-2021 3649.00 3165.36 84.92 5.00 361.18 2653.32
   01:05:36.327.28-May-2021 3649.00 3165.36 84.92 5.00 361.38 2653.32
   01:05:36.527.28-May-2021 3649.00 3165.36 84.92 5.00 361.58 2653.32
   01:05:36.728.28-May-2021 3649.00 3165.35 84.92 5.00 361.78 2653.32
   01:05:36.928.28-May-2021 3649.00 3165.36 84.92 5.00 361.98 2653.32
   01:05:37.128.28-May-2021 3649.00 3165.37 84.92 5.00 362.18 2653.32
   01:05:37.328.28-May-2021 3649.00 3165.35 84.92 5.00 362.38 2653.32
   01:05:37.529.28-May-2021 3649.00 3165.35 84.92 5.00 362.58 2653.32
   01:05:37.729.28-May-2021 3649.00 3165.34 84.92 5.00 362.78 2653.32
   01:05:37.929.28-May-2021 3649.00 3165.37 84.92 5.00 362.98 2653.32
   01:05:38.129.28-May-2021 3649.00 3165.36 84.92 5.00 363.18 2653.32
   01:05:38.329.28-May-2021 3649.00 3165.36 84.92 5.00 363.38 2653.32
   01:05:38.530.28-May-2021 3649.00 3165.36 84.92 5.00 363.58 2653.32
   01:05:38.730.28-May-2021 3649.00 3165.36 84.92 5.00 363.78 2653.32
   01:05:38.930.28-May-2021 3649.00 3165.34 84.92 5.00 363.98 2653.32
   01:05:39.130.28-May-2021 3649.00 3165.37 84.92 5.00 364.18 2653.32
   01:05:39.330.28-May-2021 3649.00 3165.37 84.92 5.00 364.38 2653.32
   01:05:39.531.28-May-2021 3649.00 3165.37 84.92 5.00 364.58 2653.32
   01:05:39.731.28-May-2021 3649.00 3165.35 84.92 5.00 364.78 2653.32
   01:05:39.931.28-May-2021 3649.00 3165.36 84.92 5.00 364.98 2653.32
   01:05:40.131.28-May-2021 3649.00 3165.36 84.92 5.00 365.18 2653.32
   01:05:40.331.28-May-2021 3649.00 3165.35 84.92 5.00 365.38 2653.32
   01:05:40.532.28-May-2021 3649.00 3165.35 84.92 5.00 365.58 2653.32
   01:05:40.732.28-May-2021 3649.00 3165.36 84.92 5.00 365.78 2653.32
   01:05:40.932.28-May-2021 3649.00 3165.36 84.92 5.00 365.98 2653.32
   01:05:41.132.28-May-2021 3649.00 3165.35 84.92 5.00 366.18 2653.32
   01:05:41.332.28-May-2021 3649.00 3165.36 84.92 5.00 366.38 2653.32
   01:05:41.533.28-May-2021 3649.00 3165.36 84.92 5.00 366.58 2653.32
   01:05:41.733.28-May-2021 3649.00 3165.35 84.92 5.00 366.78 2653.32
   01:05:41.933.28-May-2021 3649.00 3165.36 84.92 5.00 366.98 2653.32
   01:05:42.133.28-May-2021 3649.00 3165.36 84.92 5.00 367.18 2653.32
   01:05:42.334.28-May-2021 3649.00 3165.35 84.92 5.00 367.38 2653.32
   01:05:42.534.28-May-2021 3649.00 3165.35 84.92 5.00 367.58 2653.32
   01:05:42.734.28-May-2021 3649.00 3165.35 84.92 5.00 367.78 2653.32
   01:05:42.934.28-May-2021 3649.00 3165.35 84.92 5.00 367.98 2653.32
   01:05:43.134.28-May-2021 3649.00 3165.35 84.92 5.00 368.18 2653.32
