~Version Information
 VERS.                  2.0:   CWLS log ASCII Standard -VERSION 2.0
 WRAP.                   NO:   One line per depth step
~Well Information Block
#MNEM.UNIT     VALUE/NAME     DESCRIPTION
#---------     -----------    ---------------------------
 STRT.S             06:06:39 28-May-21: START TIME 06:06:39 28-May-21
 STOP.S             06:13:42 28-May-21: STOP TIME  06:13:42 28-May-21
 STEP.S                   0.00: STEP TIME
 NULL.                 -999.25: NULL VALUE
 UWI .                     N/A:  UNIQUE WELL IDENTIFIER
 API .                     N/A:  API NUMBER
 UNIT.                     N/A:  LOGGING EQUIPMENT ID
 DCON.         Sperry Drilling:  DIRECTNL CONTR
 DOE .                     N/A:  DOE NUMBER
 MWDS.                    Baku:  MWD SHOP
 SRVC.     Turan Drilling and Engineering:  CONTRACTOR
 CTRY.              Azerbaijan:  COUNTRY NAME
 PROV.                    Baku:  PROVINCE
 STAT.                    Baku:  STATE NAME
 REGN.                   EESSA:  REGION
 BASE.              Azerbaijan:  LOGGING EQUIPMENT BASE LOCATION
 WTYP.                Deviated:  WELL TYPE
 RIG .              East Azeri:  RIG NAME
 WELL.                    D02y:  WELL NAME
 FLD .                     ACG:  FIELD NAME
 COMP.     BP Exploration (Caspian Sea) Ltd.:  COMPANY
 PDAT.          Mean Sea Level:  PERMANENT DATUM
 MDS .        Operator Entered:  MAG DATA SOURCE
 SON .        AZ-XX-0906997291:  JOB NUMBER
 FTOP.          Formation Tops:  FORM TOPS DESC
 ILTD.               Lithology:  INTERP LTH DESC
 SVYD.                  Survey:  SURVEY DESC
 DMOD.             Drill Model:  DRILL MOD DESC
 HPTY.       Minimum Curvature:  HOLE POS TYPE
 NREF.                    Grid:  NORTH REFERENCE
 SPUD.               05-May-21:  SPUD DATE
 DATE.      09.27.28 12-Jun-21:  END TIME
 STIM.      09.27.28 12-May-21:  START TIME
 DMF .             Drill Floor:  DRILL MEAS FROM
 DFST.                        :  DIST FSL TEXT
 DFWT.                        :  DIST FWL TEXT
 CNTY.                        :  COUNTY
 LOC .                        :  LOCATION
 LMF .             Drill Floor:  LOG MEASURED FROM
 DEP .m                2806.40:  DEPTH
 AGAP.m                  43.60:  AIR GAP
 VSNS.m                  -4.42:  VERT SEC N/S
 VSEW.m                  -7.31:  VERT SEC E/W
 APD .m                  43.60:  DEPTH ABOVE PD
 WDMS.m                 151.80:  WD ELEV
 EGL .m                   0.00:  GROUND ELEVATION
 EPD .m                   0.00:  ELEVATION
 AZTC.deg                 6.18:  AZM TOTAL CORR
 GRDC.deg                 0.29:  GRID CORRECTION
 MDEC.deg                 6.47:  MAGNETIC DECL
 MDIP.deg                59.50:  MAGNETIC DIP
 MFLD.nT              50350.00:  MAGNETIC FIELD
 GVFD.g                   1.00:  GRAVITY FIELD
 VSDR.deg               179.08:  VERT SEC DIRECT
 TDD .m                4300.00:  TOTAL DEPTH (DRILLER)
 SDEP.m                2800.00:  START DEPTH
 DFSL.m                   0.00:  DISTANCE FSL
 DFWL.m                   0.00:  DISTANCE FWL
 UTMY.m             4431871.34:  UTM Y
 UTMX.m              538762.90:  UTM X
 WHEW.m                  -7.31:  WELL HEAD E/W
 WHNS.m                  -4.42:  WELL HEAD N/S
 LONG.deg                51.45:  LONGITUDE
 LATI.deg                40.02:  LATITUDE
 TVDS.m                  43.60:  TVDSS CORRECTN
 EKB .m                  43.60:  KB ELEVATION
 EDF .m                  43.60:  DF ELEVATION
 TDL .m                 806.00:  TOTAL DEPTH (LOGGER)
 MAGU.                 1851231:  MAGUTM CHECKSUM
 VSC .                       0:  VS TO CLOSURE
~Parameter Information Block
#MNEM.UNIT       Value        Description
#---------     -----------    ---------------------------
 AV  .mps                 1.60:  Ann Velocity 
 AVMX.mps                 2.00:  Max Ann Veloc 
 AZIF.deg               140.24:  Azm, Final 
 BHAT.        Rotary Steerable:  BHA Type 
 BROT.°/30m               0.50:  Build Rotating 
 BS  .in                  8.50:  Bit Size 
 BTPL.psig              619.00:  Bit Press Loss 
 CABU.                     Yes:  Customer Abuse 
 CGEO.          Ilgar Gurbanov:  Customer Geo 
 COMM.                     ´.T:  Run Comments 1 
 TCS .hr                 85.88:  Time Ciculation Ended 
 CV  .mps                 3.30:  Crit Velocity 
 CVMX.mps                 3.50:  Max Crit Veloc 
 DD1 .           Hamid Axmedov:  Direct Drillr 1 
 DD2 .           Teymur Aliyev:  Direct Drillr 2 
 DDSV.               Geo-Pilot:  DD Service 
 DEFF.%                 100.00:  % Det Eff 
 DLRX.°/30m               0.00:  Dogleg Rot Max 
 DLSO.°/30m               1.80:  Dogleg Oriented 
 DLSX.°/30m               3.34:  Dogleg Str Max 
 DRET.      11.50.00 27-May-21:  Drill End Time 
 DRST.      21.13.00 24-May-21:  Drill Start Tim 
 DTIM.hr                 45.11:  Time Drilling 
 EDEP.m                4054.00:  End Depth 
 ENG1.         Almaz Almadatov:  Engineer 1 
 ENG2.           Amrah Tahirov:  Engineer 2 
 ENG3.      Bakhtiyar Jabbarli:  Engineer 3 
 ENG4.          Nazrin Asgarli:  Engineer 4 
 ETIM.      10.00.00 30-May-21:  End Time 
 FLOI.gpm               530.00:  Flow In 
 FLON.gpm               400.00:  Flow In Min 
 FLOS.cptm                0.00:  Fluid Loss 
 FLOX.gpm               560.00:  Flow In Max 
 DFT .        Mineral Oil Base:  Mud Type 
 FTRO.       Formation Presure:  FTWD Run Obj 
 HFLO.                      No:  High Flow 
 HPRE.                      No:  High Pressure 
 HTEM.                      No:  High Temp 
 HYDO.m                   1.80:  Hydro Offset 
 IFIN.deg                73.83:  Inc, Final 
 IMAX.deg                73.83:  Inc Max 
 IMIN.deg                57.86:  Inc Min 
 IMND.m                3259.27:  Inc Min Depth 
 IMXD.m                4045.58:  Inc Max Depth 
 JARR.                     Yes:  Jarring 
 LETM.      11.50.00 27-May-21:  Log End Time 
 LOST.hr                     0:  Lost Rig Time 
 LSTM.      21.13.00 24-May-21:  Log Start Time 
 MDCL.ppm             42500.00:  Mud Chlorides 
 MDES.     Inversion Oil/Synthetic:  Mud Desc 
 DFD .sg                  1.52:  Mud Density 
 MDMN.sg                  1.52:  Dens Mud Min 
 MDMX.sg                  1.52:  Dens Mud Max 
 MOIL.                      70:  Run Mud Oil % 
 MOWR.                   70:30:  Run Mud OWR 
 MSND.                     0.2:  Run Mud Sand % 
 MSOL.                      22:  Run Mud Solids% 
 DFV .spqt               77.00:  Mud Viscosity 
 MWOD.in                  6.75:  MWD Tool OD 
 MWSI.                      No:  Serv Intrp, MWD 
 OTIM.hr                151.01:  Time Operating 
 PCON.          Wear / Scratch:  Pad Condition 
 PMAX.psia            11296.93:  Press Op, Max 
 PV  .cP                 37.00:  Mud PV 
 RUN .                     500:  Run Number 
 ROPA.m/hr               25.00:  ROP Avg 
 ROPN.m/hr                9.00:  ROP Min 
 ROPX.m/hr               28.00:  ROP Max 
 RPMA.rpm               140.00:  RPM Surface Avg 
 RPMN.rpm                90.00:  RPM Surface Min 
 RPMX.rpm               140.00:  RPM Surface Max 
 RRUN.                    0500:  Rig Run Number 
 SAZI.deg               172.17:  Azm, Start 
 SDEP.m                3248.00:  Start Depth 
 SIDD.                      No:  Serv Intrp, DD 
 SINC.deg                57.86:  Inc, Start 
 SPPA.psig             5620.00:  SPP Avg 
 SPPN.psig             5190.00:  SPP Min 
 SPPX.psig             6050.00:  SPP Max 
 STIM.      16.00.00 23-May-21:  Start Time 
 SVCS.                 DD, MWD:  Services 
 SVER.                    9.20:  Sperry Version 
 TDAT.m                 806.00:  Tot Depth Attmp 
 TDDF.                      No:  Trip for DD 
 TDLG.m                 806.00:  Tot Depth Loggd 
 TFF .                      No:  Trip for Fail 
 TQAA.f-kp               12.00:  Torque Abs Avg 
 TQAN.f-kp                8.00:  Torque Abs Min 
 TQAX.f-kp               15.00:  Torque Abs Max 
 TRRT.°/30m               0.30:  Turn Rotating 
 MRT .                  EWR-M5:  Maximum Recorded Temperature 
 TTMX.degC               93.00:  Max Tool Temp 
 VS01.                90649155:  Virtual Str1 SN 
 VS02.                90642264:  Virtual Str2 SN 
 VS03.                90642266:  Virtual Str3 SN 
 VS04.                90642261:  Virtual Str4 SN 
 WBMN.klb                 0.00:  WOB Min 
 WITN.             Anar Khalil:  Customer Rep 
 WITN.           Murad Guliyev:  Customer Rep 2 
 WOBA.klb                13.00:  WOB Avg 
 WOBX.klb                25.00:  WOB Max 
 YP  .lhf2               32.00:  Yield Point 
~Curve Information Block
#MNEM.UNIT                 API CODE     Curve Description
#---------               -----------    ---------------------------
 TIME.HHMMSS            00 000 000 000:  GT Time & Date
 GTDEPTH.m              00 000 000 000:  GT Depth
 GTPQH.psia             00 000 000 000:  GT HR Quartz Pressure
 GTTQ.degC              00 000 000 000:  GT Quartz Temperature
 GTTN.NONE              00 000 000 000:  GT Test Number
 GTET.sec               00 000 000 000:  GT Elapsed Test Time
 GTTVD.m                00 000 000 000:  GT True Vertical Depth
#Other Information
#
#WARRANTY: Halliburton will use its best efforts to furnish customers with 
#accurate information and interpretations that are part of, and incident to, the services 
#provided.  However, Halliburton cannot and does not warrant the accuracy 
#or correctness of such information and interpretations.  Under no circumstances should any 
#such information or interpretation be relied upon as the sole basis for any drilling, 
#completion, production, or financial decision or any procedure involving any risk to the 
#safety of any drilling venture, drilling rig or its crew or any other third party.  The 
#Customer has full responsibility for all drilling, completion and production operation.  
#Halliburton makes no representations or warranties, either expressed or 
#implied, including, but not limited to, the implied warranties of merchantability or fitness 
#for a particular purpose, with respect to the services rendered.  In no event will 
#Halliburton be liable for failure to obtain any particular results or for 
#any damages, including, but not limited to, indirect, special or consequential damages, 
#resulting from the use of any information or interpretation provided by Halliburton.
#
~A           TIME           GTDEPTH  GTPQH  GTTQ  GTTN   GTET   GTTVD  
# ...
   06:13:03.591.28-May-2021 3440.00 6009.67 83.39 12.00 384.36 2569.12
   06:13:03.791.28-May-2021 3440.00 6009.26 83.39 12.00 384.56 2569.12
   06:13:03.991.28-May-2021 3440.00 6009.27 83.39 12.00 384.76 2569.12
   06:13:04.191.28-May-2021 3440.00 6009.14 83.39 12.00 384.96 2569.12
   06:13:04.391.28-May-2021 3440.00 6015.01 83.39 12.00 385.16 2569.12
   06:13:04.591.28-May-2021 3440.00 6015.01 83.39 12.00 385.36 2569.12
   06:13:04.791.28-May-2021 3440.00 6009.64 83.39 12.00 385.56 2569.12
   06:13:04.991.28-May-2021 3440.00 6009.60 83.39 12.00 385.76 2569.12
   06:13:05.191.28-May-2021 3440.00 6009.60 83.39 12.00 385.96 2569.12
   06:13:05.391.28-May-2021 3440.00 6009.60 83.39 12.00 386.16 2569.12
   06:13:05.592.28-May-2021 3440.00 6009.60 83.39 12.00 386.36 2569.12
   06:13:05.792.28-May-2021 3440.00 6009.89 83.39 12.00 386.56 2569.12
   06:13:05.992.28-May-2021 3440.00 6010.06 83.39 12.00 386.76 2569.12
   06:13:06.192.28-May-2021 3440.00 6009.81 83.39 12.00 386.96 2569.12
   06:13:06.392.28-May-2021 3440.00 6009.59 83.39 12.00 387.16 2569.12
   06:13:06.592.28-May-2021 3440.00 6009.59 83.39 12.00 387.36 2569.12
   06:13:06.792.28-May-2021 3440.00 6009.40 83.39 12.00 387.56 2569.12
   06:13:06.992.28-May-2021 3440.00 6009.19 83.39 12.00 387.76 2569.12
   06:13:07.192.28-May-2021 3440.00 6014.85 83.39 12.00 387.96 2569.12
   06:13:07.392.28-May-2021 3440.00 6007.61 83.39 12.00 388.16 2569.12
   06:13:07.592.28-May-2021 3440.00 6007.61 83.39 12.00 388.36 2569.12
   06:13:07.792.28-May-2021 3440.00 6009.35 83.39 12.00 388.56 2569.12
   06:13:07.993.28-May-2021 3440.00 6016.01 83.39 12.00 388.76 2569.12
   06:13:08.193.28-May-2021 3440.00 6007.17 83.39 12.00 388.96 2569.12
   06:13:08.393.28-May-2021 3440.00 6009.61 83.39 12.00 389.16 2569.12
   06:13:08.593.28-May-2021 3440.00 6009.61 83.39 12.00 389.36 2569.12
   06:13:08.793.28-May-2021 3440.00 6009.98 83.39 12.00 389.56 2569.12
   06:13:08.993.28-May-2021 3440.00 6009.14 83.39 12.00 389.76 2569.12
   06:13:09.193.28-May-2021 3440.00 6013.60 83.39 12.00 389.96 2569.12
   06:13:09.393.28-May-2021 3440.00 6009.48 83.39 12.00 390.16 2569.12
   06:13:09.593.28-May-2021 3440.00 6009.48 83.39 12.00 390.36 2569.12
   06:13:09.793.28-May-2021 3440.00 6015.58 83.39 12.00 390.56 2569.12
   06:13:09.993.28-May-2021 3440.00 6007.73 83.39 12.00 390.76 2569.12
   06:13:10.193.28-May-2021 3440.00 6010.22 83.39 12.00 390.96 2569.12
   06:13:10.394.28-May-2021 3440.00 6009.66 83.39 12.00 391.16 2569.12
   06:13:10.594.28-May-2021 3440.00 6009.66 83.39 12.00 391.36 2569.12
   06:13:10.794.28-May-2021 3440.00 6009.56 83.39 12.00 391.56 2569.12
   06:13:10.994.28-May-2021 3440.00 6009.63 83.39 12.00 391.76 2569.12
   06:13:11.194.28-May-2021 3440.00 6009.78 83.39 12.00 391.96 2569.12
   06:13:11.394.28-May-2021 3440.00 6009.80 83.39 12.00 392.16 2569.12
   06:13:11.594.28-May-2021 3440.00 6009.80 83.39 12.00 392.36 2569.12
   06:13:11.794.28-May-2021 3440.00 6009.54 83.39 12.00 392.56 2569.12
   06:13:11.994.28-May-2021 3440.00 6009.33 83.39 12.00 392.76 2569.12
   06:13:12.194.28-May-2021 3440.00 6009.23 83.39 12.00 392.96 2569.12
   06:13:12.394.28-May-2021 3440.00 6013.34 83.39 12.00 393.16 2569.12
   06:13:12.594.28-May-2021 3440.00 6013.34 83.39 12.00 393.36 2569.12
   06:13:12.795.28-May-2021 3440.00 6009.51 83.39 12.00 393.56 2569.12
   06:13:12.995.28-May-2021 3440.00 6009.73 83.39 12.00 393.76 2569.12
   06:13:13.195.28-May-2021 3440.00 6009.27 83.39 12.00 393.96 2569.12
   06:13:13.395.28-May-2021 3440.00 6009.71 83.39 12.00 394.16 2569.12
   06:13:13.595.28-May-2021 3440.00 6009.71 83.39 12.00 394.36 2569.12
   06:13:13.795.28-May-2021 3440.00 6009.83 83.39 12.00 394.56 2569.12
   06:13:13.995.28-May-2021 3440.00 6009.78 83.39 12.00 394.76 2569.12
   06:13:14.195.28-May-2021 3440.00 6009.77 83.39 12.00 394.97 2569.12
   06:13:14.395.28-May-2021 3440.00 6009.77 83.39 12.00 395.17 2569.12
   06:13:14.595.28-May-2021 3440.00 6009.73 83.39 12.00 395.37 2569.12
   06:13:14.795.28-May-2021 3440.00 6009.35 83.39 12.00 395.57 2569.12
   06:13:14.995.28-May-2021 3440.00 6009.17 83.39 12.00 395.77 2569.12
   06:13:15.196.28-May-2021 3440.00 6013.51 83.39 12.00 395.97 2569.12
   06:13:15.396.28-May-2021 3440.00 6009.24 83.39 12.00 396.17 2569.12
   06:13:15.596.28-May-2021 3440.00 6009.24 83.39 12.00 396.37 2569.12
   06:13:15.796.28-May-2021 3440.00 6009.48 83.39 12.00 396.57 2569.12
   06:13:15.996.28-May-2021 3440.00 6014.83 83.39 12.00 396.77 2569.12
   06:13:16.196.28-May-2021 3440.00 6008.06 83.39 12.00 396.97 2569.12
   06:13:16.396.28-May-2021 3440.00 6009.57 83.39 12.00 397.17 2569.12
   06:13:16.596.28-May-2021 3440.00 6009.57 83.39 12.00 397.37 2569.12
   06:13:16.796.28-May-2021 3440.00 6009.97 83.39 12.00 397.57 2569.12
   06:13:16.996.28-May-2021 3440.00 6011.71 83.39 12.00 397.77 2569.12
   06:13:17.196.28-May-2021 3440.00 6011.44 83.39 12.00 397.97 2569.12
   06:13:17.396.28-May-2021 3440.00 6009.87 83.39 12.00 398.17 2569.12
   06:13:17.597.28-May-2021 3440.00 6009.87 83.39 12.00 398.37 2569.12
   06:13:17.797.28-May-2021 3440.00 6014.31 83.39 12.00 398.57 2569.12
   06:13:17.997.28-May-2021 3440.00 6009.38 83.39 12.00 398.77 2569.12
   06:13:18.197.28-May-2021 3440.00 6010.15 83.39 12.00 398.97 2569.12
   06:13:18.397.28-May-2021 3440.00 6009.94 83.39 12.00 399.17 2569.12
   06:13:18.597.28-May-2021 3440.00 6009.94 83.39 12.00 399.37 2569.12
   06:13:18.797.28-May-2021 3440.00 6009.86 83.39 12.00 399.57 2569.12
   06:13:18.997.28-May-2021 3440.00 6009.55 83.39 12.00 399.77 2569.12
   06:13:19.197.28-May-2021 3440.00 6009.94 83.39 12.00 399.97 2569.12
   06:13:19.397.28-May-2021 3440.00 6009.92 83.39 12.00 400.17 2569.12
   06:13:19.597.28-May-2021 3440.00 6009.92 83.39 12.00 400.37 2569.12
   06:13:19.797.28-May-2021 3440.00 6009.53 83.39 12.00 400.57 2569.12
   06:13:19.998.28-May-2021 3440.00 6009.41 83.39 12.00 400.77 2569.12
   06:13:20.198.28-May-2021 3440.00 6011.26 83.39 12.00 400.97 2569.12
   06:13:20.398.28-May-2021 3440.00 6011.09 83.39 12.00 401.17 2569.12
   06:13:20.598.28-May-2021 3440.00 6011.09 83.39 12.00 401.37 2569.12
   06:13:20.798.28-May-2021 3440.00 6009.14 83.39 12.00 401.57 2569.12
   06:13:20.998.28-May-2021 3440.00 6009.74 83.39 12.00 401.77 2569.12
   06:13:21.198.28-May-2021 3440.00 6008.95 83.39 12.00 401.97 2569.12
   06:13:21.398.28-May-2021 3440.00 6009.75 83.39 12.00 402.17 2569.12
   06:13:21.598.28-May-2021 3440.00 6009.75 83.39 12.00 402.37 2569.12
   06:13:21.798.28-May-2021 3440.00 6009.86 83.39 12.00 402.57 2569.12
   06:13:21.998.28-May-2021 3440.00 6009.68 83.39 12.00 402.77 2569.12
   06:13:22.198.28-May-2021 3440.00 6009.87 83.39 12.00 402.97 2569.12
   06:13:22.399.28-May-2021 3440.00 6009.89 83.39 12.00 403.17 2569.12
   06:13:22.599.28-May-2021 3440.00 6009.89 83.39 12.00 403.37 2569.12
   06:13:22.799.28-May-2021 3440.00 6009.38 83.39 12.00 403.57 2569.12
   06:13:22.999.28-May-2021 3440.00 6011.32 83.39 12.00 403.77 2569.12
   06:13:23.199.28-May-2021 3440.00 6011.35 83.39 12.00 403.97 2569.12
   06:13:23.399.28-May-2021 3440.00 6009.52 83.39 12.00 404.17 2569.12
   06:13:23.599.28-May-2021 3440.00 6009.52 83.39 12.00 404.37 2569.12
   06:13:23.799.28-May-2021 3440.00 6009.74 83.39 12.00 404.57 2569.12
   06:13:23.999.28-May-2021 3440.00 6013.02 83.39 12.00 404.77 2569.12
   06:13:24.199.28-May-2021 3440.00 6009.75 83.39 12.00 404.97 2569.12
   06:13:24.399.28-May-2021 3440.00 6009.40 83.39 12.00 405.17 2569.12
   06:13:24.599.28-May-2021 3440.00 6009.40 83.39 12.00 405.37 2569.12
   06:13:24.800.28-May-2021 3440.00 6009.02 83.39 12.00 405.57 2569.12
   06:13:25.000.28-May-2021 3440.00 6014.42 83.39 12.00 405.77 2569.12
   06:13:25.200.28-May-2021 3440.00 6008.41 83.39 12.00 405.97 2569.12
   06:13:25.400.28-May-2021 3440.00 6009.61 83.39 12.00 406.17 2569.12
   06:13:25.600.28-May-2021 3440.00 6009.61 83.39 12.00 406.37 2569.12
   06:13:25.800.28-May-2021 3440.00 6011.98 83.39 12.00 406.57 2569.12
   06:13:26.000.28-May-2021 3440.00 6009.26 83.39 12.00 406.77 2569.12
