~Version Information
 VERS.                  2.0:   CWLS log ASCII Standard -VERSION 2.0
 WRAP.                   NO:   One line per depth step
~Well Information Block
#MNEM.UNIT     VALUE/NAME     DESCRIPTION
#---------     -----------    ---------------------------
 STRT.S             02:05:55 28-May-21: START TIME 02:05:55 28-May-21
 STOP.S             02:13:01 28-May-21: STOP TIME  02:13:01 28-May-21
 STEP.S                   0.00: STEP TIME
 NULL.                 -999.25: NULL VALUE
 UWI .                     N/A:  UNIQUE WELL IDENTIFIER
 API .                     N/A:  API NUMBER
 UNIT.                     N/A:  LOGGING EQUIPMENT ID
 DCON.         Sperry Drilling:  DIRECTNL CONTR
 DOE .                     N/A:  DOE NUMBER
 MWDS.                    Baku:  MWD SHOP
 SRVC.     Turan Drilling and Engineering:  CONTRACTOR
 CTRY.              Azerbaijan:  COUNTRY NAME
 PROV.                    Baku:  PROVINCE
 STAT.                    Baku:  STATE NAME
 REGN.                   EESSA:  REGION
 BASE.              Azerbaijan:  LOGGING EQUIPMENT BASE LOCATION
 WTYP.                Deviated:  WELL TYPE
 RIG .              East Azeri:  RIG NAME
 WELL.                    D02y:  WELL NAME
 FLD .                     ACG:  FIELD NAME
 COMP.     BP Exploration (Caspian Sea) Ltd.:  COMPANY
 PDAT.          Mean Sea Level:  PERMANENT DATUM
 MDS .        Operator Entered:  MAG DATA SOURCE
 SON .        AZ-XX-0906997291:  JOB NUMBER
 FTOP.          Formation Tops:  FORM TOPS DESC
 ILTD.               Lithology:  INTERP LTH DESC
 SVYD.                  Survey:  SURVEY DESC
 DMOD.             Drill Model:  DRILL MOD DESC
 HPTY.       Minimum Curvature:  HOLE POS TYPE
 NREF.                    Grid:  NORTH REFERENCE
 SPUD.               05-May-21:  SPUD DATE
 DATE.      09.27.28 12-Jun-21:  END TIME
 STIM.      09.27.28 12-May-21:  START TIME
 DMF .             Drill Floor:  DRILL MEAS FROM
 DFST.                        :  DIST FSL TEXT
 DFWT.                        :  DIST FWL TEXT
 CNTY.                        :  COUNTY
 LOC .                        :  LOCATION
 LMF .             Drill Floor:  LOG MEASURED FROM
 DEP .m                2806.40:  DEPTH
 AGAP.m                  43.60:  AIR GAP
 VSNS.m                  -4.42:  VERT SEC N/S
 VSEW.m                  -7.31:  VERT SEC E/W
 APD .m                  43.60:  DEPTH ABOVE PD
 WDMS.m                 151.80:  WD ELEV
 EGL .m                   0.00:  GROUND ELEVATION
 EPD .m                   0.00:  ELEVATION
 AZTC.deg                 6.18:  AZM TOTAL CORR
 GRDC.deg                 0.29:  GRID CORRECTION
 MDEC.deg                 6.47:  MAGNETIC DECL
 MDIP.deg                59.50:  MAGNETIC DIP
 MFLD.nT              50350.00:  MAGNETIC FIELD
 GVFD.g                   1.00:  GRAVITY FIELD
 VSDR.deg               179.08:  VERT SEC DIRECT
 TDD .m                4300.00:  TOTAL DEPTH (DRILLER)
 SDEP.m                2800.00:  START DEPTH
 DFSL.m                   0.00:  DISTANCE FSL
 DFWL.m                   0.00:  DISTANCE FWL
 UTMY.m             4431871.34:  UTM Y
 UTMX.m              538762.90:  UTM X
 WHEW.m                  -7.31:  WELL HEAD E/W
 WHNS.m                  -4.42:  WELL HEAD N/S
 LONG.deg                51.45:  LONGITUDE
 LATI.deg                40.02:  LATITUDE
 TVDS.m                  43.60:  TVDSS CORRECTN
 EKB .m                  43.60:  KB ELEVATION
 EDF .m                  43.60:  DF ELEVATION
 TDL .m                 806.00:  TOTAL DEPTH (LOGGER)
 MAGU.                 1851231:  MAGUTM CHECKSUM
 VSC .                       0:  VS TO CLOSURE
~Parameter Information Block
#MNEM.UNIT       Value        Description
#---------     -----------    ---------------------------
 AV  .mps                 1.60:  Ann Velocity 
 AVMX.mps                 2.00:  Max Ann Veloc 
 AZIF.deg               140.24:  Azm, Final 
 BHAT.        Rotary Steerable:  BHA Type 
 BROT.°/30m               0.50:  Build Rotating 
 BS  .in                  8.50:  Bit Size 
 BTPL.psig              619.00:  Bit Press Loss 
 CABU.                     Yes:  Customer Abuse 
 CGEO.          Ilgar Gurbanov:  Customer Geo 
 COMM.                     „.V:  Run Comments 1 
 TCS .hr                 85.88:  Time Ciculation Ended 
 CV  .mps                 3.30:  Crit Velocity 
 CVMX.mps                 3.50:  Max Crit Veloc 
 DD1 .           Hamid Axmedov:  Direct Drillr 1 
 DD2 .           Teymur Aliyev:  Direct Drillr 2 
 DDSV.               Geo-Pilot:  DD Service 
 DEFF.%                 100.00:  % Det Eff 
 DLRX.°/30m               0.00:  Dogleg Rot Max 
 DLSO.°/30m               1.80:  Dogleg Oriented 
 DLSX.°/30m               3.34:  Dogleg Str Max 
 DRET.      11.50.00 27-May-21:  Drill End Time 
 DRST.      21.13.00 24-May-21:  Drill Start Tim 
 DTIM.hr                 45.11:  Time Drilling 
 EDEP.m                4054.00:  End Depth 
 ENG1.         Almaz Almadatov:  Engineer 1 
 ENG2.           Amrah Tahirov:  Engineer 2 
 ENG3.      Bakhtiyar Jabbarli:  Engineer 3 
 ENG4.          Nazrin Asgarli:  Engineer 4 
 ETIM.      10.00.00 30-May-21:  End Time 
 FLOI.gpm               530.00:  Flow In 
 FLON.gpm               400.00:  Flow In Min 
 FLOS.cptm                0.00:  Fluid Loss 
 FLOX.gpm               560.00:  Flow In Max 
 DFT .        Mineral Oil Base:  Mud Type 
 FTRO.       Formation Presure:  FTWD Run Obj 
 HFLO.                      No:  High Flow 
 HPRE.                      No:  High Pressure 
 HTEM.                      No:  High Temp 
 HYDO.m                   1.80:  Hydro Offset 
 IFIN.deg                73.83:  Inc, Final 
 IMAX.deg                73.83:  Inc Max 
 IMIN.deg                57.86:  Inc Min 
 IMND.m                3259.27:  Inc Min Depth 
 IMXD.m                4045.58:  Inc Max Depth 
 JARR.                     Yes:  Jarring 
 LETM.      11.50.00 27-May-21:  Log End Time 
 LOST.hr                     0:  Lost Rig Time 
 LSTM.      21.13.00 24-May-21:  Log Start Time 
 MDCL.ppm             42500.00:  Mud Chlorides 
 MDES.     Inversion Oil/Synthetic:  Mud Desc 
 DFD .sg                  1.52:  Mud Density 
 MDMN.sg                  1.52:  Dens Mud Min 
 MDMX.sg                  1.52:  Dens Mud Max 
 MOIL.                      70:  Run Mud Oil % 
 MOWR.                   70:30:  Run Mud OWR 
 MSND.                     0.2:  Run Mud Sand % 
 MSOL.                      22:  Run Mud Solids% 
 DFV .spqt               77.00:  Mud Viscosity 
 MWOD.in                  6.75:  MWD Tool OD 
 MWSI.                      No:  Serv Intrp, MWD 
 OTIM.hr                151.01:  Time Operating 
 PCON.          Wear / Scratch:  Pad Condition 
 PMAX.psia            11296.93:  Press Op, Max 
 PV  .cP                 37.00:  Mud PV 
 RUN .                     500:  Run Number 
 ROPA.m/hr               25.00:  ROP Avg 
 ROPN.m/hr                9.00:  ROP Min 
 ROPX.m/hr               28.00:  ROP Max 
 RPMA.rpm               140.00:  RPM Surface Avg 
 RPMN.rpm                90.00:  RPM Surface Min 
 RPMX.rpm               140.00:  RPM Surface Max 
 RRUN.                    0500:  Rig Run Number 
 SAZI.deg               172.17:  Azm, Start 
 SDEP.m                3248.00:  Start Depth 
 SIDD.                      No:  Serv Intrp, DD 
 SINC.deg                57.86:  Inc, Start 
 SPPA.psig             5620.00:  SPP Avg 
 SPPN.psig             5190.00:  SPP Min 
 SPPX.psig             6050.00:  SPP Max 
 STIM.      16.00.00 23-May-21:  Start Time 
 SVCS.                 DD, MWD:  Services 
 SVER.                    9.20:  Sperry Version 
 TDAT.m                 806.00:  Tot Depth Attmp 
 TDDF.                      No:  Trip for DD 
 TDLG.m                 806.00:  Tot Depth Loggd 
 TFF .                      No:  Trip for Fail 
 TQAA.f-kp               12.00:  Torque Abs Avg 
 TQAN.f-kp                8.00:  Torque Abs Min 
 TQAX.f-kp               15.00:  Torque Abs Max 
 TRRT.°/30m               0.30:  Turn Rotating 
 MRT .                  EWR-M5:  Maximum Recorded Temperature 
 TTMX.degC               93.00:  Max Tool Temp 
 VS01.                90649155:  Virtual Str1 SN 
 VS02.                90642264:  Virtual Str2 SN 
 VS03.                90642266:  Virtual Str3 SN 
 VS04.                90642261:  Virtual Str4 SN 
 WBMN.klb                 0.00:  WOB Min 
 WITN.             Anar Khalil:  Customer Rep 
 WITN.           Murad Guliyev:  Customer Rep 2 
 WOBA.klb                13.00:  WOB Avg 
 WOBX.klb                25.00:  WOB Max 
 YP  .lhf2               32.00:  Yield Point 
~Curve Information Block
#MNEM.UNIT                 API CODE     Curve Description
#---------               -----------    ---------------------------
 TIME.HHMMSS            00 000 000 000:  GT Time & Date
 GTDEPTH.m              00 000 000 000:  GT Depth
 GTPQH.psia             00 000 000 000:  GT HR Quartz Pressure
 GTTQ.degC              00 000 000 000:  GT Quartz Temperature
 GTTN.NONE              00 000 000 000:  GT Test Number
 GTET.sec               00 000 000 000:  GT Elapsed Test Time
 GTTVD.m                00 000 000 000:  GT True Vertical Depth
#Other Information
#
#WARRANTY: Halliburton will use its best efforts to furnish customers with 
#accurate information and interpretations that are part of, and incident to, the services 
#provided.  However, Halliburton cannot and does not warrant the accuracy 
#or correctness of such information and interpretations.  Under no circumstances should any 
#such information or interpretation be relied upon as the sole basis for any drilling, 
#completion, production, or financial decision or any procedure involving any risk to the 
#safety of any drilling venture, drilling rig or its crew or any other third party.  The 
#Customer has full responsibility for all drilling, completion and production operation.  
#Halliburton makes no representations or warranties, either expressed or 
#implied, including, but not limited to, the implied warranties of merchantability or fitness 
#for a particular purpose, with respect to the services rendered.  In no event will 
#Halliburton be liable for failure to obtain any particular results or for 
#any damages, including, but not limited to, indirect, special or consequential damages, 
#resulting from the use of any information or interpretation provided by Halliburton.
#
~A           TIME           GTDEPTH  GTPQH  GTTQ  GTTN  GTET   GTTVD  
# ...
   02:12:26.000.28-May-2021 3586.77 6162.41 84.30 6.00 391.00 2629.64
   02:12:26.200.28-May-2021 3586.77 6162.41 84.30 6.00 391.20 2629.64
   02:12:26.400.28-May-2021 3586.77 6162.53 84.30 6.00 391.40 2629.64
   02:12:26.600.28-May-2021 3586.77 6162.48 84.30 6.00 391.60 2629.64
   02:12:26.800.28-May-2021 3586.77 6168.84 84.30 6.00 391.80 2629.64
   02:12:27.000.28-May-2021 3586.77 6160.46 84.29 6.00 392.00 2629.64
   02:12:27.200.28-May-2021 3586.77 6160.46 84.29 6.00 392.20 2629.64
   02:12:27.400.28-May-2021 3586.77 6162.95 84.29 6.00 392.40 2629.64
   02:12:27.600.28-May-2021 3586.77 6162.62 84.29 6.00 392.60 2629.64
   02:12:27.800.28-May-2021 3586.77 6162.35 84.29 6.00 392.80 2629.64
   02:12:28.000.28-May-2021 3586.77 6162.60 84.29 6.00 393.00 2629.64
   02:12:28.200.28-May-2021 3586.77 6162.60 84.29 6.00 393.20 2629.64
   02:12:28.400.28-May-2021 3586.77 6162.33 84.29 6.00 393.40 2629.64
   02:12:28.600.28-May-2021 3586.77 6162.47 84.29 6.00 393.60 2629.64
   02:12:28.800.28-May-2021 3586.77 6162.72 84.29 6.00 393.80 2629.64
   02:12:29.000.28-May-2021 3586.77 6162.61 84.29 6.00 394.00 2629.64
   02:12:29.200.28-May-2021 3586.77 6162.61 84.29 6.00 394.20 2629.64
   02:12:29.400.28-May-2021 3586.77 6162.69 84.29 6.00 394.40 2629.64
   02:12:29.600.28-May-2021 3586.77 6166.92 84.29 6.00 394.60 2629.64
   02:12:29.800.28-May-2021 3586.77 6162.42 84.29 6.00 394.80 2629.64
   02:12:30.000.28-May-2021 3586.77 6162.86 84.29 6.00 395.00 2629.64
   02:12:30.200.28-May-2021 3586.77 6162.86 84.29 6.00 395.20 2629.64
   02:12:30.400.28-May-2021 3586.77 6158.34 84.29 6.00 395.40 2629.64
   02:12:30.600.28-May-2021 3586.77 6162.91 84.29 6.00 395.60 2629.64
   02:12:30.800.28-May-2021 3586.77 6162.20 84.29 6.00 395.80 2629.64
   02:12:31.000.28-May-2021 3586.77 6168.01 84.29 6.00 396.00 2629.64
   02:12:31.200.28-May-2021 3586.77 6168.01 84.29 6.00 396.20 2629.64
   02:12:31.400.28-May-2021 3586.77 6162.21 84.29 6.00 396.40 2629.64
   02:12:31.600.28-May-2021 3586.77 6162.67 84.29 6.00 396.60 2629.64
   02:12:31.800.28-May-2021 3586.77 6161.97 84.29 6.00 396.80 2629.64
   02:12:32.000.28-May-2021 3586.77 6167.20 84.29 6.00 397.00 2629.64
   02:12:32.200.28-May-2021 3586.77 6167.20 84.29 6.00 397.20 2629.64
   02:12:32.400.28-May-2021 3586.77 6162.92 84.29 6.00 397.40 2629.64
   02:12:32.600.28-May-2021 3586.77 6162.91 84.29 6.00 397.60 2629.64
   02:12:32.800.28-May-2021 3586.77 6162.17 84.29 6.00 397.80 2629.64
   02:12:33.000.28-May-2021 3586.77 6163.21 84.29 6.00 398.00 2629.64
   02:12:33.200.28-May-2021 3586.77 6163.21 84.29 6.00 398.20 2629.64
   02:12:33.400.28-May-2021 3586.77 6162.63 84.29 6.00 398.40 2629.64
   02:12:33.600.28-May-2021 3586.77 6162.39 84.29 6.00 398.60 2629.64
   02:12:33.800.28-May-2021 3586.77 6162.63 84.29 6.00 398.80 2629.64
   02:12:34.000.28-May-2021 3586.77 6162.46 84.28 6.00 399.00 2629.64
   02:12:34.200.28-May-2021 3586.77 6162.46 84.28 6.00 399.20 2629.64
   02:12:34.400.28-May-2021 3586.77 6162.41 84.28 6.00 399.40 2629.64
   02:12:34.600.28-May-2021 3586.77 6166.49 84.28 6.00 399.60 2629.64
   02:12:34.800.28-May-2021 3586.77 6162.23 84.28 6.00 399.80 2629.64
   02:12:35.000.28-May-2021 3586.77 6162.77 84.28 6.00 400.00 2629.64
   02:12:35.200.28-May-2021 3586.77 6162.77 84.28 6.00 400.20 2629.64
   02:12:35.400.28-May-2021 3586.77 6161.88 84.28 6.00 400.40 2629.64
   02:12:35.600.28-May-2021 3586.77 6162.97 84.28 6.00 400.60 2629.64
   02:12:35.800.28-May-2021 3586.77 6161.78 84.28 6.00 400.80 2629.64
   02:12:36.000.28-May-2021 3586.77 6162.37 84.28 6.00 401.00 2629.64
   02:12:36.200.28-May-2021 3586.77 6162.37 84.28 6.00 401.20 2629.64
   02:12:36.400.28-May-2021 3586.77 6162.64 84.28 6.00 401.40 2629.64
   02:12:36.600.28-May-2021 3586.77 6163.17 84.28 6.00 401.60 2629.64
   02:12:36.800.28-May-2021 3586.77 6163.17 84.28 6.00 401.80 2629.64
   02:12:37.000.28-May-2021 3586.77 6163.33 84.28 6.00 402.00 2629.64
   02:12:37.200.28-May-2021 3586.77 6163.33 84.28 6.00 402.20 2629.64
   02:12:37.400.28-May-2021 3586.77 6159.18 84.28 6.00 402.40 2629.64
   02:12:37.600.28-May-2021 3586.77 6162.48 84.28 6.00 402.60 2629.64
   02:12:37.800.28-May-2021 3586.77 6171.13 84.28 6.00 402.80 2629.64
   02:12:38.000.28-May-2021 3586.77 6158.60 84.28 6.00 403.00 2629.64
   02:12:38.200.28-May-2021 3586.77 6158.60 84.28 6.00 403.20 2629.64
   02:12:38.400.28-May-2021 3586.77 6162.74 84.28 6.00 403.40 2629.64
   02:12:38.600.28-May-2021 3586.77 6167.69 84.28 6.00 403.60 2629.64
   02:12:38.800.28-May-2021 3586.77 6160.96 84.28 6.00 403.80 2629.64
   02:12:39.000.28-May-2021 3586.77 6162.16 84.28 6.00 404.00 2629.64
   02:12:39.200.28-May-2021 3586.77 6162.16 84.28 6.00 404.20 2629.64
   02:12:39.400.28-May-2021 3586.77 6158.40 84.28 6.00 404.40 2629.64
   02:12:39.600.28-May-2021 3586.77 6163.14 84.28 6.00 404.60 2629.64
   02:12:39.800.28-May-2021 3586.77 6162.47 84.28 6.00 404.80 2629.64
   02:12:40.000.28-May-2021 3586.77 6162.54 84.28 6.00 405.00 2629.64
   02:12:40.200.28-May-2021 3586.77 6162.54 84.28 6.00 405.20 2629.64
   02:12:40.400.28-May-2021 3586.77 6162.52 84.28 6.00 405.40 2629.64
   02:12:40.600.28-May-2021 3586.77 6162.27 84.28 6.00 405.60 2629.64
   02:12:40.800.28-May-2021 3586.77 6162.30 84.28 6.00 405.80 2629.64
   02:12:41.000.28-May-2021 3586.77 6162.59 84.28 6.00 406.00 2629.64
   02:12:41.200.28-May-2021 3586.77 6162.59 84.28 6.00 406.20 2629.64
   02:12:41.400.28-May-2021 3586.77 6162.35 84.28 6.00 406.40 2629.64
   02:12:41.600.28-May-2021 3586.77 6162.36 84.28 6.00 406.60 2629.64
   02:12:41.800.28-May-2021 3586.77 6170.11 84.28 6.00 406.80 2629.64
   02:12:42.000.28-May-2021 3586.77 6158.61 84.27 6.00 407.00 2629.64
   02:12:42.200.28-May-2021 3586.77 6158.61 84.27 6.00 407.20 2629.64
   02:12:42.400.28-May-2021 3586.77 6162.60 84.27 6.00 407.40 2629.64
   02:12:42.600.28-May-2021 3586.77 6161.85 84.27 6.00 407.60 2629.64
   02:12:42.800.28-May-2021 3586.77 6162.44 84.27 6.00 407.80 2629.64
   02:12:43.000.28-May-2021 3586.77 6161.84 84.27 6.00 408.00 2629.64
   02:12:43.200.28-May-2021 3586.77 6161.84 84.27 6.00 408.20 2629.64
   02:12:43.400.28-May-2021 3586.77 6162.01 84.27 6.00 408.40 2629.64
   02:12:43.600.28-May-2021 3586.77 6162.18 84.27 6.00 408.60 2629.64
   02:12:43.800.28-May-2021 3586.77 6162.31 84.27 6.00 408.80 2629.64
   02:12:44.000.28-May-2021 3586.77 6162.33 84.27 6.00 409.00 2629.64
   02:12:44.200.28-May-2021 3586.77 6162.33 84.27 6.00 409.20 2629.64
   02:12:44.400.28-May-2021 3586.77 6165.54 84.27 6.00 409.40 2629.64
   02:12:44.600.28-May-2021 3586.77 6163.26 84.27 6.00 409.60 2629.64
   02:12:44.800.28-May-2021 3586.77 6161.82 84.27 6.00 409.80 2629.64
   02:12:45.000.28-May-2021 3586.77 6162.54 84.27 6.00 410.00 2629.64
   02:12:45.200.28-May-2021 3586.77 6162.54 84.27 6.00 410.20 2629.64
   02:12:45.400.28-May-2021 3586.77 6161.63 84.27 6.00 410.40 2629.64
   02:12:45.600.28-May-2021 3586.77 6162.96 84.27 6.00 410.60 2629.64
   02:12:45.800.28-May-2021 3586.77 6164.82 84.27 6.00 410.80 2629.64
   02:12:46.000.28-May-2021 3586.77 6162.24 84.27 6.00 411.00 2629.64
   02:12:46.200.28-May-2021 3586.77 6162.24 84.27 6.00 411.20 2629.64
   02:12:46.400.28-May-2021 3586.77 6161.78 84.27 6.00 411.40 2629.64
   02:12:46.600.28-May-2021 3586.77 6165.56 84.27 6.00 411.60 2629.64
   02:12:46.800.28-May-2021 3586.77 6162.48 84.27 6.00 411.80 2629.64
   02:12:47.000.28-May-2021 3586.77 6162.30 84.27 6.00 412.00 2629.64
   02:12:47.200.28-May-2021 3586.77 6162.30 84.27 6.00 412.20 2629.64
   02:12:47.400.28-May-2021 3586.77 6162.54 84.27 6.00 412.40 2629.64
   02:12:47.600.28-May-2021 3586.77 6162.02 84.27 6.00 412.60 2629.64
   02:12:47.800.28-May-2021 3586.77 6162.64 84.27 6.00 412.80 2629.64
   02:12:48.000.28-May-2021 3586.77 6161.46 84.27 6.00 413.00 2629.64
   02:12:48.200.28-May-2021 3586.77 6161.46 84.27 6.00 413.20 2629.64
   02:12:48.400.28-May-2021 3586.77 6161.94 84.27 6.00 413.40 2629.64
   02:12:48.600.28-May-2021 3586.77 6162.07 84.27 6.00 413.60 2629.64
   02:12:48.800.28-May-2021 3586.77 6162.03 84.27 6.00 413.80 2629.64
