~Version Information
 VERS.                  2.0:   CWLS log ASCII Standard -VERSION 2.0
 WRAP.                   NO:   One line per depth step
~Well Information Block
#MNEM.UNIT     VALUE/NAME     DESCRIPTION
#---------     -----------    ---------------------------
 STRT.S             08:05:02 28-May-21: START TIME 08:05:02 28-May-21
 STOP.S             08:12:05 28-May-21: STOP TIME  08:12:05 28-May-21
 STEP.S                   0.00: STEP TIME
 NULL.                 -999.25: NULL VALUE
 UWI .                     N/A:  UNIQUE WELL IDENTIFIER
 API .                     N/A:  API NUMBER
 UNIT.                     N/A:  LOGGING EQUIPMENT ID
 DCON.         Sperry Drilling:  DIRECTNL CONTR
 DOE .                     N/A:  DOE NUMBER
 MWDS.                    Baku:  MWD SHOP
 SRVC.     Turan Drilling and Engineering:  CONTRACTOR
 CTRY.              Azerbaijan:  COUNTRY NAME
 PROV.                    Baku:  PROVINCE
 STAT.                    Baku:  STATE NAME
 REGN.                   EESSA:  REGION
 BASE.              Azerbaijan:  LOGGING EQUIPMENT BASE LOCATION
 WTYP.                Deviated:  WELL TYPE
 RIG .              East Azeri:  RIG NAME
 WELL.                    D02y:  WELL NAME
 FLD .                     ACG:  FIELD NAME
 COMP.     BP Exploration (Caspian Sea) Ltd.:  COMPANY
 PDAT.          Mean Sea Level:  PERMANENT DATUM
 MDS .        Operator Entered:  MAG DATA SOURCE
 SON .        AZ-XX-0906997291:  JOB NUMBER
 FTOP.          Formation Tops:  FORM TOPS DESC
 ILTD.               Lithology:  INTERP LTH DESC
 SVYD.                  Survey:  SURVEY DESC
 DMOD.             Drill Model:  DRILL MOD DESC
 HPTY.       Minimum Curvature:  HOLE POS TYPE
 NREF.                    Grid:  NORTH REFERENCE
 SPUD.               05-May-21:  SPUD DATE
 DATE.      09.27.28 12-Jun-21:  END TIME
 STIM.      09.27.28 12-May-21:  START TIME
 DMF .             Drill Floor:  DRILL MEAS FROM
 DFST.                        :  DIST FSL TEXT
 DFWT.                        :  DIST FWL TEXT
 CNTY.                        :  COUNTY
 LOC .                        :  LOCATION
 LMF .             Drill Floor:  LOG MEASURED FROM
 DEP .m                2806.40:  DEPTH
 AGAP.m                  43.60:  AIR GAP
 VSNS.m                  -4.42:  VERT SEC N/S
 VSEW.m                  -7.31:  VERT SEC E/W
 APD .m                  43.60:  DEPTH ABOVE PD
 WDMS.m                 151.80:  WD ELEV
 EGL .m                   0.00:  GROUND ELEVATION
 EPD .m                   0.00:  ELEVATION
 AZTC.deg                 6.18:  AZM TOTAL CORR
 GRDC.deg                 0.29:  GRID CORRECTION
 MDEC.deg                 6.47:  MAGNETIC DECL
 MDIP.deg                59.50:  MAGNETIC DIP
 MFLD.nT              50350.00:  MAGNETIC FIELD
 GVFD.g                   1.00:  GRAVITY FIELD
 VSDR.deg               179.08:  VERT SEC DIRECT
 TDD .m                4300.00:  TOTAL DEPTH (DRILLER)
 SDEP.m                2800.00:  START DEPTH
 DFSL.m                   0.00:  DISTANCE FSL
 DFWL.m                   0.00:  DISTANCE FWL
 UTMY.m             4431871.34:  UTM Y
 UTMX.m              538762.90:  UTM X
 WHEW.m                  -7.31:  WELL HEAD E/W
 WHNS.m                  -4.42:  WELL HEAD N/S
 LONG.deg                51.45:  LONGITUDE
 LATI.deg                40.02:  LATITUDE
 TVDS.m                  43.60:  TVDSS CORRECTN
 EKB .m                  43.60:  KB ELEVATION
 EDF .m                  43.60:  DF ELEVATION
 TDL .m                 806.00:  TOTAL DEPTH (LOGGER)
 MAGU.                 1851231:  MAGUTM CHECKSUM
 VSC .                       0:  VS TO CLOSURE
~Parameter Information Block
#MNEM.UNIT       Value        Description
#---------     -----------    ---------------------------
 AV  .mps                 1.60:  Ann Velocity 
 AVMX.mps                 2.00:  Max Ann Veloc 
 AZIF.deg               140.24:  Azm, Final 
 BHAT.        Rotary Steerable:  BHA Type 
 BROT.°/30m               0.50:  Build Rotating 
 BS  .in                  8.50:  Bit Size 
 BTPL.psig              619.00:  Bit Press Loss 
 CABU.                     Yes:  Customer Abuse 
 CGEO.          Ilgar Gurbanov:  Customer Geo 
 TCS .hr                 85.88:  Time Ciculation Ended 
 CV  .mps                 3.30:  Crit Velocity 
 CVMX.mps                 3.50:  Max Crit Veloc 
 DD1 .           Hamid Axmedov:  Direct Drillr 1 
 DD2 .           Teymur Aliyev:  Direct Drillr 2 
 DDSV.               Geo-Pilot:  DD Service 
 DEFF.%                 100.00:  % Det Eff 
 DLRX.°/30m               0.00:  Dogleg Rot Max 
 DLSO.°/30m               1.80:  Dogleg Oriented 
 DLSX.°/30m               3.34:  Dogleg Str Max 
 DRET.      11.50.00 27-May-21:  Drill End Time 
 DRST.      21.13.00 24-May-21:  Drill Start Tim 
 DTIM.hr                 45.11:  Time Drilling 
 EDEP.m                4054.00:  End Depth 
 ENG1.         Almaz Almadatov:  Engineer 1 
 ENG2.           Amrah Tahirov:  Engineer 2 
 ENG3.      Bakhtiyar Jabbarli:  Engineer 3 
 ENG4.          Nazrin Asgarli:  Engineer 4 
 ETIM.      10.00.00 30-May-21:  End Time 
 FLOI.gpm               530.00:  Flow In 
 FLON.gpm               400.00:  Flow In Min 
 FLOS.cptm                0.00:  Fluid Loss 
 FLOX.gpm               560.00:  Flow In Max 
 DFT .        Mineral Oil Base:  Mud Type 
 FTRO.       Formation Presure:  FTWD Run Obj 
 HFLO.                      No:  High Flow 
 HPRE.                      No:  High Pressure 
 HTEM.                      No:  High Temp 
 HYDO.m                   1.80:  Hydro Offset 
 IFIN.deg                73.83:  Inc, Final 
 IMAX.deg                73.83:  Inc Max 
 IMIN.deg                57.86:  Inc Min 
 IMND.m                3259.27:  Inc Min Depth 
 IMXD.m                4045.58:  Inc Max Depth 
 JARR.                     Yes:  Jarring 
 LETM.      11.50.00 27-May-21:  Log End Time 
 LOST.hr                     0:  Lost Rig Time 
 LSTM.      21.13.00 24-May-21:  Log Start Time 
 MDCL.ppm             42500.00:  Mud Chlorides 
 MDES.     Inversion Oil/Synthetic:  Mud Desc 
 DFD .sg                  1.52:  Mud Density 
 MDMN.sg                  1.52:  Dens Mud Min 
 MDMX.sg                  1.52:  Dens Mud Max 
 MOIL.                      70:  Run Mud Oil % 
 MOWR.                   70:30:  Run Mud OWR 
 MSND.                     0.2:  Run Mud Sand % 
 MSOL.                      22:  Run Mud Solids% 
 DFV .spqt               77.00:  Mud Viscosity 
 MWOD.in                  6.75:  MWD Tool OD 
 MWSI.                      No:  Serv Intrp, MWD 
 OTIM.hr                151.01:  Time Operating 
 PCON.          Wear / Scratch:  Pad Condition 
 PMAX.psia            11296.93:  Press Op, Max 
 PV  .cP                 37.00:  Mud PV 
 RUN .                     500:  Run Number 
 ROPA.m/hr               25.00:  ROP Avg 
 ROPN.m/hr                9.00:  ROP Min 
 ROPX.m/hr               28.00:  ROP Max 
 RPMA.rpm               140.00:  RPM Surface Avg 
 RPMN.rpm                90.00:  RPM Surface Min 
 RPMX.rpm               140.00:  RPM Surface Max 
 RRUN.                    0500:  Rig Run Number 
 SAZI.deg               172.17:  Azm, Start 
 SDEP.m                3248.00:  Start Depth 
 SIDD.                      No:  Serv Intrp, DD 
 SINC.deg                57.86:  Inc, Start 
 SPPA.psig             5620.00:  SPP Avg 
 SPPN.psig             5190.00:  SPP Min 
 SPPX.psig             6050.00:  SPP Max 
 STIM.      16.00.00 23-May-21:  Start Time 
 SVCS.                 DD, MWD:  Services 
 SVER.                    9.20:  Sperry Version 
 TDAT.m                 806.00:  Tot Depth Attmp 
 TDDF.                      No:  Trip for DD 
 TDLG.m                 806.00:  Tot Depth Loggd 
 TFF .                      No:  Trip for Fail 
 TQAA.f-kp               12.00:  Torque Abs Avg 
 TQAN.f-kp                8.00:  Torque Abs Min 
 TQAX.f-kp               15.00:  Torque Abs Max 
 TRRT.°/30m               0.30:  Turn Rotating 
 MRT .                  EWR-M5:  Maximum Recorded Temperature 
 TTMX.degC               93.00:  Max Tool Temp 
 VS01.                90649155:  Virtual Str1 SN 
 VS02.                90642264:  Virtual Str2 SN 
 VS03.                90642266:  Virtual Str3 SN 
 VS04.                90642261:  Virtual Str4 SN 
 WBMN.klb                 0.00:  WOB Min 
 WITN.             Anar Khalil:  Customer Rep 
 WITN.           Murad Guliyev:  Customer Rep 2 
 WOBA.klb                13.00:  WOB Avg 
 WOBX.klb                25.00:  WOB Max 
 YP  .lhf2               32.00:  Yield Point 
~Curve Information Block
#MNEM.UNIT                 API CODE     Curve Description
#---------               -----------    ---------------------------
 TIME.HHMMSS            00 000 000 000:  GT Time & Date
 GTDEPTH.m              00 000 000 000:  GT Depth
 GTPQH.psia             00 000 000 000:  GT HR Quartz Pressure
 GTTQ.degC              00 000 000 000:  GT Quartz Temperature
 GTTN.NONE              00 000 000 000:  GT Test Number
 GTET.sec               00 000 000 000:  GT Elapsed Test Time
 GTTVD.m                00 000 000 000:  GT True Vertical Depth
#Other Information
#
#WARRANTY: Halliburton will use its best efforts to furnish customers with 
#accurate information and interpretations that are part of, and incident to, the services 
#provided.  However, Halliburton cannot and does not warrant the accuracy 
#or correctness of such information and interpretations.  Under no circumstances should any 
#such information or interpretation be relied upon as the sole basis for any drilling, 
#completion, production, or financial decision or any procedure involving any risk to the 
#safety of any drilling venture, drilling rig or its crew or any other third party.  The 
#Customer has full responsibility for all drilling, completion and production operation.  
#Halliburton makes no representations or warranties, either expressed or 
#implied, including, but not limited to, the implied warranties of merchantability or fitness 
#for a particular purpose, with respect to the services rendered.  In no event will 
#Halliburton be liable for failure to obtain any particular results or for 
#any damages, including, but not limited to, indirect, special or consequential damages, 
#resulting from the use of any information or interpretation provided by Halliburton.
#
~A           TIME           GTDEPTH  GTPQH  GTTQ  GTTN   GTET   GTTVD  
# ...
   08:11:48.800.28-May-2021 3306.50 5848.21 82.28 14.00 406.80 2504.31
   08:11:49.000.28-May-2021 3306.50 5847.03 82.28 14.00 407.00 2504.31
   08:11:49.200.28-May-2021 3306.50 5847.03 82.28 14.00 407.20 2504.31
   08:11:49.400.28-May-2021 3306.50 5847.47 82.28 14.00 407.40 2504.31
   08:11:49.600.28-May-2021 3306.50 5847.58 82.28 14.00 407.60 2504.31
   08:11:49.800.28-May-2021 3306.50 5847.17 82.28 14.00 407.80 2504.31
   08:11:50.000.28-May-2021 3306.50 5847.07 82.28 14.00 408.00 2504.31
   08:11:50.200.28-May-2021 3306.50 5847.07 82.28 14.00 408.20 2504.31
   08:11:50.400.28-May-2021 3306.50 5846.58 82.28 14.00 408.40 2504.31
   08:11:50.600.28-May-2021 3306.50 5846.61 82.28 14.00 408.60 2504.31
   08:11:50.800.28-May-2021 3306.50 5846.81 82.28 14.00 408.80 2504.31
   08:11:51.000.28-May-2021 3306.50 5850.88 82.28 14.00 409.00 2504.31
   08:11:51.200.28-May-2021 3306.50 5850.88 82.28 14.00 409.20 2504.31
   08:11:51.400.28-May-2021 3306.50 5847.33 82.28 14.00 409.40 2504.31
   08:11:51.600.28-May-2021 3306.50 5847.10 82.28 14.00 409.60 2504.31
   08:11:51.800.28-May-2021 3306.50 5846.82 82.28 14.00 409.80 2504.31
   08:11:52.000.28-May-2021 3306.50 5847.53 82.28 14.00 410.00 2504.31
   08:11:52.200.28-May-2021 3306.50 5847.53 82.28 14.00 410.20 2504.31
   08:11:52.400.28-May-2021 3306.50 5847.41 82.28 14.00 410.40 2504.31
   08:11:52.600.28-May-2021 3306.50 5847.28 82.28 14.00 410.60 2504.31
   08:11:52.800.28-May-2021 3306.50 5847.04 82.28 14.00 410.80 2504.31
   08:11:53.000.28-May-2021 3306.50 5846.89 82.28 14.00 411.00 2504.31
   08:11:53.200.28-May-2021 3306.50 5846.89 82.28 14.00 411.20 2504.31
   08:11:53.400.28-May-2021 3306.50 5846.58 82.28 14.00 411.40 2504.31
   08:11:53.600.28-May-2021 3306.50 5849.24 82.28 14.00 411.60 2504.31
   08:11:53.800.28-May-2021 3306.50 5847.68 82.28 14.00 411.80 2504.31
   08:11:54.000.28-May-2021 3306.50 5847.35 82.28 14.00 412.00 2504.31
   08:11:54.200.28-May-2021 3306.50 5847.35 82.28 14.00 412.20 2504.31
   08:11:54.400.28-May-2021 3306.50 5847.31 82.28 14.00 412.40 2504.31
   08:11:54.600.28-May-2021 3306.50 5852.27 82.28 14.00 412.60 2504.31
   08:11:54.800.28-May-2021 3306.50 5845.06 82.28 14.00 412.80 2504.31
   08:11:55.000.28-May-2021 3306.50 5847.59 82.28 14.00 413.00 2504.31
   08:11:55.200.28-May-2021 3306.50 5847.59 82.28 14.00 413.20 2504.31
   08:11:55.400.28-May-2021 3306.50 5847.53 82.28 14.00 413.40 2504.31
   08:11:55.600.28-May-2021 3306.50 5846.29 82.28 14.00 413.60 2504.31
   08:11:55.800.28-May-2021 3306.50 5852.94 82.28 14.00 413.80 2504.31
   08:11:56.000.28-May-2021 3306.50 5844.39 82.28 14.00 414.00 2504.31
   08:11:56.200.28-May-2021 3306.50 5844.39 82.28 14.00 414.20 2504.31
   08:11:56.400.28-May-2021 3306.50 5844.39 82.28 14.00 414.40 2504.31
   08:11:56.600.28-May-2021 3306.50 5852.07 82.28 14.00 414.60 2504.31
   08:11:56.800.28-May-2021 3306.50 5846.48 82.28 14.00 414.80 2504.31
   08:11:57.000.28-May-2021 3306.50 5847.92 82.28 14.00 415.00 2504.31
   08:11:57.200.28-May-2021 3306.50 5847.92 82.28 14.00 415.20 2504.31
   08:11:57.400.28-May-2021 3306.50 5847.09 82.28 14.00 415.40 2504.31
   08:11:57.600.28-May-2021 3306.50 5847.71 82.28 14.00 415.60 2504.31
   08:11:57.800.28-May-2021 3306.50 5847.36 82.28 14.00 415.80 2504.31
   08:11:58.000.28-May-2021 3306.50 5847.09 82.28 14.00 416.00 2504.31
   08:11:58.200.28-May-2021 3306.50 5847.09 82.28 14.00 416.20 2504.31
   08:11:58.400.28-May-2021 3306.50 5846.60 82.28 14.00 416.40 2504.31
   08:11:58.600.28-May-2021 3306.50 5846.45 82.28 14.00 416.60 2504.31
   08:11:58.800.28-May-2021 3306.50 5846.61 82.28 14.00 416.80 2504.31
   08:11:59.000.28-May-2021 3306.50 5849.14 82.28 14.00 417.00 2504.31
   08:11:59.200.28-May-2021 3306.50 5849.14 82.28 14.00 417.20 2504.31
   08:11:59.400.28-May-2021 3306.50 5847.30 82.28 14.00 417.40 2504.31
   08:11:59.600.28-May-2021 3306.50 5846.59 82.28 14.00 417.60 2504.31
   08:11:59.800.28-May-2021 3306.50 5847.33 82.28 14.00 417.80 2504.31
   08:12:00.000.28-May-2021 3306.50 5846.41 82.28 14.00 418.00 2504.31
   08:12:00.200.28-May-2021 3306.50 5846.41 82.28 14.00 418.20 2504.31
   08:12:00.400.28-May-2021 3306.50 5846.89 82.28 14.00 418.40 2504.31
   08:12:00.600.28-May-2021 3306.50 5846.98 82.28 14.00 418.60 2504.31
   08:12:00.800.28-May-2021 3306.50 5846.68 82.28 14.00 418.80 2504.31
   08:12:01.000.28-May-2021 3306.50 5846.59 82.28 14.00 419.00 2504.31
   08:12:01.200.28-May-2021 3306.50 5846.59 82.28 14.00 419.20 2504.31
   08:12:01.400.28-May-2021 3306.50 5846.35 82.28 14.00 419.40 2504.31
   08:12:01.600.28-May-2021 3306.50 5846.21 82.28 14.00 419.60 2504.31
   08:12:01.800.28-May-2021 3306.50 5851.89 82.28 14.00 419.80 2504.31
   08:12:02.000.28-May-2021 3306.50 5843.69 82.28 14.00 420.00 2504.31
   08:12:02.200.28-May-2021 3306.50 5843.69 82.28 14.00 420.20 2504.31
   08:12:02.400.28-May-2021 3306.50 5845.90 82.28 14.00 420.40 2504.31
   08:12:02.600.28-May-2021 3306.50 5847.22 82.28 14.00 420.60 2504.31
   08:12:02.800.28-May-2021 3306.50 5853.54 82.28 14.00 420.80 2504.31
   08:12:03.000.28-May-2021 3306.50 5842.33 82.28 14.00 421.00 2504.31
   08:12:03.200.28-May-2021 3306.50 5842.33 82.28 14.00 421.20 2504.31
   08:12:03.400.28-May-2021 3306.50 5845.35 82.28 14.00 421.40 2504.31
   08:12:03.600.28-May-2021 3306.50 5846.02 82.28 14.00 421.60 2504.31
   08:12:03.800.28-May-2021 3306.50 5845.02 82.28 14.00 421.80 2504.31
   08:12:04.000.28-May-2021 3306.50 5852.99 82.28 14.00 422.00 2504.31
   08:12:04.200.28-May-2021 3306.50 5852.99 82.28 14.00 422.20 2504.31
   08:12:04.400.28-May-2021 3306.50 5846.18 82.28 14.00 422.40 2504.31
   08:12:04.600.28-May-2021 3306.50 5847.67 82.28 14.00 422.60 2504.31
   08:12:04.800.28-May-2021 3306.50 5847.14 82.28 14.00 422.80 2504.31
   08:12:05.000.28-May-2021 3306.50 5845.83 82.28 14.00 423.00 2504.31
   08:12:05.200.28-May-2021 3306.50 5845.83 82.28 14.00 423.20 2504.31
   08:12:05.400.28-May-2021 3306.50 5845.98 82.28 14.00 423.40 2504.31
   08:12:05.600.28-May-2021 3306.50 5845.19 82.28 14.00 423.60 2504.31
   08:12:05.800.28-May-2021 3306.50 5846.14 82.28 14.00 423.80 2504.31
