~Version Information
 VERS.                  2.0:   CWLS log ASCII Standard -VERSION 2.0
 WRAP.                   NO:   One line per depth step
~Well Information Block
#MNEM.UNIT     VALUE/NAME     DESCRIPTION
#---------     -----------    ---------------------------
 STRT.S             05:31:02 28-May-21: START TIME 05:31:02 28-May-21
 STOP.S             05:38:03 28-May-21: STOP TIME  05:38:03 28-May-21
 STEP.S                   0.00: STEP TIME
 NULL.                 -999.25: NULL VALUE
 UWI .                     N/A:  UNIQUE WELL IDENTIFIER
 API .                     N/A:  API NUMBER
 UNIT.                     N/A:  LOGGING EQUIPMENT ID
 DCON.         Sperry Drilling:  DIRECTNL CONTR
 DOE .                     N/A:  DOE NUMBER
 MWDS.                    Baku:  MWD SHOP
 SRVC.     Turan Drilling and Engineering:  CONTRACTOR
 CTRY.              Azerbaijan:  COUNTRY NAME
 PROV.                    Baku:  PROVINCE
 STAT.                    Baku:  STATE NAME
 REGN.                   EESSA:  REGION
 BASE.              Azerbaijan:  LOGGING EQUIPMENT BASE LOCATION
 WTYP.                Deviated:  WELL TYPE
 RIG .              East Azeri:  RIG NAME
 WELL.                    D02y:  WELL NAME
 FLD .                     ACG:  FIELD NAME
 COMP.     BP Exploration (Caspian Sea) Ltd.:  COMPANY
 PDAT.          Mean Sea Level:  PERMANENT DATUM
 MDS .        Operator Entered:  MAG DATA SOURCE
 SON .        AZ-XX-0906997291:  JOB NUMBER
 FTOP.          Formation Tops:  FORM TOPS DESC
 ILTD.               Lithology:  INTERP LTH DESC
 SVYD.                  Survey:  SURVEY DESC
 DMOD.             Drill Model:  DRILL MOD DESC
 HPTY.       Minimum Curvature:  HOLE POS TYPE
 NREF.                    Grid:  NORTH REFERENCE
 SPUD.               05-May-21:  SPUD DATE
 DATE.      09.27.28 12-Jun-21:  END TIME
 STIM.      09.27.28 12-May-21:  START TIME
 DMF .             Drill Floor:  DRILL MEAS FROM
 DFST.                        :  DIST FSL TEXT
 DFWT.                        :  DIST FWL TEXT
 CNTY.                        :  COUNTY
 LOC .                        :  LOCATION
 LMF .             Drill Floor:  LOG MEASURED FROM
 DEP .m                2806.40:  DEPTH
 AGAP.m                  43.60:  AIR GAP
 VSNS.m                  -4.42:  VERT SEC N/S
 VSEW.m                  -7.31:  VERT SEC E/W
 APD .m                  43.60:  DEPTH ABOVE PD
 WDMS.m                 151.80:  WD ELEV
 EGL .m                   0.00:  GROUND ELEVATION
 EPD .m                   0.00:  ELEVATION
 AZTC.deg                 6.18:  AZM TOTAL CORR
 GRDC.deg                 0.29:  GRID CORRECTION
 MDEC.deg                 6.47:  MAGNETIC DECL
 MDIP.deg                59.50:  MAGNETIC DIP
 MFLD.nT              50350.00:  MAGNETIC FIELD
 GVFD.g                   1.00:  GRAVITY FIELD
 VSDR.deg               179.08:  VERT SEC DIRECT
 TDD .m                4300.00:  TOTAL DEPTH (DRILLER)
 SDEP.m                2800.00:  START DEPTH
 DFSL.m                   0.00:  DISTANCE FSL
 DFWL.m                   0.00:  DISTANCE FWL
 UTMY.m             4431871.34:  UTM Y
 UTMX.m              538762.90:  UTM X
 WHEW.m                  -7.31:  WELL HEAD E/W
 WHNS.m                  -4.42:  WELL HEAD N/S
 LONG.deg                51.45:  LONGITUDE
 LATI.deg                40.02:  LATITUDE
 TVDS.m                  43.60:  TVDSS CORRECTN
 EKB .m                  43.60:  KB ELEVATION
 EDF .m                  43.60:  DF ELEVATION
 TDL .m                 806.00:  TOTAL DEPTH (LOGGER)
 MAGU.                 1851231:  MAGUTM CHECKSUM
 VSC .                       0:  VS TO CLOSURE
~Parameter Information Block
#MNEM.UNIT       Value        Description
#---------     -----------    ---------------------------
 AV  .mps                 1.60:  Ann Velocity 
 AVMX.mps                 2.00:  Max Ann Veloc 
 AZIF.deg               140.24:  Azm, Final 
 BHAT.        Rotary Steerable:  BHA Type 
 BROT.°/30m               0.50:  Build Rotating 
 BS  .in                  8.50:  Bit Size 
 BTPL.psig              619.00:  Bit Press Loss 
 CABU.                     Yes:  Customer Abuse 
 CGEO.          Ilgar Gurbanov:  Customer Geo 
 COMM.                     LMh:  Run Comments 1 
 TCS .hr                 85.88:  Time Ciculation Ended 
 CV  .mps                 3.30:  Crit Velocity 
 CVMX.mps                 3.50:  Max Crit Veloc 
 DD1 .           Hamid Axmedov:  Direct Drillr 1 
 DD2 .           Teymur Aliyev:  Direct Drillr 2 
 DDSV.               Geo-Pilot:  DD Service 
 DEFF.%                 100.00:  % Det Eff 
 DLRX.°/30m               0.00:  Dogleg Rot Max 
 DLSO.°/30m               1.80:  Dogleg Oriented 
 DLSX.°/30m               3.34:  Dogleg Str Max 
 DRET.      11.50.00 27-May-21:  Drill End Time 
 DRST.      21.13.00 24-May-21:  Drill Start Tim 
 DTIM.hr                 45.11:  Time Drilling 
 EDEP.m                4054.00:  End Depth 
 ENG1.         Almaz Almadatov:  Engineer 1 
 ENG2.           Amrah Tahirov:  Engineer 2 
 ENG3.      Bakhtiyar Jabbarli:  Engineer 3 
 ENG4.          Nazrin Asgarli:  Engineer 4 
 ETIM.      10.00.00 30-May-21:  End Time 
 FLOI.gpm               530.00:  Flow In 
 FLON.gpm               400.00:  Flow In Min 
 FLOS.cptm                0.00:  Fluid Loss 
 FLOX.gpm               560.00:  Flow In Max 
 DFT .        Mineral Oil Base:  Mud Type 
 FTRO.       Formation Presure:  FTWD Run Obj 
 HFLO.                      No:  High Flow 
 HPRE.                      No:  High Pressure 
 HTEM.                      No:  High Temp 
 HYDO.m                   1.80:  Hydro Offset 
 IFIN.deg                73.83:  Inc, Final 
 IMAX.deg                73.83:  Inc Max 
 IMIN.deg                57.86:  Inc Min 
 IMND.m                3259.27:  Inc Min Depth 
 IMXD.m                4045.58:  Inc Max Depth 
 JARR.                     Yes:  Jarring 
 LETM.      11.50.00 27-May-21:  Log End Time 
 LOST.hr                     0:  Lost Rig Time 
 LSTM.      21.13.00 24-May-21:  Log Start Time 
 MDCL.ppm             42500.00:  Mud Chlorides 
 MDES.     Inversion Oil/Synthetic:  Mud Desc 
 DFD .sg                  1.52:  Mud Density 
 MDMN.sg                  1.52:  Dens Mud Min 
 MDMX.sg                  1.52:  Dens Mud Max 
 MOIL.                      70:  Run Mud Oil % 
 MOWR.                   70:30:  Run Mud OWR 
 MSND.                     0.2:  Run Mud Sand % 
 MSOL.                      22:  Run Mud Solids% 
 DFV .spqt               77.00:  Mud Viscosity 
 MWOD.in                  6.75:  MWD Tool OD 
 MWSI.                      No:  Serv Intrp, MWD 
 OTIM.hr                151.01:  Time Operating 
 PCON.          Wear / Scratch:  Pad Condition 
 PMAX.psia            11296.93:  Press Op, Max 
 PV  .cP                 37.00:  Mud PV 
 RUN .                     500:  Run Number 
 ROPA.m/hr               25.00:  ROP Avg 
 ROPN.m/hr                9.00:  ROP Min 
 ROPX.m/hr               28.00:  ROP Max 
 RPMA.rpm               140.00:  RPM Surface Avg 
 RPMN.rpm                90.00:  RPM Surface Min 
 RPMX.rpm               140.00:  RPM Surface Max 
 RRUN.                    0500:  Rig Run Number 
 SAZI.deg               172.17:  Azm, Start 
 SDEP.m                3248.00:  Start Depth 
 SIDD.                      No:  Serv Intrp, DD 
 SINC.deg                57.86:  Inc, Start 
 SPPA.psig             5620.00:  SPP Avg 
 SPPN.psig             5190.00:  SPP Min 
 SPPX.psig             6050.00:  SPP Max 
 STIM.      16.00.00 23-May-21:  Start Time 
 SVCS.                 DD, MWD:  Services 
 SVER.                    9.20:  Sperry Version 
 TDAT.m                 806.00:  Tot Depth Attmp 
 TDDF.                      No:  Trip for DD 
 TDLG.m                 806.00:  Tot Depth Loggd 
 TFF .                      No:  Trip for Fail 
 TQAA.f-kp               12.00:  Torque Abs Avg 
 TQAN.f-kp                8.00:  Torque Abs Min 
 TQAX.f-kp               15.00:  Torque Abs Max 
 TRRT.°/30m               0.30:  Turn Rotating 
 MRT .                  EWR-M5:  Maximum Recorded Temperature 
 TTMX.degC               93.00:  Max Tool Temp 
 VS01.                90649155:  Virtual Str1 SN 
 VS02.                90642264:  Virtual Str2 SN 
 VS03.                90642266:  Virtual Str3 SN 
 VS04.                90642261:  Virtual Str4 SN 
 WBMN.klb                 0.00:  WOB Min 
 WITN.             Anar Khalil:  Customer Rep 
 WITN.           Murad Guliyev:  Customer Rep 2 
 WOBA.klb                13.00:  WOB Avg 
 WOBX.klb                25.00:  WOB Max 
 YP  .lhf2               32.00:  Yield Point 
~Curve Information Block
#MNEM.UNIT                 API CODE     Curve Description
#---------               -----------    ---------------------------
 TIME.HHMMSS            00 000 000 000:  GT Time & Date
 GTDEPTH.m              00 000 000 000:  GT Depth
 GTPQH.psia             00 000 000 000:  GT HR Quartz Pressure
 GTTQ.degC              00 000 000 000:  GT Quartz Temperature
 GTTN.NONE              00 000 000 000:  GT Test Number
 GTET.sec               00 000 000 000:  GT Elapsed Test Time
 GTTVD.m                00 000 000 000:  GT True Vertical Depth
#Other Information
#
#WARRANTY: Halliburton will use its best efforts to furnish customers with 
#accurate information and interpretations that are part of, and incident to, the services 
#provided.  However, Halliburton cannot and does not warrant the accuracy 
#or correctness of such information and interpretations.  Under no circumstances should any 
#such information or interpretation be relied upon as the sole basis for any drilling, 
#completion, production, or financial decision or any procedure involving any risk to the 
#safety of any drilling venture, drilling rig or its crew or any other third party.  The 
#Customer has full responsibility for all drilling, completion and production operation.  
#Halliburton makes no representations or warranties, either expressed or 
#implied, including, but not limited to, the implied warranties of merchantability or fitness 
#for a particular purpose, with respect to the services rendered.  In no event will 
#Halliburton be liable for failure to obtain any particular results or for 
#any damages, including, but not limited to, indirect, special or consequential damages, 
#resulting from the use of any information or interpretation provided by Halliburton.
#
~A           TIME           GTDEPTH  GTPQH  GTTQ  GTTN   GTET   GTTVD  
# ...
   05:34:48.431.28-May-2021 3456.50 4230.79 82.95 10.00 226.09 2576.46
   05:34:48.632.28-May-2021 3456.50 4230.79 82.95 10.00 226.29 2576.46
   05:34:48.832.28-May-2021 3456.50 4230.86 82.95 10.00 226.49 2576.46
   05:34:49.032.28-May-2021 3456.50 4230.88 82.95 10.00 226.69 2576.46
   05:34:49.232.28-May-2021 3456.50 4230.86 82.95 10.00 226.89 2576.46
   05:34:49.432.28-May-2021 3456.50 4230.86 82.95 10.00 227.09 2576.46
   05:34:49.632.28-May-2021 3456.50 4230.86 82.95 10.00 227.29 2576.46
   05:34:49.832.28-May-2021 3456.50 4230.87 82.95 10.00 227.50 2576.46
   05:34:50.032.28-May-2021 3456.50 4230.86 82.95 10.00 227.70 2576.46
   05:34:50.232.28-May-2021 3456.50 4230.87 82.95 10.00 227.90 2576.46
   05:34:50.432.28-May-2021 3456.50 4230.86 82.95 10.00 228.10 2576.46
   05:34:50.632.28-May-2021 3456.50 4230.86 82.95 10.00 228.30 2576.46
   05:34:50.832.28-May-2021 3456.50 4230.75 82.95 10.00 228.50 2576.46
   05:34:51.033.28-May-2021 3456.50 4230.97 82.95 10.00 228.70 2576.46
   05:34:51.233.28-May-2021 3456.50 4230.86 82.95 10.00 228.90 2576.46
   05:34:51.433.28-May-2021 3456.50 4230.88 82.95 10.00 229.10 2576.46
   05:34:51.633.28-May-2021 3456.50 4230.88 82.95 10.00 229.30 2576.46
   05:34:51.833.28-May-2021 3456.50 4230.80 82.95 10.00 229.50 2576.46
   05:34:52.033.28-May-2021 3456.50 4230.92 82.95 10.00 229.70 2576.46
   05:34:52.233.28-May-2021 3456.50 4230.86 82.95 10.00 229.90 2576.46
   05:34:52.433.28-May-2021 3456.50 4230.68 82.95 10.00 230.10 2576.46
   05:34:52.633.28-May-2021 3456.50 4230.68 82.95 10.00 230.30 2576.46
   05:34:52.833.28-May-2021 3456.50 4230.85 82.95 10.00 230.50 2576.46
   05:34:53.033.28-May-2021 3456.50 4230.88 82.95 10.00 230.70 2576.46
   05:34:53.233.28-May-2021 3456.50 4230.86 82.95 10.00 230.90 2576.46
   05:34:53.434.28-May-2021 3456.50 4230.75 82.95 10.00 231.10 2576.46
   05:34:53.634.28-May-2021 3456.50 4230.75 82.95 10.00 231.30 2576.46
   05:34:53.834.28-May-2021 3456.50 4230.87 82.95 10.00 231.50 2576.46
   05:34:54.034.28-May-2021 3456.50 4230.87 82.95 10.00 231.70 2576.46
   05:34:54.234.28-May-2021 3456.50 4230.85 82.95 10.00 231.90 2576.46
   05:34:54.434.28-May-2021 3456.50 4230.87 82.94 10.00 232.10 2576.46
   05:34:54.634.28-May-2021 3456.50 4230.87 82.94 10.00 232.30 2576.46
   05:34:54.834.28-May-2021 3456.50 4230.86 82.94 10.00 232.50 2576.46
   05:34:55.034.28-May-2021 3456.50 4230.87 82.94 10.00 232.70 2576.46
   05:34:55.234.28-May-2021 3456.50 4230.86 82.94 10.00 232.90 2576.46
   05:34:55.434.28-May-2021 3456.50 4230.86 82.94 10.00 233.10 2576.46
   05:34:55.634.28-May-2021 3456.50 4230.86 82.94 10.00 233.30 2576.46
   05:34:55.835.28-May-2021 3456.50 4230.85 82.94 10.00 233.50 2576.46
   05:34:56.035.28-May-2021 3456.50 4230.95 82.94 10.00 233.70 2576.46
   05:34:56.235.28-May-2021 3456.50 4230.78 82.94 10.00 233.90 2576.46
   05:34:56.435.28-May-2021 3456.50 4230.85 82.94 10.00 234.10 2576.46
   05:34:56.635.28-May-2021 3456.50 4230.85 82.94 10.00 234.30 2576.46
   05:34:56.835.28-May-2021 3456.50 4230.85 82.94 10.00 234.50 2576.46
   05:34:57.035.28-May-2021 3456.50 4230.85 82.94 10.00 234.70 2576.46
   05:34:57.235.28-May-2021 3456.50 4230.86 82.94 10.00 234.90 2576.46
   05:34:57.435.28-May-2021 3456.50 4230.87 82.94 10.00 235.10 2576.46
   05:34:57.635.28-May-2021 3456.50 4230.87 82.94 10.00 235.30 2576.46
   05:34:57.835.28-May-2021 3456.50 4230.85 82.94 10.00 235.50 2576.46
   05:34:58.035.28-May-2021 3456.50 4230.87 82.94 10.00 235.70 2576.46
   05:34:58.236.28-May-2021 3456.50 4230.85 82.94 10.00 235.90 2576.46
   05:34:58.436.28-May-2021 3456.50 4230.85 82.94 10.00 236.10 2576.46
   05:34:58.636.28-May-2021 3456.50 4230.85 82.94 10.00 236.30 2576.46
   05:34:58.836.28-May-2021 3456.50 4230.95 82.94 10.00 236.50 2576.46
   05:34:59.036.28-May-2021 3456.50 4230.87 82.94 10.00 236.70 2576.46
   05:34:59.236.28-May-2021 3456.50 4230.87 82.94 10.00 236.90 2576.46
   05:34:59.436.28-May-2021 3456.50 4230.85 82.94 10.00 237.10 2576.46
   05:34:59.636.28-May-2021 3456.50 4230.85 82.94 10.00 237.30 2576.46
   05:34:59.836.28-May-2021 3456.50 4230.91 82.94 10.00 237.50 2576.46
   05:35:00.036.28-May-2021 3456.50 4230.85 82.94 10.00 237.70 2576.46
   05:35:00.236.28-May-2021 3456.50 4230.68 82.94 10.00 237.90 2576.46
   05:35:00.436.28-May-2021 3456.50 4231.04 82.94 10.00 238.10 2576.46
   05:35:00.637.28-May-2021 3456.50 4231.04 82.94 10.00 238.30 2576.46
   05:35:00.837.28-May-2021 3456.50 4230.88 82.94 10.00 238.50 2576.46
   05:35:01.037.28-May-2021 3456.50 4230.87 82.94 10.00 238.70 2576.46
   05:35:01.237.28-May-2021 3456.50 4230.74 82.94 10.00 238.90 2576.46
   05:35:01.437.28-May-2021 3456.50 4230.98 82.94 10.00 239.10 2576.46
   05:35:01.637.28-May-2021 3456.50 4230.98 82.94 10.00 239.30 2576.46
   05:35:01.837.28-May-2021 3456.50 4230.88 82.94 10.00 239.50 2576.46
   05:35:02.037.28-May-2021 3456.50 4230.85 82.94 10.00 239.70 2576.46
   05:35:02.237.28-May-2021 3456.50 4230.86 82.94 10.00 239.90 2576.46
   05:35:02.437.28-May-2021 3456.50 4230.87 82.94 10.00 240.10 2576.46
   05:35:02.637.28-May-2021 3456.50 4230.87 82.94 10.00 240.30 2576.46
   05:35:02.837.28-May-2021 3456.50 4230.87 82.94 10.00 240.50 2576.46
   05:35:03.038.28-May-2021 3456.50 4230.87 82.94 10.00 240.70 2576.46
   05:35:03.238.28-May-2021 3456.50 4230.87 82.94 10.00 240.90 2576.46
   05:35:03.438.28-May-2021 3456.50 4230.86 82.94 10.00 241.10 2576.46
   05:35:03.638.28-May-2021 3456.50 4230.86 82.94 10.00 241.30 2576.46
   05:35:03.838.28-May-2021 3456.50 4230.95 82.94 10.00 241.50 2576.46
   05:35:04.038.28-May-2021 3456.50 4230.77 82.94 10.00 241.70 2576.46
   05:35:04.238.28-May-2021 3456.50 4230.87 82.94 10.00 241.90 2576.46
   05:35:04.438.28-May-2021 3456.50 4230.86 82.94 10.00 242.10 2576.46
   05:35:04.638.28-May-2021 3456.50 4230.86 82.94 10.00 242.30 2576.46
   05:35:04.838.28-May-2021 3456.50 4230.87 82.94 10.00 242.50 2576.46
   05:35:05.038.28-May-2021 3456.50 4230.87 82.94 10.00 242.70 2576.46
   05:35:05.238.28-May-2021 3456.50 4230.86 82.94 10.00 242.90 2576.46
   05:35:05.439.28-May-2021 3456.50 4230.87 82.94 10.00 243.10 2576.46
   05:35:05.639.28-May-2021 3456.50 4230.87 82.94 10.00 243.30 2576.46
   05:35:05.839.28-May-2021 3456.50 4230.85 82.94 10.00 243.50 2576.46
   05:35:06.039.28-May-2021 3456.50 4230.86 82.94 10.00 243.70 2576.46
   05:35:06.239.28-May-2021 3456.50 4230.86 82.94 10.00 243.90 2576.46
   05:35:06.439.28-May-2021 3456.50 4230.73 82.94 10.00 244.10 2576.46
   05:35:06.639.28-May-2021 3456.50 4230.73 82.94 10.00 244.30 2576.46
   05:35:06.839.28-May-2021 3456.50 4230.87 82.94 10.00 244.50 2576.46
   05:35:07.039.28-May-2021 3456.50 4230.86 82.94 10.00 244.70 2576.46
   05:35:07.239.28-May-2021 3456.50 4230.86 82.94 10.00 244.90 2576.46
   05:35:07.439.28-May-2021 3456.50 4230.80 82.94 10.00 245.10 2576.46
   05:35:07.639.28-May-2021 3456.50 4230.80 82.94 10.00 245.30 2576.46
   05:35:07.840.28-May-2021 3456.50 4230.86 82.94 10.00 245.50 2576.46
   05:35:08.040.28-May-2021 3456.50 4230.68 82.94 10.00 245.70 2576.46
   05:35:08.240.28-May-2021 3456.50 4231.03 82.94 10.00 245.90 2576.46
   05:35:08.440.28-May-2021 3456.50 4230.85 82.94 10.00 246.10 2576.46
   05:35:08.640.28-May-2021 3456.50 4230.85 82.94 10.00 246.30 2576.46
   05:35:08.840.28-May-2021 3456.50 4230.85 82.94 10.00 246.50 2576.46
   05:35:09.040.28-May-2021 3456.50 4230.74 82.94 10.00 246.70 2576.46
   05:35:09.240.28-May-2021 3456.50 4230.97 82.94 10.00 246.90 2576.46
   05:35:09.440.28-May-2021 3456.50 4230.86 82.94 10.00 247.10 2576.46
   05:35:09.640.28-May-2021 3456.50 4230.86 82.94 10.00 247.30 2576.46
   05:35:09.840.28-May-2021 3456.50 4230.85 82.94 10.00 247.50 2576.46
   05:35:10.040.28-May-2021 3456.50 4230.85 82.94 10.00 247.70 2576.46
   05:35:10.241.28-May-2021 3456.50 4230.87 82.94 10.00 247.90 2576.46
   05:35:10.441.28-May-2021 3456.50 4230.85 82.94 10.00 248.10 2576.46
   05:35:10.641.28-May-2021 3456.50 4230.85 82.94 10.00 248.30 2576.46
   05:35:10.841.28-May-2021 3456.50 4230.86 82.94 10.00 248.50 2576.46
