~Version Information
 VERS.                  2.0:   CWLS log ASCII Standard -VERSION 2.0
 WRAP.                   NO:   One line per depth step
~Well Information Block
#MNEM.UNIT     VALUE/NAME     DESCRIPTION
#---------     -----------    ---------------------------
 STRT.S             23:03:24 27-May-21: START TIME 23:03:24 27-May-21
 STOP.S             23:10:28 27-May-21: STOP TIME  23:10:28 27-May-21
 STEP.S                   0.00: STEP TIME
 NULL.                 -999.25: NULL VALUE
 UWI .                     N/A:  UNIQUE WELL IDENTIFIER
 API .                     N/A:  API NUMBER
 UNIT.                     N/A:  LOGGING EQUIPMENT ID
 DCON.         Sperry Drilling:  DIRECTNL CONTR
 DOE .                     N/A:  DOE NUMBER
 MWDS.                    Baku:  MWD SHOP
 SRVC.     Turan Drilling and Engineering:  CONTRACTOR
 CTRY.              Azerbaijan:  COUNTRY NAME
 PROV.                    Baku:  PROVINCE
 STAT.                    Baku:  STATE NAME
 REGN.                   EESSA:  REGION
 BASE.              Azerbaijan:  LOGGING EQUIPMENT BASE LOCATION
 WTYP.                Deviated:  WELL TYPE
 RIG .              East Azeri:  RIG NAME
 WELL.                    D02y:  WELL NAME
 FLD .                     ACG:  FIELD NAME
 COMP.     BP Exploration (Caspian Sea) Ltd.:  COMPANY
 PDAT.          Mean Sea Level:  PERMANENT DATUM
 MDS .        Operator Entered:  MAG DATA SOURCE
 SON .        AZ-XX-0906997291:  JOB NUMBER
 FTOP.          Formation Tops:  FORM TOPS DESC
 ILTD.               Lithology:  INTERP LTH DESC
 SVYD.                  Survey:  SURVEY DESC
 DMOD.             Drill Model:  DRILL MOD DESC
 HPTY.       Minimum Curvature:  HOLE POS TYPE
 NREF.                    Grid:  NORTH REFERENCE
 SPUD.               05-May-21:  SPUD DATE
 DATE.      09.27.28 12-Jun-21:  END TIME
 STIM.      09.27.28 12-May-21:  START TIME
 DMF .             Drill Floor:  DRILL MEAS FROM
 DFST.                        :  DIST FSL TEXT
 DFWT.                        :  DIST FWL TEXT
 CNTY.                        :  COUNTY
 LOC .                        :  LOCATION
 LMF .             Drill Floor:  LOG MEASURED FROM
 DEP .m                2806.40:  DEPTH
 AGAP.m                  43.60:  AIR GAP
 VSNS.m                  -4.42:  VERT SEC N/S
 VSEW.m                  -7.31:  VERT SEC E/W
 APD .m                  43.60:  DEPTH ABOVE PD
 WDMS.m                 151.80:  WD ELEV
 EGL .m                   0.00:  GROUND ELEVATION
 EPD .m                   0.00:  ELEVATION
 AZTC.deg                 6.18:  AZM TOTAL CORR
 GRDC.deg                 0.29:  GRID CORRECTION
 MDEC.deg                 6.47:  MAGNETIC DECL
 MDIP.deg                59.50:  MAGNETIC DIP
 MFLD.nT              50350.00:  MAGNETIC FIELD
 GVFD.g                   1.00:  GRAVITY FIELD
 VSDR.deg               179.08:  VERT SEC DIRECT
 TDD .m                4300.00:  TOTAL DEPTH (DRILLER)
 SDEP.m                2800.00:  START DEPTH
 DFSL.m                   0.00:  DISTANCE FSL
 DFWL.m                   0.00:  DISTANCE FWL
 UTMY.m             4431871.34:  UTM Y
 UTMX.m              538762.90:  UTM X
 WHEW.m                  -7.31:  WELL HEAD E/W
 WHNS.m                  -4.42:  WELL HEAD N/S
 LONG.deg                51.45:  LONGITUDE
 LATI.deg                40.02:  LATITUDE
 TVDS.m                  43.60:  TVDSS CORRECTN
 EKB .m                  43.60:  KB ELEVATION
 EDF .m                  43.60:  DF ELEVATION
 TDL .m                 806.00:  TOTAL DEPTH (LOGGER)
 MAGU.                 1851231:  MAGUTM CHECKSUM
 VSC .                       0:  VS TO CLOSURE
~Parameter Information Block
#MNEM.UNIT       Value        Description
#---------     -----------    ---------------------------
 AV  .mps                 1.60:  Ann Velocity 
 AVMX.mps                 2.00:  Max Ann Veloc 
 AZIF.deg               140.24:  Azm, Final 
 BHAT.        Rotary Steerable:  BHA Type 
 BROT.°/30m               0.50:  Build Rotating 
 BS  .in                  8.50:  Bit Size 
 BTPL.psig              619.00:  Bit Press Loss 
 CABU.                     Yes:  Customer Abuse 
 CGEO.          Ilgar Gurbanov:  Customer Geo 
 COMM.                     |¡U:  Run Comments 1 
 TCS .hr                 85.88:  Time Ciculation Ended 
 CV  .mps                 3.30:  Crit Velocity 
 CVMX.mps                 3.50:  Max Crit Veloc 
 DD1 .           Hamid Axmedov:  Direct Drillr 1 
 DD2 .           Teymur Aliyev:  Direct Drillr 2 
 DDSV.               Geo-Pilot:  DD Service 
 DEFF.%                 100.00:  % Det Eff 
 DLRX.°/30m               0.00:  Dogleg Rot Max 
 DLSO.°/30m               1.80:  Dogleg Oriented 
 DLSX.°/30m               3.34:  Dogleg Str Max 
 DRET.      11.50.00 27-May-21:  Drill End Time 
 DRST.      21.13.00 24-May-21:  Drill Start Tim 
 DTIM.hr                 45.11:  Time Drilling 
 EDEP.m                4054.00:  End Depth 
 ENG1.         Almaz Almadatov:  Engineer 1 
 ENG2.           Amrah Tahirov:  Engineer 2 
 ENG3.      Bakhtiyar Jabbarli:  Engineer 3 
 ENG4.          Nazrin Asgarli:  Engineer 4 
 ETIM.      10.00.00 30-May-21:  End Time 
 FLOI.gpm               530.00:  Flow In 
 FLON.gpm               400.00:  Flow In Min 
 FLOS.cptm                0.00:  Fluid Loss 
 FLOX.gpm               560.00:  Flow In Max 
 DFT .        Mineral Oil Base:  Mud Type 
 FTRO.       Formation Presure:  FTWD Run Obj 
 HFLO.                      No:  High Flow 
 HPRE.                      No:  High Pressure 
 HTEM.                      No:  High Temp 
 HYDO.m                   1.80:  Hydro Offset 
 IFIN.deg                73.83:  Inc, Final 
 IMAX.deg                73.83:  Inc Max 
 IMIN.deg                57.86:  Inc Min 
 IMND.m                3259.27:  Inc Min Depth 
 IMXD.m                4045.58:  Inc Max Depth 
 JARR.                     Yes:  Jarring 
 LETM.      11.50.00 27-May-21:  Log End Time 
 LOST.hr                     0:  Lost Rig Time 
 LSTM.      21.13.00 24-May-21:  Log Start Time 
 MDCL.ppm             42500.00:  Mud Chlorides 
 MDES.     Inversion Oil/Synthetic:  Mud Desc 
 DFD .sg                  1.52:  Mud Density 
 MDMN.sg                  1.52:  Dens Mud Min 
 MDMX.sg                  1.52:  Dens Mud Max 
 MOIL.                      70:  Run Mud Oil % 
 MOWR.                   70:30:  Run Mud OWR 
 MSND.                     0.2:  Run Mud Sand % 
 MSOL.                      22:  Run Mud Solids% 
 DFV .spqt               77.00:  Mud Viscosity 
 MWOD.in                  6.75:  MWD Tool OD 
 MWSI.                      No:  Serv Intrp, MWD 
 OTIM.hr                151.01:  Time Operating 
 PCON.          Wear / Scratch:  Pad Condition 
 PMAX.psia            11296.93:  Press Op, Max 
 PV  .cP                 37.00:  Mud PV 
 RUN .                     500:  Run Number 
 ROPA.m/hr               25.00:  ROP Avg 
 ROPN.m/hr                9.00:  ROP Min 
 ROPX.m/hr               28.00:  ROP Max 
 RPMA.rpm               140.00:  RPM Surface Avg 
 RPMN.rpm                90.00:  RPM Surface Min 
 RPMX.rpm               140.00:  RPM Surface Max 
 RRUN.                    0500:  Rig Run Number 
 SAZI.deg               172.17:  Azm, Start 
 SDEP.m                3248.00:  Start Depth 
 SIDD.                      No:  Serv Intrp, DD 
 SINC.deg                57.86:  Inc, Start 
 SPPA.psig             5620.00:  SPP Avg 
 SPPN.psig             5190.00:  SPP Min 
 SPPX.psig             6050.00:  SPP Max 
 STIM.      16.00.00 23-May-21:  Start Time 
 SVCS.                 DD, MWD:  Services 
 SVER.                    9.20:  Sperry Version 
 TDAT.m                 806.00:  Tot Depth Attmp 
 TDDF.                      No:  Trip for DD 
 TDLG.m                 806.00:  Tot Depth Loggd 
 TFF .                      No:  Trip for Fail 
 TQAA.f-kp               12.00:  Torque Abs Avg 
 TQAN.f-kp                8.00:  Torque Abs Min 
 TQAX.f-kp               15.00:  Torque Abs Max 
 TRRT.°/30m               0.30:  Turn Rotating 
 MRT .                  EWR-M5:  Maximum Recorded Temperature 
 TTMX.degC               93.00:  Max Tool Temp 
 VS01.                90649155:  Virtual Str1 SN 
 VS02.                90642264:  Virtual Str2 SN 
 VS03.                90642266:  Virtual Str3 SN 
 VS04.                90642261:  Virtual Str4 SN 
 WBMN.klb                 0.00:  WOB Min 
 WITN.             Anar Khalil:  Customer Rep 
 WITN.           Murad Guliyev:  Customer Rep 2 
 WOBA.klb                13.00:  WOB Avg 
 WOBX.klb                25.00:  WOB Max 
 YP  .lhf2               32.00:  Yield Point 
~Curve Information Block
#MNEM.UNIT                 API CODE     Curve Description
#---------               -----------    ---------------------------
 TIME.HHMMSS            00 000 000 000:  GT Time & Date
 GTDEPTH.m              00 000 000 000:  GT Depth
 GTPQH.psia             00 000 000 000:  GT HR Quartz Pressure
 GTTQ.degC              00 000 000 000:  GT Quartz Temperature
 GTTN.NONE              00 000 000 000:  GT Test Number
 GTET.sec               00 000 000 000:  GT Elapsed Test Time
 GTTVD.m                00 000 000 000:  GT True Vertical Depth
#Other Information
#
#WARRANTY: Halliburton will use its best efforts to furnish customers with 
#accurate information and interpretations that are part of, and incident to, the services 
#provided.  However, Halliburton cannot and does not warrant the accuracy 
#or correctness of such information and interpretations.  Under no circumstances should any 
#such information or interpretation be relied upon as the sole basis for any drilling, 
#completion, production, or financial decision or any procedure involving any risk to the 
#safety of any drilling venture, drilling rig or its crew or any other third party.  The 
#Customer has full responsibility for all drilling, completion and production operation.  
#Halliburton makes no representations or warranties, either expressed or 
#implied, including, but not limited to, the implied warranties of merchantability or fitness 
#for a particular purpose, with respect to the services rendered.  In no event will 
#Halliburton be liable for failure to obtain any particular results or for 
#any damages, including, but not limited to, indirect, special or consequential damages, 
#resulting from the use of any information or interpretation provided by Halliburton.
#
~A           TIME           GTDEPTH  GTPQH  GTTQ  GTTN  GTET   GTTVD  
# ...
   23:07:37.362.27-May-2021 3710.50 3139.53 84.61 2.00 253.10 2675.83
   23:07:37.563.27-May-2021 3710.50 3139.53 84.61 2.00 253.30 2675.83
   23:07:37.763.27-May-2021 3710.50 3139.53 84.61 2.00 253.50 2675.83
   23:07:37.963.27-May-2021 3710.50 3139.53 84.61 2.00 253.70 2675.83
   23:07:38.163.27-May-2021 3710.50 3139.54 84.61 2.00 253.90 2675.83
   23:07:38.363.27-May-2021 3710.50 3139.53 84.61 2.00 254.10 2675.83
   23:07:38.563.27-May-2021 3710.50 3139.53 84.61 2.00 254.30 2675.83
   23:07:38.763.27-May-2021 3710.50 3139.53 84.61 2.00 254.50 2675.83
   23:07:38.963.27-May-2021 3710.50 3139.52 84.61 2.00 254.70 2675.83
   23:07:39.163.27-May-2021 3710.50 3139.46 84.61 2.00 254.90 2675.83
   23:07:39.363.27-May-2021 3710.50 3139.60 84.61 2.00 255.10 2675.83
   23:07:39.563.27-May-2021 3710.50 3139.60 84.61 2.00 255.30 2675.83
   23:07:39.763.27-May-2021 3710.50 3139.53 84.61 2.00 255.50 2675.83
   23:07:39.963.27-May-2021 3710.50 3139.52 84.61 2.00 255.70 2675.83
   23:07:40.164.27-May-2021 3710.50 3139.56 84.61 2.00 255.90 2675.83
   23:07:40.364.27-May-2021 3710.50 3139.49 84.61 2.00 256.10 2675.83
   23:07:40.564.27-May-2021 3710.50 3139.49 84.61 2.00 256.30 2675.83
   23:07:40.764.27-May-2021 3710.50 3139.52 84.61 2.00 256.50 2675.83
   23:07:40.964.27-May-2021 3710.50 3139.54 84.61 2.00 256.70 2675.83
   23:07:41.164.27-May-2021 3710.50 3139.40 84.61 2.00 256.90 2675.83
   23:07:41.364.27-May-2021 3710.50 3139.65 84.61 2.00 257.10 2675.83
   23:07:41.564.27-May-2021 3710.50 3139.65 84.61 2.00 257.30 2675.83
   23:07:41.764.27-May-2021 3710.50 3139.54 84.61 2.00 257.50 2675.83
   23:07:41.964.27-May-2021 3710.50 3139.52 84.61 2.00 257.70 2675.83
   23:07:42.164.27-May-2021 3710.50 3139.51 84.61 2.00 257.90 2675.83
   23:07:42.364.27-May-2021 3710.50 3139.52 84.61 2.00 258.10 2675.83
   23:07:42.564.27-May-2021 3710.50 3139.52 84.61 2.00 258.30 2675.83
   23:07:42.765.27-May-2021 3710.50 3139.52 84.61 2.00 258.50 2675.83
   23:07:42.965.27-May-2021 3710.50 3139.52 84.61 2.00 258.70 2675.83
   23:07:43.165.27-May-2021 3710.50 3139.51 84.61 2.00 258.90 2675.83
   23:07:43.365.27-May-2021 3710.50 3139.53 84.61 2.00 259.10 2675.83
   23:07:43.565.27-May-2021 3710.50 3139.53 84.61 2.00 259.30 2675.83
   23:07:43.765.27-May-2021 3710.50 3139.38 84.61 2.00 259.50 2675.83
   23:07:43.965.27-May-2021 3710.50 3139.66 84.61 2.00 259.70 2675.83
   23:07:44.165.27-May-2021 3710.50 3139.51 84.61 2.00 259.90 2675.83
   23:07:44.365.27-May-2021 3710.50 3139.53 84.61 2.00 260.10 2675.83
   23:07:44.565.27-May-2021 3710.50 3139.53 84.61 2.00 260.30 2675.83
   23:07:44.765.27-May-2021 3710.50 3139.51 84.61 2.00 260.50 2675.83
   23:07:44.965.27-May-2021 3710.50 3129.93 84.61 2.00 260.70 2675.83
   23:07:45.166.27-May-2021 3710.50 3099.74 84.61 2.00 260.90 2675.83
   23:07:45.366.27-May-2021 3710.50 3096.55 84.61 2.00 261.10 2675.83
   23:07:45.566.27-May-2021 3710.50 3096.55 84.61 2.00 261.30 2675.83
   23:07:45.766.27-May-2021 3710.50 3097.69 84.61 2.00 261.50 2675.83
   23:07:45.966.27-May-2021 3710.50 3097.61 84.61 2.00 261.70 2675.83
   23:07:46.166.27-May-2021 3710.50 3097.43 84.61 2.00 261.90 2675.83
   23:07:46.366.27-May-2021 3710.50 3097.19 84.61 2.00 262.10 2675.83
   23:07:46.566.27-May-2021 3710.50 3097.19 84.61 2.00 262.30 2675.83
   23:07:46.766.27-May-2021 3710.50 3097.47 84.61 2.00 262.50 2675.83
   23:07:46.966.27-May-2021 3710.50 3097.42 84.61 2.00 262.70 2675.83
   23:07:47.166.27-May-2021 3710.50 3096.75 84.61 2.00 262.90 2675.83
   23:07:47.366.27-May-2021 3710.50 3097.60 84.60 2.00 263.10 2675.83
   23:07:47.566.27-May-2021 3710.50 3097.60 84.60 2.00 263.30 2675.83
   23:07:47.767.27-May-2021 3710.50 3097.13 84.60 2.00 263.50 2675.83
   23:07:47.967.27-May-2021 3710.50 3097.02 84.60 2.00 263.70 2675.83
   23:07:48.167.27-May-2021 3710.50 3097.03 84.60 2.00 263.90 2675.83
   23:07:48.367.27-May-2021 3710.50 3097.53 84.60 2.00 264.10 2675.83
   23:07:48.567.27-May-2021 3710.50 3097.53 84.60 2.00 264.30 2675.83
   23:07:48.767.27-May-2021 3710.50 3097.25 84.60 2.00 264.50 2675.83
   23:07:48.967.27-May-2021 3710.50 3097.15 84.60 2.00 264.70 2675.83
   23:07:49.167.27-May-2021 3710.50 3097.55 84.60 2.00 264.90 2675.83
   23:07:49.367.27-May-2021 3710.50 3097.10 84.60 2.00 265.10 2675.83
   23:07:49.567.27-May-2021 3710.50 3097.10 84.60 2.00 265.30 2675.83
   23:07:49.767.27-May-2021 3710.50 3097.70 84.60 2.00 265.50 2675.83
   23:07:49.967.27-May-2021 3710.50 3097.21 84.60 2.00 265.70 2675.83
   23:07:50.167.27-May-2021 3710.50 3097.37 84.60 2.00 265.90 2675.83
   23:07:50.368.27-May-2021 3710.50 3097.36 84.60 2.00 266.10 2675.83
   23:07:50.568.27-May-2021 3710.50 3097.36 84.60 2.00 266.30 2675.83
   23:07:50.768.27-May-2021 3710.50 3097.50 84.60 2.00 266.50 2675.83
   23:07:50.968.27-May-2021 3710.50 3097.78 84.60 2.00 266.70 2675.83
   23:07:51.168.27-May-2021 3710.50 3097.47 84.60 2.00 266.90 2675.83
   23:07:51.368.27-May-2021 3710.50 3097.30 84.60 2.00 267.10 2675.83
   23:07:51.568.27-May-2021 3710.50 3097.30 84.60 2.00 267.30 2675.83
   23:07:51.768.27-May-2021 3710.50 3097.67 84.60 2.00 267.50 2675.83
   23:07:51.968.27-May-2021 3710.50 3096.63 84.60 2.00 267.70 2675.83
   23:07:52.168.27-May-2021 3710.50 3097.85 84.60 2.00 267.90 2675.83
   23:07:52.368.27-May-2021 3710.50 3097.58 84.60 2.00 268.10 2675.83
   23:07:52.568.27-May-2021 3710.50 3097.58 84.60 2.00 268.31 2675.83
   23:07:52.768.27-May-2021 3710.50 3097.45 84.60 2.00 268.51 2675.83
   23:07:52.969.27-May-2021 3710.50 3097.27 84.60 2.00 268.71 2675.83
   23:07:53.169.27-May-2021 3710.50 3097.41 84.60 2.00 268.91 2675.83
   23:07:53.369.27-May-2021 3710.50 3097.35 84.60 2.00 269.11 2675.83
   23:07:53.569.27-May-2021 3710.50 3097.35 84.60 2.00 269.31 2675.83
   23:07:53.769.27-May-2021 3710.50 3097.43 84.60 2.00 269.51 2675.83
   23:07:53.969.27-May-2021 3710.50 3097.09 84.60 2.00 269.71 2675.83
   23:07:54.169.27-May-2021 3710.50 3097.36 84.60 2.00 269.91 2675.83
   23:07:54.369.27-May-2021 3710.50 3097.55 84.60 2.00 270.11 2675.83
   23:07:54.569.27-May-2021 3710.50 3097.55 84.60 2.00 270.31 2675.83
   23:07:54.769.27-May-2021 3710.50 3097.47 84.60 2.00 270.51 2675.83
   23:07:54.969.27-May-2021 3710.50 3097.44 84.60 2.00 270.71 2675.83
   23:07:55.169.27-May-2021 3710.50 3122.32 84.60 2.00 270.91 2675.83
   23:07:55.370.27-May-2021 3710.50 3138.57 84.60 2.00 271.11 2675.83
   23:07:55.570.27-May-2021 3710.50 3138.57 84.60 2.00 271.31 2675.83
   23:07:55.770.27-May-2021 3710.50 3138.93 84.60 2.00 271.51 2675.83
   23:07:55.970.27-May-2021 3710.50 3138.91 84.60 2.00 271.71 2675.83
   23:07:56.170.27-May-2021 3710.50 3139.22 84.60 2.00 271.91 2675.83
   23:07:56.370.27-May-2021 3710.50 3139.17 84.60 2.00 272.11 2675.83
   23:07:56.570.27-May-2021 3710.50 3139.17 84.60 2.00 272.31 2675.83
   23:07:56.770.27-May-2021 3710.50 3139.18 84.60 2.00 272.51 2675.83
   23:07:56.970.27-May-2021 3710.50 3139.18 84.60 2.00 272.71 2675.83
   23:07:57.170.27-May-2021 3710.50 3139.23 84.60 2.00 272.91 2675.83
   23:07:57.370.27-May-2021 3710.50 3139.30 84.60 2.00 273.11 2675.83
   23:07:57.570.27-May-2021 3710.50 3139.30 84.60 2.00 273.31 2675.83
   23:07:57.770.27-May-2021 3710.50 3139.30 84.60 2.00 273.51 2675.83
   23:07:57.971.27-May-2021 3710.50 3139.31 84.60 2.00 273.71 2675.83
   23:07:58.171.27-May-2021 3710.50 3139.32 84.60 2.00 273.91 2675.83
   23:07:58.371.27-May-2021 3710.50 3139.31 84.60 2.00 274.11 2675.83
   23:07:58.571.27-May-2021 3710.50 3139.31 84.60 2.00 274.31 2675.83
   23:07:58.771.27-May-2021 3710.50 3139.31 84.60 2.00 274.51 2675.83
   23:07:58.971.27-May-2021 3710.50 3139.32 84.60 2.00 274.71 2675.83
   23:07:59.171.27-May-2021 3710.50 3139.32 84.60 2.00 274.91 2675.83
   23:07:59.371.27-May-2021 3710.50 3139.33 84.60 2.00 275.11 2675.83
   23:07:59.571.27-May-2021 3710.50 3139.33 84.60 2.00 275.31 2675.83
   23:07:59.771.27-May-2021 3710.50 3139.34 84.60 2.00 275.51 2675.83
   23:07:59.971.27-May-2021 3710.50 3139.39 84.60 2.00 275.71 2675.83
   23:08:00.171.27-May-2021 3710.50 3139.37 84.60 2.00 275.91 2675.83
