~Version Information
 VERS.                  2.0:   CWLS log ASCII Standard -VERSION 2.0
 WRAP.                   NO:   One line per depth step
~Well Information Block
#MNEM.UNIT     VALUE/NAME     DESCRIPTION
#---------     -----------    ---------------------------
 STRT.S             04:01:58 28-May-21: START TIME 04:01:58 28-May-21
 STOP.S             04:09:02 28-May-21: STOP TIME  04:09:02 28-May-21
 STEP.S                   0.00: STEP TIME
 NULL.                 -999.25: NULL VALUE
 UWI .                     N/A:  UNIQUE WELL IDENTIFIER
 API .                     N/A:  API NUMBER
 UNIT.                     N/A:  LOGGING EQUIPMENT ID
 DCON.         Sperry Drilling:  DIRECTNL CONTR
 DOE .                     N/A:  DOE NUMBER
 MWDS.                    Baku:  MWD SHOP
 SRVC.     Turan Drilling and Engineering:  CONTRACTOR
 CTRY.              Azerbaijan:  COUNTRY NAME
 PROV.                    Baku:  PROVINCE
 STAT.                    Baku:  STATE NAME
 REGN.                   EESSA:  REGION
 BASE.              Azerbaijan:  LOGGING EQUIPMENT BASE LOCATION
 WTYP.                Deviated:  WELL TYPE
 RIG .              East Azeri:  RIG NAME
 WELL.                    D02y:  WELL NAME
 FLD .                     ACG:  FIELD NAME
 COMP.     BP Exploration (Caspian Sea) Ltd.:  COMPANY
 PDAT.          Mean Sea Level:  PERMANENT DATUM
 MDS .        Operator Entered:  MAG DATA SOURCE
 SON .        AZ-XX-0906997291:  JOB NUMBER
 FTOP.          Formation Tops:  FORM TOPS DESC
 ILTD.               Lithology:  INTERP LTH DESC
 SVYD.                  Survey:  SURVEY DESC
 DMOD.             Drill Model:  DRILL MOD DESC
 HPTY.       Minimum Curvature:  HOLE POS TYPE
 NREF.                    Grid:  NORTH REFERENCE
 SPUD.               05-May-21:  SPUD DATE
 DATE.      09.27.28 12-Jun-21:  END TIME
 STIM.      09.27.28 12-May-21:  START TIME
 DMF .             Drill Floor:  DRILL MEAS FROM
 DFST.                        :  DIST FSL TEXT
 DFWT.                        :  DIST FWL TEXT
 CNTY.                        :  COUNTY
 LOC .                        :  LOCATION
 LMF .             Drill Floor:  LOG MEASURED FROM
 DEP .m                2806.40:  DEPTH
 AGAP.m                  43.60:  AIR GAP
 VSNS.m                  -4.42:  VERT SEC N/S
 VSEW.m                  -7.31:  VERT SEC E/W
 APD .m                  43.60:  DEPTH ABOVE PD
 WDMS.m                 151.80:  WD ELEV
 EGL .m                   0.00:  GROUND ELEVATION
 EPD .m                   0.00:  ELEVATION
 AZTC.deg                 6.18:  AZM TOTAL CORR
 GRDC.deg                 0.29:  GRID CORRECTION
 MDEC.deg                 6.47:  MAGNETIC DECL
 MDIP.deg                59.50:  MAGNETIC DIP
 MFLD.nT              50350.00:  MAGNETIC FIELD
 GVFD.g                   1.00:  GRAVITY FIELD
 VSDR.deg               179.08:  VERT SEC DIRECT
 TDD .m                4300.00:  TOTAL DEPTH (DRILLER)
 SDEP.m                2800.00:  START DEPTH
 DFSL.m                   0.00:  DISTANCE FSL
 DFWL.m                   0.00:  DISTANCE FWL
 UTMY.m             4431871.34:  UTM Y
 UTMX.m              538762.90:  UTM X
 WHEW.m                  -7.31:  WELL HEAD E/W
 WHNS.m                  -4.42:  WELL HEAD N/S
 LONG.deg                51.45:  LONGITUDE
 LATI.deg                40.02:  LATITUDE
 TVDS.m                  43.60:  TVDSS CORRECTN
 EKB .m                  43.60:  KB ELEVATION
 EDF .m                  43.60:  DF ELEVATION
 TDL .m                 806.00:  TOTAL DEPTH (LOGGER)
 MAGU.                 1851231:  MAGUTM CHECKSUM
 VSC .                       0:  VS TO CLOSURE
~Parameter Information Block
#MNEM.UNIT       Value        Description
#---------     -----------    ---------------------------
 AV  .mps                 1.60:  Ann Velocity 
 AVMX.mps                 2.00:  Max Ann Veloc 
 AZIF.deg               140.24:  Azm, Final 
 BHAT.        Rotary Steerable:  BHA Type 
 BROT.°/30m               0.50:  Build Rotating 
 BS  .in                  8.50:  Bit Size 
 BTPL.psig              619.00:  Bit Press Loss 
 CABU.                     Yes:  Customer Abuse 
 CGEO.          Ilgar Gurbanov:  Customer Geo 
 COMM.                     4`:  Run Comments 1 
 TCS .hr                 85.88:  Time Ciculation Ended 
 CV  .mps                 3.30:  Crit Velocity 
 CVMX.mps                 3.50:  Max Crit Veloc 
 DD1 .           Hamid Axmedov:  Direct Drillr 1 
 DD2 .           Teymur Aliyev:  Direct Drillr 2 
 DDSV.               Geo-Pilot:  DD Service 
 DEFF.%                 100.00:  % Det Eff 
 DLRX.°/30m               0.00:  Dogleg Rot Max 
 DLSO.°/30m               1.80:  Dogleg Oriented 
 DLSX.°/30m               3.34:  Dogleg Str Max 
 DRET.      11.50.00 27-May-21:  Drill End Time 
 DRST.      21.13.00 24-May-21:  Drill Start Tim 
 DTIM.hr                 45.11:  Time Drilling 
 EDEP.m                4054.00:  End Depth 
 ENG1.         Almaz Almadatov:  Engineer 1 
 ENG2.           Amrah Tahirov:  Engineer 2 
 ENG3.      Bakhtiyar Jabbarli:  Engineer 3 
 ENG4.          Nazrin Asgarli:  Engineer 4 
 ETIM.      10.00.00 30-May-21:  End Time 
 FLOI.gpm               530.00:  Flow In 
 FLON.gpm               400.00:  Flow In Min 
 FLOS.cptm                0.00:  Fluid Loss 
 FLOX.gpm               560.00:  Flow In Max 
 DFT .        Mineral Oil Base:  Mud Type 
 FTRO.       Formation Presure:  FTWD Run Obj 
 HFLO.                      No:  High Flow 
 HPRE.                      No:  High Pressure 
 HTEM.                      No:  High Temp 
 HYDO.m                   1.80:  Hydro Offset 
 IFIN.deg                73.83:  Inc, Final 
 IMAX.deg                73.83:  Inc Max 
 IMIN.deg                57.86:  Inc Min 
 IMND.m                3259.27:  Inc Min Depth 
 IMXD.m                4045.58:  Inc Max Depth 
 JARR.                     Yes:  Jarring 
 LETM.      11.50.00 27-May-21:  Log End Time 
 LOST.hr                     0:  Lost Rig Time 
 LSTM.      21.13.00 24-May-21:  Log Start Time 
 MDCL.ppm             42500.00:  Mud Chlorides 
 MDES.     Inversion Oil/Synthetic:  Mud Desc 
 DFD .sg                  1.52:  Mud Density 
 MDMN.sg                  1.52:  Dens Mud Min 
 MDMX.sg                  1.52:  Dens Mud Max 
 MOIL.                      70:  Run Mud Oil % 
 MOWR.                   70:30:  Run Mud OWR 
 MSND.                     0.2:  Run Mud Sand % 
 MSOL.                      22:  Run Mud Solids% 
 DFV .spqt               77.00:  Mud Viscosity 
 MWOD.in                  6.75:  MWD Tool OD 
 MWSI.                      No:  Serv Intrp, MWD 
 OTIM.hr                151.01:  Time Operating 
 PCON.          Wear / Scratch:  Pad Condition 
 PMAX.psia            11296.93:  Press Op, Max 
 PV  .cP                 37.00:  Mud PV 
 RUN .                     500:  Run Number 
 ROPA.m/hr               25.00:  ROP Avg 
 ROPN.m/hr                9.00:  ROP Min 
 ROPX.m/hr               28.00:  ROP Max 
 RPMA.rpm               140.00:  RPM Surface Avg 
 RPMN.rpm                90.00:  RPM Surface Min 
 RPMX.rpm               140.00:  RPM Surface Max 
 RRUN.                    0500:  Rig Run Number 
 SAZI.deg               172.17:  Azm, Start 
 SDEP.m                3248.00:  Start Depth 
 SIDD.                      No:  Serv Intrp, DD 
 SINC.deg                57.86:  Inc, Start 
 SPPA.psig             5620.00:  SPP Avg 
 SPPN.psig             5190.00:  SPP Min 
 SPPX.psig             6050.00:  SPP Max 
 STIM.      16.00.00 23-May-21:  Start Time 
 SVCS.                 DD, MWD:  Services 
 SVER.                    9.20:  Sperry Version 
 TDAT.m                 806.00:  Tot Depth Attmp 
 TDDF.                      No:  Trip for DD 
 TDLG.m                 806.00:  Tot Depth Loggd 
 TFF .                      No:  Trip for Fail 
 TQAA.f-kp               12.00:  Torque Abs Avg 
 TQAN.f-kp                8.00:  Torque Abs Min 
 TQAX.f-kp               15.00:  Torque Abs Max 
 TRRT.°/30m               0.30:  Turn Rotating 
 MRT .                  EWR-M5:  Maximum Recorded Temperature 
 TTMX.degC               93.00:  Max Tool Temp 
 VS01.                90649155:  Virtual Str1 SN 
 VS02.                90642264:  Virtual Str2 SN 
 VS03.                90642266:  Virtual Str3 SN 
 VS04.                90642261:  Virtual Str4 SN 
 WBMN.klb                 0.00:  WOB Min 
 WITN.             Anar Khalil:  Customer Rep 
 WITN.           Murad Guliyev:  Customer Rep 2 
 WOBA.klb                13.00:  WOB Avg 
 WOBX.klb                25.00:  WOB Max 
 YP  .lhf2               32.00:  Yield Point 
~Curve Information Block
#MNEM.UNIT                 API CODE     Curve Description
#---------               -----------    ---------------------------
 TIME.HHMMSS            00 000 000 000:  GT Time & Date
 GTDEPTH.m              00 000 000 000:  GT Depth
 GTPQH.psia             00 000 000 000:  GT HR Quartz Pressure
 GTTQ.degC              00 000 000 000:  GT Quartz Temperature
 GTTN.NONE              00 000 000 000:  GT Test Number
 GTET.sec               00 000 000 000:  GT Elapsed Test Time
 GTTVD.m                00 000 000 000:  GT True Vertical Depth
#Other Information
#
#WARRANTY: Halliburton will use its best efforts to furnish customers with 
#accurate information and interpretations that are part of, and incident to, the services 
#provided.  However, Halliburton cannot and does not warrant the accuracy 
#or correctness of such information and interpretations.  Under no circumstances should any 
#such information or interpretation be relied upon as the sole basis for any drilling, 
#completion, production, or financial decision or any procedure involving any risk to the 
#safety of any drilling venture, drilling rig or its crew or any other third party.  The 
#Customer has full responsibility for all drilling, completion and production operation.  
#Halliburton makes no representations or warranties, either expressed or 
#implied, including, but not limited to, the implied warranties of merchantability or fitness 
#for a particular purpose, with respect to the services rendered.  In no event will 
#Halliburton be liable for failure to obtain any particular results or for 
#any damages, including, but not limited to, indirect, special or consequential damages, 
#resulting from the use of any information or interpretation provided by Halliburton.
#
~A           TIME           GTDEPTH  GTPQH  GTTQ  GTTN  GTET   GTTVD  
# ...
   04:06:11.427.28-May-2021 3493.50 4216.85 83.06 8.00 253.08 2592.27
   04:06:11.627.28-May-2021 3493.50 4216.85 83.06 8.00 253.28 2592.27
   04:06:11.827.28-May-2021 3493.50 4216.84 83.06 8.00 253.48 2592.27
   04:06:12.027.28-May-2021 3493.50 4216.83 83.06 8.00 253.68 2592.27
   04:06:12.227.28-May-2021 3493.50 4216.83 83.06 8.00 253.88 2592.27
   04:06:12.428.28-May-2021 3493.50 4216.51 83.06 8.00 254.08 2592.27
   04:06:12.628.28-May-2021 3493.50 4216.51 83.06 8.00 254.28 2592.27
   04:06:12.828.28-May-2021 3493.50 4216.51 83.06 8.00 254.48 2592.27
   04:06:13.028.28-May-2021 3493.50 4216.84 83.06 8.00 254.68 2592.27
   04:06:13.228.28-May-2021 3493.50 4216.75 83.06 8.00 254.88 2592.27
   04:06:13.428.28-May-2021 3493.50 4216.90 83.06 8.00 255.08 2592.27
   04:06:13.628.28-May-2021 3493.50 4216.90 83.06 8.00 255.28 2592.27
   04:06:13.828.28-May-2021 3493.50 4216.82 83.06 8.00 255.48 2592.27
   04:06:14.028.28-May-2021 3493.50 4216.85 83.06 8.00 255.68 2592.27
   04:06:14.228.28-May-2021 3493.50 4216.85 83.06 8.00 255.88 2592.27
   04:06:14.428.28-May-2021 3493.50 4216.67 83.06 8.00 256.08 2592.27
   04:06:14.628.28-May-2021 3493.50 4216.67 83.06 8.00 256.28 2592.27
   04:06:14.828.28-May-2021 3493.50 4216.85 83.06 8.00 256.48 2592.27
   04:06:15.028.28-May-2021 3493.50 4216.86 83.06 8.00 256.68 2592.27
   04:06:15.228.28-May-2021 3493.50 4216.82 83.06 8.00 256.88 2592.27
   04:06:15.428.28-May-2021 3493.50 4216.58 83.06 8.00 257.08 2592.27
   04:06:15.629.28-May-2021 3493.50 4216.58 83.06 8.00 257.28 2592.27
   04:06:15.829.28-May-2021 3493.50 4216.85 83.06 8.00 257.48 2592.27
   04:06:16.029.28-May-2021 3493.50 4216.86 83.06 8.00 257.68 2592.27
   04:06:16.229.28-May-2021 3493.50 4216.82 83.06 8.00 257.88 2592.27
   04:06:16.429.28-May-2021 3493.50 4216.85 83.06 8.00 258.08 2592.27
   04:06:16.629.28-May-2021 3493.50 4216.85 83.06 8.00 258.28 2592.27
   04:06:16.829.28-May-2021 3493.50 4216.83 83.06 8.00 258.48 2592.27
   04:06:17.029.28-May-2021 3493.50 4216.84 83.06 8.00 258.68 2592.27
   04:06:17.229.28-May-2021 3493.50 4216.83 83.06 8.00 258.88 2592.27
   04:06:17.429.28-May-2021 3493.50 4216.83 83.06 8.00 259.08 2592.27
   04:06:17.629.28-May-2021 3493.50 4216.83 83.06 8.00 259.28 2592.27
   04:06:17.829.28-May-2021 3493.50 4216.82 83.06 8.00 259.48 2592.27
   04:06:18.029.28-May-2021 3493.50 4216.76 83.06 8.00 259.68 2592.27
   04:06:18.229.28-May-2021 3493.50 4161.26 83.06 8.00 259.88 2592.27
   04:06:18.429.28-May-2021 3493.50 4128.89 83.06 8.00 260.08 2592.27
   04:06:18.630.28-May-2021 3493.50 4128.89 83.06 8.00 260.28 2592.27
   04:06:18.830.28-May-2021 3493.50 4129.18 83.06 8.00 260.48 2592.27
   04:06:19.030.28-May-2021 3493.50 4129.08 83.06 8.00 260.68 2592.27
   04:06:19.230.28-May-2021 3493.50 4128.59 83.06 8.00 260.88 2592.27
   04:06:19.430.28-May-2021 3493.50 4128.77 83.06 8.00 261.08 2592.27
   04:06:19.630.28-May-2021 3493.50 4128.77 83.06 8.00 261.28 2592.27
   04:06:19.830.28-May-2021 3493.50 4128.58 83.06 8.00 261.48 2592.27
   04:06:20.030.28-May-2021 3493.50 4126.57 83.06 8.00 261.68 2592.27
   04:06:20.230.28-May-2021 3493.50 4129.23 83.06 8.00 261.88 2592.27
   04:06:20.430.28-May-2021 3493.50 4128.23 83.06 8.00 262.08 2592.27
   04:06:20.630.28-May-2021 3493.50 4128.23 83.06 8.00 262.28 2592.27
   04:06:20.830.28-May-2021 3493.50 4126.81 83.06 8.00 262.48 2592.27
   04:06:21.030.28-May-2021 3493.50 4128.39 83.06 8.00 262.68 2592.27
   04:06:21.230.28-May-2021 3493.50 4128.36 83.06 8.00 262.88 2592.27
   04:06:21.430.28-May-2021 3493.50 4128.07 83.06 8.00 263.08 2592.27
   04:06:21.630.28-May-2021 3493.50 4128.07 83.06 8.00 263.28 2592.27
   04:06:21.831.28-May-2021 3493.50 4128.33 83.06 8.00 263.48 2592.27
   04:06:22.031.28-May-2021 3493.50 4128.53 83.06 8.00 263.68 2592.27
   04:06:22.231.28-May-2021 3493.50 4129.04 83.06 8.00 263.88 2592.27
   04:06:22.431.28-May-2021 3493.50 4128.20 83.06 8.00 264.09 2592.27
   04:06:22.631.28-May-2021 3493.50 4128.20 83.06 8.00 264.29 2592.27
   04:06:22.831.28-May-2021 3493.50 4129.16 83.06 8.00 264.49 2592.27
   04:06:23.031.28-May-2021 3493.50 4129.14 83.06 8.00 264.69 2592.27
   04:06:23.231.28-May-2021 3493.50 4128.41 83.06 8.00 264.89 2592.27
   04:06:23.431.28-May-2021 3493.50 4128.28 83.06 8.00 265.09 2592.27
   04:06:23.631.28-May-2021 3493.50 4128.28 83.06 8.00 265.29 2592.27
   04:06:23.831.28-May-2021 3493.50 4127.76 83.06 8.00 265.49 2592.27
   04:06:24.031.28-May-2021 3493.50 4129.13 83.06 8.00 265.69 2592.27
   04:06:24.231.28-May-2021 3493.50 4129.58 83.06 8.00 265.89 2592.27
   04:06:24.431.28-May-2021 3493.50 4129.68 83.06 8.00 266.09 2592.27
   04:06:24.631.28-May-2021 3493.50 4129.68 83.06 8.00 266.29 2592.27
   04:06:24.832.28-May-2021 3493.50 4130.50 83.05 8.00 266.49 2592.27
   04:06:25.032.28-May-2021 3493.50 4130.16 83.05 8.00 266.69 2592.27
   04:06:25.232.28-May-2021 3493.50 4131.25 83.05 8.00 266.89 2592.27
   04:06:25.432.28-May-2021 3493.50 4129.84 83.05 8.00 267.09 2592.27
   04:06:25.632.28-May-2021 3493.50 4129.84 83.05 8.00 267.29 2592.27
   04:06:25.832.28-May-2021 3493.50 4130.48 83.05 8.00 267.49 2592.27
   04:06:26.032.28-May-2021 3493.50 4130.89 83.05 8.00 267.69 2592.27
   04:06:26.232.28-May-2021 3493.50 4130.77 83.05 8.00 267.89 2592.27
   04:06:26.432.28-May-2021 3493.50 4131.14 83.05 8.00 268.09 2592.27
   04:06:26.632.28-May-2021 3493.50 4131.14 83.05 8.00 268.29 2592.27
   04:06:26.832.28-May-2021 3493.50 4130.20 83.05 8.00 268.49 2592.27
   04:06:27.032.28-May-2021 3493.50 4129.57 83.05 8.00 268.69 2592.27
   04:06:27.232.28-May-2021 3493.50 4128.96 83.05 8.00 268.89 2592.27
   04:06:27.432.28-May-2021 3493.50 4129.27 83.05 8.00 269.09 2592.27
   04:06:27.632.28-May-2021 3493.50 4129.27 83.05 8.00 269.29 2592.27
   04:06:27.832.28-May-2021 3493.50 4128.94 83.05 8.00 269.49 2592.27
   04:06:28.033.28-May-2021 3493.50 4128.73 83.05 8.00 269.69 2592.27
   04:06:28.233.28-May-2021 3493.50 4138.65 83.05 8.00 269.89 2592.27
   04:06:28.433.28-May-2021 3493.50 4209.52 83.05 8.00 270.09 2592.27
   04:06:28.633.28-May-2021 3493.50 4209.52 83.05 8.00 270.29 2592.27
   04:06:28.833.28-May-2021 3493.50 4215.49 83.05 8.00 270.49 2592.27
   04:06:29.033.28-May-2021 3493.50 4216.46 83.05 8.00 270.69 2592.27
   04:06:29.233.28-May-2021 3493.50 4216.30 83.05 8.00 270.89 2592.27
   04:06:29.433.28-May-2021 3493.50 4216.32 83.05 8.00 271.09 2592.27
   04:06:29.633.28-May-2021 3493.50 4216.32 83.05 8.00 271.29 2592.27
   04:06:29.833.28-May-2021 3493.50 4216.40 83.05 8.00 271.49 2592.27
   04:06:30.033.28-May-2021 3493.50 4216.47 83.05 8.00 271.69 2592.27
   04:06:30.233.28-May-2021 3493.50 4216.57 83.05 8.00 271.89 2592.27
   04:06:30.433.28-May-2021 3493.50 4216.51 83.05 8.00 272.09 2592.27
   04:06:30.633.28-May-2021 3493.50 4216.51 83.05 8.00 272.29 2592.27
   04:06:30.833.28-May-2021 3493.50 4216.60 83.05 8.00 272.49 2592.27
   04:06:31.034.28-May-2021 3493.50 4216.60 83.05 8.00 272.69 2592.27
   04:06:31.234.28-May-2021 3493.50 4216.65 83.05 8.00 272.89 2592.27
   04:06:31.434.28-May-2021 3493.50 4216.58 83.05 8.00 273.09 2592.27
   04:06:31.634.28-May-2021 3493.50 4216.58 83.05 8.00 273.29 2592.27
   04:06:31.834.28-May-2021 3493.50 4216.66 83.05 8.00 273.49 2592.27
   04:06:32.034.28-May-2021 3493.50 4216.67 83.05 8.00 273.69 2592.27
   04:06:32.234.28-May-2021 3493.50 4216.66 83.05 8.00 273.89 2592.27
   04:06:32.434.28-May-2021 3493.50 4216.66 83.05 8.00 274.09 2592.27
   04:06:32.634.28-May-2021 3493.50 4216.66 83.05 8.00 274.29 2592.27
   04:06:32.834.28-May-2021 3493.50 4216.66 83.05 8.00 274.49 2592.27
   04:06:33.034.28-May-2021 3493.50 4216.66 83.05 8.00 274.69 2592.27
   04:06:33.234.28-May-2021 3493.50 4216.66 83.05 8.00 274.89 2592.27
   04:06:33.434.28-May-2021 3493.50 4216.65 83.05 8.00 275.09 2592.27
   04:06:33.634.28-May-2021 3493.50 4216.65 83.05 8.00 275.29 2592.27
   04:06:33.834.28-May-2021 3493.50 4217.00 83.05 8.00 275.49 2592.27
   04:06:34.034.28-May-2021 3493.50 4216.73 83.05 8.00 275.69 2592.27
   04:06:34.235.28-May-2021 3493.50 4216.72 83.05 8.00 275.89 2592.27
