~Version Information
 VERS.                  2.0:   CWLS log ASCII Standard -VERSION 2.0
 WRAP.                   NO:   One line per depth step
~Well Information Block
#MNEM.UNIT     VALUE/NAME     DESCRIPTION
#---------     -----------    ---------------------------
 STRT.S             00:59:34 28-May-21: START TIME 00:59:34 28-May-21
 STOP.S             01:06:40 28-May-21: STOP TIME  01:06:40 28-May-21
 STEP.S                   0.00: STEP TIME
 NULL.                 -999.25: NULL VALUE
 UWI .                     N/A:  UNIQUE WELL IDENTIFIER
 API .                     N/A:  API NUMBER
 UNIT.                     N/A:  LOGGING EQUIPMENT ID
 DCON.         Sperry Drilling:  DIRECTNL CONTR
 DOE .                     N/A:  DOE NUMBER
 MWDS.                    Baku:  MWD SHOP
 SRVC.     Turan Drilling and Engineering:  CONTRACTOR
 CTRY.              Azerbaijan:  COUNTRY NAME
 PROV.                    Baku:  PROVINCE
 STAT.                    Baku:  STATE NAME
 REGN.                   EESSA:  REGION
 BASE.              Azerbaijan:  LOGGING EQUIPMENT BASE LOCATION
 WTYP.                Deviated:  WELL TYPE
 RIG .              East Azeri:  RIG NAME
 WELL.                    D02y:  WELL NAME
 FLD .                     ACG:  FIELD NAME
 COMP.     BP Exploration (Caspian Sea) Ltd.:  COMPANY
 PDAT.          Mean Sea Level:  PERMANENT DATUM
 MDS .        Operator Entered:  MAG DATA SOURCE
 SON .        AZ-XX-0906997291:  JOB NUMBER
 FTOP.          Formation Tops:  FORM TOPS DESC
 ILTD.               Lithology:  INTERP LTH DESC
 SVYD.                  Survey:  SURVEY DESC
 DMOD.             Drill Model:  DRILL MOD DESC
 HPTY.       Minimum Curvature:  HOLE POS TYPE
 NREF.                    Grid:  NORTH REFERENCE
 SPUD.               05-May-21:  SPUD DATE
 DATE.      09.27.28 12-Jun-21:  END TIME
 STIM.      09.27.28 12-May-21:  START TIME
 DMF .             Drill Floor:  DRILL MEAS FROM
 DFST.                        :  DIST FSL TEXT
 DFWT.                        :  DIST FWL TEXT
 CNTY.                        :  COUNTY
 LOC .                        :  LOCATION
 LMF .             Drill Floor:  LOG MEASURED FROM
 DEP .m                2806.40:  DEPTH
 AGAP.m                  43.60:  AIR GAP
 VSNS.m                  -4.42:  VERT SEC N/S
 VSEW.m                  -7.31:  VERT SEC E/W
 APD .m                  43.60:  DEPTH ABOVE PD
 WDMS.m                 151.80:  WD ELEV
 EGL .m                   0.00:  GROUND ELEVATION
 EPD .m                   0.00:  ELEVATION
 AZTC.deg                 6.18:  AZM TOTAL CORR
 GRDC.deg                 0.29:  GRID CORRECTION
 MDEC.deg                 6.47:  MAGNETIC DECL
 MDIP.deg                59.50:  MAGNETIC DIP
 MFLD.nT              50350.00:  MAGNETIC FIELD
 GVFD.g                   1.00:  GRAVITY FIELD
 VSDR.deg               179.08:  VERT SEC DIRECT
 TDD .m                4300.00:  TOTAL DEPTH (DRILLER)
 SDEP.m                2800.00:  START DEPTH
 DFSL.m                   0.00:  DISTANCE FSL
 DFWL.m                   0.00:  DISTANCE FWL
 UTMY.m             4431871.34:  UTM Y
 UTMX.m              538762.90:  UTM X
 WHEW.m                  -7.31:  WELL HEAD E/W
 WHNS.m                  -4.42:  WELL HEAD N/S
 LONG.deg                51.45:  LONGITUDE
 LATI.deg                40.02:  LATITUDE
 TVDS.m                  43.60:  TVDSS CORRECTN
 EKB .m                  43.60:  KB ELEVATION
 EDF .m                  43.60:  DF ELEVATION
 TDL .m                 806.00:  TOTAL DEPTH (LOGGER)
 MAGU.                 1851231:  MAGUTM CHECKSUM
 VSC .                       0:  VS TO CLOSURE
~Parameter Information Block
#MNEM.UNIT       Value        Description
#---------     -----------    ---------------------------
 AV  .mps                 1.60:  Ann Velocity 
 AVMX.mps                 2.00:  Max Ann Veloc 
 AZIF.deg               140.24:  Azm, Final 
 BHAT.        Rotary Steerable:  BHA Type 
 BROT.°/30m               0.50:  Build Rotating 
 BS  .in                  8.50:  Bit Size 
 BTPL.psig              619.00:  Bit Press Loss 
 CABU.                     Yes:  Customer Abuse 
 CGEO.          Ilgar Gurbanov:  Customer Geo 
 COMM.                     ô:r:  Run Comments 1 
 TCS .hr                 85.88:  Time Ciculation Ended 
 CV  .mps                 3.30:  Crit Velocity 
 CVMX.mps                 3.50:  Max Crit Veloc 
 DD1 .           Hamid Axmedov:  Direct Drillr 1 
 DD2 .           Teymur Aliyev:  Direct Drillr 2 
 DDSV.               Geo-Pilot:  DD Service 
 DEFF.%                 100.00:  % Det Eff 
 DLRX.°/30m               0.00:  Dogleg Rot Max 
 DLSO.°/30m               1.80:  Dogleg Oriented 
 DLSX.°/30m               3.34:  Dogleg Str Max 
 DRET.      11.50.00 27-May-21:  Drill End Time 
 DRST.      21.13.00 24-May-21:  Drill Start Tim 
 DTIM.hr                 45.11:  Time Drilling 
 EDEP.m                4054.00:  End Depth 
 ENG1.         Almaz Almadatov:  Engineer 1 
 ENG2.           Amrah Tahirov:  Engineer 2 
 ENG3.      Bakhtiyar Jabbarli:  Engineer 3 
 ENG4.          Nazrin Asgarli:  Engineer 4 
 ETIM.      10.00.00 30-May-21:  End Time 
 FLOI.gpm               530.00:  Flow In 
 FLON.gpm               400.00:  Flow In Min 
 FLOS.cptm                0.00:  Fluid Loss 
 FLOX.gpm               560.00:  Flow In Max 
 DFT .        Mineral Oil Base:  Mud Type 
 FTRO.       Formation Presure:  FTWD Run Obj 
 HFLO.                      No:  High Flow 
 HPRE.                      No:  High Pressure 
 HTEM.                      No:  High Temp 
 HYDO.m                   1.80:  Hydro Offset 
 IFIN.deg                73.83:  Inc, Final 
 IMAX.deg                73.83:  Inc Max 
 IMIN.deg                57.86:  Inc Min 
 IMND.m                3259.27:  Inc Min Depth 
 IMXD.m                4045.58:  Inc Max Depth 
 JARR.                     Yes:  Jarring 
 LETM.      11.50.00 27-May-21:  Log End Time 
 LOST.hr                     0:  Lost Rig Time 
 LSTM.      21.13.00 24-May-21:  Log Start Time 
 MDCL.ppm             42500.00:  Mud Chlorides 
 MDES.     Inversion Oil/Synthetic:  Mud Desc 
 DFD .sg                  1.52:  Mud Density 
 MDMN.sg                  1.52:  Dens Mud Min 
 MDMX.sg                  1.52:  Dens Mud Max 
 MOIL.                      70:  Run Mud Oil % 
 MOWR.                   70:30:  Run Mud OWR 
 MSND.                     0.2:  Run Mud Sand % 
 MSOL.                      22:  Run Mud Solids% 
 DFV .spqt               77.00:  Mud Viscosity 
 MWOD.in                  6.75:  MWD Tool OD 
 MWSI.                      No:  Serv Intrp, MWD 
 OTIM.hr                151.01:  Time Operating 
 PCON.          Wear / Scratch:  Pad Condition 
 PMAX.psia            11296.93:  Press Op, Max 
 PV  .cP                 37.00:  Mud PV 
 RUN .                     500:  Run Number 
 ROPA.m/hr               25.00:  ROP Avg 
 ROPN.m/hr                9.00:  ROP Min 
 ROPX.m/hr               28.00:  ROP Max 
 RPMA.rpm               140.00:  RPM Surface Avg 
 RPMN.rpm                90.00:  RPM Surface Min 
 RPMX.rpm               140.00:  RPM Surface Max 
 RRUN.                    0500:  Rig Run Number 
 SAZI.deg               172.17:  Azm, Start 
 SDEP.m                3248.00:  Start Depth 
 SIDD.                      No:  Serv Intrp, DD 
 SINC.deg                57.86:  Inc, Start 
 SPPA.psig             5620.00:  SPP Avg 
 SPPN.psig             5190.00:  SPP Min 
 SPPX.psig             6050.00:  SPP Max 
 STIM.      16.00.00 23-May-21:  Start Time 
 SVCS.                 DD, MWD:  Services 
 SVER.                    9.20:  Sperry Version 
 TDAT.m                 806.00:  Tot Depth Attmp 
 TDDF.                      No:  Trip for DD 
 TDLG.m                 806.00:  Tot Depth Loggd 
 TFF .                      No:  Trip for Fail 
 TQAA.f-kp               12.00:  Torque Abs Avg 
 TQAN.f-kp                8.00:  Torque Abs Min 
 TQAX.f-kp               15.00:  Torque Abs Max 
 TRRT.°/30m               0.30:  Turn Rotating 
 MRT .                  EWR-M5:  Maximum Recorded Temperature 
 TTMX.degC               93.00:  Max Tool Temp 
 VS01.                90649155:  Virtual Str1 SN 
 VS02.                90642264:  Virtual Str2 SN 
 VS03.                90642266:  Virtual Str3 SN 
 VS04.                90642261:  Virtual Str4 SN 
 WBMN.klb                 0.00:  WOB Min 
 WITN.             Anar Khalil:  Customer Rep 
 WITN.           Murad Guliyev:  Customer Rep 2 
 WOBA.klb                13.00:  WOB Avg 
 WOBX.klb                25.00:  WOB Max 
 YP  .lhf2               32.00:  Yield Point 
~Curve Information Block
#MNEM.UNIT                 API CODE     Curve Description
#---------               -----------    ---------------------------
 TIME.HHMMSS            00 000 000 000:  GT Time & Date
 GTDEPTH.m              00 000 000 000:  GT Depth
 GTPQH.psia             00 000 000 000:  GT HR Quartz Pressure
 GTTQ.degC              00 000 000 000:  GT Quartz Temperature
 GTTN.NONE              00 000 000 000:  GT Test Number
 GTET.sec               00 000 000 000:  GT Elapsed Test Time
 GTTVD.m                00 000 000 000:  GT True Vertical Depth
#Other Information
#
#WARRANTY: Halliburton will use its best efforts to furnish customers with 
#accurate information and interpretations that are part of, and incident to, the services 
#provided.  However, Halliburton cannot and does not warrant the accuracy 
#or correctness of such information and interpretations.  Under no circumstances should any 
#such information or interpretation be relied upon as the sole basis for any drilling, 
#completion, production, or financial decision or any procedure involving any risk to the 
#safety of any drilling venture, drilling rig or its crew or any other third party.  The 
#Customer has full responsibility for all drilling, completion and production operation.  
#Halliburton makes no representations or warranties, either expressed or 
#implied, including, but not limited to, the implied warranties of merchantability or fitness 
#for a particular purpose, with respect to the services rendered.  In no event will 
#Halliburton be liable for failure to obtain any particular results or for 
#any damages, including, but not limited to, indirect, special or consequential damages, 
#resulting from the use of any information or interpretation provided by Halliburton.
#
~A           TIME           GTDEPTH  GTPQH  GTTQ  GTTN  GTET   GTTVD  
# ...
   01:00:20.999.28-May-2021 3649.00 6656.03 85.03 5.00  46.05 2653.32
   01:00:21.199.28-May-2021 3649.00 6656.03 85.03 5.00  46.25 2653.32
   01:00:21.400.28-May-2021 3649.00 6657.52 85.03 5.00  46.45 2653.32
   01:00:21.600.28-May-2021 3649.00 6658.18 85.03 5.00  46.65 2653.32
   01:00:21.800.28-May-2021 3649.00 6659.27 85.03 5.00  46.85 2653.32
   01:00:22.000.28-May-2021 3649.00 6659.45 85.03 5.00  47.05 2653.32
   01:00:22.200.28-May-2021 3649.00 6659.45 85.03 5.00  47.25 2653.32
   01:00:22.401.28-May-2021 3649.00 6353.00 85.03 5.00  47.45 2653.32
   01:00:22.601.28-May-2021 3649.00 6142.03 85.03 5.00  47.65 2653.32
   01:00:22.801.28-May-2021 3649.00 6010.75 85.03 5.00  47.85 2653.32
   01:00:23.001.28-May-2021 3649.00 5813.60 85.03 5.00  48.05 2653.32
   01:00:23.202.28-May-2021 3649.00 5813.60 85.03 5.00  48.25 2653.32
   01:00:23.402.28-May-2021 3649.00 4918.62 85.03 5.00  48.45 2653.32
   01:00:23.602.28-May-2021 3649.00 4378.26 85.03 5.00  48.65 2653.32
   01:00:23.802.28-May-2021 3649.00 4049.86 85.03 5.00  48.85 2653.32
   01:00:24.002.28-May-2021 3649.00 3778.76 85.03 5.00  49.05 2653.32
   01:00:24.203.28-May-2021 3649.00 3778.76 85.03 5.00  49.25 2653.32
   01:00:24.403.28-May-2021 3649.00 3160.53 85.03 5.00  49.45 2653.32
   01:00:24.603.28-May-2021 3649.00 3161.10 85.03 5.00  49.65 2653.32
   01:00:24.803.28-May-2021 3649.00 3161.97 85.03 5.00  49.85 2653.32
   01:00:25.003.28-May-2021 3649.00 3161.15 85.02 5.00  50.05 2653.32
   01:00:25.204.28-May-2021 3649.00 3161.15 85.02 5.00  50.25 2653.32
   01:00:25.404.28-May-2021 3649.00 3159.52 85.02 5.00  50.45 2653.32
   01:00:25.604.28-May-2021 3649.00 3159.19 85.02 5.00  50.65 2653.32
   01:00:25.804.28-May-2021 3649.00 3158.25 85.02 5.00  50.85 2653.32
   01:00:26.004.28-May-2021 3649.00 3157.92 85.01 5.00  51.05 2653.32
   01:00:26.205.28-May-2021 3649.00 3157.92 85.01 5.00  51.25 2653.32
   01:00:26.405.28-May-2021 3649.00 3157.15 85.01 5.00  51.45 2653.32
   01:00:26.605.28-May-2021 3649.00 3156.90 85.00 5.00  51.65 2653.32
   01:00:26.805.28-May-2021 3649.00 3156.66 85.00 5.00  51.85 2653.32
   01:00:27.005.28-May-2021 3649.00 3156.67 85.00 5.00  52.05 2653.32
   01:00:27.206.28-May-2021 3649.00 3156.67 85.00 5.00  52.25 2653.32
   01:00:27.406.28-May-2021 3649.00 3156.13 84.99 5.00  52.45 2653.32
   01:00:27.606.28-May-2021 3649.00 3156.02 84.99 5.00  52.65 2653.32
   01:00:27.806.28-May-2021 3649.00 3156.20 84.99 5.00  52.85 2653.32
   01:00:28.007.28-May-2021 3649.00 3156.09 84.99 5.00  53.06 2653.32
   01:00:28.207.28-May-2021 3649.00 3156.09 84.99 5.00  53.26 2653.32
   01:00:28.407.28-May-2021 3649.00 3155.95 84.98 5.00  53.46 2653.32
   01:00:28.607.28-May-2021 3649.00 3155.53 84.98 5.00  53.66 2653.32
   01:00:28.807.28-May-2021 3649.00 3155.38 84.98 5.00  53.86 2653.32
   01:00:29.008.28-May-2021 3649.00 3155.68 84.97 5.00  54.06 2653.32
   01:00:29.208.28-May-2021 3649.00 3155.68 84.97 5.00  54.26 2653.32
   01:00:29.408.28-May-2021 3649.00 3155.62 84.97 5.00  54.46 2653.32
   01:00:29.608.28-May-2021 3649.00 3155.44 84.97 5.00  54.66 2653.32
   01:00:29.808.28-May-2021 3649.00 3155.95 84.97 5.00  54.86 2653.32
   01:00:30.009.28-May-2021 3649.00 3155.35 84.96 5.00  55.06 2653.32
   01:00:30.209.28-May-2021 3649.00 3155.35 84.96 5.00  55.26 2653.32
   01:00:30.409.28-May-2021 3649.00 3155.40 84.96 5.00  55.46 2653.32
   01:00:30.609.28-May-2021 3649.00 3155.34 84.96 5.00  55.66 2653.32
   01:00:30.809.28-May-2021 3649.00 3155.31 84.96 5.00  55.86 2653.32
   01:00:31.010.28-May-2021 3649.00 3155.32 84.96 5.00  56.06 2653.32
   01:00:31.210.28-May-2021 3649.00 3155.32 84.96 5.00  56.26 2653.32
   01:00:31.410.28-May-2021 3649.00 3155.24 84.95 5.00  56.46 2653.32
   01:00:31.610.28-May-2021 3649.00 3155.20 84.95 5.00  56.66 2653.32
   01:00:31.810.28-May-2021 3649.00 3155.18 84.95 5.00  56.86 2653.32
   01:00:32.011.28-May-2021 3649.00 3155.41 84.95 5.00  57.06 2653.32
   01:00:32.211.28-May-2021 3649.00 3155.41 84.95 5.00  57.26 2653.32
   01:00:32.411.28-May-2021 3649.00 3164.52 84.95 5.00  57.46 2653.32
   01:00:32.611.28-May-2021 3649.00 3164.67 84.95 5.00  57.66 2653.32
   01:00:32.812.28-May-2021 3649.00 3164.72 84.94 5.00  57.86 2653.32
   01:00:33.012.28-May-2021 3649.00 3164.75 84.94 5.00  58.06 2653.32
   01:00:33.212.28-May-2021 3649.00 3164.75 84.94 5.00  58.26 2653.32
   01:00:33.412.28-May-2021 3649.00 3164.83 84.94 5.00  58.46 2653.32
   01:00:33.612.28-May-2021 3649.00 3164.84 84.94 5.00  58.66 2653.32
   01:00:33.813.28-May-2021 3649.00 3164.89 84.94 5.00  58.86 2653.32
   01:00:34.013.28-May-2021 3649.00 3164.92 84.94 5.00  59.06 2653.32
   01:00:34.213.28-May-2021 3649.00 3164.92 84.94 5.00  59.26 2653.32
   01:00:34.413.28-May-2021 3649.00 3164.96 84.94 5.00  59.46 2653.32
   01:00:34.613.28-May-2021 3649.00 3165.00 84.94 5.00  59.66 2653.32
   01:00:34.814.28-May-2021 3649.00 3164.91 84.94 5.00  59.86 2653.32
   01:00:35.014.28-May-2021 3649.00 3164.84 84.94 5.00  60.06 2653.32
   01:00:35.214.28-May-2021 3649.00 3164.84 84.94 5.00  60.26 2653.32
   01:00:35.414.28-May-2021 3649.00 3165.02 84.94 5.00  60.46 2653.32
   01:00:35.614.28-May-2021 3649.00 3165.04 84.94 5.00  60.66 2653.32
   01:00:35.815.28-May-2021 3649.00 3164.90 84.94 5.00  60.86 2653.32
   01:00:36.015.28-May-2021 3649.00 3164.91 84.93 5.00  61.06 2653.32
   01:00:36.215.28-May-2021 3649.00 3164.91 84.93 5.00  61.26 2653.32
   01:00:36.415.28-May-2021 3649.00 3165.05 84.93 5.00  61.46 2653.32
   01:00:36.615.28-May-2021 3649.00 3165.00 84.93 5.00  61.66 2653.32
   01:00:36.816.28-May-2021 3649.00 3164.92 84.93 5.00  61.86 2653.32
   01:00:37.016.28-May-2021 3649.00 3164.97 84.93 5.00  62.06 2653.32
   01:00:37.216.28-May-2021 3649.00 3164.97 84.93 5.00  62.26 2653.32
   01:00:37.416.28-May-2021 3649.00 3165.08 84.93 5.00  62.46 2653.32
   01:00:37.617.28-May-2021 3649.00 3165.08 84.93 5.00  62.67 2653.32
   01:00:37.817.28-May-2021 3649.00 3164.96 84.93 5.00  62.87 2653.32
   01:00:38.017.28-May-2021 3649.00 3164.94 84.93 5.00  63.07 2653.32
   01:00:38.217.28-May-2021 3649.00 3164.94 84.93 5.00  63.27 2653.32
   01:00:38.417.28-May-2021 3649.00 3165.09 84.93 5.00  63.47 2653.32
   01:00:38.618.28-May-2021 3649.00 3165.11 84.93 5.00  63.67 2653.32
   01:00:38.818.28-May-2021 3649.00 3165.12 84.93 5.00  63.87 2653.32
   01:00:39.018.28-May-2021 3649.00 3165.13 84.93 5.00  64.07 2653.32
   01:00:39.218.28-May-2021 3649.00 3165.13 84.93 5.00  64.27 2653.32
   01:00:39.418.28-May-2021 3649.00 3165.15 84.93 5.00  64.47 2653.32
   01:00:39.619.28-May-2021 3649.00 3165.16 84.93 5.00  64.67 2653.32
   01:00:39.819.28-May-2021 3649.00 3165.16 84.93 5.00  64.87 2653.32
   01:00:40.019.28-May-2021 3649.00 3165.17 84.93 5.00  65.07 2653.32
   01:00:40.219.28-May-2021 3649.00 3165.17 84.93 5.00  65.27 2653.32
   01:00:40.419.28-May-2021 3649.00 3165.03 84.93 5.00  65.47 2653.32
   01:00:40.620.28-May-2021 3649.00 3165.01 84.93 5.00  65.67 2653.32
   01:00:40.820.28-May-2021 3649.00 3165.09 84.93 5.00  65.87 2653.32
   01:00:41.020.28-May-2021 3649.00 3165.16 84.93 5.00  66.07 2653.32
   01:00:41.220.28-May-2021 3649.00 3165.16 84.93 5.00  66.27 2653.32
   01:00:41.420.28-May-2021 3649.00 3165.20 84.93 5.00  66.47 2653.32
   01:00:41.621.28-May-2021 3649.00 3165.22 84.93 5.00  66.67 2653.32
   01:00:41.821.28-May-2021 3649.00 3165.22 84.93 5.00  66.87 2653.32
   01:00:42.021.28-May-2021 3649.00 3165.24 84.93 5.00  67.07 2653.32
   01:00:42.221.28-May-2021 3649.00 3165.24 84.93 5.00  67.27 2653.32
   01:00:42.422.28-May-2021 3649.00 3165.24 84.93 5.00  67.47 2653.32
   01:00:42.622.28-May-2021 3649.00 3165.25 84.93 5.00  67.67 2653.32
   01:00:42.822.28-May-2021 3649.00 3165.27 84.93 5.00  67.87 2653.32
   01:00:43.022.28-May-2021 3649.00 3165.11 84.93 5.00  68.07 2653.32
   01:00:43.222.28-May-2021 3649.00 3165.11 84.93 5.00  68.27 2653.32
   01:00:43.423.28-May-2021 3649.00 3165.17 84.93 5.00  68.47 2653.32
   01:00:43.623.28-May-2021 3649.00 3165.15 84.93 5.00  68.67 2653.32
   01:00:43.823.28-May-2021 3649.00 3165.11 84.93 5.00  68.87 2653.32
