~Version Information
 VERS.                  2.0:   CWLS log ASCII Standard -VERSION 2.0
 WRAP.                   NO:   One line per depth step
~Well Information Block
#MNEM.UNIT     VALUE/NAME     DESCRIPTION
#---------     -----------    ---------------------------
 STRT.S             05:31:02 28-May-21: START TIME 05:31:02 28-May-21
 STOP.S             05:38:03 28-May-21: STOP TIME  05:38:03 28-May-21
 STEP.S                   0.00: STEP TIME
 NULL.                 -999.25: NULL VALUE
 UWI .                     N/A:  UNIQUE WELL IDENTIFIER
 API .                     N/A:  API NUMBER
 UNIT.                     N/A:  LOGGING EQUIPMENT ID
 DCON.         Sperry Drilling:  DIRECTNL CONTR
 DOE .                     N/A:  DOE NUMBER
 MWDS.                    Baku:  MWD SHOP
 SRVC.     Turan Drilling and Engineering:  CONTRACTOR
 CTRY.              Azerbaijan:  COUNTRY NAME
 PROV.                    Baku:  PROVINCE
 STAT.                    Baku:  STATE NAME
 REGN.                   EESSA:  REGION
 BASE.              Azerbaijan:  LOGGING EQUIPMENT BASE LOCATION
 WTYP.                Deviated:  WELL TYPE
 RIG .              East Azeri:  RIG NAME
 WELL.                    D02y:  WELL NAME
 FLD .                     ACG:  FIELD NAME
 COMP.     BP Exploration (Caspian Sea) Ltd.:  COMPANY
 PDAT.          Mean Sea Level:  PERMANENT DATUM
 MDS .        Operator Entered:  MAG DATA SOURCE
 SON .        AZ-XX-0906997291:  JOB NUMBER
 FTOP.          Formation Tops:  FORM TOPS DESC
 ILTD.               Lithology:  INTERP LTH DESC
 SVYD.                  Survey:  SURVEY DESC
 DMOD.             Drill Model:  DRILL MOD DESC
 HPTY.       Minimum Curvature:  HOLE POS TYPE
 NREF.                    Grid:  NORTH REFERENCE
 SPUD.               05-May-21:  SPUD DATE
 DATE.      09.27.28 12-Jun-21:  END TIME
 STIM.      09.27.28 12-May-21:  START TIME
 DMF .             Drill Floor:  DRILL MEAS FROM
 DFST.                        :  DIST FSL TEXT
 DFWT.                        :  DIST FWL TEXT
 CNTY.                        :  COUNTY
 LOC .                        :  LOCATION
 LMF .             Drill Floor:  LOG MEASURED FROM
 DEP .m                2806.40:  DEPTH
 AGAP.m                  43.60:  AIR GAP
 VSNS.m                  -4.42:  VERT SEC N/S
 VSEW.m                  -7.31:  VERT SEC E/W
 APD .m                  43.60:  DEPTH ABOVE PD
 WDMS.m                 151.80:  WD ELEV
 EGL .m                   0.00:  GROUND ELEVATION
 EPD .m                   0.00:  ELEVATION
 AZTC.deg                 6.18:  AZM TOTAL CORR
 GRDC.deg                 0.29:  GRID CORRECTION
 MDEC.deg                 6.47:  MAGNETIC DECL
 MDIP.deg                59.50:  MAGNETIC DIP
 MFLD.nT              50350.00:  MAGNETIC FIELD
 GVFD.g                   1.00:  GRAVITY FIELD
 VSDR.deg               179.08:  VERT SEC DIRECT
 TDD .m                4300.00:  TOTAL DEPTH (DRILLER)
 SDEP.m                2800.00:  START DEPTH
 DFSL.m                   0.00:  DISTANCE FSL
 DFWL.m                   0.00:  DISTANCE FWL
 UTMY.m             4431871.34:  UTM Y
 UTMX.m              538762.90:  UTM X
 WHEW.m                  -7.31:  WELL HEAD E/W
 WHNS.m                  -4.42:  WELL HEAD N/S
 LONG.deg                51.45:  LONGITUDE
 LATI.deg                40.02:  LATITUDE
 TVDS.m                  43.60:  TVDSS CORRECTN
 EKB .m                  43.60:  KB ELEVATION
 EDF .m                  43.60:  DF ELEVATION
 TDL .m                 806.00:  TOTAL DEPTH (LOGGER)
 MAGU.                 1851231:  MAGUTM CHECKSUM
 VSC .                       0:  VS TO CLOSURE
~Parameter Information Block
#MNEM.UNIT       Value        Description
#---------     -----------    ---------------------------
 AV  .mps                 1.60:  Ann Velocity 
 AVMX.mps                 2.00:  Max Ann Veloc 
 AZIF.deg               140.24:  Azm, Final 
 BHAT.        Rotary Steerable:  BHA Type 
 BROT.°/30m               0.50:  Build Rotating 
 BS  .in                  8.50:  Bit Size 
 BTPL.psig              619.00:  Bit Press Loss 
 CABU.                     Yes:  Customer Abuse 
 CGEO.          Ilgar Gurbanov:  Customer Geo 
 COMM.                     LMh:  Run Comments 1 
 TCS .hr                 85.88:  Time Ciculation Ended 
 CV  .mps                 3.30:  Crit Velocity 
 CVMX.mps                 3.50:  Max Crit Veloc 
 DD1 .           Hamid Axmedov:  Direct Drillr 1 
 DD2 .           Teymur Aliyev:  Direct Drillr 2 
 DDSV.               Geo-Pilot:  DD Service 
 DEFF.%                 100.00:  % Det Eff 
 DLRX.°/30m               0.00:  Dogleg Rot Max 
 DLSO.°/30m               1.80:  Dogleg Oriented 
 DLSX.°/30m               3.34:  Dogleg Str Max 
 DRET.      11.50.00 27-May-21:  Drill End Time 
 DRST.      21.13.00 24-May-21:  Drill Start Tim 
 DTIM.hr                 45.11:  Time Drilling 
 EDEP.m                4054.00:  End Depth 
 ENG1.         Almaz Almadatov:  Engineer 1 
 ENG2.           Amrah Tahirov:  Engineer 2 
 ENG3.      Bakhtiyar Jabbarli:  Engineer 3 
 ENG4.          Nazrin Asgarli:  Engineer 4 
 ETIM.      10.00.00 30-May-21:  End Time 
 FLOI.gpm               530.00:  Flow In 
 FLON.gpm               400.00:  Flow In Min 
 FLOS.cptm                0.00:  Fluid Loss 
 FLOX.gpm               560.00:  Flow In Max 
 DFT .        Mineral Oil Base:  Mud Type 
 FTRO.       Formation Presure:  FTWD Run Obj 
 HFLO.                      No:  High Flow 
 HPRE.                      No:  High Pressure 
 HTEM.                      No:  High Temp 
 HYDO.m                   1.80:  Hydro Offset 
 IFIN.deg                73.83:  Inc, Final 
 IMAX.deg                73.83:  Inc Max 
 IMIN.deg                57.86:  Inc Min 
 IMND.m                3259.27:  Inc Min Depth 
 IMXD.m                4045.58:  Inc Max Depth 
 JARR.                     Yes:  Jarring 
 LETM.      11.50.00 27-May-21:  Log End Time 
 LOST.hr                     0:  Lost Rig Time 
 LSTM.      21.13.00 24-May-21:  Log Start Time 
 MDCL.ppm             42500.00:  Mud Chlorides 
 MDES.     Inversion Oil/Synthetic:  Mud Desc 
 DFD .sg                  1.52:  Mud Density 
 MDMN.sg                  1.52:  Dens Mud Min 
 MDMX.sg                  1.52:  Dens Mud Max 
 MOIL.                      70:  Run Mud Oil % 
 MOWR.                   70:30:  Run Mud OWR 
 MSND.                     0.2:  Run Mud Sand % 
 MSOL.                      22:  Run Mud Solids% 
 DFV .spqt               77.00:  Mud Viscosity 
 MWOD.in                  6.75:  MWD Tool OD 
 MWSI.                      No:  Serv Intrp, MWD 
 OTIM.hr                151.01:  Time Operating 
 PCON.          Wear / Scratch:  Pad Condition 
 PMAX.psia            11296.93:  Press Op, Max 
 PV  .cP                 37.00:  Mud PV 
 RUN .                     500:  Run Number 
 ROPA.m/hr               25.00:  ROP Avg 
 ROPN.m/hr                9.00:  ROP Min 
 ROPX.m/hr               28.00:  ROP Max 
 RPMA.rpm               140.00:  RPM Surface Avg 
 RPMN.rpm                90.00:  RPM Surface Min 
 RPMX.rpm               140.00:  RPM Surface Max 
 RRUN.                    0500:  Rig Run Number 
 SAZI.deg               172.17:  Azm, Start 
 SDEP.m                3248.00:  Start Depth 
 SIDD.                      No:  Serv Intrp, DD 
 SINC.deg                57.86:  Inc, Start 
 SPPA.psig             5620.00:  SPP Avg 
 SPPN.psig             5190.00:  SPP Min 
 SPPX.psig             6050.00:  SPP Max 
 STIM.      16.00.00 23-May-21:  Start Time 
 SVCS.                 DD, MWD:  Services 
 SVER.                    9.20:  Sperry Version 
 TDAT.m                 806.00:  Tot Depth Attmp 
 TDDF.                      No:  Trip for DD 
 TDLG.m                 806.00:  Tot Depth Loggd 
 TFF .                      No:  Trip for Fail 
 TQAA.f-kp               12.00:  Torque Abs Avg 
 TQAN.f-kp                8.00:  Torque Abs Min 
 TQAX.f-kp               15.00:  Torque Abs Max 
 TRRT.°/30m               0.30:  Turn Rotating 
 MRT .                  EWR-M5:  Maximum Recorded Temperature 
 TTMX.degC               93.00:  Max Tool Temp 
 VS01.                90649155:  Virtual Str1 SN 
 VS02.                90642264:  Virtual Str2 SN 
 VS03.                90642266:  Virtual Str3 SN 
 VS04.                90642261:  Virtual Str4 SN 
 WBMN.klb                 0.00:  WOB Min 
 WITN.             Anar Khalil:  Customer Rep 
 WITN.           Murad Guliyev:  Customer Rep 2 
 WOBA.klb                13.00:  WOB Avg 
 WOBX.klb                25.00:  WOB Max 
 YP  .lhf2               32.00:  Yield Point 
~Curve Information Block
#MNEM.UNIT                 API CODE     Curve Description
#---------               -----------    ---------------------------
 TIME.HHMMSS            00 000 000 000:  GT Time & Date
 GTDEPTH.m              00 000 000 000:  GT Depth
 GTPQH.psia             00 000 000 000:  GT HR Quartz Pressure
 GTTQ.degC              00 000 000 000:  GT Quartz Temperature
 GTTN.NONE              00 000 000 000:  GT Test Number
 GTET.sec               00 000 000 000:  GT Elapsed Test Time
 GTTVD.m                00 000 000 000:  GT True Vertical Depth
#Other Information
#
#WARRANTY: Halliburton will use its best efforts to furnish customers with 
#accurate information and interpretations that are part of, and incident to, the services 
#provided.  However, Halliburton cannot and does not warrant the accuracy 
#or correctness of such information and interpretations.  Under no circumstances should any 
#such information or interpretation be relied upon as the sole basis for any drilling, 
#completion, production, or financial decision or any procedure involving any risk to the 
#safety of any drilling venture, drilling rig or its crew or any other third party.  The 
#Customer has full responsibility for all drilling, completion and production operation.  
#Halliburton makes no representations or warranties, either expressed or 
#implied, including, but not limited to, the implied warranties of merchantability or fitness 
#for a particular purpose, with respect to the services rendered.  In no event will 
#Halliburton be liable for failure to obtain any particular results or for 
#any damages, including, but not limited to, indirect, special or consequential damages, 
#resulting from the use of any information or interpretation provided by Halliburton.
#
~A           TIME           GTDEPTH  GTPQH  GTTQ  GTTN   GTET   GTTVD  
# ...
   05:32:32.775.28-May-2021 3456.50 4231.01 82.97 10.00  90.44 2576.46
   05:32:32.975.28-May-2021 3456.50 4231.01 82.97 10.00  90.64 2576.46
   05:32:33.175.28-May-2021 3456.50 4231.03 82.97 10.00  90.84 2576.46
   05:32:33.375.28-May-2021 3456.50 4231.04 82.97 10.00  91.04 2576.46
   05:32:33.575.28-May-2021 3456.50 4231.04 82.97 10.00  91.24 2576.46
   05:32:33.775.28-May-2021 3456.50 4231.06 82.97 10.00  91.44 2576.46
   05:32:33.975.28-May-2021 3456.50 4231.06 82.97 10.00  91.64 2576.46
   05:32:34.175.28-May-2021 3456.50 4231.07 82.97 10.00  91.84 2576.46
   05:32:34.375.28-May-2021 3456.50 4231.07 82.97 10.00  92.04 2576.46
   05:32:34.575.28-May-2021 3456.50 4231.07 82.97 10.00  92.24 2576.46
   05:32:34.776.28-May-2021 3456.50 4230.88 82.97 10.00  92.44 2576.46
   05:32:34.976.28-May-2021 3456.50 4231.24 82.97 10.00  92.64 2576.46
   05:32:35.176.28-May-2021 3456.50 4231.02 82.97 10.00  92.84 2576.46
   05:32:35.376.28-May-2021 3456.50 4231.04 82.97 10.00  93.04 2576.46
   05:32:35.576.28-May-2021 3456.50 4231.04 82.97 10.00  93.24 2576.46
   05:32:35.776.28-May-2021 3456.50 4231.06 82.97 10.00  93.44 2576.46
   05:32:35.976.28-May-2021 3456.50 4231.05 82.97 10.00  93.64 2576.46
   05:32:36.176.28-May-2021 3456.50 4231.07 82.97 10.00  93.84 2576.46
   05:32:36.376.28-May-2021 3456.50 4231.08 82.97 10.00  94.04 2576.46
   05:32:36.576.28-May-2021 3456.50 4231.08 82.97 10.00  94.24 2576.46
   05:32:36.776.28-May-2021 3456.50 4231.10 82.97 10.00  94.44 2576.46
   05:32:36.976.28-May-2021 3456.50 4231.09 82.97 10.00  94.64 2576.46
   05:32:37.177.28-May-2021 3456.50 4231.10 82.97 10.00  94.84 2576.46
   05:32:37.377.28-May-2021 3456.50 4231.12 82.97 10.00  95.04 2576.46
   05:32:37.577.28-May-2021 3456.50 4231.12 82.97 10.00  95.24 2576.46
   05:32:37.777.28-May-2021 3456.50 4230.96 82.97 10.00  95.44 2576.46
   05:32:37.977.28-May-2021 3456.50 4231.05 82.97 10.00  95.64 2576.46
   05:32:38.177.28-May-2021 3456.50 4231.05 82.97 10.00  95.84 2576.46
   05:32:38.377.28-May-2021 3456.50 4231.00 82.97 10.00  96.04 2576.46
   05:32:38.577.28-May-2021 3456.50 4231.00 82.97 10.00  96.24 2576.46
   05:32:38.777.28-May-2021 3456.50 4231.04 82.97 10.00  96.44 2576.46
   05:32:38.977.28-May-2021 3456.50 4231.03 82.97 10.00  96.64 2576.46
   05:32:39.177.28-May-2021 3456.50 4231.02 82.97 10.00  96.84 2576.46
   05:32:39.377.28-May-2021 3456.50 4231.08 82.97 10.00  97.04 2576.46
   05:32:39.578.28-May-2021 3456.50 4231.08 82.97 10.00  97.24 2576.46
   05:32:39.778.28-May-2021 3456.50 4231.05 82.97 10.00  97.44 2576.46
   05:32:39.978.28-May-2021 3456.50 4231.04 82.97 10.00  97.64 2576.46
   05:32:40.178.28-May-2021 3456.50 4231.15 82.97 10.00  97.84 2576.46
   05:32:40.378.28-May-2021 3456.50 4230.95 82.97 10.00  98.04 2576.46
   05:32:40.578.28-May-2021 3456.50 4230.95 82.97 10.00  98.24 2576.46
   05:32:40.778.28-May-2021 3456.50 4231.04 82.97 10.00  98.44 2576.46
   05:32:40.978.28-May-2021 3456.50 4231.06 82.97 10.00  98.64 2576.46
   05:32:41.178.28-May-2021 3456.50 4231.06 82.97 10.00  98.84 2576.46
   05:32:41.378.28-May-2021 3456.50 4231.07 82.97 10.00  99.04 2576.46
   05:32:41.578.28-May-2021 3456.50 4231.07 82.97 10.00  99.24 2576.46
   05:32:41.778.28-May-2021 3456.50 4231.08 82.97 10.00  99.44 2576.46
   05:32:41.979.28-May-2021 3456.50 4231.09 82.97 10.00  99.64 2576.46
   05:32:42.179.28-May-2021 3456.50 4231.09 82.97 10.00  99.84 2576.46
   05:32:42.379.28-May-2021 3456.50 4231.09 82.97 10.00 100.04 2576.46
   05:32:42.579.28-May-2021 3456.50 4231.09 82.97 10.00 100.24 2576.46
   05:32:42.779.28-May-2021 3456.50 4231.28 82.97 10.00 100.44 2576.46
   05:32:42.979.28-May-2021 3456.50 4231.04 82.97 10.00 100.64 2576.46
   05:32:43.179.28-May-2021 3456.50 4231.08 82.97 10.00 100.84 2576.46
   05:32:43.379.28-May-2021 3456.50 4231.06 82.97 10.00 101.04 2576.46
   05:32:43.579.28-May-2021 3456.50 4231.06 82.97 10.00 101.24 2576.46
   05:32:43.779.28-May-2021 3456.50 4231.09 82.97 10.00 101.44 2576.46
   05:32:43.979.28-May-2021 3456.50 4231.08 82.97 10.00 101.64 2576.46
   05:32:44.179.28-May-2021 3456.50 4231.09 82.97 10.00 101.84 2576.46
   05:32:44.380.28-May-2021 3456.50 4231.10 82.97 10.00 102.04 2576.46
   05:32:44.580.28-May-2021 3456.50 4231.10 82.97 10.00 102.24 2576.46
   05:32:44.780.28-May-2021 3456.50 4231.11 82.97 10.00 102.44 2576.46
   05:32:44.980.28-May-2021 3456.50 4231.11 82.97 10.00 102.64 2576.46
   05:32:45.180.28-May-2021 3456.50 4231.11 82.97 10.00 102.84 2576.46
   05:32:45.380.28-May-2021 3456.50 4231.19 82.97 10.00 103.04 2576.46
   05:32:45.580.28-May-2021 3456.50 4231.19 82.97 10.00 103.24 2576.46
   05:32:45.780.28-May-2021 3456.50 4231.06 82.97 10.00 103.44 2576.46
   05:32:45.980.28-May-2021 3456.50 4231.06 82.97 10.00 103.64 2576.46
   05:32:46.180.28-May-2021 3456.50 4231.03 82.97 10.00 103.84 2576.46
   05:32:46.380.28-May-2021 3456.50 4231.13 82.97 10.00 104.04 2576.46
   05:32:46.580.28-May-2021 3456.50 4231.13 82.97 10.00 104.24 2576.46
   05:32:46.781.28-May-2021 3456.50 4231.06 82.97 10.00 104.44 2576.46
   05:32:46.981.28-May-2021 3456.50 4230.96 82.97 10.00 104.64 2576.46
   05:32:47.181.28-May-2021 3456.50 4231.18 82.97 10.00 104.84 2576.46
   05:32:47.381.28-May-2021 3456.50 4231.06 82.97 10.00 105.04 2576.46
   05:32:47.581.28-May-2021 3456.50 4231.06 82.97 10.00 105.24 2576.46
   05:32:47.781.28-May-2021 3456.50 4231.06 82.97 10.00 105.44 2576.46
   05:32:47.981.28-May-2021 3456.50 4230.86 82.97 10.00 105.64 2576.46
   05:32:48.181.28-May-2021 3456.50 4231.27 82.97 10.00 105.84 2576.46
   05:32:48.381.28-May-2021 3456.50 4231.06 82.97 10.00 106.04 2576.46
   05:32:48.581.28-May-2021 3456.50 4231.06 82.97 10.00 106.24 2576.46
   05:32:48.781.28-May-2021 3456.50 4231.05 82.97 10.00 106.44 2576.46
   05:32:48.981.28-May-2021 3456.50 4231.06 82.97 10.00 106.64 2576.46
   05:32:49.182.28-May-2021 3456.50 4231.08 82.97 10.00 106.84 2576.46
   05:32:49.382.28-May-2021 3456.50 4231.07 82.97 10.00 107.04 2576.46
   05:32:49.582.28-May-2021 3456.50 4231.07 82.97 10.00 107.24 2576.46
   05:32:49.782.28-May-2021 3456.50 4231.09 82.97 10.00 107.44 2576.46
   05:32:49.982.28-May-2021 3456.50 4231.09 82.97 10.00 107.64 2576.46
   05:32:50.182.28-May-2021 3456.50 4231.09 82.97 10.00 107.85 2576.46
   05:32:50.382.28-May-2021 3456.50 4231.10 82.97 10.00 108.05 2576.46
   05:32:50.582.28-May-2021 3456.50 4231.10 82.97 10.00 108.25 2576.46
   05:32:50.782.28-May-2021 3456.50 4231.12 82.97 10.00 108.45 2576.46
   05:32:50.982.28-May-2021 3456.50 4231.06 82.97 10.00 108.65 2576.46
   05:32:51.182.28-May-2021 3456.50 4231.08 82.97 10.00 108.85 2576.46
   05:32:51.382.28-May-2021 3456.50 4231.06 82.97 10.00 109.05 2576.46
   05:32:51.583.28-May-2021 3456.50 4231.06 82.97 10.00 109.25 2576.46
   05:32:51.783.28-May-2021 3456.50 4231.08 82.97 10.00 109.45 2576.46
   05:32:51.983.28-May-2021 3456.50 4231.09 82.97 10.00 109.65 2576.46
   05:32:52.183.28-May-2021 3456.50 4231.09 82.97 10.00 109.85 2576.46
   05:32:52.383.28-May-2021 3456.50 4231.09 82.97 10.00 110.05 2576.46
   05:32:52.583.28-May-2021 3456.50 4231.09 82.97 10.00 110.25 2576.46
   05:32:52.783.28-May-2021 3456.50 4231.11 82.97 10.00 110.45 2576.46
   05:32:52.983.28-May-2021 3456.50 4231.10 82.97 10.00 110.65 2576.46
   05:32:53.183.28-May-2021 3456.50 4230.91 82.97 10.00 110.85 2576.46
   05:32:53.383.28-May-2021 3456.50 4231.30 82.97 10.00 111.05 2576.46
   05:32:53.583.28-May-2021 3456.50 4231.30 82.97 10.00 111.25 2576.46
   05:32:53.784.28-May-2021 3456.50 4231.10 82.97 10.00 111.45 2576.46
   05:32:53.984.28-May-2021 3456.50 4231.09 82.97 10.00 111.65 2576.46
   05:32:54.184.28-May-2021 3456.50 4230.96 82.97 10.00 111.85 2576.46
   05:32:54.384.28-May-2021 3456.50 4231.22 82.97 10.00 112.05 2576.46
   05:32:54.584.28-May-2021 3456.50 4231.22 82.97 10.00 112.25 2576.46
   05:32:54.784.28-May-2021 3456.50 4231.09 82.97 10.00 112.45 2576.46
   05:32:54.984.28-May-2021 3456.50 4231.17 82.97 10.00 112.65 2576.46
   05:32:55.184.28-May-2021 3456.50 4230.97 82.97 10.00 112.85 2576.46
