~Version Information
 VERS.                  2.0:   CWLS log ASCII Standard -VERSION 2.0
 WRAP.                   NO:   One line per depth step
~Well Information Block
#MNEM.UNIT     VALUE/NAME     DESCRIPTION
#---------     -----------    ---------------------------
 STRT.S             05:31:02 28-May-21: START TIME 05:31:02 28-May-21
 STOP.S             05:38:03 28-May-21: STOP TIME  05:38:03 28-May-21
 STEP.S                   0.00: STEP TIME
 NULL.                 -999.25: NULL VALUE
 UWI .                     N/A:  UNIQUE WELL IDENTIFIER
 API .                     N/A:  API NUMBER
 UNIT.                     N/A:  LOGGING EQUIPMENT ID
 DCON.         Sperry Drilling:  DIRECTNL CONTR
 DOE .                     N/A:  DOE NUMBER
 MWDS.                    Baku:  MWD SHOP
 SRVC.     Turan Drilling and Engineering:  CONTRACTOR
 CTRY.              Azerbaijan:  COUNTRY NAME
 PROV.                    Baku:  PROVINCE
 STAT.                    Baku:  STATE NAME
 REGN.                   EESSA:  REGION
 BASE.              Azerbaijan:  LOGGING EQUIPMENT BASE LOCATION
 WTYP.                Deviated:  WELL TYPE
 RIG .              East Azeri:  RIG NAME
 WELL.                    D02y:  WELL NAME
 FLD .                     ACG:  FIELD NAME
 COMP.     BP Exploration (Caspian Sea) Ltd.:  COMPANY
 PDAT.          Mean Sea Level:  PERMANENT DATUM
 MDS .        Operator Entered:  MAG DATA SOURCE
 SON .        AZ-XX-0906997291:  JOB NUMBER
 FTOP.          Formation Tops:  FORM TOPS DESC
 ILTD.               Lithology:  INTERP LTH DESC
 SVYD.                  Survey:  SURVEY DESC
 DMOD.             Drill Model:  DRILL MOD DESC
 HPTY.       Minimum Curvature:  HOLE POS TYPE
 NREF.                    Grid:  NORTH REFERENCE
 SPUD.               05-May-21:  SPUD DATE
 DATE.      09.27.28 12-Jun-21:  END TIME
 STIM.      09.27.28 12-May-21:  START TIME
 DMF .             Drill Floor:  DRILL MEAS FROM
 DFST.                        :  DIST FSL TEXT
 DFWT.                        :  DIST FWL TEXT
 CNTY.                        :  COUNTY
 LOC .                        :  LOCATION
 LMF .             Drill Floor:  LOG MEASURED FROM
 DEP .m                2806.40:  DEPTH
 AGAP.m                  43.60:  AIR GAP
 VSNS.m                  -4.42:  VERT SEC N/S
 VSEW.m                  -7.31:  VERT SEC E/W
 APD .m                  43.60:  DEPTH ABOVE PD
 WDMS.m                 151.80:  WD ELEV
 EGL .m                   0.00:  GROUND ELEVATION
 EPD .m                   0.00:  ELEVATION
 AZTC.deg                 6.18:  AZM TOTAL CORR
 GRDC.deg                 0.29:  GRID CORRECTION
 MDEC.deg                 6.47:  MAGNETIC DECL
 MDIP.deg                59.50:  MAGNETIC DIP
 MFLD.nT              50350.00:  MAGNETIC FIELD
 GVFD.g                   1.00:  GRAVITY FIELD
 VSDR.deg               179.08:  VERT SEC DIRECT
 TDD .m                4300.00:  TOTAL DEPTH (DRILLER)
 SDEP.m                2800.00:  START DEPTH
 DFSL.m                   0.00:  DISTANCE FSL
 DFWL.m                   0.00:  DISTANCE FWL
 UTMY.m             4431871.34:  UTM Y
 UTMX.m              538762.90:  UTM X
 WHEW.m                  -7.31:  WELL HEAD E/W
 WHNS.m                  -4.42:  WELL HEAD N/S
 LONG.deg                51.45:  LONGITUDE
 LATI.deg                40.02:  LATITUDE
 TVDS.m                  43.60:  TVDSS CORRECTN
 EKB .m                  43.60:  KB ELEVATION
 EDF .m                  43.60:  DF ELEVATION
 TDL .m                 806.00:  TOTAL DEPTH (LOGGER)
 MAGU.                 1851231:  MAGUTM CHECKSUM
 VSC .                       0:  VS TO CLOSURE
~Parameter Information Block
#MNEM.UNIT       Value        Description
#---------     -----------    ---------------------------
 AV  .mps                 1.60:  Ann Velocity 
 AVMX.mps                 2.00:  Max Ann Veloc 
 AZIF.deg               140.24:  Azm, Final 
 BHAT.        Rotary Steerable:  BHA Type 
 BROT.°/30m               0.50:  Build Rotating 
 BS  .in                  8.50:  Bit Size 
 BTPL.psig              619.00:  Bit Press Loss 
 CABU.                     Yes:  Customer Abuse 
 CGEO.          Ilgar Gurbanov:  Customer Geo 
 COMM.                     LMh:  Run Comments 1 
 TCS .hr                 85.88:  Time Ciculation Ended 
 CV  .mps                 3.30:  Crit Velocity 
 CVMX.mps                 3.50:  Max Crit Veloc 
 DD1 .           Hamid Axmedov:  Direct Drillr 1 
 DD2 .           Teymur Aliyev:  Direct Drillr 2 
 DDSV.               Geo-Pilot:  DD Service 
 DEFF.%                 100.00:  % Det Eff 
 DLRX.°/30m               0.00:  Dogleg Rot Max 
 DLSO.°/30m               1.80:  Dogleg Oriented 
 DLSX.°/30m               3.34:  Dogleg Str Max 
 DRET.      11.50.00 27-May-21:  Drill End Time 
 DRST.      21.13.00 24-May-21:  Drill Start Tim 
 DTIM.hr                 45.11:  Time Drilling 
 EDEP.m                4054.00:  End Depth 
 ENG1.         Almaz Almadatov:  Engineer 1 
 ENG2.           Amrah Tahirov:  Engineer 2 
 ENG3.      Bakhtiyar Jabbarli:  Engineer 3 
 ENG4.          Nazrin Asgarli:  Engineer 4 
 ETIM.      10.00.00 30-May-21:  End Time 
 FLOI.gpm               530.00:  Flow In 
 FLON.gpm               400.00:  Flow In Min 
 FLOS.cptm                0.00:  Fluid Loss 
 FLOX.gpm               560.00:  Flow In Max 
 DFT .        Mineral Oil Base:  Mud Type 
 FTRO.       Formation Presure:  FTWD Run Obj 
 HFLO.                      No:  High Flow 
 HPRE.                      No:  High Pressure 
 HTEM.                      No:  High Temp 
 HYDO.m                   1.80:  Hydro Offset 
 IFIN.deg                73.83:  Inc, Final 
 IMAX.deg                73.83:  Inc Max 
 IMIN.deg                57.86:  Inc Min 
 IMND.m                3259.27:  Inc Min Depth 
 IMXD.m                4045.58:  Inc Max Depth 
 JARR.                     Yes:  Jarring 
 LETM.      11.50.00 27-May-21:  Log End Time 
 LOST.hr                     0:  Lost Rig Time 
 LSTM.      21.13.00 24-May-21:  Log Start Time 
 MDCL.ppm             42500.00:  Mud Chlorides 
 MDES.     Inversion Oil/Synthetic:  Mud Desc 
 DFD .sg                  1.52:  Mud Density 
 MDMN.sg                  1.52:  Dens Mud Min 
 MDMX.sg                  1.52:  Dens Mud Max 
 MOIL.                      70:  Run Mud Oil % 
 MOWR.                   70:30:  Run Mud OWR 
 MSND.                     0.2:  Run Mud Sand % 
 MSOL.                      22:  Run Mud Solids% 
 DFV .spqt               77.00:  Mud Viscosity 
 MWOD.in                  6.75:  MWD Tool OD 
 MWSI.                      No:  Serv Intrp, MWD 
 OTIM.hr                151.01:  Time Operating 
 PCON.          Wear / Scratch:  Pad Condition 
 PMAX.psia            11296.93:  Press Op, Max 
 PV  .cP                 37.00:  Mud PV 
 RUN .                     500:  Run Number 
 ROPA.m/hr               25.00:  ROP Avg 
 ROPN.m/hr                9.00:  ROP Min 
 ROPX.m/hr               28.00:  ROP Max 
 RPMA.rpm               140.00:  RPM Surface Avg 
 RPMN.rpm                90.00:  RPM Surface Min 
 RPMX.rpm               140.00:  RPM Surface Max 
 RRUN.                    0500:  Rig Run Number 
 SAZI.deg               172.17:  Azm, Start 
 SDEP.m                3248.00:  Start Depth 
 SIDD.                      No:  Serv Intrp, DD 
 SINC.deg                57.86:  Inc, Start 
 SPPA.psig             5620.00:  SPP Avg 
 SPPN.psig             5190.00:  SPP Min 
 SPPX.psig             6050.00:  SPP Max 
 STIM.      16.00.00 23-May-21:  Start Time 
 SVCS.                 DD, MWD:  Services 
 SVER.                    9.20:  Sperry Version 
 TDAT.m                 806.00:  Tot Depth Attmp 
 TDDF.                      No:  Trip for DD 
 TDLG.m                 806.00:  Tot Depth Loggd 
 TFF .                      No:  Trip for Fail 
 TQAA.f-kp               12.00:  Torque Abs Avg 
 TQAN.f-kp                8.00:  Torque Abs Min 
 TQAX.f-kp               15.00:  Torque Abs Max 
 TRRT.°/30m               0.30:  Turn Rotating 
 MRT .                  EWR-M5:  Maximum Recorded Temperature 
 TTMX.degC               93.00:  Max Tool Temp 
 VS01.                90649155:  Virtual Str1 SN 
 VS02.                90642264:  Virtual Str2 SN 
 VS03.                90642266:  Virtual Str3 SN 
 VS04.                90642261:  Virtual Str4 SN 
 WBMN.klb                 0.00:  WOB Min 
 WITN.             Anar Khalil:  Customer Rep 
 WITN.           Murad Guliyev:  Customer Rep 2 
 WOBA.klb                13.00:  WOB Avg 
 WOBX.klb                25.00:  WOB Max 
 YP  .lhf2               32.00:  Yield Point 
~Curve Information Block
#MNEM.UNIT                 API CODE     Curve Description
#---------               -----------    ---------------------------
 TIME.HHMMSS            00 000 000 000:  GT Time & Date
 GTDEPTH.m              00 000 000 000:  GT Depth
 GTPQH.psia             00 000 000 000:  GT HR Quartz Pressure
 GTTQ.degC              00 000 000 000:  GT Quartz Temperature
 GTTN.NONE              00 000 000 000:  GT Test Number
 GTET.sec               00 000 000 000:  GT Elapsed Test Time
 GTTVD.m                00 000 000 000:  GT True Vertical Depth
#Other Information
#
#WARRANTY: Halliburton will use its best efforts to furnish customers with 
#accurate information and interpretations that are part of, and incident to, the services 
#provided.  However, Halliburton cannot and does not warrant the accuracy 
#or correctness of such information and interpretations.  Under no circumstances should any 
#such information or interpretation be relied upon as the sole basis for any drilling, 
#completion, production, or financial decision or any procedure involving any risk to the 
#safety of any drilling venture, drilling rig or its crew or any other third party.  The 
#Customer has full responsibility for all drilling, completion and production operation.  
#Halliburton makes no representations or warranties, either expressed or 
#implied, including, but not limited to, the implied warranties of merchantability or fitness 
#for a particular purpose, with respect to the services rendered.  In no event will 
#Halliburton be liable for failure to obtain any particular results or for 
#any damages, including, but not limited to, indirect, special or consequential damages, 
#resulting from the use of any information or interpretation provided by Halliburton.
#
~A           TIME           GTDEPTH  GTPQH  GTTQ  GTTN   GTET   GTTVD  
# ...
   05:31:24.946.28-May-2021 3456.50 6027.81 83.05 10.00  22.61 2576.46
   05:31:25.146.28-May-2021 3456.50 6031.42 83.05 10.00  22.81 2576.46
   05:31:25.347.28-May-2021 3456.50 6028.55 83.05 10.00  23.01 2576.46
   05:31:25.547.28-May-2021 3456.50 6028.55 83.05 10.00  23.21 2576.46
   05:31:25.747.28-May-2021 3456.50 6028.65 83.05 10.00  23.41 2576.46
   05:31:25.947.28-May-2021 3456.50 6036.18 83.05 10.00  23.61 2576.46
   05:31:26.147.28-May-2021 3456.50 6025.93 83.05 10.00  23.81 2576.46
   05:31:26.347.28-May-2021 3456.50 6029.36 83.05 10.00  24.01 2576.46
   05:31:26.547.28-May-2021 3456.50 6029.36 83.05 10.00  24.21 2576.46
   05:31:26.747.28-May-2021 3456.50 6032.84 83.05 10.00  24.41 2576.46
   05:31:26.947.28-May-2021 3456.50 6029.35 83.05 10.00  24.61 2576.46
   05:31:27.147.28-May-2021 3456.50 6029.70 83.05 10.00  24.81 2576.46
   05:31:27.347.28-May-2021 3456.50 6029.52 83.05 10.00  25.01 2576.46
   05:31:27.547.28-May-2021 3456.50 6029.52 83.05 10.00  25.21 2576.46
   05:31:27.748.28-May-2021 3456.50 6029.23 83.05 10.00  25.41 2576.46
   05:31:27.948.28-May-2021 3456.50 6030.08 83.05 10.00  25.61 2576.46
   05:31:28.148.28-May-2021 3456.50 6029.87 83.05 10.00  25.81 2576.46
   05:31:28.348.28-May-2021 3456.50 6030.38 83.05 10.00  26.01 2576.46
   05:31:28.548.28-May-2021 3456.50 6030.38 83.05 10.00  26.21 2576.46
   05:31:28.748.28-May-2021 3456.50 6030.23 83.05 10.00  26.41 2576.46
   05:31:28.948.28-May-2021 3456.50 6030.08 83.05 10.00  26.61 2576.46
   05:31:29.148.28-May-2021 3456.50 6029.92 83.05 10.00  26.81 2576.46
   05:31:29.348.28-May-2021 3456.50 6035.70 83.05 10.00  27.01 2576.46
   05:31:29.548.28-May-2021 3456.50 6035.70 83.05 10.00  27.21 2576.46
   05:31:29.748.28-May-2021 3456.50 6028.75 83.05 10.00  27.41 2576.46
   05:31:29.948.28-May-2021 3456.50 6030.13 83.05 10.00  27.61 2576.46
   05:31:30.149.28-May-2021 3456.50 6030.68 83.05 10.00  27.81 2576.46
   05:31:30.349.28-May-2021 3456.50 6029.92 83.05 10.00  28.01 2576.46
   05:31:30.549.28-May-2021 3456.50 6029.92 83.05 10.00  28.21 2576.46
   05:31:30.749.28-May-2021 3456.50 6030.94 83.05 10.00  28.41 2576.46
   05:31:30.949.28-May-2021 3456.50 6031.59 83.05 10.00  28.61 2576.46
   05:31:31.149.28-May-2021 3456.50 6031.39 83.05 10.00  28.81 2576.46
   05:31:31.349.28-May-2021 3456.50 6031.58 83.05 10.00  29.01 2576.46
   05:31:31.549.28-May-2021 3456.50 6031.58 83.05 10.00  29.21 2576.46
   05:31:31.749.28-May-2021 3456.50 6031.29 83.05 10.00  29.41 2576.46
   05:31:31.949.28-May-2021 3456.50 6031.35 83.05 10.00  29.61 2576.46
   05:31:32.149.28-May-2021 3456.50 6037.05 83.04 10.00  29.81 2576.46
   05:31:32.349.28-May-2021 3456.50 6029.91 83.04 10.00  30.01 2576.46
   05:31:32.550.28-May-2021 3456.50 6029.91 83.04 10.00  30.21 2576.46
   05:31:32.750.28-May-2021 3456.50 6031.03 83.04 10.00  30.41 2576.46
   05:31:32.950.28-May-2021 3456.50 6031.58 83.04 10.00  30.61 2576.46
   05:31:33.150.28-May-2021 3456.50 6034.36 83.04 10.00  30.81 2576.46
   05:31:33.350.28-May-2021 3456.50 6032.41 83.04 10.00  31.01 2576.46
   05:31:33.550.28-May-2021 3456.50 6032.41 83.04 10.00  31.21 2576.46
   05:31:33.750.28-May-2021 3456.50 6032.00 83.04 10.00  31.41 2576.46
   05:31:33.950.28-May-2021 3456.50 6033.02 83.04 10.00  31.61 2576.46
   05:31:34.150.28-May-2021 3456.50 6031.74 83.04 10.00  31.81 2576.46
   05:31:34.350.28-May-2021 3456.50 6032.07 83.04 10.00  32.01 2576.46
   05:31:34.550.28-May-2021 3456.50 6032.07 83.04 10.00  32.21 2576.46
   05:31:34.750.28-May-2021 3456.50 6031.58 83.04 10.00  32.41 2576.46
   05:31:34.951.28-May-2021 3456.50 6039.11 83.04 10.00  32.61 2576.46
   05:31:35.151.28-May-2021 3456.50 6029.42 83.04 10.00  32.81 2576.46
   05:31:35.351.28-May-2021 3456.50 6032.86 83.04 10.00  33.01 2576.46
   05:31:35.551.28-May-2021 3456.50 6032.86 83.04 10.00  33.21 2576.46
   05:31:35.751.28-May-2021 3456.50 6032.83 83.04 10.00  33.41 2576.46
   05:31:35.951.28-May-2021 3456.50 6032.15 83.04 10.00  33.61 2576.46
   05:31:36.151.28-May-2021 3456.50 6032.79 83.04 10.00  33.81 2576.46
   05:31:36.351.28-May-2021 3456.50 6032.73 83.04 10.00  34.01 2576.46
   05:31:36.551.28-May-2021 3456.50 6032.73 83.04 10.00  34.21 2576.46
   05:31:36.751.28-May-2021 3456.50 6032.73 83.04 10.00  34.41 2576.46
   05:31:36.951.28-May-2021 3456.50 6032.68 83.04 10.00  34.61 2576.46
   05:31:37.151.28-May-2021 3456.50 6032.63 83.04 10.00  34.81 2576.46
   05:31:37.352.28-May-2021 3456.50 6032.65 83.04 10.00  35.01 2576.46
   05:31:37.552.28-May-2021 3456.50 6032.65 83.04 10.00  35.21 2576.46
   05:31:37.752.28-May-2021 3456.50 6032.83 83.04 10.00  35.41 2576.46
   05:31:37.952.28-May-2021 3456.50 6031.92 83.04 10.00  35.61 2576.46
   05:31:38.152.28-May-2021 3456.50 6033.41 83.04 10.00  35.81 2576.46
   05:31:38.352.28-May-2021 3456.50 6033.30 83.04 10.00  36.02 2576.46
   05:31:38.552.28-May-2021 3456.50 6033.30 83.04 10.00  36.22 2576.46
   05:31:38.752.28-May-2021 3456.50 6033.02 83.04 10.00  36.42 2576.46
   05:31:38.952.28-May-2021 3456.50 6033.78 83.04 10.00  36.62 2576.46
   05:31:39.152.28-May-2021 3456.50 6033.72 83.04 10.00  36.82 2576.46
   05:31:39.352.28-May-2021 3456.50 6034.30 83.04 10.00  37.02 2576.46
   05:31:39.552.28-May-2021 3456.50 6034.30 83.04 10.00  37.22 2576.46
   05:31:39.753.28-May-2021 3456.50 6034.20 83.04 10.00  37.42 2576.46
   05:31:39.953.28-May-2021 3456.50 6033.29 83.04 10.00  37.62 2576.46
   05:31:40.153.28-May-2021 3456.50 6146.46 83.04 10.00  37.82 2576.46
   05:31:40.353.28-May-2021 3456.50 6207.98 83.04 10.00  38.02 2576.46
   05:31:40.553.28-May-2021 3456.50 6207.98 83.04 10.00  38.22 2576.46
   05:31:40.753.28-May-2021 3456.50 6218.46 83.04 10.00  38.42 2576.46
   05:31:40.953.28-May-2021 3456.50 6232.73 83.04 10.00  38.62 2576.46
   05:31:41.153.28-May-2021 3456.50 6239.32 83.04 10.00  38.82 2576.46
   05:31:41.353.28-May-2021 3456.50 6236.93 83.04 10.00  39.02 2576.46
   05:31:41.553.28-May-2021 3456.50 6236.93 83.04 10.00  39.22 2576.46
   05:31:41.753.28-May-2021 3456.50 6222.40 83.04 10.00  39.42 2576.46
   05:31:41.953.28-May-2021 3456.50 6213.54 83.04 10.00  39.62 2576.46
   05:31:42.154.28-May-2021 3456.50 6203.16 83.04 10.00  39.82 2576.46
   05:31:42.354.28-May-2021 3456.50 6192.09 83.04 10.00  40.02 2576.46
   05:31:42.554.28-May-2021 3456.50 6192.09 83.04 10.00  40.22 2576.46
   05:31:42.754.28-May-2021 3456.50 6173.21 83.04 10.00  40.42 2576.46
   05:31:42.954.28-May-2021 3456.50 6163.19 83.04 10.00  40.62 2576.46
   05:31:43.154.28-May-2021 3456.50 6152.25 83.04 10.00  40.82 2576.46
   05:31:43.354.28-May-2021 3456.50 6145.04 83.04 10.00  41.02 2576.46
   05:31:43.554.28-May-2021 3456.50 6145.04 83.04 10.00  41.22 2576.46
   05:31:43.754.28-May-2021 3456.50 6124.25 83.04 10.00  41.42 2576.46
   05:31:43.954.28-May-2021 3456.50 6117.96 83.04 10.00  41.62 2576.46
   05:31:44.154.28-May-2021 3456.50 6109.10 83.04 10.00  41.82 2576.46
   05:31:44.354.28-May-2021 3456.50 6101.79 83.04 10.00  42.02 2576.46
   05:31:44.555.28-May-2021 3456.50 6101.79 83.04 10.00  42.22 2576.46
   05:31:44.755.28-May-2021 3456.50 6088.67 83.04 10.00  42.42 2576.46
   05:31:44.955.28-May-2021 3456.50 6080.99 83.04 10.00  42.62 2576.46
   05:31:45.155.28-May-2021 3456.50 6078.58 83.04 10.00  42.82 2576.46
   05:31:45.355.28-May-2021 3456.50 6038.97 83.04 10.00  43.02 2576.46
   05:31:45.555.28-May-2021 3456.50 6038.97 83.04 10.00  43.22 2576.46
   05:31:45.755.28-May-2021 3456.50 5792.86 83.04 10.00  43.42 2576.46
   05:31:45.955.28-May-2021 3456.50 5495.38 83.04 10.00  43.62 2576.46
   05:31:46.155.28-May-2021 3456.50 4959.09 83.04 10.00  43.82 2576.46
   05:31:46.355.28-May-2021 3456.50 4426.19 83.04 10.00  44.02 2576.46
   05:31:46.555.28-May-2021 3456.50 4426.19 83.04 10.00  44.22 2576.46
   05:31:46.755.28-May-2021 3456.50 4217.20 83.04 10.00  44.42 2576.46
   05:31:46.956.28-May-2021 3456.50 4202.99 83.03 10.00  44.62 2576.46
   05:31:47.156.28-May-2021 3456.50 4194.36 83.03 10.00  44.82 2576.46
   05:31:47.356.28-May-2021 3456.50 4186.28 83.03 10.00  45.02 2576.46
