~Version Information
 VERS.                  2.0:   CWLS log ASCII Standard -VERSION 2.0
 WRAP.                   NO:   One line per depth step
~Well Information Block
#MNEM.UNIT     VALUE/NAME     DESCRIPTION
#---------     -----------    ---------------------------
 STRT.S             04:49:06 28-May-21: START TIME 04:49:06 28-May-21
 STOP.S             04:56:13 28-May-21: STOP TIME  04:56:13 28-May-21
 STEP.S                   0.00: STEP TIME
 NULL.                 -999.25: NULL VALUE
 UWI .                     N/A:  UNIQUE WELL IDENTIFIER
 API .                     N/A:  API NUMBER
 UNIT.                     N/A:  LOGGING EQUIPMENT ID
 DCON.         Sperry Drilling:  DIRECTNL CONTR
 DOE .                     N/A:  DOE NUMBER
 MWDS.                    Baku:  MWD SHOP
 SRVC.     Turan Drilling and Engineering:  CONTRACTOR
 CTRY.              Azerbaijan:  COUNTRY NAME
 PROV.                    Baku:  PROVINCE
 STAT.                    Baku:  STATE NAME
 REGN.                   EESSA:  REGION
 BASE.              Azerbaijan:  LOGGING EQUIPMENT BASE LOCATION
 WTYP.                Deviated:  WELL TYPE
 RIG .              East Azeri:  RIG NAME
 WELL.                    D02y:  WELL NAME
 FLD .                     ACG:  FIELD NAME
 COMP.     BP Exploration (Caspian Sea) Ltd.:  COMPANY
 PDAT.          Mean Sea Level:  PERMANENT DATUM
 MDS .        Operator Entered:  MAG DATA SOURCE
 SON .        AZ-XX-0906997291:  JOB NUMBER
 FTOP.          Formation Tops:  FORM TOPS DESC
 ILTD.               Lithology:  INTERP LTH DESC
 SVYD.                  Survey:  SURVEY DESC
 DMOD.             Drill Model:  DRILL MOD DESC
 HPTY.       Minimum Curvature:  HOLE POS TYPE
 NREF.                    Grid:  NORTH REFERENCE
 SPUD.               05-May-21:  SPUD DATE
 DATE.      09.27.28 12-Jun-21:  END TIME
 STIM.      09.27.28 12-May-21:  START TIME
 DMF .             Drill Floor:  DRILL MEAS FROM
 DFST.                        :  DIST FSL TEXT
 DFWT.                        :  DIST FWL TEXT
 CNTY.                        :  COUNTY
 LOC .                        :  LOCATION
 LMF .             Drill Floor:  LOG MEASURED FROM
 DEP .m                2806.40:  DEPTH
 AGAP.m                  43.60:  AIR GAP
 VSNS.m                  -4.42:  VERT SEC N/S
 VSEW.m                  -7.31:  VERT SEC E/W
 APD .m                  43.60:  DEPTH ABOVE PD
 WDMS.m                 151.80:  WD ELEV
 EGL .m                   0.00:  GROUND ELEVATION
 EPD .m                   0.00:  ELEVATION
 AZTC.deg                 6.18:  AZM TOTAL CORR
 GRDC.deg                 0.29:  GRID CORRECTION
 MDEC.deg                 6.47:  MAGNETIC DECL
 MDIP.deg                59.50:  MAGNETIC DIP
 MFLD.nT              50350.00:  MAGNETIC FIELD
 GVFD.g                   1.00:  GRAVITY FIELD
 VSDR.deg               179.08:  VERT SEC DIRECT
 TDD .m                4300.00:  TOTAL DEPTH (DRILLER)
 SDEP.m                2800.00:  START DEPTH
 DFSL.m                   0.00:  DISTANCE FSL
 DFWL.m                   0.00:  DISTANCE FWL
 UTMY.m             4431871.34:  UTM Y
 UTMX.m              538762.90:  UTM X
 WHEW.m                  -7.31:  WELL HEAD E/W
 WHNS.m                  -4.42:  WELL HEAD N/S
 LONG.deg                51.45:  LONGITUDE
 LATI.deg                40.02:  LATITUDE
 TVDS.m                  43.60:  TVDSS CORRECTN
 EKB .m                  43.60:  KB ELEVATION
 EDF .m                  43.60:  DF ELEVATION
 TDL .m                 806.00:  TOTAL DEPTH (LOGGER)
 MAGU.                 1851231:  MAGUTM CHECKSUM
 VSC .                       0:  VS TO CLOSURE
~Parameter Information Block
#MNEM.UNIT       Value        Description
#---------     -----------    ---------------------------
 AV  .mps                 1.60:  Ann Velocity 
 AVMX.mps                 2.00:  Max Ann Veloc 
 AZIF.deg               140.24:  Azm, Final 
 BHAT.        Rotary Steerable:  BHA Type 
 BROT.°/30m               0.50:  Build Rotating 
 BS  .in                  8.50:  Bit Size 
 BTPL.psig              619.00:  Bit Press Loss 
 CABU.                     Yes:  Customer Abuse 
 CGEO.          Ilgar Gurbanov:  Customer Geo 
 COMM.                     Lñv:  Run Comments 1 
 TCS .hr                 85.88:  Time Ciculation Ended 
 CV  .mps                 3.30:  Crit Velocity 
 CVMX.mps                 3.50:  Max Crit Veloc 
 DD1 .           Hamid Axmedov:  Direct Drillr 1 
 DD2 .           Teymur Aliyev:  Direct Drillr 2 
 DDSV.               Geo-Pilot:  DD Service 
 DEFF.%                 100.00:  % Det Eff 
 DLRX.°/30m               0.00:  Dogleg Rot Max 
 DLSO.°/30m               1.80:  Dogleg Oriented 
 DLSX.°/30m               3.34:  Dogleg Str Max 
 DRET.      11.50.00 27-May-21:  Drill End Time 
 DRST.      21.13.00 24-May-21:  Drill Start Tim 
 DTIM.hr                 45.11:  Time Drilling 
 EDEP.m                4054.00:  End Depth 
 ENG1.         Almaz Almadatov:  Engineer 1 
 ENG2.           Amrah Tahirov:  Engineer 2 
 ENG3.      Bakhtiyar Jabbarli:  Engineer 3 
 ENG4.          Nazrin Asgarli:  Engineer 4 
 ETIM.      10.00.00 30-May-21:  End Time 
 FLOI.gpm               530.00:  Flow In 
 FLON.gpm               400.00:  Flow In Min 
 FLOS.cptm                0.00:  Fluid Loss 
 FLOX.gpm               560.00:  Flow In Max 
 DFT .        Mineral Oil Base:  Mud Type 
 FTRO.       Formation Presure:  FTWD Run Obj 
 HFLO.                      No:  High Flow 
 HPRE.                      No:  High Pressure 
 HTEM.                      No:  High Temp 
 HYDO.m                   1.80:  Hydro Offset 
 IFIN.deg                73.83:  Inc, Final 
 IMAX.deg                73.83:  Inc Max 
 IMIN.deg                57.86:  Inc Min 
 IMND.m                3259.27:  Inc Min Depth 
 IMXD.m                4045.58:  Inc Max Depth 
 JARR.                     Yes:  Jarring 
 LETM.      11.50.00 27-May-21:  Log End Time 
 LOST.hr                     0:  Lost Rig Time 
 LSTM.      21.13.00 24-May-21:  Log Start Time 
 MDCL.ppm             42500.00:  Mud Chlorides 
 MDES.     Inversion Oil/Synthetic:  Mud Desc 
 DFD .sg                  1.52:  Mud Density 
 MDMN.sg                  1.52:  Dens Mud Min 
 MDMX.sg                  1.52:  Dens Mud Max 
 MOIL.                      70:  Run Mud Oil % 
 MOWR.                   70:30:  Run Mud OWR 
 MSND.                     0.2:  Run Mud Sand % 
 MSOL.                      22:  Run Mud Solids% 
 DFV .spqt               77.00:  Mud Viscosity 
 MWOD.in                  6.75:  MWD Tool OD 
 MWSI.                      No:  Serv Intrp, MWD 
 OTIM.hr                151.01:  Time Operating 
 PCON.          Wear / Scratch:  Pad Condition 
 PMAX.psia            11296.93:  Press Op, Max 
 PV  .cP                 37.00:  Mud PV 
 RUN .                     500:  Run Number 
 ROPA.m/hr               25.00:  ROP Avg 
 ROPN.m/hr                9.00:  ROP Min 
 ROPX.m/hr               28.00:  ROP Max 
 RPMA.rpm               140.00:  RPM Surface Avg 
 RPMN.rpm                90.00:  RPM Surface Min 
 RPMX.rpm               140.00:  RPM Surface Max 
 RRUN.                    0500:  Rig Run Number 
 SAZI.deg               172.17:  Azm, Start 
 SDEP.m                3248.00:  Start Depth 
 SIDD.                      No:  Serv Intrp, DD 
 SINC.deg                57.86:  Inc, Start 
 SPPA.psig             5620.00:  SPP Avg 
 SPPN.psig             5190.00:  SPP Min 
 SPPX.psig             6050.00:  SPP Max 
 STIM.      16.00.00 23-May-21:  Start Time 
 SVCS.                 DD, MWD:  Services 
 SVER.                    9.20:  Sperry Version 
 TDAT.m                 806.00:  Tot Depth Attmp 
 TDDF.                      No:  Trip for DD 
 TDLG.m                 806.00:  Tot Depth Loggd 
 TFF .                      No:  Trip for Fail 
 TQAA.f-kp               12.00:  Torque Abs Avg 
 TQAN.f-kp                8.00:  Torque Abs Min 
 TQAX.f-kp               15.00:  Torque Abs Max 
 TRRT.°/30m               0.30:  Turn Rotating 
 MRT .                  EWR-M5:  Maximum Recorded Temperature 
 TTMX.degC               93.00:  Max Tool Temp 
 VS01.                90649155:  Virtual Str1 SN 
 VS02.                90642264:  Virtual Str2 SN 
 VS03.                90642266:  Virtual Str3 SN 
 VS04.                90642261:  Virtual Str4 SN 
 WBMN.klb                 0.00:  WOB Min 
 WITN.             Anar Khalil:  Customer Rep 
 WITN.           Murad Guliyev:  Customer Rep 2 
 WOBA.klb                13.00:  WOB Avg 
 WOBX.klb                25.00:  WOB Max 
 YP  .lhf2               32.00:  Yield Point 
~Curve Information Block
#MNEM.UNIT                 API CODE     Curve Description
#---------               -----------    ---------------------------
 TIME.HHMMSS            00 000 000 000:  GT Time & Date
 GTDEPTH.m              00 000 000 000:  GT Depth
 GTPQH.psia             00 000 000 000:  GT HR Quartz Pressure
 GTTQ.degC              00 000 000 000:  GT Quartz Temperature
 GTTN.NONE              00 000 000 000:  GT Test Number
 GTET.sec               00 000 000 000:  GT Elapsed Test Time
 GTTVD.m                00 000 000 000:  GT True Vertical Depth
#Other Information
#
#WARRANTY: Halliburton will use its best efforts to furnish customers with 
#accurate information and interpretations that are part of, and incident to, the services 
#provided.  However, Halliburton cannot and does not warrant the accuracy 
#or correctness of such information and interpretations.  Under no circumstances should any 
#such information or interpretation be relied upon as the sole basis for any drilling, 
#completion, production, or financial decision or any procedure involving any risk to the 
#safety of any drilling venture, drilling rig or its crew or any other third party.  The 
#Customer has full responsibility for all drilling, completion and production operation.  
#Halliburton makes no representations or warranties, either expressed or 
#implied, including, but not limited to, the implied warranties of merchantability or fitness 
#for a particular purpose, with respect to the services rendered.  In no event will 
#Halliburton be liable for failure to obtain any particular results or for 
#any damages, including, but not limited to, indirect, special or consequential damages, 
#resulting from the use of any information or interpretation provided by Halliburton.
#
~A           TIME           GTDEPTH  GTPQH  GTTQ  GTTN  GTET   GTTVD  
# ...
   04:51:47.000.28-May-2021 3472.00 3913.10 82.90 9.00 161.00 2583.20
   04:51:47.200.28-May-2021 3472.00 3913.10 82.90 9.00 161.20 2583.20
   04:51:47.400.28-May-2021 3472.00 3910.56 82.90 9.00 161.40 2583.20
   04:51:47.600.28-May-2021 3472.00 3915.19 82.90 9.00 161.60 2583.20
   04:51:47.800.28-May-2021 3472.00 3915.15 82.90 9.00 161.80 2583.20
   04:51:48.000.28-May-2021 3472.00 3914.24 82.90 9.00 162.00 2583.20
   04:51:48.200.28-May-2021 3472.00 3914.24 82.90 9.00 162.20 2583.20
   04:51:48.400.28-May-2021 3472.00 3915.77 82.90 9.00 162.40 2583.20
   04:51:48.600.28-May-2021 3472.00 3914.87 82.90 9.00 162.60 2583.20
   04:51:48.800.28-May-2021 3472.00 3914.20 82.89 9.00 162.80 2583.20
   04:51:49.000.28-May-2021 3472.00 3916.74 82.89 9.00 163.00 2583.20
   04:51:49.200.28-May-2021 3472.00 3916.74 82.89 9.00 163.20 2583.20
   04:51:49.400.28-May-2021 3472.00 3913.71 82.89 9.00 163.40 2583.20
   04:51:49.600.28-May-2021 3472.00 3916.62 82.89 9.00 163.60 2583.20
   04:51:49.800.28-May-2021 3472.00 3913.92 82.89 9.00 163.80 2583.20
   04:51:50.000.28-May-2021 3472.00 3915.69 82.89 9.00 164.00 2583.20
   04:51:50.200.28-May-2021 3472.00 3915.69 82.89 9.00 164.20 2583.20
   04:51:50.400.28-May-2021 3472.00 3914.59 82.89 9.00 164.40 2583.20
   04:51:50.600.28-May-2021 3472.00 3917.27 82.89 9.00 164.60 2583.20
   04:51:50.800.28-May-2021 3472.00 3911.85 82.89 9.00 164.80 2583.20
   04:51:51.000.28-May-2021 3472.00 3913.89 82.89 9.00 165.00 2583.20
   04:51:51.200.28-May-2021 3472.00 3913.89 82.89 9.00 165.20 2583.20
   04:51:51.400.28-May-2021 3472.00 3916.85 82.89 9.00 165.40 2583.20
   04:51:51.600.28-May-2021 3472.00 3918.38 82.89 9.00 165.60 2583.20
   04:51:51.800.28-May-2021 3472.00 3917.67 82.89 9.00 165.80 2583.20
   04:51:52.000.28-May-2021 3472.00 3916.12 82.89 9.00 166.00 2583.20
   04:51:52.200.28-May-2021 3472.00 3916.12 82.89 9.00 166.20 2583.20
   04:51:52.400.28-May-2021 3472.00 3917.51 82.89 9.00 166.40 2583.20
   04:51:52.600.28-May-2021 3472.00 3918.02 82.89 9.00 166.60 2583.20
   04:51:52.800.28-May-2021 3472.00 3949.90 82.89 9.00 166.80 2583.20
   04:51:53.000.28-May-2021 3472.00 4150.66 82.89 9.00 167.00 2583.20
   04:51:53.200.28-May-2021 3472.00 4150.66 82.89 9.00 167.20 2583.20
   04:51:53.400.28-May-2021 3472.00 4224.97 82.89 9.00 167.40 2583.20
   04:51:53.600.28-May-2021 3472.00 4227.42 82.89 9.00 167.60 2583.20
   04:51:53.800.28-May-2021 3472.00 4228.15 82.89 9.00 167.80 2583.20
   04:51:54.000.28-May-2021 3472.00 4228.56 82.89 9.00 168.00 2583.20
   04:51:54.200.28-May-2021 3472.00 4228.56 82.89 9.00 168.20 2583.20
   04:51:54.400.28-May-2021 3472.00 4228.47 82.89 9.00 168.40 2583.20
   04:51:54.600.28-May-2021 3472.00 4230.14 82.89 9.00 168.60 2583.20
   04:51:54.800.28-May-2021 3472.00 4229.71 82.89 9.00 168.80 2583.20
   04:51:55.000.28-May-2021 3472.00 4229.82 82.89 9.00 169.00 2583.20
   04:51:55.200.28-May-2021 3472.00 4229.82 82.89 9.00 169.20 2583.20
   04:51:55.400.28-May-2021 3472.00 4229.90 82.89 9.00 169.40 2583.20
   04:51:55.600.28-May-2021 3472.00 4229.96 82.89 9.00 169.60 2583.20
   04:51:55.800.28-May-2021 3472.00 4230.02 82.89 9.00 169.80 2583.20
   04:51:56.000.28-May-2021 3472.00 4230.06 82.89 9.00 170.00 2583.20
   04:51:56.200.28-May-2021 3472.00 4230.06 82.89 9.00 170.20 2583.20
   04:51:56.400.28-May-2021 3472.00 4230.13 82.89 9.00 170.40 2583.20
   04:51:56.600.28-May-2021 3472.00 4230.12 82.89 9.00 170.60 2583.20
   04:51:56.800.28-May-2021 3472.00 4230.15 82.89 9.00 170.80 2583.20
   04:51:57.000.28-May-2021 3472.00 4229.70 82.89 9.00 171.00 2583.20
   04:51:57.200.28-May-2021 3472.00 4229.70 82.89 9.00 171.20 2583.20
   04:51:57.400.28-May-2021 3472.00 4230.50 82.89 9.00 171.40 2583.20
   04:51:57.600.28-May-2021 3472.00 4230.11 82.89 9.00 171.60 2583.20
   04:51:57.800.28-May-2021 3472.00 4230.91 82.89 9.00 171.80 2583.20
   04:51:58.000.28-May-2021 3472.00 4230.60 82.89 9.00 172.00 2583.20
   04:51:58.200.28-May-2021 3472.00 4230.60 82.89 9.00 172.20 2583.20
   04:51:58.400.28-May-2021 3472.00 4230.54 82.90 9.00 172.40 2583.20
   04:51:58.600.28-May-2021 3472.00 4230.15 82.90 9.00 172.60 2583.20
   04:51:58.800.28-May-2021 3472.00 4231.01 82.90 9.00 172.80 2583.20
   04:51:59.000.28-May-2021 3472.00 4230.67 82.90 9.00 173.00 2583.20
   04:51:59.200.28-May-2021 3472.00 4230.67 82.90 9.00 173.20 2583.20
   04:51:59.400.28-May-2021 3472.00 4230.51 82.90 9.00 173.40 2583.20
   04:51:59.600.28-May-2021 3472.00 4230.82 82.90 9.00 173.60 2583.20
   04:51:59.800.28-May-2021 3472.00 4230.65 82.90 9.00 173.80 2583.20
   04:52:00.000.28-May-2021 3472.00 4230.69 82.90 9.00 174.00 2583.20
   04:52:00.200.28-May-2021 3472.00 4230.69 82.90 9.00 174.20 2583.20
   04:52:00.400.28-May-2021 3472.00 4230.66 82.90 9.00 174.40 2583.20
   04:52:00.600.28-May-2021 3472.00 4230.68 82.90 9.00 174.60 2583.20
   04:52:00.800.28-May-2021 3472.00 4230.65 82.90 9.00 174.80 2583.20
   04:52:01.000.28-May-2021 3472.00 4230.69 82.90 9.00 175.00 2583.20
   04:52:01.200.28-May-2021 3472.00 4230.69 82.90 9.00 175.20 2583.20
   04:52:01.400.28-May-2021 3472.00 4230.66 82.90 9.00 175.40 2583.20
   04:52:01.600.28-May-2021 3472.00 4230.66 82.90 9.00 175.60 2583.20
   04:52:01.800.28-May-2021 3472.00 4230.26 82.90 9.00 175.80 2583.20
   04:52:02.000.28-May-2021 3472.00 4231.11 82.90 9.00 176.00 2583.20
   04:52:02.200.28-May-2021 3472.00 4231.11 82.90 9.00 176.20 2583.20
   04:52:02.400.28-May-2021 3472.00 4230.73 82.90 9.00 176.40 2583.20
   04:52:02.600.28-May-2021 3472.00 4230.72 82.90 9.00 176.60 2583.20
   04:52:02.800.28-May-2021 3472.00 4230.73 82.90 9.00 176.80 2583.20
   04:52:03.000.28-May-2021 3472.00 4230.74 82.90 9.00 177.00 2583.20
   04:52:03.200.28-May-2021 3472.00 4230.74 82.90 9.00 177.20 2583.20
   04:52:03.400.28-May-2021 3472.00 4230.73 82.90 9.00 177.40 2583.20
   04:52:03.600.28-May-2021 3472.00 4230.75 82.90 9.00 177.60 2583.20
   04:52:03.800.28-May-2021 3472.00 4230.71 82.90 9.00 177.80 2583.20
   04:52:04.000.28-May-2021 3472.00 4230.74 82.90 9.00 178.00 2583.20
   04:52:04.200.28-May-2021 3472.00 4230.74 82.90 9.00 178.20 2583.20
   04:52:04.400.28-May-2021 3472.00 4230.71 82.90 9.00 178.40 2583.20
   04:52:04.600.28-May-2021 3472.00 4230.63 82.90 9.00 178.60 2583.20
   04:52:04.800.28-May-2021 3472.00 4230.98 82.90 9.00 178.80 2583.20
   04:52:05.000.28-May-2021 3472.00 4230.74 82.90 9.00 179.00 2583.20
   04:52:05.200.28-May-2021 3472.00 4230.74 82.90 9.00 179.20 2583.20
   04:52:05.400.28-May-2021 3472.00 4230.35 82.90 9.00 179.40 2583.20
   04:52:05.600.28-May-2021 3472.00 4231.16 82.90 9.00 179.60 2583.20
   04:52:05.800.28-May-2021 3472.00 4230.88 82.90 9.00 179.80 2583.20
   04:52:06.000.28-May-2021 3472.00 4230.80 82.90 9.00 180.00 2583.20
   04:52:06.200.28-May-2021 3472.00 4230.80 82.90 9.00 180.20 2583.20
   04:52:06.400.28-May-2021 3472.00 4231.03 82.90 9.00 180.40 2583.20
   04:52:06.600.28-May-2021 3472.00 4230.79 82.90 9.00 180.60 2583.20
   04:52:06.800.28-May-2021 3472.00 4230.82 82.90 9.00 180.80 2583.20
   04:52:07.000.28-May-2021 3472.00 4230.81 82.90 9.00 181.00 2583.20
   04:52:07.200.28-May-2021 3472.00 4230.81 82.90 9.00 181.20 2583.20
   04:52:07.400.28-May-2021 3472.00 4231.24 82.90 9.00 181.40 2583.20
   04:52:07.600.28-May-2021 3472.00 4230.89 82.90 9.00 181.60 2583.20
   04:52:07.800.28-May-2021 3472.00 4230.82 82.90 9.00 181.80 2583.20
   04:52:08.000.28-May-2021 3472.00 4230.81 82.90 9.00 182.00 2583.20
   04:52:08.200.28-May-2021 3472.00 4230.81 82.90 9.00 182.20 2583.20
   04:52:08.400.28-May-2021 3472.00 4230.81 82.90 9.00 182.40 2583.20
   04:52:08.600.28-May-2021 3472.00 4230.82 82.90 9.00 182.60 2583.20
   04:52:08.800.28-May-2021 3472.00 4230.83 82.90 9.00 182.80 2583.20
   04:52:09.000.28-May-2021 3472.00 4230.81 82.90 9.00 183.00 2583.20
   04:52:09.200.28-May-2021 3472.00 4230.81 82.90 9.00 183.20 2583.20
   04:52:09.400.28-May-2021 3472.00 4230.82 82.90 9.00 183.40 2583.20
   04:52:09.600.28-May-2021 3472.00 4230.79 82.90 9.00 183.60 2583.20
   04:52:09.800.28-May-2021 3472.00 4230.28 82.90 9.00 183.80 2583.20
