~Version Information
 VERS.                  2.0:   CWLS log ASCII Standard -VERSION 2.0
 WRAP.                   NO:   One line per depth step
~Well Information Block
#MNEM.UNIT     VALUE/NAME     DESCRIPTION
#---------     -----------    ---------------------------
 STRT.S             07:37:51 28-May-21: START TIME 07:37:51 28-May-21
 STOP.S             07:44:58 28-May-21: STOP TIME  07:44:58 28-May-21
 STEP.S                   0.00: STEP TIME
 NULL.                 -999.25: NULL VALUE
 UWI .                     N/A:  UNIQUE WELL IDENTIFIER
 API .                     N/A:  API NUMBER
 UNIT.                     N/A:  LOGGING EQUIPMENT ID
 DCON.         Sperry Drilling:  DIRECTNL CONTR
 DOE .                     N/A:  DOE NUMBER
 MWDS.                    Baku:  MWD SHOP
 SRVC.     Turan Drilling and Engineering:  CONTRACTOR
 CTRY.              Azerbaijan:  COUNTRY NAME
 PROV.                    Baku:  PROVINCE
 STAT.                    Baku:  STATE NAME
 REGN.                   EESSA:  REGION
 BASE.              Azerbaijan:  LOGGING EQUIPMENT BASE LOCATION
 WTYP.                Deviated:  WELL TYPE
 RIG .              East Azeri:  RIG NAME
 WELL.                    D02y:  WELL NAME
 FLD .                     ACG:  FIELD NAME
 COMP.     BP Exploration (Caspian Sea) Ltd.:  COMPANY
 PDAT.          Mean Sea Level:  PERMANENT DATUM
 MDS .        Operator Entered:  MAG DATA SOURCE
 SON .        AZ-XX-0906997291:  JOB NUMBER
 FTOP.          Formation Tops:  FORM TOPS DESC
 ILTD.               Lithology:  INTERP LTH DESC
 SVYD.                  Survey:  SURVEY DESC
 DMOD.             Drill Model:  DRILL MOD DESC
 HPTY.       Minimum Curvature:  HOLE POS TYPE
 NREF.                    Grid:  NORTH REFERENCE
 SPUD.               05-May-21:  SPUD DATE
 DATE.      09.27.28 12-Jun-21:  END TIME
 STIM.      09.27.28 12-May-21:  START TIME
 DMF .             Drill Floor:  DRILL MEAS FROM
 DFST.                        :  DIST FSL TEXT
 DFWT.                        :  DIST FWL TEXT
 CNTY.                        :  COUNTY
 LOC .                        :  LOCATION
 LMF .             Drill Floor:  LOG MEASURED FROM
 DEP .m                2806.40:  DEPTH
 AGAP.m                  43.60:  AIR GAP
 VSNS.m                  -4.42:  VERT SEC N/S
 VSEW.m                  -7.31:  VERT SEC E/W
 APD .m                  43.60:  DEPTH ABOVE PD
 WDMS.m                 151.80:  WD ELEV
 EGL .m                   0.00:  GROUND ELEVATION
 EPD .m                   0.00:  ELEVATION
 AZTC.deg                 6.18:  AZM TOTAL CORR
 GRDC.deg                 0.29:  GRID CORRECTION
 MDEC.deg                 6.47:  MAGNETIC DECL
 MDIP.deg                59.50:  MAGNETIC DIP
 MFLD.nT              50350.00:  MAGNETIC FIELD
 GVFD.g                   1.00:  GRAVITY FIELD
 VSDR.deg               179.08:  VERT SEC DIRECT
 TDD .m                4300.00:  TOTAL DEPTH (DRILLER)
 SDEP.m                2800.00:  START DEPTH
 DFSL.m                   0.00:  DISTANCE FSL
 DFWL.m                   0.00:  DISTANCE FWL
 UTMY.m             4431871.34:  UTM Y
 UTMX.m              538762.90:  UTM X
 WHEW.m                  -7.31:  WELL HEAD E/W
 WHNS.m                  -4.42:  WELL HEAD N/S
 LONG.deg                51.45:  LONGITUDE
 LATI.deg                40.02:  LATITUDE
 TVDS.m                  43.60:  TVDSS CORRECTN
 EKB .m                  43.60:  KB ELEVATION
 EDF .m                  43.60:  DF ELEVATION
 TDL .m                 806.00:  TOTAL DEPTH (LOGGER)
 MAGU.                 1851231:  MAGUTM CHECKSUM
 VSC .                       0:  VS TO CLOSURE
~Parameter Information Block
#MNEM.UNIT       Value        Description
#---------     -----------    ---------------------------
 AV  .mps                 1.60:  Ann Velocity 
 AVMX.mps                 2.00:  Max Ann Veloc 
 AZIF.deg               140.24:  Azm, Final 
 BHAT.        Rotary Steerable:  BHA Type 
 BROT.°/30m               0.50:  Build Rotating 
 BS  .in                  8.50:  Bit Size 
 BTPL.psig              619.00:  Bit Press Loss 
 CABU.                     Yes:  Customer Abuse 
 CGEO.          Ilgar Gurbanov:  Customer Geo 
 COMM.                     dSc:  Run Comments 1 
 TCS .hr                 85.88:  Time Ciculation Ended 
 CV  .mps                 3.30:  Crit Velocity 
 CVMX.mps                 3.50:  Max Crit Veloc 
 DD1 .           Hamid Axmedov:  Direct Drillr 1 
 DD2 .           Teymur Aliyev:  Direct Drillr 2 
 DDSV.               Geo-Pilot:  DD Service 
 DEFF.%                 100.00:  % Det Eff 
 DLRX.°/30m               0.00:  Dogleg Rot Max 
 DLSO.°/30m               1.80:  Dogleg Oriented 
 DLSX.°/30m               3.34:  Dogleg Str Max 
 DRET.      11.50.00 27-May-21:  Drill End Time 
 DRST.      21.13.00 24-May-21:  Drill Start Tim 
 DTIM.hr                 45.11:  Time Drilling 
 EDEP.m                4054.00:  End Depth 
 ENG1.         Almaz Almadatov:  Engineer 1 
 ENG2.           Amrah Tahirov:  Engineer 2 
 ENG3.      Bakhtiyar Jabbarli:  Engineer 3 
 ENG4.          Nazrin Asgarli:  Engineer 4 
 ETIM.      10.00.00 30-May-21:  End Time 
 FLOI.gpm               530.00:  Flow In 
 FLON.gpm               400.00:  Flow In Min 
 FLOS.cptm                0.00:  Fluid Loss 
 FLOX.gpm               560.00:  Flow In Max 
 DFT .        Mineral Oil Base:  Mud Type 
 FTRO.       Formation Presure:  FTWD Run Obj 
 HFLO.                      No:  High Flow 
 HPRE.                      No:  High Pressure 
 HTEM.                      No:  High Temp 
 HYDO.m                   1.80:  Hydro Offset 
 IFIN.deg                73.83:  Inc, Final 
 IMAX.deg                73.83:  Inc Max 
 IMIN.deg                57.86:  Inc Min 
 IMND.m                3259.27:  Inc Min Depth 
 IMXD.m                4045.58:  Inc Max Depth 
 JARR.                     Yes:  Jarring 
 LETM.      11.50.00 27-May-21:  Log End Time 
 LOST.hr                     0:  Lost Rig Time 
 LSTM.      21.13.00 24-May-21:  Log Start Time 
 MDCL.ppm             42500.00:  Mud Chlorides 
 MDES.     Inversion Oil/Synthetic:  Mud Desc 
 DFD .sg                  1.52:  Mud Density 
 MDMN.sg                  1.52:  Dens Mud Min 
 MDMX.sg                  1.52:  Dens Mud Max 
 MOIL.                      70:  Run Mud Oil % 
 MOWR.                   70:30:  Run Mud OWR 
 MSND.                     0.2:  Run Mud Sand % 
 MSOL.                      22:  Run Mud Solids% 
 DFV .spqt               77.00:  Mud Viscosity 
 MWOD.in                  6.75:  MWD Tool OD 
 MWSI.                      No:  Serv Intrp, MWD 
 OTIM.hr                151.01:  Time Operating 
 PCON.          Wear / Scratch:  Pad Condition 
 PMAX.psia            11296.93:  Press Op, Max 
 PV  .cP                 37.00:  Mud PV 
 RUN .                     500:  Run Number 
 ROPA.m/hr               25.00:  ROP Avg 
 ROPN.m/hr                9.00:  ROP Min 
 ROPX.m/hr               28.00:  ROP Max 
 RPMA.rpm               140.00:  RPM Surface Avg 
 RPMN.rpm                90.00:  RPM Surface Min 
 RPMX.rpm               140.00:  RPM Surface Max 
 RRUN.                    0500:  Rig Run Number 
 SAZI.deg               172.17:  Azm, Start 
 SDEP.m                3248.00:  Start Depth 
 SIDD.                      No:  Serv Intrp, DD 
 SINC.deg                57.86:  Inc, Start 
 SPPA.psig             5620.00:  SPP Avg 
 SPPN.psig             5190.00:  SPP Min 
 SPPX.psig             6050.00:  SPP Max 
 STIM.      16.00.00 23-May-21:  Start Time 
 SVCS.                 DD, MWD:  Services 
 SVER.                    9.20:  Sperry Version 
 TDAT.m                 806.00:  Tot Depth Attmp 
 TDDF.                      No:  Trip for DD 
 TDLG.m                 806.00:  Tot Depth Loggd 
 TFF .                      No:  Trip for Fail 
 TQAA.f-kp               12.00:  Torque Abs Avg 
 TQAN.f-kp                8.00:  Torque Abs Min 
 TQAX.f-kp               15.00:  Torque Abs Max 
 TRRT.°/30m               0.30:  Turn Rotating 
 MRT .                  EWR-M5:  Maximum Recorded Temperature 
 TTMX.degC               93.00:  Max Tool Temp 
 VS01.                90649155:  Virtual Str1 SN 
 VS02.                90642264:  Virtual Str2 SN 
 VS03.                90642266:  Virtual Str3 SN 
 VS04.                90642261:  Virtual Str4 SN 
 WBMN.klb                 0.00:  WOB Min 
 WITN.             Anar Khalil:  Customer Rep 
 WITN.           Murad Guliyev:  Customer Rep 2 
 WOBA.klb                13.00:  WOB Avg 
 WOBX.klb                25.00:  WOB Max 
 YP  .lhf2               32.00:  Yield Point 
~Curve Information Block
#MNEM.UNIT                 API CODE     Curve Description
#---------               -----------    ---------------------------
 TIME.HHMMSS            00 000 000 000:  GT Time & Date
 GTDEPTH.m              00 000 000 000:  GT Depth
 GTPQH.psia             00 000 000 000:  GT HR Quartz Pressure
 GTTQ.degC              00 000 000 000:  GT Quartz Temperature
 GTTN.NONE              00 000 000 000:  GT Test Number
 GTET.sec               00 000 000 000:  GT Elapsed Test Time
 GTTVD.m                00 000 000 000:  GT True Vertical Depth
#Other Information
#
#WARRANTY: Halliburton will use its best efforts to furnish customers with 
#accurate information and interpretations that are part of, and incident to, the services 
#provided.  However, Halliburton cannot and does not warrant the accuracy 
#or correctness of such information and interpretations.  Under no circumstances should any 
#such information or interpretation be relied upon as the sole basis for any drilling, 
#completion, production, or financial decision or any procedure involving any risk to the 
#safety of any drilling venture, drilling rig or its crew or any other third party.  The 
#Customer has full responsibility for all drilling, completion and production operation.  
#Halliburton makes no representations or warranties, either expressed or 
#implied, including, but not limited to, the implied warranties of merchantability or fitness 
#for a particular purpose, with respect to the services rendered.  In no event will 
#Halliburton be liable for failure to obtain any particular results or for 
#any damages, including, but not limited to, indirect, special or consequential damages, 
#resulting from the use of any information or interpretation provided by Halliburton.
#
~A           TIME           GTDEPTH  GTPQH  GTTQ  GTTN   GTET   GTTVD  
# ...
   07:42:22.200.28-May-2021 3306.00 4536.23 81.96 13.00 271.20 2504.05
   07:42:22.400.28-May-2021 3306.00 5364.39 81.96 13.00 271.40 2504.05
   07:42:22.600.28-May-2021 3306.00 4872.18 81.96 13.00 271.60 2504.05
   07:42:22.800.28-May-2021 3306.00 4492.36 81.96 13.00 271.80 2504.05
   07:42:23.000.28-May-2021 3306.00 4970.56 81.96 13.00 272.00 2504.05
   07:42:23.200.28-May-2021 3306.00 4970.56 81.96 13.00 272.20 2504.05
   07:42:23.400.28-May-2021 3306.00 4633.41 81.96 13.00 272.40 2504.05
   07:42:23.600.28-May-2021 3306.00 4996.70 81.96 13.00 272.60 2504.05
   07:42:23.800.28-May-2021 3306.00 4421.02 81.96 13.00 272.80 2504.05
   07:42:24.000.28-May-2021 3306.00 4449.14 81.96 13.00 273.00 2504.05
   07:42:24.200.28-May-2021 3306.00 4449.14 81.96 13.00 273.20 2504.05
   07:42:24.400.28-May-2021 3306.00 5387.31 81.96 13.00 273.40 2504.05
   07:42:24.600.28-May-2021 3306.00 4872.07 81.96 13.00 273.60 2504.05
   07:42:24.800.28-May-2021 3306.00 4512.80 81.96 13.00 273.80 2504.05
   07:42:25.000.28-May-2021 3306.00 4505.23 81.96 13.00 274.00 2504.05
   07:42:25.200.28-May-2021 3306.00 4505.23 81.96 13.00 274.20 2504.05
   07:42:25.400.28-May-2021 3306.00 4507.62 81.96 13.00 274.40 2504.05
   07:42:25.600.28-May-2021 3306.00 4508.21 81.96 13.00 274.60 2504.05
   07:42:25.800.28-May-2021 3306.00 4508.65 81.96 13.00 274.80 2504.05
   07:42:26.000.28-May-2021 3306.00 4507.75 81.95 13.00 275.00 2504.05
   07:42:26.200.28-May-2021 3306.00 4507.75 81.95 13.00 275.20 2504.05
   07:42:26.400.28-May-2021 3306.00 4509.31 81.95 13.00 275.40 2504.05
   07:42:26.600.28-May-2021 3306.00 4509.55 81.95 13.00 275.60 2504.05
   07:42:26.800.28-May-2021 3306.00 4509.82 81.95 13.00 275.80 2504.05
   07:42:27.000.28-May-2021 3306.00 4510.00 81.95 13.00 276.00 2504.05
   07:42:27.200.28-May-2021 3306.00 4510.00 81.95 13.00 276.20 2504.05
   07:42:27.400.28-May-2021 3306.00 4510.43 81.95 13.00 276.40 2504.05
   07:42:27.600.28-May-2021 3306.00 4510.60 81.95 13.00 276.60 2504.05
   07:42:27.800.28-May-2021 3306.00 4510.78 81.95 13.00 276.80 2504.05
   07:42:28.000.28-May-2021 3306.00 4510.94 81.95 13.00 277.00 2504.05
   07:42:28.200.28-May-2021 3306.00 4510.94 81.95 13.00 277.20 2504.05
   07:42:28.400.28-May-2021 3306.00 4511.24 81.95 13.00 277.40 2504.05
   07:42:28.600.28-May-2021 3306.00 4511.31 81.95 13.00 277.60 2504.05
   07:42:28.800.28-May-2021 3306.00 4510.00 81.95 13.00 277.80 2504.05
   07:42:29.000.28-May-2021 3306.00 4511.29 81.95 13.00 278.00 2504.05
   07:42:29.200.28-May-2021 3306.00 4511.29 81.95 13.00 278.20 2504.05
   07:42:29.400.28-May-2021 3306.00 4511.69 81.95 13.00 278.40 2504.05
   07:42:29.600.28-May-2021 3306.00 4511.78 81.95 13.00 278.60 2504.05
   07:42:29.800.28-May-2021 3306.00 4511.88 81.95 13.00 278.80 2504.05
   07:42:30.000.28-May-2021 3306.00 4510.74 81.95 13.00 279.00 2504.05
   07:42:30.200.28-May-2021 3306.00 4510.74 81.95 13.00 279.20 2504.05
   07:42:30.400.28-May-2021 3306.00 4512.14 81.95 13.00 279.40 2504.05
   07:42:30.600.28-May-2021 3306.00 4512.81 81.95 13.00 279.60 2504.05
   07:42:30.800.28-May-2021 3306.00 4511.58 81.95 13.00 279.80 2504.05
   07:42:31.000.28-May-2021 3306.00 4513.35 81.94 13.00 280.00 2504.05
   07:42:31.200.28-May-2021 3306.00 4513.35 81.94 13.00 280.20 2504.05
   07:42:31.400.28-May-2021 3306.00 4513.47 81.94 13.00 280.40 2504.05
   07:42:31.600.28-May-2021 3306.00 4513.57 81.94 13.00 280.60 2504.05
   07:42:31.800.28-May-2021 3306.00 4512.19 81.94 13.00 280.80 2504.05
   07:42:32.000.28-May-2021 3306.00 4513.91 81.94 13.00 281.00 2504.05
   07:42:32.200.28-May-2021 3306.00 4513.91 81.94 13.00 281.20 2504.05
   07:42:32.400.28-May-2021 3306.00 4514.01 81.94 13.00 281.40 2504.05
   07:42:32.600.28-May-2021 3306.00 4514.07 81.94 13.00 281.60 2504.05
   07:42:32.800.28-May-2021 3306.00 4514.21 81.94 13.00 281.80 2504.05
   07:42:33.000.28-May-2021 3306.00 4514.32 81.94 13.00 282.00 2504.05
   07:42:33.200.28-May-2021 3306.00 4514.32 81.94 13.00 282.20 2504.05
   07:42:33.400.28-May-2021 3306.00 4514.50 81.94 13.00 282.40 2504.05
   07:42:33.600.28-May-2021 3306.00 4514.63 81.94 13.00 282.60 2504.05
   07:42:33.800.28-May-2021 3306.00 4514.70 81.94 13.00 282.80 2504.05
   07:42:34.000.28-May-2021 3306.00 4514.80 81.94 13.00 283.00 2504.05
   07:42:34.200.28-May-2021 3306.00 4514.80 81.94 13.00 283.20 2504.05
   07:42:34.400.28-May-2021 3306.00 4513.60 81.94 13.00 283.40 2504.05
   07:42:34.600.28-May-2021 3306.00 4514.90 81.94 13.00 283.60 2504.05
   07:42:34.800.28-May-2021 3306.00 4514.94 81.94 13.00 283.80 2504.05
   07:42:35.000.28-May-2021 3306.00 4515.15 81.94 13.00 284.00 2504.05
   07:42:35.200.28-May-2021 3306.00 4515.15 81.94 13.00 284.20 2504.05
   07:42:35.400.28-May-2021 3306.00 4515.28 81.94 13.00 284.40 2504.05
   07:42:35.600.28-May-2021 3306.00 4515.38 81.94 13.00 284.60 2504.05
   07:42:35.800.28-May-2021 3306.00 4515.45 81.94 13.00 284.80 2504.05
   07:42:36.000.28-May-2021 3306.00 4515.52 81.94 13.00 285.00 2504.05
   07:42:36.200.28-May-2021 3306.00 4515.52 81.94 13.00 285.20 2504.05
   07:42:36.400.28-May-2021 3306.00 4515.68 81.94 13.00 285.40 2504.05
   07:42:36.600.28-May-2021 3306.00 4515.77 81.94 13.00 285.60 2504.05
   07:42:36.800.28-May-2021 3306.00 4515.84 81.94 13.00 285.80 2504.05
   07:42:37.000.28-May-2021 3306.00 4514.78 81.94 13.00 286.00 2504.05
   07:42:37.200.28-May-2021 3306.00 4514.78 81.94 13.00 286.20 2504.05
   07:42:37.400.28-May-2021 3306.00 4515.90 81.94 13.00 286.40 2504.05
   07:42:37.600.28-May-2021 3306.00 4515.99 81.94 13.00 286.60 2504.05
   07:42:37.800.28-May-2021 3306.00 4516.11 81.94 13.00 286.80 2504.05
   07:42:38.000.28-May-2021 3306.00 4515.01 81.94 13.00 287.00 2504.05
   07:42:38.200.28-May-2021 3306.00 4515.01 81.94 13.00 287.20 2504.05
   07:42:38.400.28-May-2021 3306.00 4516.22 81.94 13.00 287.40 2504.05
   07:42:38.600.28-May-2021 3306.00 4516.30 81.94 13.00 287.60 2504.05
   07:42:38.800.28-May-2021 3306.00 4516.36 81.94 13.00 287.80 2504.05
   07:42:39.000.28-May-2021 3306.00 4515.14 81.94 13.00 288.00 2504.05
   07:42:39.200.28-May-2021 3306.00 4515.14 81.94 13.00 288.20 2504.05
   07:42:39.400.28-May-2021 3306.00 4524.41 81.94 13.00 288.40 2504.05
   07:42:39.600.28-May-2021 3306.00 4524.61 81.94 13.00 288.60 2504.05
   07:42:39.800.28-May-2021 3306.00 4522.97 81.94 13.00 288.80 2504.05
   07:42:40.000.28-May-2021 3306.00 4524.83 81.94 13.00 289.00 2504.05
   07:42:40.200.28-May-2021 3306.00 4524.83 81.94 13.00 289.20 2504.05
   07:42:40.400.28-May-2021 3306.00 4524.80 81.94 13.00 289.40 2504.05
   07:42:40.600.28-May-2021 3306.00 4524.82 81.94 13.00 289.60 2504.05
   07:42:40.800.28-May-2021 3306.00 4524.94 81.94 13.00 289.80 2504.05
   07:42:41.000.28-May-2021 3306.00 4524.99 81.94 13.00 290.00 2504.05
   07:42:41.200.28-May-2021 3306.00 4524.99 81.94 13.00 290.20 2504.05
   07:42:41.400.28-May-2021 3306.00 4525.08 81.94 13.00 290.40 2504.05
   07:42:41.600.28-May-2021 3306.00 4525.14 81.94 13.00 290.60 2504.05
   07:42:41.800.28-May-2021 3306.00 4525.20 81.94 13.00 290.80 2504.05
   07:42:42.000.28-May-2021 3306.00 4525.24 81.94 13.00 291.00 2504.05
   07:42:42.200.28-May-2021 3306.00 4525.24 81.94 13.00 291.20 2504.05
   07:42:42.400.28-May-2021 3306.00 4523.91 81.94 13.00 291.40 2504.05
   07:42:42.600.28-May-2021 3306.00 4525.34 81.94 13.00 291.60 2504.05
   07:42:42.800.28-May-2021 3306.00 4525.31 81.94 13.00 291.80 2504.05
   07:42:43.000.28-May-2021 3306.00 4525.52 81.94 13.00 292.00 2504.05
   07:42:43.200.28-May-2021 3306.00 4525.52 81.94 13.00 292.20 2504.05
   07:42:43.400.28-May-2021 3306.00 4525.59 81.94 13.00 292.40 2504.05
   07:42:43.600.28-May-2021 3306.00 4525.64 81.94 13.00 292.60 2504.05
   07:42:43.800.28-May-2021 3306.00 4525.68 81.94 13.00 292.80 2504.05
   07:42:44.000.28-May-2021 3306.00 4525.72 81.94 13.00 293.00 2504.05
   07:42:44.200.28-May-2021 3306.00 4525.72 81.94 13.00 293.20 2504.05
   07:42:44.400.28-May-2021 3306.00 4525.82 81.94 13.00 293.40 2504.05
   07:42:44.600.28-May-2021 3306.00 4525.87 81.94 13.00 293.60 2504.05
