~Version Information
 VERS.                  2.0:   CWLS log ASCII Standard -VERSION 2.0
 WRAP.                   NO:   One line per depth step
~Well Information Block
#MNEM.UNIT     VALUE/NAME     DESCRIPTION
#---------     -----------    ---------------------------
 STRT.S             03:01:37 28-May-21: START TIME 03:01:37 28-May-21
 STOP.S             03:08:42 28-May-21: STOP TIME  03:08:42 28-May-21
 STEP.S                   0.00: STEP TIME
 NULL.                 -999.25: NULL VALUE
 UWI .                     N/A:  UNIQUE WELL IDENTIFIER
 API .                     N/A:  API NUMBER
 UNIT.                     N/A:  LOGGING EQUIPMENT ID
 DCON.         Sperry Drilling:  DIRECTNL CONTR
 DOE .                     N/A:  DOE NUMBER
 MWDS.                    Baku:  MWD SHOP
 SRVC.     Turan Drilling and Engineering:  CONTRACTOR
 CTRY.              Azerbaijan:  COUNTRY NAME
 PROV.                    Baku:  PROVINCE
 STAT.                    Baku:  STATE NAME
 REGN.                   EESSA:  REGION
 BASE.              Azerbaijan:  LOGGING EQUIPMENT BASE LOCATION
 WTYP.                Deviated:  WELL TYPE
 RIG .              East Azeri:  RIG NAME
 WELL.                    D02y:  WELL NAME
 FLD .                     ACG:  FIELD NAME
 COMP.     BP Exploration (Caspian Sea) Ltd.:  COMPANY
 PDAT.          Mean Sea Level:  PERMANENT DATUM
 MDS .        Operator Entered:  MAG DATA SOURCE
 SON .        AZ-XX-0906997291:  JOB NUMBER
 FTOP.          Formation Tops:  FORM TOPS DESC
 ILTD.               Lithology:  INTERP LTH DESC
 SVYD.                  Survey:  SURVEY DESC
 DMOD.             Drill Model:  DRILL MOD DESC
 HPTY.       Minimum Curvature:  HOLE POS TYPE
 NREF.                    Grid:  NORTH REFERENCE
 SPUD.               05-May-21:  SPUD DATE
 DATE.      09.27.28 12-Jun-21:  END TIME
 STIM.      09.27.28 12-May-21:  START TIME
 DMF .             Drill Floor:  DRILL MEAS FROM
 DFST.                        :  DIST FSL TEXT
 DFWT.                        :  DIST FWL TEXT
 CNTY.                        :  COUNTY
 LOC .                        :  LOCATION
 LMF .             Drill Floor:  LOG MEASURED FROM
 DEP .m                2806.40:  DEPTH
 AGAP.m                  43.60:  AIR GAP
 VSNS.m                  -4.42:  VERT SEC N/S
 VSEW.m                  -7.31:  VERT SEC E/W
 APD .m                  43.60:  DEPTH ABOVE PD
 WDMS.m                 151.80:  WD ELEV
 EGL .m                   0.00:  GROUND ELEVATION
 EPD .m                   0.00:  ELEVATION
 AZTC.deg                 6.18:  AZM TOTAL CORR
 GRDC.deg                 0.29:  GRID CORRECTION
 MDEC.deg                 6.47:  MAGNETIC DECL
 MDIP.deg                59.50:  MAGNETIC DIP
 MFLD.nT              50350.00:  MAGNETIC FIELD
 GVFD.g                   1.00:  GRAVITY FIELD
 VSDR.deg               179.08:  VERT SEC DIRECT
 TDD .m                4300.00:  TOTAL DEPTH (DRILLER)
 SDEP.m                2800.00:  START DEPTH
 DFSL.m                   0.00:  DISTANCE FSL
 DFWL.m                   0.00:  DISTANCE FWL
 UTMY.m             4431871.34:  UTM Y
 UTMX.m              538762.90:  UTM X
 WHEW.m                  -7.31:  WELL HEAD E/W
 WHNS.m                  -4.42:  WELL HEAD N/S
 LONG.deg                51.45:  LONGITUDE
 LATI.deg                40.02:  LATITUDE
 TVDS.m                  43.60:  TVDSS CORRECTN
 EKB .m                  43.60:  KB ELEVATION
 EDF .m                  43.60:  DF ELEVATION
 TDL .m                 806.00:  TOTAL DEPTH (LOGGER)
 MAGU.                 1851231:  MAGUTM CHECKSUM
 VSC .                       0:  VS TO CLOSURE
~Parameter Information Block
#MNEM.UNIT       Value        Description
#---------     -----------    ---------------------------
 AV  .mps                 1.60:  Ann Velocity 
 AVMX.mps                 2.00:  Max Ann Veloc 
 AZIF.deg               140.24:  Azm, Final 
 BHAT.        Rotary Steerable:  BHA Type 
 BROT.°/30m               0.50:  Build Rotating 
 BS  .in                  8.50:  Bit Size 
 BTPL.psig              619.00:  Bit Press Loss 
 CABU.                     Yes:  Customer Abuse 
 CGEO.          Ilgar Gurbanov:  Customer Geo 
 COMM.                     dr:  Run Comments 1 
 TCS .hr                 85.88:  Time Ciculation Ended 
 CV  .mps                 3.30:  Crit Velocity 
 CVMX.mps                 3.50:  Max Crit Veloc 
 DD1 .           Hamid Axmedov:  Direct Drillr 1 
 DD2 .           Teymur Aliyev:  Direct Drillr 2 
 DDSV.               Geo-Pilot:  DD Service 
 DEFF.%                 100.00:  % Det Eff 
 DLRX.°/30m               0.00:  Dogleg Rot Max 
 DLSO.°/30m               1.80:  Dogleg Oriented 
 DLSX.°/30m               3.34:  Dogleg Str Max 
 DRET.      11.50.00 27-May-21:  Drill End Time 
 DRST.      21.13.00 24-May-21:  Drill Start Tim 
 DTIM.hr                 45.11:  Time Drilling 
 EDEP.m                4054.00:  End Depth 
 ENG1.         Almaz Almadatov:  Engineer 1 
 ENG2.           Amrah Tahirov:  Engineer 2 
 ENG3.      Bakhtiyar Jabbarli:  Engineer 3 
 ENG4.          Nazrin Asgarli:  Engineer 4 
 ETIM.      10.00.00 30-May-21:  End Time 
 FLOI.gpm               530.00:  Flow In 
 FLON.gpm               400.00:  Flow In Min 
 FLOS.cptm                0.00:  Fluid Loss 
 FLOX.gpm               560.00:  Flow In Max 
 DFT .        Mineral Oil Base:  Mud Type 
 FTRO.       Formation Presure:  FTWD Run Obj 
 HFLO.                      No:  High Flow 
 HPRE.                      No:  High Pressure 
 HTEM.                      No:  High Temp 
 HYDO.m                   1.80:  Hydro Offset 
 IFIN.deg                73.83:  Inc, Final 
 IMAX.deg                73.83:  Inc Max 
 IMIN.deg                57.86:  Inc Min 
 IMND.m                3259.27:  Inc Min Depth 
 IMXD.m                4045.58:  Inc Max Depth 
 JARR.                     Yes:  Jarring 
 LETM.      11.50.00 27-May-21:  Log End Time 
 LOST.hr                     0:  Lost Rig Time 
 LSTM.      21.13.00 24-May-21:  Log Start Time 
 MDCL.ppm             42500.00:  Mud Chlorides 
 MDES.     Inversion Oil/Synthetic:  Mud Desc 
 DFD .sg                  1.52:  Mud Density 
 MDMN.sg                  1.52:  Dens Mud Min 
 MDMX.sg                  1.52:  Dens Mud Max 
 MOIL.                      70:  Run Mud Oil % 
 MOWR.                   70:30:  Run Mud OWR 
 MSND.                     0.2:  Run Mud Sand % 
 MSOL.                      22:  Run Mud Solids% 
 DFV .spqt               77.00:  Mud Viscosity 
 MWOD.in                  6.75:  MWD Tool OD 
 MWSI.                      No:  Serv Intrp, MWD 
 OTIM.hr                151.01:  Time Operating 
 PCON.          Wear / Scratch:  Pad Condition 
 PMAX.psia            11296.93:  Press Op, Max 
 PV  .cP                 37.00:  Mud PV 
 RUN .                     500:  Run Number 
 ROPA.m/hr               25.00:  ROP Avg 
 ROPN.m/hr                9.00:  ROP Min 
 ROPX.m/hr               28.00:  ROP Max 
 RPMA.rpm               140.00:  RPM Surface Avg 
 RPMN.rpm                90.00:  RPM Surface Min 
 RPMX.rpm               140.00:  RPM Surface Max 
 RRUN.                    0500:  Rig Run Number 
 SAZI.deg               172.17:  Azm, Start 
 SDEP.m                3248.00:  Start Depth 
 SIDD.                      No:  Serv Intrp, DD 
 SINC.deg                57.86:  Inc, Start 
 SPPA.psig             5620.00:  SPP Avg 
 SPPN.psig             5190.00:  SPP Min 
 SPPX.psig             6050.00:  SPP Max 
 STIM.      16.00.00 23-May-21:  Start Time 
 SVCS.                 DD, MWD:  Services 
 SVER.                    9.20:  Sperry Version 
 TDAT.m                 806.00:  Tot Depth Attmp 
 TDDF.                      No:  Trip for DD 
 TDLG.m                 806.00:  Tot Depth Loggd 
 TFF .                      No:  Trip for Fail 
 TQAA.f-kp               12.00:  Torque Abs Avg 
 TQAN.f-kp                8.00:  Torque Abs Min 
 TQAX.f-kp               15.00:  Torque Abs Max 
 TRRT.°/30m               0.30:  Turn Rotating 
 MRT .                  EWR-M5:  Maximum Recorded Temperature 
 TTMX.degC               93.00:  Max Tool Temp 
 VS01.                90649155:  Virtual Str1 SN 
 VS02.                90642264:  Virtual Str2 SN 
 VS03.                90642266:  Virtual Str3 SN 
 VS04.                90642261:  Virtual Str4 SN 
 WBMN.klb                 0.00:  WOB Min 
 WITN.             Anar Khalil:  Customer Rep 
 WITN.           Murad Guliyev:  Customer Rep 2 
 WOBA.klb                13.00:  WOB Avg 
 WOBX.klb                25.00:  WOB Max 
 YP  .lhf2               32.00:  Yield Point 
~Curve Information Block
#MNEM.UNIT                 API CODE     Curve Description
#---------               -----------    ---------------------------
 TIME.HHMMSS            00 000 000 000:  GT Time & Date
 GTDEPTH.m              00 000 000 000:  GT Depth
 GTPQH.psia             00 000 000 000:  GT HR Quartz Pressure
 GTTQ.degC              00 000 000 000:  GT Quartz Temperature
 GTTN.NONE              00 000 000 000:  GT Test Number
 GTET.sec               00 000 000 000:  GT Elapsed Test Time
 GTTVD.m                00 000 000 000:  GT True Vertical Depth
#Other Information
#
#WARRANTY: Halliburton will use its best efforts to furnish customers with 
#accurate information and interpretations that are part of, and incident to, the services 
#provided.  However, Halliburton cannot and does not warrant the accuracy 
#or correctness of such information and interpretations.  Under no circumstances should any 
#such information or interpretation be relied upon as the sole basis for any drilling, 
#completion, production, or financial decision or any procedure involving any risk to the 
#safety of any drilling venture, drilling rig or its crew or any other third party.  The 
#Customer has full responsibility for all drilling, completion and production operation.  
#Halliburton makes no representations or warranties, either expressed or 
#implied, including, but not limited to, the implied warranties of merchantability or fitness 
#for a particular purpose, with respect to the services rendered.  In no event will 
#Halliburton be liable for failure to obtain any particular results or for 
#any damages, including, but not limited to, indirect, special or consequential damages, 
#resulting from the use of any information or interpretation provided by Halliburton.
#
~A           TIME           GTDEPTH  GTPQH  GTTQ  GTTN  GTET   GTTVD  
# ...
   03:03:32.000.28-May-2021 3537.00 3680.30 83.91 7.00 115.00 2609.82
   03:03:32.200.28-May-2021 3537.00 3680.30 83.91 7.00 115.20 2609.82
   03:03:32.400.28-May-2021 3537.00 3680.16 83.91 7.00 115.40 2609.82
   03:03:32.600.28-May-2021 3537.00 3680.40 83.91 7.00 115.60 2609.82
   03:03:32.800.28-May-2021 3537.00 3680.27 83.91 7.00 115.80 2609.82
   03:03:33.000.28-May-2021 3537.00 3680.26 83.91 7.00 116.00 2609.82
   03:03:33.200.28-May-2021 3537.00 3680.26 83.91 7.00 116.20 2609.82
   03:03:33.400.28-May-2021 3537.00 3680.33 83.91 7.00 116.40 2609.82
   03:03:33.600.28-May-2021 3537.00 3680.25 83.91 7.00 116.60 2609.82
   03:03:33.800.28-May-2021 3537.00 3680.26 83.91 7.00 116.80 2609.82
   03:03:34.000.28-May-2021 3537.00 3680.26 83.91 7.00 117.00 2609.82
   03:03:34.200.28-May-2021 3537.00 3680.26 83.91 7.00 117.20 2609.82
   03:03:34.400.28-May-2021 3537.00 3680.19 83.91 7.00 117.40 2609.82
   03:03:34.600.28-May-2021 3537.00 3680.26 83.91 7.00 117.60 2609.82
   03:03:34.800.28-May-2021 3537.00 3680.26 83.90 7.00 117.80 2609.82
   03:03:35.000.28-May-2021 3537.00 3680.25 83.90 7.00 118.00 2609.82
   03:03:35.200.28-May-2021 3537.00 3680.25 83.90 7.00 118.20 2609.82
   03:03:35.400.28-May-2021 3537.00 3680.33 83.90 7.00 118.40 2609.82
   03:03:35.600.28-May-2021 3537.00 3680.25 83.90 7.00 118.60 2609.82
   03:03:35.800.28-May-2021 3537.00 3680.28 83.90 7.00 118.80 2609.82
   03:03:36.000.28-May-2021 3537.00 3680.24 83.90 7.00 119.00 2609.82
   03:03:36.200.28-May-2021 3537.00 3680.24 83.90 7.00 119.20 2609.82
   03:03:36.400.28-May-2021 3537.00 3680.26 83.90 7.00 119.40 2609.82
   03:03:36.600.28-May-2021 3537.00 3680.27 83.90 7.00 119.60 2609.82
   03:03:36.800.28-May-2021 3537.00 3680.28 83.90 7.00 119.80 2609.82
   03:03:37.000.28-May-2021 3537.00 3680.28 83.90 7.00 120.00 2609.82
   03:03:37.200.28-May-2021 3537.00 3680.28 83.90 7.00 120.20 2609.82
   03:03:37.400.28-May-2021 3537.00 3680.29 83.90 7.00 120.40 2609.82
   03:03:37.600.28-May-2021 3537.00 3680.29 83.90 7.00 120.60 2609.82
   03:03:37.800.28-May-2021 3537.00 3680.21 83.90 7.00 120.80 2609.82
   03:03:38.000.28-May-2021 3537.00 3680.35 83.90 7.00 121.00 2609.82
   03:03:38.200.28-May-2021 3537.00 3680.35 83.90 7.00 121.20 2609.82
   03:03:38.400.28-May-2021 3537.00 3680.27 83.90 7.00 121.40 2609.82
   03:03:38.600.28-May-2021 3537.00 3680.25 83.90 7.00 121.60 2609.82
   03:03:38.800.28-May-2021 3537.00 3680.28 83.90 7.00 121.80 2609.82
   03:03:39.000.28-May-2021 3537.00 3680.27 83.90 7.00 122.00 2609.82
   03:03:39.200.28-May-2021 3537.00 3680.27 83.90 7.00 122.20 2609.82
   03:03:39.400.28-May-2021 3537.00 3680.29 83.90 7.00 122.40 2609.82
   03:03:39.600.28-May-2021 3537.00 3680.28 83.90 7.00 122.60 2609.82
   03:03:39.800.28-May-2021 3537.00 3680.28 83.90 7.00 122.80 2609.82
   03:03:40.000.28-May-2021 3537.00 3680.29 83.90 7.00 123.00 2609.82
   03:03:40.200.28-May-2021 3537.00 3680.29 83.90 7.00 123.20 2609.82
   03:03:40.400.28-May-2021 3537.00 3680.20 83.90 7.00 123.40 2609.82
   03:03:40.600.28-May-2021 3537.00 3680.35 83.90 7.00 123.60 2609.82
   03:03:40.800.28-May-2021 3537.00 3680.26 83.90 7.00 123.80 2609.82
   03:03:41.000.28-May-2021 3537.00 3680.28 83.90 7.00 124.00 2609.82
   03:03:41.200.28-May-2021 3537.00 3680.28 83.90 7.00 124.20 2609.82
   03:03:41.400.28-May-2021 3537.00 3680.34 83.90 7.00 124.40 2609.82
   03:03:41.600.28-May-2021 3537.00 3680.27 83.90 7.00 124.60 2609.82
   03:03:41.800.28-May-2021 3537.00 3680.28 83.90 7.00 124.80 2609.82
   03:03:42.000.28-May-2021 3537.00 3680.25 83.90 7.00 125.00 2609.82
   03:03:42.200.28-May-2021 3537.00 3680.25 83.90 7.00 125.20 2609.82
   03:03:42.400.28-May-2021 3537.00 3680.26 83.90 7.00 125.40 2609.82
   03:03:42.600.28-May-2021 3537.00 3680.25 83.90 7.00 125.60 2609.82
   03:03:42.800.28-May-2021 3537.00 3680.27 83.90 7.00 125.80 2609.82
   03:03:43.000.28-May-2021 3537.00 3680.27 83.90 7.00 126.00 2609.82
   03:03:43.200.28-May-2021 3537.00 3680.27 83.90 7.00 126.20 2609.82
   03:03:43.400.28-May-2021 3537.00 3680.21 83.90 7.00 126.40 2609.82
   03:03:43.600.28-May-2021 3537.00 3680.26 83.90 7.00 126.60 2609.82
   03:03:43.800.28-May-2021 3537.00 3680.27 83.90 7.00 126.80 2609.82
   03:03:44.000.28-May-2021 3537.00 3680.27 83.90 7.00 127.00 2609.82
   03:03:44.200.28-May-2021 3537.00 3680.27 83.90 7.00 127.20 2609.82
   03:03:44.400.28-May-2021 3537.00 3680.28 83.90 7.00 127.40 2609.82
   03:03:44.600.28-May-2021 3537.00 3680.27 83.90 7.00 127.60 2609.82
   03:03:44.800.28-May-2021 3537.00 3680.28 83.90 7.00 127.80 2609.82
   03:03:45.000.28-May-2021 3537.00 3680.28 83.90 7.00 128.00 2609.82
   03:03:45.200.28-May-2021 3537.00 3680.28 83.90 7.00 128.20 2609.82
   03:03:45.400.28-May-2021 3537.00 3680.28 83.90 7.00 128.40 2609.82
   03:03:45.600.28-May-2021 3537.00 3680.28 83.90 7.00 128.60 2609.82
   03:03:45.800.28-May-2021 3537.00 3680.21 83.90 7.00 128.80 2609.82
   03:03:46.000.28-May-2021 3537.00 3680.33 83.90 7.00 129.00 2609.82
   03:03:46.200.28-May-2021 3537.00 3680.33 83.90 7.00 129.20 2609.82
   03:03:46.400.28-May-2021 3537.00 3680.28 83.90 7.00 129.40 2609.82
   03:03:46.600.28-May-2021 3537.00 3680.26 83.90 7.00 129.60 2609.82
   03:03:46.800.28-May-2021 3537.00 3680.28 83.90 7.00 129.80 2609.82
   03:03:47.000.28-May-2021 3537.00 3680.27 83.90 7.00 130.00 2609.82
   03:03:47.200.28-May-2021 3537.00 3680.27 83.90 7.00 130.20 2609.82
   03:03:47.400.28-May-2021 3537.00 3680.29 83.90 7.00 130.40 2609.82
   03:03:47.600.28-May-2021 3537.00 3680.28 83.90 7.00 130.60 2609.82
   03:03:47.800.28-May-2021 3537.00 3680.28 83.90 7.00 130.80 2609.82
   03:03:48.000.28-May-2021 3537.00 3680.29 83.90 7.00 131.00 2609.82
   03:03:48.200.28-May-2021 3537.00 3680.29 83.90 7.00 131.20 2609.82
   03:03:48.400.28-May-2021 3537.00 3680.20 83.90 7.00 131.40 2609.82
   03:03:48.600.28-May-2021 3537.00 3680.35 83.90 7.00 131.60 2609.82
   03:03:48.800.28-May-2021 3537.00 3680.27 83.90 7.00 131.80 2609.82
   03:03:49.000.28-May-2021 3537.00 3680.27 83.90 7.00 132.00 2609.82
   03:03:49.200.28-May-2021 3537.00 3680.27 83.90 7.00 132.20 2609.82
   03:03:49.400.28-May-2021 3537.00 3680.21 83.90 7.00 132.40 2609.82
   03:03:49.600.28-May-2021 3537.00 3680.26 83.90 7.00 132.60 2609.82
   03:03:49.800.28-May-2021 3537.00 3680.27 83.90 7.00 132.80 2609.82
   03:03:50.000.28-May-2021 3537.00 3680.13 83.90 7.00 133.00 2609.82
   03:03:50.200.28-May-2021 3537.00 3680.13 83.90 7.00 133.20 2609.82
   03:03:50.400.28-May-2021 3537.00 3680.28 83.90 7.00 133.40 2609.82
   03:03:50.600.28-May-2021 3537.00 3680.26 83.89 7.00 133.60 2609.82
   03:03:50.800.28-May-2021 3537.00 3680.27 83.89 7.00 133.80 2609.82
   03:03:51.000.28-May-2021 3537.00 3680.27 83.89 7.00 134.00 2609.82
   03:03:51.200.28-May-2021 3537.00 3680.27 83.89 7.00 134.20 2609.82
   03:03:51.400.28-May-2021 3537.00 3680.26 83.89 7.00 134.40 2609.82
   03:03:51.600.28-May-2021 3537.00 3680.26 83.89 7.00 134.60 2609.82
   03:03:51.800.28-May-2021 3537.00 3680.27 83.89 7.00 134.80 2609.82
   03:03:52.000.28-May-2021 3537.00 3680.26 83.89 7.00 135.00 2609.82
   03:03:52.200.28-May-2021 3537.00 3680.26 83.89 7.00 135.20 2609.82
   03:03:52.400.28-May-2021 3537.00 3680.26 83.89 7.00 135.40 2609.82
   03:03:52.600.28-May-2021 3537.00 3680.27 83.89 7.00 135.60 2609.82
   03:03:52.800.28-May-2021 3537.00 3680.28 83.89 7.00 135.80 2609.82
   03:03:53.000.28-May-2021 3537.00 3680.26 83.89 7.00 136.00 2609.82
   03:03:53.200.28-May-2021 3537.00 3680.26 83.89 7.00 136.20 2609.82
   03:03:53.400.28-May-2021 3537.00 3680.27 83.89 7.00 136.40 2609.82
   03:03:53.600.28-May-2021 3537.00 3680.28 83.89 7.00 136.60 2609.82
   03:03:53.800.28-May-2021 3537.00 3680.32 83.89 7.00 136.80 2609.82
   03:03:54.000.28-May-2021 3537.00 3680.22 83.89 7.00 137.00 2609.82
   03:03:54.200.28-May-2021 3537.00 3680.22 83.89 7.00 137.20 2609.82
   03:03:54.400.28-May-2021 3537.00 3680.27 83.89 7.00 137.40 2609.82
   03:03:54.600.28-May-2021 3537.00 3680.26 83.89 7.00 137.60 2609.82
   03:03:54.800.28-May-2021 3537.00 3680.27 83.89 7.00 137.80 2609.82
