~Version Information
 VERS.                  2.0:   CWLS log ASCII Standard -VERSION 2.0
 WRAP.                   NO:   One line per depth step
~Well Information Block
#MNEM.UNIT     VALUE/NAME     DESCRIPTION
#---------     -----------    ---------------------------
 STRT.S             05:48:37 28-May-21: START TIME 05:48:37 28-May-21
 STOP.S             05:55:44 28-May-21: STOP TIME  05:55:44 28-May-21
 STEP.S                   0.00: STEP TIME
 NULL.                 -999.25: NULL VALUE
 UWI .                     N/A:  UNIQUE WELL IDENTIFIER
 API .                     N/A:  API NUMBER
 UNIT.                     N/A:  LOGGING EQUIPMENT ID
 DCON.         Sperry Drilling:  DIRECTNL CONTR
 DOE .                     N/A:  DOE NUMBER
 MWDS.                    Baku:  MWD SHOP
 SRVC.     Turan Drilling and Engineering:  CONTRACTOR
 CTRY.              Azerbaijan:  COUNTRY NAME
 PROV.                    Baku:  PROVINCE
 STAT.                    Baku:  STATE NAME
 REGN.                   EESSA:  REGION
 BASE.              Azerbaijan:  LOGGING EQUIPMENT BASE LOCATION
 WTYP.                Deviated:  WELL TYPE
 RIG .              East Azeri:  RIG NAME
 WELL.                    D02y:  WELL NAME
 FLD .                     ACG:  FIELD NAME
 COMP.     BP Exploration (Caspian Sea) Ltd.:  COMPANY
 PDAT.          Mean Sea Level:  PERMANENT DATUM
 MDS .        Operator Entered:  MAG DATA SOURCE
 SON .        AZ-XX-0906997291:  JOB NUMBER
 FTOP.          Formation Tops:  FORM TOPS DESC
 ILTD.               Lithology:  INTERP LTH DESC
 SVYD.                  Survey:  SURVEY DESC
 DMOD.             Drill Model:  DRILL MOD DESC
 HPTY.       Minimum Curvature:  HOLE POS TYPE
 NREF.                    Grid:  NORTH REFERENCE
 SPUD.               05-May-21:  SPUD DATE
 DATE.      09.27.28 12-Jun-21:  END TIME
 STIM.      09.27.28 12-May-21:  START TIME
 DMF .             Drill Floor:  DRILL MEAS FROM
 DFST.                        :  DIST FSL TEXT
 DFWT.                        :  DIST FWL TEXT
 CNTY.                        :  COUNTY
 LOC .                        :  LOCATION
 LMF .             Drill Floor:  LOG MEASURED FROM
 DEP .m                2806.40:  DEPTH
 AGAP.m                  43.60:  AIR GAP
 VSNS.m                  -4.42:  VERT SEC N/S
 VSEW.m                  -7.31:  VERT SEC E/W
 APD .m                  43.60:  DEPTH ABOVE PD
 WDMS.m                 151.80:  WD ELEV
 EGL .m                   0.00:  GROUND ELEVATION
 EPD .m                   0.00:  ELEVATION
 AZTC.deg                 6.18:  AZM TOTAL CORR
 GRDC.deg                 0.29:  GRID CORRECTION
 MDEC.deg                 6.47:  MAGNETIC DECL
 MDIP.deg                59.50:  MAGNETIC DIP
 MFLD.nT              50350.00:  MAGNETIC FIELD
 GVFD.g                   1.00:  GRAVITY FIELD
 VSDR.deg               179.08:  VERT SEC DIRECT
 TDD .m                4300.00:  TOTAL DEPTH (DRILLER)
 SDEP.m                2800.00:  START DEPTH
 DFSL.m                   0.00:  DISTANCE FSL
 DFWL.m                   0.00:  DISTANCE FWL
 UTMY.m             4431871.34:  UTM Y
 UTMX.m              538762.90:  UTM X
 WHEW.m                  -7.31:  WELL HEAD E/W
 WHNS.m                  -4.42:  WELL HEAD N/S
 LONG.deg                51.45:  LONGITUDE
 LATI.deg                40.02:  LATITUDE
 TVDS.m                  43.60:  TVDSS CORRECTN
 EKB .m                  43.60:  KB ELEVATION
 EDF .m                  43.60:  DF ELEVATION
 TDL .m                 806.00:  TOTAL DEPTH (LOGGER)
 MAGU.                 1851231:  MAGUTM CHECKSUM
 VSC .                       0:  VS TO CLOSURE
~Parameter Information Block
#MNEM.UNIT       Value        Description
#---------     -----------    ---------------------------
 AV  .mps                 1.60:  Ann Velocity 
 AVMX.mps                 2.00:  Max Ann Veloc 
 AZIF.deg               140.24:  Azm, Final 
 BHAT.        Rotary Steerable:  BHA Type 
 BROT.°/30m               0.50:  Build Rotating 
 BS  .in                  8.50:  Bit Size 
 BTPL.psig              619.00:  Bit Press Loss 
 CABU.                     Yes:  Customer Abuse 
 CGEO.          Ilgar Gurbanov:  Customer Geo 
 COMM.                     dAY:  Run Comments 1 
 TCS .hr                 85.88:  Time Ciculation Ended 
 CV  .mps                 3.30:  Crit Velocity 
 CVMX.mps                 3.50:  Max Crit Veloc 
 DD1 .           Hamid Axmedov:  Direct Drillr 1 
 DD2 .           Teymur Aliyev:  Direct Drillr 2 
 DDSV.               Geo-Pilot:  DD Service 
 DEFF.%                 100.00:  % Det Eff 
 DLRX.°/30m               0.00:  Dogleg Rot Max 
 DLSO.°/30m               1.80:  Dogleg Oriented 
 DLSX.°/30m               3.34:  Dogleg Str Max 
 DRET.      11.50.00 27-May-21:  Drill End Time 
 DRST.      21.13.00 24-May-21:  Drill Start Tim 
 DTIM.hr                 45.11:  Time Drilling 
 EDEP.m                4054.00:  End Depth 
 ENG1.         Almaz Almadatov:  Engineer 1 
 ENG2.           Amrah Tahirov:  Engineer 2 
 ENG3.      Bakhtiyar Jabbarli:  Engineer 3 
 ENG4.          Nazrin Asgarli:  Engineer 4 
 ETIM.      10.00.00 30-May-21:  End Time 
 FLOI.gpm               530.00:  Flow In 
 FLON.gpm               400.00:  Flow In Min 
 FLOS.cptm                0.00:  Fluid Loss 
 FLOX.gpm               560.00:  Flow In Max 
 DFT .        Mineral Oil Base:  Mud Type 
 FTRO.       Formation Presure:  FTWD Run Obj 
 HFLO.                      No:  High Flow 
 HPRE.                      No:  High Pressure 
 HTEM.                      No:  High Temp 
 HYDO.m                   1.80:  Hydro Offset 
 IFIN.deg                73.83:  Inc, Final 
 IMAX.deg                73.83:  Inc Max 
 IMIN.deg                57.86:  Inc Min 
 IMND.m                3259.27:  Inc Min Depth 
 IMXD.m                4045.58:  Inc Max Depth 
 JARR.                     Yes:  Jarring 
 LETM.      11.50.00 27-May-21:  Log End Time 
 LOST.hr                     0:  Lost Rig Time 
 LSTM.      21.13.00 24-May-21:  Log Start Time 
 MDCL.ppm             42500.00:  Mud Chlorides 
 MDES.     Inversion Oil/Synthetic:  Mud Desc 
 DFD .sg                  1.52:  Mud Density 
 MDMN.sg                  1.52:  Dens Mud Min 
 MDMX.sg                  1.52:  Dens Mud Max 
 MOIL.                      70:  Run Mud Oil % 
 MOWR.                   70:30:  Run Mud OWR 
 MSND.                     0.2:  Run Mud Sand % 
 MSOL.                      22:  Run Mud Solids% 
 DFV .spqt               77.00:  Mud Viscosity 
 MWOD.in                  6.75:  MWD Tool OD 
 MWSI.                      No:  Serv Intrp, MWD 
 OTIM.hr                151.01:  Time Operating 
 PCON.          Wear / Scratch:  Pad Condition 
 PMAX.psia            11296.93:  Press Op, Max 
 PV  .cP                 37.00:  Mud PV 
 RUN .                     500:  Run Number 
 ROPA.m/hr               25.00:  ROP Avg 
 ROPN.m/hr                9.00:  ROP Min 
 ROPX.m/hr               28.00:  ROP Max 
 RPMA.rpm               140.00:  RPM Surface Avg 
 RPMN.rpm                90.00:  RPM Surface Min 
 RPMX.rpm               140.00:  RPM Surface Max 
 RRUN.                    0500:  Rig Run Number 
 SAZI.deg               172.17:  Azm, Start 
 SDEP.m                3248.00:  Start Depth 
 SIDD.                      No:  Serv Intrp, DD 
 SINC.deg                57.86:  Inc, Start 
 SPPA.psig             5620.00:  SPP Avg 
 SPPN.psig             5190.00:  SPP Min 
 SPPX.psig             6050.00:  SPP Max 
 STIM.      16.00.00 23-May-21:  Start Time 
 SVCS.                 DD, MWD:  Services 
 SVER.                    9.20:  Sperry Version 
 TDAT.m                 806.00:  Tot Depth Attmp 
 TDDF.                      No:  Trip for DD 
 TDLG.m                 806.00:  Tot Depth Loggd 
 TFF .                      No:  Trip for Fail 
 TQAA.f-kp               12.00:  Torque Abs Avg 
 TQAN.f-kp                8.00:  Torque Abs Min 
 TQAX.f-kp               15.00:  Torque Abs Max 
 TRRT.°/30m               0.30:  Turn Rotating 
 MRT .                  EWR-M5:  Maximum Recorded Temperature 
 TTMX.degC               93.00:  Max Tool Temp 
 VS01.                90649155:  Virtual Str1 SN 
 VS02.                90642264:  Virtual Str2 SN 
 VS03.                90642266:  Virtual Str3 SN 
 VS04.                90642261:  Virtual Str4 SN 
 WBMN.klb                 0.00:  WOB Min 
 WITN.             Anar Khalil:  Customer Rep 
 WITN.           Murad Guliyev:  Customer Rep 2 
 WOBA.klb                13.00:  WOB Avg 
 WOBX.klb                25.00:  WOB Max 
 YP  .lhf2               32.00:  Yield Point 
~Curve Information Block
#MNEM.UNIT                 API CODE     Curve Description
#---------               -----------    ---------------------------
 TIME.HHMMSS            00 000 000 000:  GT Time & Date
 GTDEPTH.m              00 000 000 000:  GT Depth
 GTPQH.psia             00 000 000 000:  GT HR Quartz Pressure
 GTTQ.degC              00 000 000 000:  GT Quartz Temperature
 GTTN.NONE              00 000 000 000:  GT Test Number
 GTET.sec               00 000 000 000:  GT Elapsed Test Time
 GTTVD.m                00 000 000 000:  GT True Vertical Depth
#Other Information
#
#WARRANTY: Halliburton will use its best efforts to furnish customers with 
#accurate information and interpretations that are part of, and incident to, the services 
#provided.  However, Halliburton cannot and does not warrant the accuracy 
#or correctness of such information and interpretations.  Under no circumstances should any 
#such information or interpretation be relied upon as the sole basis for any drilling, 
#completion, production, or financial decision or any procedure involving any risk to the 
#safety of any drilling venture, drilling rig or its crew or any other third party.  The 
#Customer has full responsibility for all drilling, completion and production operation.  
#Halliburton makes no representations or warranties, either expressed or 
#implied, including, but not limited to, the implied warranties of merchantability or fitness 
#for a particular purpose, with respect to the services rendered.  In no event will 
#Halliburton be liable for failure to obtain any particular results or for 
#any damages, including, but not limited to, indirect, special or consequential damages, 
#resulting from the use of any information or interpretation provided by Halliburton.
#
~A           TIME           GTDEPTH  GTPQH  GTTQ  GTTN   GTET   GTTVD  
# ...
   05:54:39.529.28-May-2021 3439.00 5199.36 83.00 11.00 361.75 2568.67
   05:54:39.729.28-May-2021 3439.00 5199.63 83.00 11.00 361.95 2568.67
   05:54:39.929.28-May-2021 3439.00 5199.65 83.00 11.00 362.15 2568.67
   05:54:40.129.28-May-2021 3439.00 5199.65 83.00 11.00 362.35 2568.67
   05:54:40.330.28-May-2021 3439.00 5199.62 83.00 11.00 362.55 2568.67
   05:54:40.530.28-May-2021 3439.00 5199.64 83.00 11.00 362.75 2568.67
   05:54:40.730.28-May-2021 3439.00 5199.59 83.00 11.00 362.95 2568.67
   05:54:40.930.28-May-2021 3439.00 5199.61 83.00 11.00 363.15 2568.67
   05:54:41.130.28-May-2021 3439.00 5199.61 83.00 11.00 363.35 2568.67
   05:54:41.330.28-May-2021 3439.00 5199.56 83.00 11.00 363.55 2568.67
   05:54:41.530.28-May-2021 3439.00 5199.55 83.00 11.00 363.75 2568.67
   05:54:41.730.28-May-2021 3439.00 5199.50 83.00 11.00 363.95 2568.67
   05:54:41.930.28-May-2021 3439.00 5197.93 83.00 11.00 364.15 2568.67
   05:54:42.130.28-May-2021 3439.00 5197.93 83.00 11.00 364.35 2568.67
   05:54:42.330.28-May-2021 3439.00 5199.35 83.00 11.00 364.55 2568.67
   05:54:42.530.28-May-2021 3439.00 5199.40 83.00 11.00 364.75 2568.67
   05:54:42.731.28-May-2021 3439.00 5199.30 83.00 11.00 364.95 2568.67
   05:54:42.931.28-May-2021 3439.00 5199.34 83.00 11.00 365.15 2568.67
   05:54:43.131.28-May-2021 3439.00 5199.34 83.00 11.00 365.35 2568.67
   05:54:43.331.28-May-2021 3439.00 5199.29 83.00 11.00 365.55 2568.67
   05:54:43.531.28-May-2021 3439.00 5199.31 83.00 11.00 365.75 2568.67
   05:54:43.731.28-May-2021 3439.00 5199.27 83.00 11.00 365.95 2568.67
   05:54:43.931.28-May-2021 3439.00 5199.24 83.00 11.00 366.15 2568.67
   05:54:44.131.28-May-2021 3439.00 5199.24 83.00 11.00 366.35 2568.67
   05:54:44.331.28-May-2021 3439.00 5199.19 83.00 11.00 366.55 2568.67
   05:54:44.531.28-May-2021 3439.00 5199.17 83.00 11.00 366.75 2568.67
   05:54:44.731.28-May-2021 3439.00 5197.67 83.00 11.00 366.95 2568.67
   05:54:44.931.28-May-2021 3439.00 5199.03 83.00 11.00 367.15 2568.67
   05:54:45.132.28-May-2021 3439.00 5199.03 83.00 11.00 367.35 2568.67
   05:54:45.332.28-May-2021 3439.00 5197.95 83.00 11.00 367.55 2568.67
   05:54:45.532.28-May-2021 3439.00 5198.61 83.00 11.00 367.75 2568.67
   05:54:45.732.28-May-2021 3439.00 5198.90 83.00 11.00 367.95 2568.67
   05:54:45.932.28-May-2021 3439.00 5198.91 83.00 11.00 368.15 2568.67
   05:54:46.132.28-May-2021 3439.00 5198.91 83.00 11.00 368.35 2568.67
   05:54:46.332.28-May-2021 3439.00 5198.22 83.00 11.00 368.55 2568.67
   05:54:46.532.28-May-2021 3439.00 5198.01 83.00 11.00 368.75 2568.67
   05:54:46.732.28-May-2021 3439.00 5198.77 83.00 11.00 368.95 2568.67
   05:54:46.932.28-May-2021 3439.00 5198.70 83.00 11.00 369.15 2568.67
   05:54:47.132.28-May-2021 3439.00 5198.70 83.00 11.00 369.35 2568.67
   05:54:47.332.28-May-2021 3439.00 5198.65 83.00 11.00 369.55 2568.67
   05:54:47.533.28-May-2021 3439.00 5198.65 83.00 11.00 369.75 2568.67
   05:54:47.733.28-May-2021 3439.00 5198.60 83.00 11.00 369.95 2568.67
   05:54:47.933.28-May-2021 3439.00 5127.52 83.00 11.00 370.15 2568.67
   05:54:48.133.28-May-2021 3439.00 5127.52 83.00 11.00 370.35 2568.67
   05:54:48.333.28-May-2021 3439.00 5635.36 83.00 11.00 370.55 2568.67
   05:54:48.533.28-May-2021 3439.00 6012.03 83.00 11.00 370.75 2568.67
   05:54:48.733.28-May-2021 3439.00 6013.25 83.00 11.00 370.96 2568.67
   05:54:48.933.28-May-2021 3439.00 6012.48 83.00 11.00 371.16 2568.67
   05:54:49.133.28-May-2021 3439.00 6012.48 83.00 11.00 371.36 2568.67
   05:54:49.333.28-May-2021 3439.00 6011.94 83.00 11.00 371.56 2568.67
   05:54:49.533.28-May-2021 3439.00 6017.80 83.00 11.00 371.76 2568.67
   05:54:49.733.28-May-2021 3439.00 6011.36 83.00 11.00 371.96 2568.67
   05:54:49.934.28-May-2021 3439.00 6013.00 83.00 11.00 372.16 2568.67
   05:54:50.134.28-May-2021 3439.00 6013.00 83.00 11.00 372.36 2568.67
   05:54:50.334.28-May-2021 3439.00 6013.70 83.00 11.00 372.56 2568.67
   05:54:50.534.28-May-2021 3439.00 6012.88 83.00 11.00 372.76 2568.67
   05:54:50.734.28-May-2021 3439.00 6013.97 83.00 11.00 372.96 2568.67
   05:54:50.934.28-May-2021 3439.00 6013.78 83.01 11.00 373.16 2568.67
   05:54:51.134.28-May-2021 3439.00 6013.78 83.01 11.00 373.36 2568.67
   05:54:51.334.28-May-2021 3439.00 6013.81 83.01 11.00 373.56 2568.67
   05:54:51.534.28-May-2021 3439.00 6013.88 83.01 11.00 373.76 2568.67
   05:54:51.734.28-May-2021 3439.00 6014.02 83.01 11.00 373.96 2568.67
   05:54:51.934.28-May-2021 3439.00 6014.04 83.01 11.00 374.16 2568.67
   05:54:52.134.28-May-2021 3439.00 6014.04 83.01 11.00 374.36 2568.67
   05:54:52.335.28-May-2021 3439.00 6020.95 83.01 11.00 374.56 2568.67
   05:54:52.535.28-May-2021 3439.00 6010.86 83.01 11.00 374.76 2568.67
   05:54:52.735.28-May-2021 3439.00 6013.88 83.01 11.00 374.96 2568.67
   05:54:52.935.28-May-2021 3439.00 6013.65 83.01 11.00 375.16 2568.67
   05:54:53.135.28-May-2021 3439.00 6013.65 83.01 11.00 375.36 2568.67
   05:54:53.335.28-May-2021 3439.00 6013.77 83.01 11.00 375.56 2568.67
   05:54:53.535.28-May-2021 3439.00 6014.22 83.01 11.00 375.76 2568.67
   05:54:53.735.28-May-2021 3439.00 6014.60 83.01 11.00 375.96 2568.67
   05:54:53.935.28-May-2021 3439.00 6013.80 83.02 11.00 376.16 2568.67
   05:54:54.135.28-May-2021 3439.00 6013.80 83.02 11.00 376.36 2568.67
   05:54:54.335.28-May-2021 3439.00 6012.43 83.02 11.00 376.56 2568.67
   05:54:54.536.28-May-2021 3439.00 6014.42 83.02 11.00 376.76 2568.67
   05:54:54.736.28-May-2021 3439.00 6021.34 83.02 11.00 376.96 2568.67
   05:54:54.936.28-May-2021 3439.00 6011.25 83.02 11.00 377.16 2568.67
   05:54:55.136.28-May-2021 3439.00 6011.25 83.02 11.00 377.36 2568.67
   05:54:55.336.28-May-2021 3439.00 6014.04 83.02 11.00 377.56 2568.67
   05:54:55.536.28-May-2021 3439.00 6014.88 83.02 11.00 377.76 2568.67
   05:54:55.736.28-May-2021 3439.00 6013.96 83.02 11.00 377.96 2568.67
   05:54:55.936.28-May-2021 3439.00 6014.47 83.02 11.00 378.16 2568.67
   05:54:56.136.28-May-2021 3439.00 6014.47 83.02 11.00 378.36 2568.67
   05:54:56.336.28-May-2021 3439.00 6014.50 83.02 11.00 378.56 2568.67
   05:54:56.536.28-May-2021 3439.00 6014.45 83.02 11.00 378.76 2568.67
   05:54:56.736.28-May-2021 3439.00 6014.50 83.02 11.00 378.96 2568.67
   05:54:56.937.28-May-2021 3439.00 6014.21 83.02 11.00 379.16 2568.67
   05:54:57.137.28-May-2021 3439.00 6014.21 83.02 11.00 379.36 2568.67
   05:54:57.337.28-May-2021 3439.00 6019.79 83.02 11.00 379.56 2568.67
   05:54:57.537.28-May-2021 3439.00 6012.35 83.02 11.00 379.76 2568.67
   05:54:57.737.28-May-2021 3439.00 6014.30 83.02 11.00 379.96 2568.67
   05:54:57.937.28-May-2021 3439.00 6014.32 83.02 11.00 380.16 2568.67
   05:54:58.137.28-May-2021 3439.00 6014.32 83.02 11.00 380.36 2568.67
   05:54:58.337.28-May-2021 3439.00 6014.27 83.02 11.00 380.56 2568.67
   05:54:58.537.28-May-2021 3439.00 6014.39 83.02 11.00 380.76 2568.67
   05:54:58.737.28-May-2021 3439.00 6014.50 83.02 11.00 380.96 2568.67
   05:54:58.937.28-May-2021 3439.00 6014.62 83.02 11.00 381.16 2568.67
   05:54:59.137.28-May-2021 3439.00 6014.62 83.02 11.00 381.36 2568.67
   05:54:59.338.28-May-2021 3439.00 6014.56 83.02 11.00 381.56 2568.67
   05:54:59.538.28-May-2021 3439.00 6014.53 83.02 11.00 381.76 2568.67
   05:54:59.738.28-May-2021 3439.00 6014.26 83.02 11.00 381.96 2568.67
   05:54:59.938.28-May-2021 3439.00 6013.88 83.02 11.00 382.16 2568.67
   05:55:00.138.28-May-2021 3439.00 6013.88 83.02 11.00 382.36 2568.67
   05:55:00.338.28-May-2021 3439.00 6012.41 83.02 11.00 382.56 2568.67
   05:55:00.538.28-May-2021 3439.00 6014.20 83.02 11.00 382.76 2568.67
   05:55:00.738.28-May-2021 3439.00 6014.21 83.02 11.00 382.96 2568.67
   05:55:00.938.28-May-2021 3439.00 6021.39 83.02 11.00 383.16 2568.67
   05:55:01.138.28-May-2021 3439.00 6021.39 83.02 11.00 383.36 2568.67
   05:55:01.338.28-May-2021 3439.00 6014.49 83.03 11.00 383.56 2568.67
   05:55:01.538.28-May-2021 3439.00 6014.45 83.03 11.00 383.76 2568.67
   05:55:01.739.28-May-2021 3439.00 6014.53 83.03 11.00 383.96 2568.67
   05:55:01.939.28-May-2021 3439.00 6014.04 83.03 11.00 384.16 2568.67
