~Version Information
 VERS.                  2.0:   CWLS log ASCII Standard -VERSION 2.0
 WRAP.                   NO:   One line per depth step
~Well Information Block
#MNEM.UNIT     VALUE/NAME     DESCRIPTION
#---------     -----------    ---------------------------
 STRT.S             22:21:57 27-May-21: START TIME 22:21:57 27-May-21
 STOP.S             22:28:58 27-May-21: STOP TIME  22:28:58 27-May-21
 STEP.S                   0.00: STEP TIME
 NULL.                 -999.25: NULL VALUE
 UWI .                     N/A:  UNIQUE WELL IDENTIFIER
 API .                     N/A:  API NUMBER
 UNIT.                     N/A:  LOGGING EQUIPMENT ID
 DCON.         Sperry Drilling:  DIRECTNL CONTR
 DOE .                     N/A:  DOE NUMBER
 MWDS.                    Baku:  MWD SHOP
 SRVC.     Turan Drilling and Engineering:  CONTRACTOR
 CTRY.              Azerbaijan:  COUNTRY NAME
 PROV.                    Baku:  PROVINCE
 STAT.                    Baku:  STATE NAME
 REGN.                   EESSA:  REGION
 BASE.              Azerbaijan:  LOGGING EQUIPMENT BASE LOCATION
 WTYP.                Deviated:  WELL TYPE
 RIG .              East Azeri:  RIG NAME
 WELL.                    D02y:  WELL NAME
 FLD .                     ACG:  FIELD NAME
 COMP.     BP Exploration (Caspian Sea) Ltd.:  COMPANY
 PDAT.          Mean Sea Level:  PERMANENT DATUM
 MDS .        Operator Entered:  MAG DATA SOURCE
 SON .        AZ-XX-0906997291:  JOB NUMBER
 FTOP.          Formation Tops:  FORM TOPS DESC
 ILTD.               Lithology:  INTERP LTH DESC
 SVYD.                  Survey:  SURVEY DESC
 DMOD.             Drill Model:  DRILL MOD DESC
 HPTY.       Minimum Curvature:  HOLE POS TYPE
 NREF.                    Grid:  NORTH REFERENCE
 SPUD.               05-May-21:  SPUD DATE
 DATE.      09.27.28 12-Jun-21:  END TIME
 STIM.      09.27.28 12-May-21:  START TIME
 DMF .             Drill Floor:  DRILL MEAS FROM
 DFST.                        :  DIST FSL TEXT
 DFWT.                        :  DIST FWL TEXT
 CNTY.                        :  COUNTY
 LOC .                        :  LOCATION
 LMF .             Drill Floor:  LOG MEASURED FROM
 DEP .m                2806.40:  DEPTH
 AGAP.m                  43.60:  AIR GAP
 VSNS.m                  -4.42:  VERT SEC N/S
 VSEW.m                  -7.31:  VERT SEC E/W
 APD .m                  43.60:  DEPTH ABOVE PD
 WDMS.m                 151.80:  WD ELEV
 EGL .m                   0.00:  GROUND ELEVATION
 EPD .m                   0.00:  ELEVATION
 AZTC.deg                 6.18:  AZM TOTAL CORR
 GRDC.deg                 0.29:  GRID CORRECTION
 MDEC.deg                 6.47:  MAGNETIC DECL
 MDIP.deg                59.50:  MAGNETIC DIP
 MFLD.nT              50350.00:  MAGNETIC FIELD
 GVFD.g                   1.00:  GRAVITY FIELD
 VSDR.deg               179.08:  VERT SEC DIRECT
 TDD .m                4300.00:  TOTAL DEPTH (DRILLER)
 SDEP.m                2800.00:  START DEPTH
 DFSL.m                   0.00:  DISTANCE FSL
 DFWL.m                   0.00:  DISTANCE FWL
 UTMY.m             4431871.34:  UTM Y
 UTMX.m              538762.90:  UTM X
 WHEW.m                  -7.31:  WELL HEAD E/W
 WHNS.m                  -4.42:  WELL HEAD N/S
 LONG.deg                51.45:  LONGITUDE
 LATI.deg                40.02:  LATITUDE
 TVDS.m                  43.60:  TVDSS CORRECTN
 EKB .m                  43.60:  KB ELEVATION
 EDF .m                  43.60:  DF ELEVATION
 TDL .m                 806.00:  TOTAL DEPTH (LOGGER)
 MAGU.                 1851231:  MAGUTM CHECKSUM
 VSC .                       0:  VS TO CLOSURE
~Parameter Information Block
#MNEM.UNIT       Value        Description
#---------     -----------    ---------------------------
 AV  .mps                 1.60:  Ann Velocity 
 AVMX.mps                 2.00:  Max Ann Veloc 
 AZIF.deg               140.24:  Azm, Final 
 BHAT.        Rotary Steerable:  BHA Type 
 BROT.°/30m               0.50:  Build Rotating 
 BS  .in                  8.50:  Bit Size 
 BTPL.psig              619.00:  Bit Press Loss 
 CABU.                     Yes:  Customer Abuse 
 CGEO.          Ilgar Gurbanov:  Customer Geo 
 COMM.                     ¼ƒj:  Run Comments 1 
 TCS .hr                 85.88:  Time Ciculation Ended 
 CV  .mps                 3.30:  Crit Velocity 
 CVMX.mps                 3.50:  Max Crit Veloc 
 DD1 .           Hamid Axmedov:  Direct Drillr 1 
 DD2 .           Teymur Aliyev:  Direct Drillr 2 
 DDSV.               Geo-Pilot:  DD Service 
 DEFF.%                 100.00:  % Det Eff 
 DLRX.°/30m               0.00:  Dogleg Rot Max 
 DLSO.°/30m               1.80:  Dogleg Oriented 
 DLSX.°/30m               3.34:  Dogleg Str Max 
 DRET.      11.50.00 27-May-21:  Drill End Time 
 DRST.      21.13.00 24-May-21:  Drill Start Tim 
 DTIM.hr                 45.11:  Time Drilling 
 EDEP.m                4054.00:  End Depth 
 ENG1.         Almaz Almadatov:  Engineer 1 
 ENG2.           Amrah Tahirov:  Engineer 2 
 ENG3.      Bakhtiyar Jabbarli:  Engineer 3 
 ENG4.          Nazrin Asgarli:  Engineer 4 
 ETIM.      10.00.00 30-May-21:  End Time 
 FLOI.gpm               530.00:  Flow In 
 FLON.gpm               400.00:  Flow In Min 
 FLOS.cptm                0.00:  Fluid Loss 
 FLOX.gpm               560.00:  Flow In Max 
 DFT .        Mineral Oil Base:  Mud Type 
 FTRO.       Formation Presure:  FTWD Run Obj 
 HFLO.                      No:  High Flow 
 HPRE.                      No:  High Pressure 
 HTEM.                      No:  High Temp 
 HYDO.m                   1.80:  Hydro Offset 
 IFIN.deg                73.83:  Inc, Final 
 IMAX.deg                73.83:  Inc Max 
 IMIN.deg                57.86:  Inc Min 
 IMND.m                3259.27:  Inc Min Depth 
 IMXD.m                4045.58:  Inc Max Depth 
 JARR.                     Yes:  Jarring 
 LETM.      11.50.00 27-May-21:  Log End Time 
 LOST.hr                     0:  Lost Rig Time 
 LSTM.      21.13.00 24-May-21:  Log Start Time 
 MDCL.ppm             42500.00:  Mud Chlorides 
 MDES.     Inversion Oil/Synthetic:  Mud Desc 
 DFD .sg                  1.52:  Mud Density 
 MDMN.sg                  1.52:  Dens Mud Min 
 MDMX.sg                  1.52:  Dens Mud Max 
 MOIL.                      70:  Run Mud Oil % 
 MOWR.                   70:30:  Run Mud OWR 
 MSND.                     0.2:  Run Mud Sand % 
 MSOL.                      22:  Run Mud Solids% 
 DFV .spqt               77.00:  Mud Viscosity 
 MWOD.in                  6.75:  MWD Tool OD 
 MWSI.                      No:  Serv Intrp, MWD 
 OTIM.hr                151.01:  Time Operating 
 PCON.          Wear / Scratch:  Pad Condition 
 PMAX.psia            11296.93:  Press Op, Max 
 PV  .cP                 37.00:  Mud PV 
 RUN .                     500:  Run Number 
 ROPA.m/hr               25.00:  ROP Avg 
 ROPN.m/hr                9.00:  ROP Min 
 ROPX.m/hr               28.00:  ROP Max 
 RPMA.rpm               140.00:  RPM Surface Avg 
 RPMN.rpm                90.00:  RPM Surface Min 
 RPMX.rpm               140.00:  RPM Surface Max 
 RRUN.                    0500:  Rig Run Number 
 SAZI.deg               172.17:  Azm, Start 
 SDEP.m                3248.00:  Start Depth 
 SIDD.                      No:  Serv Intrp, DD 
 SINC.deg                57.86:  Inc, Start 
 SPPA.psig             5620.00:  SPP Avg 
 SPPN.psig             5190.00:  SPP Min 
 SPPX.psig             6050.00:  SPP Max 
 STIM.      16.00.00 23-May-21:  Start Time 
 SVCS.                 DD, MWD:  Services 
 SVER.                    9.20:  Sperry Version 
 TDAT.m                 806.00:  Tot Depth Attmp 
 TDDF.                      No:  Trip for DD 
 TDLG.m                 806.00:  Tot Depth Loggd 
 TFF .                      No:  Trip for Fail 
 TQAA.f-kp               12.00:  Torque Abs Avg 
 TQAN.f-kp                8.00:  Torque Abs Min 
 TQAX.f-kp               15.00:  Torque Abs Max 
 TRRT.°/30m               0.30:  Turn Rotating 
 MRT .                  EWR-M5:  Maximum Recorded Temperature 
 TTMX.degC               93.00:  Max Tool Temp 
 VS01.                90649155:  Virtual Str1 SN 
 VS02.                90642264:  Virtual Str2 SN 
 VS03.                90642266:  Virtual Str3 SN 
 VS04.                90642261:  Virtual Str4 SN 
 WBMN.klb                 0.00:  WOB Min 
 WITN.             Anar Khalil:  Customer Rep 
 WITN.           Murad Guliyev:  Customer Rep 2 
 WOBA.klb                13.00:  WOB Avg 
 WOBX.klb                25.00:  WOB Max 
 YP  .lhf2               32.00:  Yield Point 
~Curve Information Block
#MNEM.UNIT                 API CODE     Curve Description
#---------               -----------    ---------------------------
 TIME.HHMMSS            00 000 000 000:  GT Time & Date
 GTDEPTH.m              00 000 000 000:  GT Depth
 GTPQH.psia             00 000 000 000:  GT HR Quartz Pressure
 GTTQ.degC              00 000 000 000:  GT Quartz Temperature
 GTTN.NONE              00 000 000 000:  GT Test Number
 GTET.sec               00 000 000 000:  GT Elapsed Test Time
 GTTVD.m                00 000 000 000:  GT True Vertical Depth
#Other Information
#
#WARRANTY: Halliburton will use its best efforts to furnish customers with 
#accurate information and interpretations that are part of, and incident to, the services 
#provided.  However, Halliburton cannot and does not warrant the accuracy 
#or correctness of such information and interpretations.  Under no circumstances should any 
#such information or interpretation be relied upon as the sole basis for any drilling, 
#completion, production, or financial decision or any procedure involving any risk to the 
#safety of any drilling venture, drilling rig or its crew or any other third party.  The 
#Customer has full responsibility for all drilling, completion and production operation.  
#Halliburton makes no representations or warranties, either expressed or 
#implied, including, but not limited to, the implied warranties of merchantability or fitness 
#for a particular purpose, with respect to the services rendered.  In no event will 
#Halliburton be liable for failure to obtain any particular results or for 
#any damages, including, but not limited to, indirect, special or consequential damages, 
#resulting from the use of any information or interpretation provided by Halliburton.
#
~A           TIME           GTDEPTH  GTPQH  GTTQ  GTTN  GTET   GTTVD  
# ...
   22:26:10.746.27-May-2021 3723.00 3141.37 84.31 1.00 253.04 2680.40
   22:26:10.946.27-May-2021 3723.00 3141.37 84.31 1.00 253.24 2680.40
   22:26:11.146.27-May-2021 3723.00 3141.38 84.31 1.00 253.44 2680.40
   22:26:11.346.27-May-2021 3723.00 3141.37 84.31 1.00 253.64 2680.40
   22:26:11.546.27-May-2021 3723.00 3141.25 84.31 1.00 253.84 2680.40
   22:26:11.746.27-May-2021 3723.00 3141.49 84.31 1.00 254.04 2680.40
   22:26:11.946.27-May-2021 3723.00 3141.49 84.31 1.00 254.24 2680.40
   22:26:12.146.27-May-2021 3723.00 3141.38 84.31 1.00 254.44 2680.40
   22:26:12.346.27-May-2021 3723.00 3141.36 84.31 1.00 254.64 2680.40
   22:26:12.546.27-May-2021 3723.00 3141.37 84.31 1.00 254.84 2680.40
   22:26:12.746.27-May-2021 3723.00 3141.37 84.31 1.00 255.04 2680.40
   22:26:12.946.27-May-2021 3723.00 3141.37 84.31 1.00 255.24 2680.40
   22:26:13.146.27-May-2021 3723.00 3141.37 84.31 1.00 255.44 2680.40
   22:26:13.346.27-May-2021 3723.00 3141.36 84.31 1.00 255.64 2680.40
   22:26:13.546.27-May-2021 3723.00 3141.38 84.31 1.00 255.84 2680.40
   22:26:13.746.27-May-2021 3723.00 3141.36 84.31 1.00 256.04 2680.40
   22:26:13.946.27-May-2021 3723.00 3141.36 84.31 1.00 256.24 2680.40
   22:26:14.146.27-May-2021 3723.00 3141.25 84.31 1.00 256.44 2680.40
   22:26:14.346.27-May-2021 3723.00 3141.48 84.31 1.00 256.64 2680.40
   22:26:14.546.27-May-2021 3723.00 3141.36 84.31 1.00 256.84 2680.40
   22:26:14.746.27-May-2021 3723.00 3141.29 84.31 1.00 257.04 2680.40
   22:26:14.946.27-May-2021 3723.00 3141.29 84.31 1.00 257.24 2680.40
   22:26:15.146.27-May-2021 3723.00 3087.02 84.31 1.00 257.44 2680.40
   22:26:15.347.27-May-2021 3723.00 3082.40 84.31 1.00 257.64 2680.40
   22:26:15.547.27-May-2021 3723.00 3082.28 84.31 1.00 257.84 2680.40
   22:26:15.747.27-May-2021 3723.00 3082.32 84.31 1.00 258.04 2680.40
   22:26:15.947.27-May-2021 3723.00 3082.32 84.31 1.00 258.24 2680.40
   22:26:16.147.27-May-2021 3723.00 3082.70 84.31 1.00 258.44 2680.40
   22:26:16.347.27-May-2021 3723.00 3081.70 84.31 1.00 258.64 2680.40
   22:26:16.547.27-May-2021 3723.00 3081.63 84.31 1.00 258.84 2680.40
   22:26:16.747.27-May-2021 3723.00 3081.42 84.31 1.00 259.04 2680.40
   22:26:16.947.27-May-2021 3723.00 3081.42 84.31 1.00 259.24 2680.40
   22:26:17.147.27-May-2021 3723.00 3080.51 84.31 1.00 259.44 2680.40
   22:26:17.347.27-May-2021 3723.00 3081.44 84.31 1.00 259.64 2680.40
   22:26:17.547.27-May-2021 3723.00 3080.40 84.31 1.00 259.84 2680.40
   22:26:17.747.27-May-2021 3723.00 3080.63 84.31 1.00 260.04 2680.40
   22:26:17.947.27-May-2021 3723.00 3080.63 84.31 1.00 260.24 2680.40
   22:26:18.147.27-May-2021 3723.00 3080.70 84.31 1.00 260.44 2680.40
   22:26:18.347.27-May-2021 3723.00 3080.69 84.31 1.00 260.64 2680.40
   22:26:18.547.27-May-2021 3723.00 3081.07 84.31 1.00 260.84 2680.40
   22:26:18.747.27-May-2021 3723.00 3080.43 84.31 1.00 261.04 2680.40
   22:26:18.947.27-May-2021 3723.00 3080.43 84.31 1.00 261.24 2680.40
   22:26:19.147.27-May-2021 3723.00 3080.88 84.31 1.00 261.44 2680.40
   22:26:19.347.27-May-2021 3723.00 3080.12 84.31 1.00 261.64 2680.40
   22:26:19.547.27-May-2021 3723.00 3080.25 84.31 1.00 261.84 2680.40
   22:26:19.747.27-May-2021 3723.00 3080.19 84.31 1.00 262.04 2680.40
   22:26:19.947.27-May-2021 3723.00 3080.19 84.31 1.00 262.24 2680.40
   22:26:20.147.27-May-2021 3723.00 3080.90 84.31 1.00 262.44 2680.40
   22:26:20.347.27-May-2021 3723.00 3080.60 84.31 1.00 262.64 2680.40
   22:26:20.547.27-May-2021 3723.00 3081.13 84.31 1.00 262.84 2680.40
   22:26:20.747.27-May-2021 3723.00 3080.61 84.31 1.00 263.04 2680.40
   22:26:20.947.27-May-2021 3723.00 3080.61 84.31 1.00 263.24 2680.40
   22:26:21.147.27-May-2021 3723.00 3079.92 84.31 1.00 263.44 2680.40
   22:26:21.347.27-May-2021 3723.00 3080.36 84.31 1.00 263.64 2680.40
   22:26:21.548.27-May-2021 3723.00 3079.73 84.31 1.00 263.84 2680.40
   22:26:21.748.27-May-2021 3723.00 3078.94 84.31 1.00 264.04 2680.40
   22:26:21.948.27-May-2021 3723.00 3078.94 84.31 1.00 264.24 2680.40
   22:26:22.148.27-May-2021 3723.00 3079.26 84.31 1.00 264.44 2680.40
   22:26:22.348.27-May-2021 3723.00 3079.10 84.31 1.00 264.64 2680.40
   22:26:22.548.27-May-2021 3723.00 3079.70 84.31 1.00 264.84 2680.40
   22:26:22.748.27-May-2021 3723.00 3080.15 84.31 1.00 265.04 2680.40
   22:26:22.948.27-May-2021 3723.00 3080.15 84.31 1.00 265.24 2680.40
   22:26:23.148.27-May-2021 3723.00 3078.37 84.31 1.00 265.44 2680.40
   22:26:23.348.27-May-2021 3723.00 3079.07 84.31 1.00 265.64 2680.40
   22:26:23.548.27-May-2021 3723.00 3078.96 84.31 1.00 265.84 2680.40
   22:26:23.748.27-May-2021 3723.00 3078.94 84.31 1.00 266.04 2680.40
   22:26:23.948.27-May-2021 3723.00 3078.94 84.31 1.00 266.24 2680.40
   22:26:24.148.27-May-2021 3723.00 3079.60 84.31 1.00 266.44 2680.40
   22:26:24.348.27-May-2021 3723.00 3078.99 84.31 1.00 266.64 2680.40
   22:26:24.548.27-May-2021 3723.00 3078.89 84.31 1.00 266.84 2680.40
   22:26:24.748.27-May-2021 3723.00 3079.03 84.31 1.00 267.04 2680.40
   22:26:24.948.27-May-2021 3723.00 3079.03 84.31 1.00 267.24 2680.40
   22:26:25.148.27-May-2021 3723.00 3120.43 84.31 1.00 267.44 2680.40
   22:26:25.348.27-May-2021 3723.00 3139.99 84.31 1.00 267.64 2680.40
   22:26:25.548.27-May-2021 3723.00 3140.52 84.31 1.00 267.84 2680.40
   22:26:25.748.27-May-2021 3723.00 3140.57 84.31 1.00 268.04 2680.40
   22:26:25.948.27-May-2021 3723.00 3140.57 84.31 1.00 268.24 2680.40
   22:26:26.148.27-May-2021 3723.00 3140.69 84.31 1.00 268.44 2680.40
   22:26:26.348.27-May-2021 3723.00 3140.73 84.31 1.00 268.64 2680.40
   22:26:26.548.27-May-2021 3723.00 3140.78 84.31 1.00 268.84 2680.40
   22:26:26.748.27-May-2021 3723.00 3140.81 84.31 1.00 269.04 2680.40
   22:26:26.948.27-May-2021 3723.00 3140.81 84.31 1.00 269.24 2680.40
   22:26:27.148.27-May-2021 3723.00 3140.88 84.31 1.00 269.44 2680.40
   22:26:27.348.27-May-2021 3723.00 3140.90 84.31 1.00 269.64 2680.40
   22:26:27.549.27-May-2021 3723.00 3140.99 84.31 1.00 269.84 2680.40
   22:26:27.749.27-May-2021 3723.00 3141.02 84.31 1.00 270.04 2680.40
   22:26:27.949.27-May-2021 3723.00 3141.02 84.31 1.00 270.24 2680.40
   22:26:28.149.27-May-2021 3723.00 3141.07 84.31 1.00 270.44 2680.40
   22:26:28.349.27-May-2021 3723.00 3141.09 84.31 1.00 270.64 2680.40
   22:26:28.549.27-May-2021 3723.00 3141.08 84.31 1.00 270.84 2680.40
   22:26:28.749.27-May-2021 3723.00 3141.10 84.31 1.00 271.04 2680.40
   22:26:28.949.27-May-2021 3723.00 3141.10 84.31 1.00 271.24 2680.40
   22:26:29.149.27-May-2021 3723.00 3141.10 84.31 1.00 271.44 2680.40
   22:26:29.349.27-May-2021 3723.00 3141.12 84.31 1.00 271.64 2680.40
   22:26:29.549.27-May-2021 3723.00 3141.12 84.31 1.00 271.84 2680.40
   22:26:29.749.27-May-2021 3723.00 3141.13 84.31 1.00 272.04 2680.40
   22:26:29.949.27-May-2021 3723.00 3141.13 84.31 1.00 272.24 2680.40
   22:26:30.149.27-May-2021 3723.00 3141.17 84.31 1.00 272.44 2680.40
   22:26:30.349.27-May-2021 3723.00 3141.14 84.31 1.00 272.64 2680.40
   22:26:30.549.27-May-2021 3723.00 3141.17 84.31 1.00 272.84 2680.40
   22:26:30.749.27-May-2021 3723.00 3141.05 84.31 1.00 273.04 2680.40
   22:26:30.949.27-May-2021 3723.00 3141.05 84.31 1.00 273.24 2680.40
   22:26:31.149.27-May-2021 3723.00 3141.20 84.31 1.00 273.44 2680.40
   22:26:31.349.27-May-2021 3723.00 3141.08 84.31 1.00 273.64 2680.40
   22:26:31.549.27-May-2021 3723.00 3141.32 84.31 1.00 273.84 2680.40
   22:26:31.749.27-May-2021 3723.00 3141.20 84.31 1.00 274.04 2680.40
   22:26:31.949.27-May-2021 3723.00 3141.20 84.31 1.00 274.24 2680.40
   22:26:32.149.27-May-2021 3723.00 3141.20 84.31 1.00 274.44 2680.40
   22:26:32.349.27-May-2021 3723.00 3141.23 84.31 1.00 274.64 2680.40
   22:26:32.549.27-May-2021 3723.00 3141.20 84.31 1.00 274.84 2680.40
   22:26:32.749.27-May-2021 3723.00 3141.23 84.31 1.00 275.04 2680.40
   22:26:32.949.27-May-2021 3723.00 3141.23 84.31 1.00 275.24 2680.40
   22:26:33.149.27-May-2021 3723.00 3141.22 84.31 1.00 275.44 2680.40
   22:26:33.349.27-May-2021 3723.00 3141.22 84.31 1.00 275.64 2680.40
   22:26:33.549.27-May-2021 3723.00 3141.22 84.31 1.00 275.84 2680.40
