~Version Information
 VERS.                  2.0:   CWLS log ASCII Standard -VERSION 2.0
 WRAP.                   NO:   One line per depth step
~Well Information Block
#MNEM.UNIT     VALUE/NAME     DESCRIPTION
#---------     -----------    ---------------------------
 STRT.S             23:03:24 27-May-21: START TIME 23:03:24 27-May-21
 STOP.S             23:10:28 27-May-21: STOP TIME  23:10:28 27-May-21
 STEP.S                   0.00: STEP TIME
 NULL.                 -999.25: NULL VALUE
 UWI .                     N/A:  UNIQUE WELL IDENTIFIER
 API .                     N/A:  API NUMBER
 UNIT.                     N/A:  LOGGING EQUIPMENT ID
 DCON.         Sperry Drilling:  DIRECTNL CONTR
 DOE .                     N/A:  DOE NUMBER
 MWDS.                    Baku:  MWD SHOP
 SRVC.     Turan Drilling and Engineering:  CONTRACTOR
 CTRY.              Azerbaijan:  COUNTRY NAME
 PROV.                    Baku:  PROVINCE
 STAT.                    Baku:  STATE NAME
 REGN.                   EESSA:  REGION
 BASE.              Azerbaijan:  LOGGING EQUIPMENT BASE LOCATION
 WTYP.                Deviated:  WELL TYPE
 RIG .              East Azeri:  RIG NAME
 WELL.                    D02y:  WELL NAME
 FLD .                     ACG:  FIELD NAME
 COMP.     BP Exploration (Caspian Sea) Ltd.:  COMPANY
 PDAT.          Mean Sea Level:  PERMANENT DATUM
 MDS .        Operator Entered:  MAG DATA SOURCE
 SON .        AZ-XX-0906997291:  JOB NUMBER
 FTOP.          Formation Tops:  FORM TOPS DESC
 ILTD.               Lithology:  INTERP LTH DESC
 SVYD.                  Survey:  SURVEY DESC
 DMOD.             Drill Model:  DRILL MOD DESC
 HPTY.       Minimum Curvature:  HOLE POS TYPE
 NREF.                    Grid:  NORTH REFERENCE
 SPUD.               05-May-21:  SPUD DATE
 DATE.      09.27.28 12-Jun-21:  END TIME
 STIM.      09.27.28 12-May-21:  START TIME
 DMF .             Drill Floor:  DRILL MEAS FROM
 DFST.                        :  DIST FSL TEXT
 DFWT.                        :  DIST FWL TEXT
 CNTY.                        :  COUNTY
 LOC .                        :  LOCATION
 LMF .             Drill Floor:  LOG MEASURED FROM
 DEP .m                2806.40:  DEPTH
 AGAP.m                  43.60:  AIR GAP
 VSNS.m                  -4.42:  VERT SEC N/S
 VSEW.m                  -7.31:  VERT SEC E/W
 APD .m                  43.60:  DEPTH ABOVE PD
 WDMS.m                 151.80:  WD ELEV
 EGL .m                   0.00:  GROUND ELEVATION
 EPD .m                   0.00:  ELEVATION
 AZTC.deg                 6.18:  AZM TOTAL CORR
 GRDC.deg                 0.29:  GRID CORRECTION
 MDEC.deg                 6.47:  MAGNETIC DECL
 MDIP.deg                59.50:  MAGNETIC DIP
 MFLD.nT              50350.00:  MAGNETIC FIELD
 GVFD.g                   1.00:  GRAVITY FIELD
 VSDR.deg               179.08:  VERT SEC DIRECT
 TDD .m                4300.00:  TOTAL DEPTH (DRILLER)
 SDEP.m                2800.00:  START DEPTH
 DFSL.m                   0.00:  DISTANCE FSL
 DFWL.m                   0.00:  DISTANCE FWL
 UTMY.m             4431871.34:  UTM Y
 UTMX.m              538762.90:  UTM X
 WHEW.m                  -7.31:  WELL HEAD E/W
 WHNS.m                  -4.42:  WELL HEAD N/S
 LONG.deg                51.45:  LONGITUDE
 LATI.deg                40.02:  LATITUDE
 TVDS.m                  43.60:  TVDSS CORRECTN
 EKB .m                  43.60:  KB ELEVATION
 EDF .m                  43.60:  DF ELEVATION
 TDL .m                 806.00:  TOTAL DEPTH (LOGGER)
 MAGU.                 1851231:  MAGUTM CHECKSUM
 VSC .                       0:  VS TO CLOSURE
~Parameter Information Block
#MNEM.UNIT       Value        Description
#---------     -----------    ---------------------------
 AV  .mps                 1.60:  Ann Velocity 
 AVMX.mps                 2.00:  Max Ann Veloc 
 AZIF.deg               140.24:  Azm, Final 
 BHAT.        Rotary Steerable:  BHA Type 
 BROT.°/30m               0.50:  Build Rotating 
 BS  .in                  8.50:  Bit Size 
 BTPL.psig              619.00:  Bit Press Loss 
 CABU.                     Yes:  Customer Abuse 
 CGEO.          Ilgar Gurbanov:  Customer Geo 
 COMM.                     |¡U:  Run Comments 1 
 TCS .hr                 85.88:  Time Ciculation Ended 
 CV  .mps                 3.30:  Crit Velocity 
 CVMX.mps                 3.50:  Max Crit Veloc 
 DD1 .           Hamid Axmedov:  Direct Drillr 1 
 DD2 .           Teymur Aliyev:  Direct Drillr 2 
 DDSV.               Geo-Pilot:  DD Service 
 DEFF.%                 100.00:  % Det Eff 
 DLRX.°/30m               0.00:  Dogleg Rot Max 
 DLSO.°/30m               1.80:  Dogleg Oriented 
 DLSX.°/30m               3.34:  Dogleg Str Max 
 DRET.      11.50.00 27-May-21:  Drill End Time 
 DRST.      21.13.00 24-May-21:  Drill Start Tim 
 DTIM.hr                 45.11:  Time Drilling 
 EDEP.m                4054.00:  End Depth 
 ENG1.         Almaz Almadatov:  Engineer 1 
 ENG2.           Amrah Tahirov:  Engineer 2 
 ENG3.      Bakhtiyar Jabbarli:  Engineer 3 
 ENG4.          Nazrin Asgarli:  Engineer 4 
 ETIM.      10.00.00 30-May-21:  End Time 
 FLOI.gpm               530.00:  Flow In 
 FLON.gpm               400.00:  Flow In Min 
 FLOS.cptm                0.00:  Fluid Loss 
 FLOX.gpm               560.00:  Flow In Max 
 DFT .        Mineral Oil Base:  Mud Type 
 FTRO.       Formation Presure:  FTWD Run Obj 
 HFLO.                      No:  High Flow 
 HPRE.                      No:  High Pressure 
 HTEM.                      No:  High Temp 
 HYDO.m                   1.80:  Hydro Offset 
 IFIN.deg                73.83:  Inc, Final 
 IMAX.deg                73.83:  Inc Max 
 IMIN.deg                57.86:  Inc Min 
 IMND.m                3259.27:  Inc Min Depth 
 IMXD.m                4045.58:  Inc Max Depth 
 JARR.                     Yes:  Jarring 
 LETM.      11.50.00 27-May-21:  Log End Time 
 LOST.hr                     0:  Lost Rig Time 
 LSTM.      21.13.00 24-May-21:  Log Start Time 
 MDCL.ppm             42500.00:  Mud Chlorides 
 MDES.     Inversion Oil/Synthetic:  Mud Desc 
 DFD .sg                  1.52:  Mud Density 
 MDMN.sg                  1.52:  Dens Mud Min 
 MDMX.sg                  1.52:  Dens Mud Max 
 MOIL.                      70:  Run Mud Oil % 
 MOWR.                   70:30:  Run Mud OWR 
 MSND.                     0.2:  Run Mud Sand % 
 MSOL.                      22:  Run Mud Solids% 
 DFV .spqt               77.00:  Mud Viscosity 
 MWOD.in                  6.75:  MWD Tool OD 
 MWSI.                      No:  Serv Intrp, MWD 
 OTIM.hr                151.01:  Time Operating 
 PCON.          Wear / Scratch:  Pad Condition 
 PMAX.psia            11296.93:  Press Op, Max 
 PV  .cP                 37.00:  Mud PV 
 RUN .                     500:  Run Number 
 ROPA.m/hr               25.00:  ROP Avg 
 ROPN.m/hr                9.00:  ROP Min 
 ROPX.m/hr               28.00:  ROP Max 
 RPMA.rpm               140.00:  RPM Surface Avg 
 RPMN.rpm                90.00:  RPM Surface Min 
 RPMX.rpm               140.00:  RPM Surface Max 
 RRUN.                    0500:  Rig Run Number 
 SAZI.deg               172.17:  Azm, Start 
 SDEP.m                3248.00:  Start Depth 
 SIDD.                      No:  Serv Intrp, DD 
 SINC.deg                57.86:  Inc, Start 
 SPPA.psig             5620.00:  SPP Avg 
 SPPN.psig             5190.00:  SPP Min 
 SPPX.psig             6050.00:  SPP Max 
 STIM.      16.00.00 23-May-21:  Start Time 
 SVCS.                 DD, MWD:  Services 
 SVER.                    9.20:  Sperry Version 
 TDAT.m                 806.00:  Tot Depth Attmp 
 TDDF.                      No:  Trip for DD 
 TDLG.m                 806.00:  Tot Depth Loggd 
 TFF .                      No:  Trip for Fail 
 TQAA.f-kp               12.00:  Torque Abs Avg 
 TQAN.f-kp                8.00:  Torque Abs Min 
 TQAX.f-kp               15.00:  Torque Abs Max 
 TRRT.°/30m               0.30:  Turn Rotating 
 MRT .                  EWR-M5:  Maximum Recorded Temperature 
 TTMX.degC               93.00:  Max Tool Temp 
 VS01.                90649155:  Virtual Str1 SN 
 VS02.                90642264:  Virtual Str2 SN 
 VS03.                90642266:  Virtual Str3 SN 
 VS04.                90642261:  Virtual Str4 SN 
 WBMN.klb                 0.00:  WOB Min 
 WITN.             Anar Khalil:  Customer Rep 
 WITN.           Murad Guliyev:  Customer Rep 2 
 WOBA.klb                13.00:  WOB Avg 
 WOBX.klb                25.00:  WOB Max 
 YP  .lhf2               32.00:  Yield Point 
~Curve Information Block
#MNEM.UNIT                 API CODE     Curve Description
#---------               -----------    ---------------------------
 TIME.HHMMSS            00 000 000 000:  GT Time & Date
 GTDEPTH.m              00 000 000 000:  GT Depth
 GTPQH.psia             00 000 000 000:  GT HR Quartz Pressure
 GTTQ.degC              00 000 000 000:  GT Quartz Temperature
 GTTN.NONE              00 000 000 000:  GT Test Number
 GTET.sec               00 000 000 000:  GT Elapsed Test Time
 GTTVD.m                00 000 000 000:  GT True Vertical Depth
#Other Information
#
#WARRANTY: Halliburton will use its best efforts to furnish customers with 
#accurate information and interpretations that are part of, and incident to, the services 
#provided.  However, Halliburton cannot and does not warrant the accuracy 
#or correctness of such information and interpretations.  Under no circumstances should any 
#such information or interpretation be relied upon as the sole basis for any drilling, 
#completion, production, or financial decision or any procedure involving any risk to the 
#safety of any drilling venture, drilling rig or its crew or any other third party.  The 
#Customer has full responsibility for all drilling, completion and production operation.  
#Halliburton makes no representations or warranties, either expressed or 
#implied, including, but not limited to, the implied warranties of merchantability or fitness 
#for a particular purpose, with respect to the services rendered.  In no event will 
#Halliburton be liable for failure to obtain any particular results or for 
#any damages, including, but not limited to, indirect, special or consequential damages, 
#resulting from the use of any information or interpretation provided by Halliburton.
#
~A           TIME           GTDEPTH  GTPQH  GTTQ  GTTN  GTET   GTTVD  
# ...
   23:07:14.353.27-May-2021 3710.50 3139.55 84.61 2.00 230.09 2675.83
   23:07:14.554.27-May-2021 3710.50 3139.55 84.61 2.00 230.29 2675.83
   23:07:14.754.27-May-2021 3710.50 3139.47 84.61 2.00 230.49 2675.83
   23:07:14.954.27-May-2021 3710.50 3139.62 84.61 2.00 230.69 2675.83
   23:07:15.154.27-May-2021 3710.50 3139.54 84.61 2.00 230.89 2675.83
   23:07:15.354.27-May-2021 3710.50 3139.45 84.61 2.00 231.09 2675.83
   23:07:15.554.27-May-2021 3710.50 3139.45 84.61 2.00 231.29 2675.83
   23:07:15.754.27-May-2021 3710.50 3139.54 84.61 2.00 231.49 2675.83
   23:07:15.954.27-May-2021 3710.50 3139.55 84.61 2.00 231.69 2675.83
   23:07:16.154.27-May-2021 3710.50 3139.53 84.61 2.00 231.89 2675.83
   23:07:16.354.27-May-2021 3710.50 3139.46 84.61 2.00 232.09 2675.83
   23:07:16.554.27-May-2021 3710.50 3139.46 84.61 2.00 232.29 2675.83
   23:07:16.754.27-May-2021 3710.50 3139.54 84.61 2.00 232.49 2675.83
   23:07:16.954.27-May-2021 3710.50 3139.55 84.61 2.00 232.69 2675.83
   23:07:17.155.27-May-2021 3710.50 3139.53 84.61 2.00 232.89 2675.83
   23:07:17.355.27-May-2021 3710.50 3139.51 84.61 2.00 233.09 2675.83
   23:07:17.555.27-May-2021 3710.50 3139.51 84.61 2.00 233.29 2675.83
   23:07:17.755.27-May-2021 3710.50 3139.56 84.61 2.00 233.49 2675.83
   23:07:17.955.27-May-2021 3710.50 3139.53 84.61 2.00 233.69 2675.83
   23:07:18.155.27-May-2021 3710.50 3139.55 84.61 2.00 233.89 2675.83
   23:07:18.355.27-May-2021 3710.50 3139.54 84.61 2.00 234.09 2675.83
   23:07:18.555.27-May-2021 3710.50 3139.54 84.61 2.00 234.29 2675.83
   23:07:18.755.27-May-2021 3710.50 3139.54 84.61 2.00 234.49 2675.83
   23:07:18.955.27-May-2021 3710.50 3139.53 84.61 2.00 234.69 2675.83
   23:07:19.155.27-May-2021 3710.50 3139.54 84.61 2.00 234.89 2675.83
   23:07:19.355.27-May-2021 3710.50 3139.54 84.61 2.00 235.09 2675.83
   23:07:19.555.27-May-2021 3710.50 3139.54 84.61 2.00 235.29 2675.83
   23:07:19.756.27-May-2021 3710.50 3139.55 84.61 2.00 235.49 2675.83
   23:07:19.956.27-May-2021 3710.50 3139.52 84.61 2.00 235.69 2675.83
   23:07:20.156.27-May-2021 3710.50 3139.53 84.61 2.00 235.89 2675.83
   23:07:20.356.27-May-2021 3710.50 3139.56 84.61 2.00 236.09 2675.83
   23:07:20.556.27-May-2021 3710.50 3139.56 84.61 2.00 236.29 2675.83
   23:07:20.756.27-May-2021 3710.50 3139.54 84.61 2.00 236.49 2675.83
   23:07:20.956.27-May-2021 3710.50 3139.53 84.61 2.00 236.69 2675.83
   23:07:21.156.27-May-2021 3710.50 3139.54 84.61 2.00 236.89 2675.83
   23:07:21.356.27-May-2021 3710.50 3139.54 84.61 2.00 237.09 2675.83
   23:07:21.556.27-May-2021 3710.50 3139.54 84.61 2.00 237.29 2675.83
   23:07:21.756.27-May-2021 3710.50 3139.54 84.61 2.00 237.49 2675.83
   23:07:21.956.27-May-2021 3710.50 3139.53 84.61 2.00 237.69 2675.83
   23:07:22.157.27-May-2021 3710.50 3139.54 84.61 2.00 237.89 2675.83
   23:07:22.357.27-May-2021 3710.50 3139.54 84.61 2.00 238.09 2675.83
   23:07:22.557.27-May-2021 3710.50 3139.54 84.61 2.00 238.29 2675.83
   23:07:22.757.27-May-2021 3710.50 3139.54 84.61 2.00 238.49 2675.83
   23:07:22.957.27-May-2021 3710.50 3139.55 84.61 2.00 238.69 2675.83
   23:07:23.157.27-May-2021 3710.50 3139.52 84.61 2.00 238.89 2675.83
   23:07:23.357.27-May-2021 3710.50 3139.59 84.61 2.00 239.09 2675.83
   23:07:23.557.27-May-2021 3710.50 3139.59 84.61 2.00 239.29 2675.83
   23:07:23.757.27-May-2021 3710.50 3139.52 84.61 2.00 239.49 2675.83
   23:07:23.957.27-May-2021 3710.50 3139.54 84.61 2.00 239.69 2675.83
   23:07:24.157.27-May-2021 3710.50 3139.52 84.61 2.00 239.89 2675.83
   23:07:24.357.27-May-2021 3710.50 3139.53 84.61 2.00 240.09 2675.83
   23:07:24.557.27-May-2021 3710.50 3139.53 84.61 2.00 240.29 2675.83
   23:07:24.758.27-May-2021 3710.50 3139.52 84.61 2.00 240.49 2675.83
   23:07:24.958.27-May-2021 3710.50 3139.53 84.61 2.00 240.69 2675.83
   23:07:25.158.27-May-2021 3710.50 3139.54 84.61 2.00 240.89 2675.83
   23:07:25.358.27-May-2021 3710.50 3139.44 84.61 2.00 241.09 2675.83
   23:07:25.558.27-May-2021 3710.50 3139.44 84.61 2.00 241.29 2675.83
   23:07:25.758.27-May-2021 3710.50 3139.53 84.61 2.00 241.49 2675.83
   23:07:25.958.27-May-2021 3710.50 3139.55 84.61 2.00 241.69 2675.83
   23:07:26.158.27-May-2021 3710.50 3139.52 84.61 2.00 241.89 2675.83
   23:07:26.358.27-May-2021 3710.50 3139.53 84.61 2.00 242.09 2675.83
   23:07:26.558.27-May-2021 3710.50 3139.53 84.61 2.00 242.29 2675.83
   23:07:26.758.27-May-2021 3710.50 3139.54 84.61 2.00 242.49 2675.83
   23:07:26.958.27-May-2021 3710.50 3139.53 84.61 2.00 242.69 2675.83
   23:07:27.158.27-May-2021 3710.50 3139.53 84.61 2.00 242.90 2675.83
   23:07:27.359.27-May-2021 3710.50 3139.54 84.61 2.00 243.10 2675.83
   23:07:27.559.27-May-2021 3710.50 3139.54 84.61 2.00 243.30 2675.83
   23:07:27.759.27-May-2021 3710.50 3139.53 84.61 2.00 243.50 2675.83
   23:07:27.959.27-May-2021 3710.50 3139.44 84.61 2.00 243.70 2675.83
   23:07:28.159.27-May-2021 3710.50 3139.63 84.61 2.00 243.90 2675.83
   23:07:28.359.27-May-2021 3710.50 3139.53 84.61 2.00 244.10 2675.83
   23:07:28.559.27-May-2021 3710.50 3139.53 84.61 2.00 244.30 2675.83
   23:07:28.759.27-May-2021 3710.50 3139.53 84.61 2.00 244.50 2675.83
   23:07:28.959.27-May-2021 3710.50 3139.53 84.61 2.00 244.70 2675.83
   23:07:29.159.27-May-2021 3710.50 3139.53 84.61 2.00 244.90 2675.83
   23:07:29.359.27-May-2021 3710.50 3139.53 84.61 2.00 245.10 2675.83
   23:07:29.559.27-May-2021 3710.50 3139.53 84.61 2.00 245.30 2675.83
   23:07:29.759.27-May-2021 3710.50 3139.53 84.61 2.00 245.50 2675.83
   23:07:29.960.27-May-2021 3710.50 3139.54 84.61 2.00 245.70 2675.83
   23:07:30.160.27-May-2021 3710.50 3139.53 84.61 2.00 245.90 2675.83
   23:07:30.360.27-May-2021 3710.50 3139.53 84.61 2.00 246.10 2675.83
   23:07:30.560.27-May-2021 3710.50 3139.53 84.61 2.00 246.30 2675.83
   23:07:30.760.27-May-2021 3710.50 3139.62 84.61 2.00 246.50 2675.83
   23:07:30.960.27-May-2021 3710.50 3139.54 84.61 2.00 246.70 2675.83
   23:07:31.160.27-May-2021 3710.50 3139.40 84.61 2.00 246.90 2675.83
   23:07:31.360.27-May-2021 3710.50 3139.65 84.61 2.00 247.10 2675.83
   23:07:31.560.27-May-2021 3710.50 3139.65 84.61 2.00 247.30 2675.83
   23:07:31.760.27-May-2021 3710.50 3139.54 84.61 2.00 247.50 2675.83
   23:07:31.960.27-May-2021 3710.50 3139.53 84.61 2.00 247.70 2675.83
   23:07:32.160.27-May-2021 3710.50 3139.43 84.61 2.00 247.90 2675.83
   23:07:32.361.27-May-2021 3710.50 3139.61 84.61 2.00 248.10 2675.83
   23:07:32.561.27-May-2021 3710.50 3139.61 84.61 2.00 248.30 2675.83
   23:07:32.761.27-May-2021 3710.50 3139.55 84.61 2.00 248.50 2675.83
   23:07:32.961.27-May-2021 3710.50 3139.53 84.61 2.00 248.70 2675.83
   23:07:33.161.27-May-2021 3710.50 3139.52 84.61 2.00 248.90 2675.83
   23:07:33.361.27-May-2021 3710.50 3139.57 84.61 2.00 249.10 2675.83
   23:07:33.561.27-May-2021 3710.50 3139.57 84.61 2.00 249.30 2675.83
   23:07:33.761.27-May-2021 3710.50 3139.52 84.61 2.00 249.50 2675.83
   23:07:33.961.27-May-2021 3710.50 3139.53 84.61 2.00 249.70 2675.83
   23:07:34.161.27-May-2021 3710.50 3139.54 84.61 2.00 249.90 2675.83
   23:07:34.361.27-May-2021 3710.50 3139.52 84.61 2.00 250.10 2675.83
   23:07:34.561.27-May-2021 3710.50 3139.52 84.61 2.00 250.30 2675.83
   23:07:34.761.27-May-2021 3710.50 3139.53 84.61 2.00 250.50 2675.83
   23:07:34.962.27-May-2021 3710.50 3139.53 84.61 2.00 250.70 2675.83
   23:07:35.162.27-May-2021 3710.50 3139.53 84.61 2.00 250.90 2675.83
   23:07:35.362.27-May-2021 3710.50 3139.53 84.61 2.00 251.10 2675.83
   23:07:35.562.27-May-2021 3710.50 3139.53 84.61 2.00 251.30 2675.83
   23:07:35.762.27-May-2021 3710.50 3139.54 84.61 2.00 251.50 2675.83
   23:07:35.962.27-May-2021 3710.50 3139.55 84.61 2.00 251.70 2675.83
   23:07:36.162.27-May-2021 3710.50 3139.49 84.61 2.00 251.90 2675.83
   23:07:36.362.27-May-2021 3710.50 3139.53 84.61 2.00 252.10 2675.83
   23:07:36.562.27-May-2021 3710.50 3139.53 84.61 2.00 252.30 2675.83
   23:07:36.762.27-May-2021 3710.50 3139.54 84.61 2.00 252.50 2675.83
   23:07:36.962.27-May-2021 3710.50 3139.53 84.61 2.00 252.70 2675.83
   23:07:37.162.27-May-2021 3710.50 3139.53 84.61 2.00 252.90 2675.83
