~Version Information
 VERS.                  2.0:   CWLS log ASCII Standard -VERSION 2.0
 WRAP.                   NO:   One line per depth step
~Well Information Block
#MNEM.UNIT     VALUE/NAME     DESCRIPTION
#---------     -----------    ---------------------------
 STRT.S             07:37:51 28-May-21: START TIME 07:37:51 28-May-21
 STOP.S             07:44:58 28-May-21: STOP TIME  07:44:58 28-May-21
 STEP.S                   0.00: STEP TIME
 NULL.                 -999.25: NULL VALUE
 UWI .                     N/A:  UNIQUE WELL IDENTIFIER
 API .                     N/A:  API NUMBER
 UNIT.                     N/A:  LOGGING EQUIPMENT ID
 DCON.         Sperry Drilling:  DIRECTNL CONTR
 DOE .                     N/A:  DOE NUMBER
 MWDS.                    Baku:  MWD SHOP
 SRVC.     Turan Drilling and Engineering:  CONTRACTOR
 CTRY.              Azerbaijan:  COUNTRY NAME
 PROV.                    Baku:  PROVINCE
 STAT.                    Baku:  STATE NAME
 REGN.                   EESSA:  REGION
 BASE.              Azerbaijan:  LOGGING EQUIPMENT BASE LOCATION
 WTYP.                Deviated:  WELL TYPE
 RIG .              East Azeri:  RIG NAME
 WELL.                    D02y:  WELL NAME
 FLD .                     ACG:  FIELD NAME
 COMP.     BP Exploration (Caspian Sea) Ltd.:  COMPANY
 PDAT.          Mean Sea Level:  PERMANENT DATUM
 MDS .        Operator Entered:  MAG DATA SOURCE
 SON .        AZ-XX-0906997291:  JOB NUMBER
 FTOP.          Formation Tops:  FORM TOPS DESC
 ILTD.               Lithology:  INTERP LTH DESC
 SVYD.                  Survey:  SURVEY DESC
 DMOD.             Drill Model:  DRILL MOD DESC
 HPTY.       Minimum Curvature:  HOLE POS TYPE
 NREF.                    Grid:  NORTH REFERENCE
 SPUD.               05-May-21:  SPUD DATE
 DATE.      09.27.28 12-Jun-21:  END TIME
 STIM.      09.27.28 12-May-21:  START TIME
 DMF .             Drill Floor:  DRILL MEAS FROM
 DFST.                        :  DIST FSL TEXT
 DFWT.                        :  DIST FWL TEXT
 CNTY.                        :  COUNTY
 LOC .                        :  LOCATION
 LMF .             Drill Floor:  LOG MEASURED FROM
 DEP .m                2806.40:  DEPTH
 AGAP.m                  43.60:  AIR GAP
 VSNS.m                  -4.42:  VERT SEC N/S
 VSEW.m                  -7.31:  VERT SEC E/W
 APD .m                  43.60:  DEPTH ABOVE PD
 WDMS.m                 151.80:  WD ELEV
 EGL .m                   0.00:  GROUND ELEVATION
 EPD .m                   0.00:  ELEVATION
 AZTC.deg                 6.18:  AZM TOTAL CORR
 GRDC.deg                 0.29:  GRID CORRECTION
 MDEC.deg                 6.47:  MAGNETIC DECL
 MDIP.deg                59.50:  MAGNETIC DIP
 MFLD.nT              50350.00:  MAGNETIC FIELD
 GVFD.g                   1.00:  GRAVITY FIELD
 VSDR.deg               179.08:  VERT SEC DIRECT
 TDD .m                4300.00:  TOTAL DEPTH (DRILLER)
 SDEP.m                2800.00:  START DEPTH
 DFSL.m                   0.00:  DISTANCE FSL
 DFWL.m                   0.00:  DISTANCE FWL
 UTMY.m             4431871.34:  UTM Y
 UTMX.m              538762.90:  UTM X
 WHEW.m                  -7.31:  WELL HEAD E/W
 WHNS.m                  -4.42:  WELL HEAD N/S
 LONG.deg                51.45:  LONGITUDE
 LATI.deg                40.02:  LATITUDE
 TVDS.m                  43.60:  TVDSS CORRECTN
 EKB .m                  43.60:  KB ELEVATION
 EDF .m                  43.60:  DF ELEVATION
 TDL .m                 806.00:  TOTAL DEPTH (LOGGER)
 MAGU.                 1851231:  MAGUTM CHECKSUM
 VSC .                       0:  VS TO CLOSURE
~Parameter Information Block
#MNEM.UNIT       Value        Description
#---------     -----------    ---------------------------
 AV  .mps                 1.60:  Ann Velocity 
 AVMX.mps                 2.00:  Max Ann Veloc 
 AZIF.deg               140.24:  Azm, Final 
 BHAT.        Rotary Steerable:  BHA Type 
 BROT.°/30m               0.50:  Build Rotating 
 BS  .in                  8.50:  Bit Size 
 BTPL.psig              619.00:  Bit Press Loss 
 CABU.                     Yes:  Customer Abuse 
 CGEO.          Ilgar Gurbanov:  Customer Geo 
 COMM.                     dSc:  Run Comments 1 
 TCS .hr                 85.88:  Time Ciculation Ended 
 CV  .mps                 3.30:  Crit Velocity 
 CVMX.mps                 3.50:  Max Crit Veloc 
 DD1 .           Hamid Axmedov:  Direct Drillr 1 
 DD2 .           Teymur Aliyev:  Direct Drillr 2 
 DDSV.               Geo-Pilot:  DD Service 
 DEFF.%                 100.00:  % Det Eff 
 DLRX.°/30m               0.00:  Dogleg Rot Max 
 DLSO.°/30m               1.80:  Dogleg Oriented 
 DLSX.°/30m               3.34:  Dogleg Str Max 
 DRET.      11.50.00 27-May-21:  Drill End Time 
 DRST.      21.13.00 24-May-21:  Drill Start Tim 
 DTIM.hr                 45.11:  Time Drilling 
 EDEP.m                4054.00:  End Depth 
 ENG1.         Almaz Almadatov:  Engineer 1 
 ENG2.           Amrah Tahirov:  Engineer 2 
 ENG3.      Bakhtiyar Jabbarli:  Engineer 3 
 ENG4.          Nazrin Asgarli:  Engineer 4 
 ETIM.      10.00.00 30-May-21:  End Time 
 FLOI.gpm               530.00:  Flow In 
 FLON.gpm               400.00:  Flow In Min 
 FLOS.cptm                0.00:  Fluid Loss 
 FLOX.gpm               560.00:  Flow In Max 
 DFT .        Mineral Oil Base:  Mud Type 
 FTRO.       Formation Presure:  FTWD Run Obj 
 HFLO.                      No:  High Flow 
 HPRE.                      No:  High Pressure 
 HTEM.                      No:  High Temp 
 HYDO.m                   1.80:  Hydro Offset 
 IFIN.deg                73.83:  Inc, Final 
 IMAX.deg                73.83:  Inc Max 
 IMIN.deg                57.86:  Inc Min 
 IMND.m                3259.27:  Inc Min Depth 
 IMXD.m                4045.58:  Inc Max Depth 
 JARR.                     Yes:  Jarring 
 LETM.      11.50.00 27-May-21:  Log End Time 
 LOST.hr                     0:  Lost Rig Time 
 LSTM.      21.13.00 24-May-21:  Log Start Time 
 MDCL.ppm             42500.00:  Mud Chlorides 
 MDES.     Inversion Oil/Synthetic:  Mud Desc 
 DFD .sg                  1.52:  Mud Density 
 MDMN.sg                  1.52:  Dens Mud Min 
 MDMX.sg                  1.52:  Dens Mud Max 
 MOIL.                      70:  Run Mud Oil % 
 MOWR.                   70:30:  Run Mud OWR 
 MSND.                     0.2:  Run Mud Sand % 
 MSOL.                      22:  Run Mud Solids% 
 DFV .spqt               77.00:  Mud Viscosity 
 MWOD.in                  6.75:  MWD Tool OD 
 MWSI.                      No:  Serv Intrp, MWD 
 OTIM.hr                151.01:  Time Operating 
 PCON.          Wear / Scratch:  Pad Condition 
 PMAX.psia            11296.93:  Press Op, Max 
 PV  .cP                 37.00:  Mud PV 
 RUN .                     500:  Run Number 
 ROPA.m/hr               25.00:  ROP Avg 
 ROPN.m/hr                9.00:  ROP Min 
 ROPX.m/hr               28.00:  ROP Max 
 RPMA.rpm               140.00:  RPM Surface Avg 
 RPMN.rpm                90.00:  RPM Surface Min 
 RPMX.rpm               140.00:  RPM Surface Max 
 RRUN.                    0500:  Rig Run Number 
 SAZI.deg               172.17:  Azm, Start 
 SDEP.m                3248.00:  Start Depth 
 SIDD.                      No:  Serv Intrp, DD 
 SINC.deg                57.86:  Inc, Start 
 SPPA.psig             5620.00:  SPP Avg 
 SPPN.psig             5190.00:  SPP Min 
 SPPX.psig             6050.00:  SPP Max 
 STIM.      16.00.00 23-May-21:  Start Time 
 SVCS.                 DD, MWD:  Services 
 SVER.                    9.20:  Sperry Version 
 TDAT.m                 806.00:  Tot Depth Attmp 
 TDDF.                      No:  Trip for DD 
 TDLG.m                 806.00:  Tot Depth Loggd 
 TFF .                      No:  Trip for Fail 
 TQAA.f-kp               12.00:  Torque Abs Avg 
 TQAN.f-kp                8.00:  Torque Abs Min 
 TQAX.f-kp               15.00:  Torque Abs Max 
 TRRT.°/30m               0.30:  Turn Rotating 
 MRT .                  EWR-M5:  Maximum Recorded Temperature 
 TTMX.degC               93.00:  Max Tool Temp 
 VS01.                90649155:  Virtual Str1 SN 
 VS02.                90642264:  Virtual Str2 SN 
 VS03.                90642266:  Virtual Str3 SN 
 VS04.                90642261:  Virtual Str4 SN 
 WBMN.klb                 0.00:  WOB Min 
 WITN.             Anar Khalil:  Customer Rep 
 WITN.           Murad Guliyev:  Customer Rep 2 
 WOBA.klb                13.00:  WOB Avg 
 WOBX.klb                25.00:  WOB Max 
 YP  .lhf2               32.00:  Yield Point 
~Curve Information Block
#MNEM.UNIT                 API CODE     Curve Description
#---------               -----------    ---------------------------
 TIME.HHMMSS            00 000 000 000:  GT Time & Date
 GTDEPTH.m              00 000 000 000:  GT Depth
 GTPQH.psia             00 000 000 000:  GT HR Quartz Pressure
 GTTQ.degC              00 000 000 000:  GT Quartz Temperature
 GTTN.NONE              00 000 000 000:  GT Test Number
 GTET.sec               00 000 000 000:  GT Elapsed Test Time
 GTTVD.m                00 000 000 000:  GT True Vertical Depth
#Other Information
#
#WARRANTY: Halliburton will use its best efforts to furnish customers with 
#accurate information and interpretations that are part of, and incident to, the services 
#provided.  However, Halliburton cannot and does not warrant the accuracy 
#or correctness of such information and interpretations.  Under no circumstances should any 
#such information or interpretation be relied upon as the sole basis for any drilling, 
#completion, production, or financial decision or any procedure involving any risk to the 
#safety of any drilling venture, drilling rig or its crew or any other third party.  The 
#Customer has full responsibility for all drilling, completion and production operation.  
#Halliburton makes no representations or warranties, either expressed or 
#implied, including, but not limited to, the implied warranties of merchantability or fitness 
#for a particular purpose, with respect to the services rendered.  In no event will 
#Halliburton be liable for failure to obtain any particular results or for 
#any damages, including, but not limited to, indirect, special or consequential damages, 
#resulting from the use of any information or interpretation provided by Halliburton.
#
~A           TIME           GTDEPTH  GTPQH  GTTQ  GTTN   GTET   GTTVD  
# ...
   07:43:07.400.28-May-2021 3306.00 4530.04 81.93 13.00 316.40 2504.05
   07:43:07.600.28-May-2021 3306.00 4530.10 81.93 13.00 316.60 2504.05
   07:43:07.800.28-May-2021 3306.00 4530.12 81.93 13.00 316.80 2504.05
   07:43:08.000.28-May-2021 3306.00 4530.16 81.93 13.00 317.00 2504.05
   07:43:08.200.28-May-2021 3306.00 4530.16 81.93 13.00 317.20 2504.05
   07:43:08.400.28-May-2021 3306.00 4530.19 81.93 13.00 317.40 2504.05
   07:43:08.600.28-May-2021 3306.00 4530.22 81.93 13.00 317.60 2504.05
   07:43:08.800.28-May-2021 3306.00 4530.26 81.93 13.00 317.80 2504.05
   07:43:09.000.28-May-2021 3306.00 4530.28 81.93 13.00 318.00 2504.05
   07:43:09.200.28-May-2021 3306.00 4530.28 81.93 13.00 318.20 2504.05
   07:43:09.400.28-May-2021 3306.00 4530.47 81.93 13.00 318.40 2504.05
   07:43:09.600.28-May-2021 3306.00 4530.37 81.93 13.00 318.60 2504.05
   07:43:09.800.28-May-2021 3306.00 4530.41 81.93 13.00 318.80 2504.05
   07:43:10.000.28-May-2021 3306.00 4530.40 81.93 13.00 319.00 2504.05
   07:43:10.200.28-May-2021 3306.00 4530.40 81.93 13.00 319.20 2504.05
   07:43:10.400.28-May-2021 3306.00 4529.75 81.93 13.00 319.40 2504.05
   07:43:10.600.28-May-2021 3306.00 4530.47 81.93 13.00 319.60 2504.05
   07:43:10.800.28-May-2021 3306.00 4530.46 81.93 13.00 319.80 2504.05
   07:43:11.000.28-May-2021 3306.00 4529.43 81.93 13.00 320.00 2504.05
   07:43:11.200.28-May-2021 3306.00 4529.43 81.93 13.00 320.20 2504.05
   07:43:11.400.28-May-2021 3306.00 4530.61 81.93 13.00 320.40 2504.05
   07:43:11.600.28-May-2021 3306.00 4530.61 81.93 13.00 320.60 2504.05
   07:43:11.800.28-May-2021 3306.00 4530.70 81.93 13.00 320.80 2504.05
   07:43:12.000.28-May-2021 3306.00 4529.28 81.93 13.00 321.00 2504.05
   07:43:12.200.28-May-2021 3306.00 4529.28 81.93 13.00 321.20 2504.05
   07:43:12.400.28-May-2021 3306.00 4530.72 81.93 13.00 321.40 2504.05
   07:43:12.600.28-May-2021 3306.00 4530.81 81.93 13.00 321.60 2504.05
   07:43:12.800.28-May-2021 3306.00 4530.83 81.93 13.00 321.80 2504.05
   07:43:13.000.28-May-2021 3306.00 4530.88 81.93 13.00 322.00 2504.05
   07:43:13.200.28-May-2021 3306.00 4530.88 81.93 13.00 322.20 2504.05
   07:43:13.400.28-May-2021 3306.00 4530.93 81.93 13.00 322.40 2504.05
   07:43:13.600.28-May-2021 3306.00 4530.94 81.93 13.00 322.60 2504.05
   07:43:13.800.28-May-2021 3306.00 4530.99 81.93 13.00 322.80 2504.05
   07:43:14.000.28-May-2021 3306.00 4530.98 81.93 13.00 323.00 2504.05
   07:43:14.200.28-May-2021 3306.00 4530.98 81.93 13.00 323.20 2504.05
   07:43:14.400.28-May-2021 3306.00 4530.33 81.93 13.00 323.40 2504.05
   07:43:14.600.28-May-2021 3306.00 4530.33 81.93 13.00 323.60 2504.05
   07:43:14.800.28-May-2021 3306.00 4531.13 81.93 13.00 323.80 2504.05
   07:43:15.000.28-May-2021 3306.00 4531.09 81.93 13.00 324.00 2504.05
   07:43:15.200.28-May-2021 3306.00 4531.09 81.93 13.00 324.20 2504.05
   07:43:15.400.28-May-2021 3306.00 4531.19 81.93 13.00 324.40 2504.05
   07:43:15.600.28-May-2021 3306.00 4531.28 81.93 13.00 324.60 2504.05
   07:43:15.800.28-May-2021 3306.00 4531.28 81.93 13.00 324.80 2504.05
   07:43:16.000.28-May-2021 3306.00 4531.32 81.93 13.00 325.00 2504.05
   07:43:16.200.28-May-2021 3306.00 4531.32 81.93 13.00 325.20 2504.05
   07:43:16.400.28-May-2021 3306.00 4531.34 81.93 13.00 325.40 2504.05
   07:43:16.600.28-May-2021 3306.00 4531.37 81.93 13.00 325.60 2504.05
   07:43:16.800.28-May-2021 3306.00 4531.41 81.93 13.00 325.80 2504.05
   07:43:17.000.28-May-2021 3306.00 4531.42 81.93 13.00 326.00 2504.05
   07:43:17.200.28-May-2021 3306.00 4531.42 81.93 13.00 326.20 2504.05
   07:43:17.400.28-May-2021 3306.00 4531.61 81.93 13.00 326.40 2504.05
   07:43:17.600.28-May-2021 3306.00 4531.50 81.93 13.00 326.60 2504.05
   07:43:17.800.28-May-2021 3306.00 4531.56 81.93 13.00 326.80 2504.05
   07:43:18.000.28-May-2021 3306.00 4531.54 81.93 13.00 327.00 2504.05
   07:43:18.200.28-May-2021 3306.00 4531.54 81.93 13.00 327.20 2504.05
   07:43:18.400.28-May-2021 3306.00 4530.22 81.93 13.00 327.40 2504.05
   07:43:18.600.28-May-2021 3306.00 4531.59 81.93 13.00 327.60 2504.05
   07:43:18.800.28-May-2021 3306.00 4531.55 81.93 13.00 327.80 2504.05
   07:43:19.000.28-May-2021 3306.00 4531.00 81.93 13.00 328.00 2504.05
   07:43:19.200.28-May-2021 3306.00 4531.00 81.93 13.00 328.20 2504.05
   07:43:19.400.28-May-2021 3306.00 4531.71 81.93 13.00 328.40 2504.05
   07:43:19.600.28-May-2021 3306.00 4531.67 81.93 13.00 328.60 2504.05
   07:43:19.800.28-May-2021 3306.00 4531.85 81.93 13.00 328.80 2504.05
   07:43:20.000.28-May-2021 3306.00 4531.80 81.93 13.00 329.00 2504.05
   07:43:20.200.28-May-2021 3306.00 4531.80 81.93 13.00 329.20 2504.05
   07:43:20.400.28-May-2021 3306.00 4531.81 81.93 13.00 329.40 2504.05
   07:43:20.600.28-May-2021 3306.00 4531.86 81.93 13.00 329.60 2504.05
   07:43:20.800.28-May-2021 3306.00 4531.96 81.93 13.00 329.80 2504.05
   07:43:21.000.28-May-2021 3306.00 4531.95 81.93 13.00 330.00 2504.05
   07:43:21.200.28-May-2021 3306.00 4531.95 81.93 13.00 330.20 2504.05
   07:43:21.400.28-May-2021 3306.00 4532.04 81.93 13.00 330.40 2504.05
   07:43:21.600.28-May-2021 3306.00 4532.05 81.93 13.00 330.60 2504.05
   07:43:21.800.28-May-2021 3306.00 4532.08 81.93 13.00 330.80 2504.05
   07:43:22.000.28-May-2021 3306.00 4532.10 81.93 13.00 331.00 2504.05
   07:43:22.200.28-May-2021 3306.00 4532.10 81.93 13.00 331.20 2504.05
   07:43:22.400.28-May-2021 3306.00 4532.16 81.93 13.00 331.40 2504.05
   07:43:22.600.28-May-2021 3306.00 4531.46 81.93 13.00 331.60 2504.05
   07:43:22.800.28-May-2021 3306.00 4531.48 81.93 13.00 331.80 2504.05
   07:43:23.000.28-May-2021 3306.00 4532.27 81.93 13.00 332.00 2504.05
   07:43:23.200.28-May-2021 3306.00 4532.27 81.93 13.00 332.20 2504.05
   07:43:23.400.28-May-2021 3306.00 4532.36 81.93 13.00 332.40 2504.05
   07:43:23.600.28-May-2021 3306.00 4532.35 81.93 13.00 332.60 2504.05
   07:43:23.800.28-May-2021 3306.00 4532.38 81.93 13.00 332.80 2504.05
   07:43:24.000.28-May-2021 3306.00 4532.41 81.93 13.00 333.00 2504.05
   07:43:24.200.28-May-2021 3306.00 4532.41 81.93 13.00 333.20 2504.05
   07:43:24.400.28-May-2021 3306.00 4532.44 81.93 13.00 333.40 2504.05
   07:43:24.600.28-May-2021 3306.00 4532.45 81.93 13.00 333.60 2504.05
   07:43:24.800.28-May-2021 3306.00 4532.50 81.92 13.00 333.80 2504.05
   07:43:25.000.28-May-2021 3306.00 4532.52 81.92 13.00 334.00 2504.05
   07:43:25.200.28-May-2021 3306.00 4532.52 81.92 13.00 334.20 2504.05
   07:43:25.400.28-May-2021 3306.00 4530.92 81.92 13.00 334.40 2504.05
   07:43:25.600.28-May-2021 3306.00 4532.71 81.92 13.00 334.60 2504.05
   07:43:25.800.28-May-2021 3306.00 4532.59 81.92 13.00 334.80 2504.05
   07:43:26.000.28-May-2021 3306.00 4532.66 81.92 13.00 335.00 2504.05
   07:43:26.200.28-May-2021 3306.00 4532.66 81.92 13.00 335.20 2504.05
   07:43:26.400.28-May-2021 3306.00 4532.59 81.92 13.00 335.40 2504.05
   07:43:26.600.28-May-2021 3306.00 4531.34 81.92 13.00 335.60 2504.05
   07:43:26.800.28-May-2021 3306.00 4532.69 81.92 13.00 335.80 2504.05
   07:43:27.000.28-May-2021 3306.00 4532.66 81.92 13.00 336.00 2504.05
   07:43:27.200.28-May-2021 3306.00 4532.66 81.92 13.00 336.20 2504.05
   07:43:27.400.28-May-2021 3306.00 4531.40 81.92 13.00 336.40 2504.05
   07:43:27.600.28-May-2021 3306.00 4532.80 81.92 13.00 336.60 2504.05
   07:43:27.800.28-May-2021 3306.00 4532.76 81.92 13.00 336.80 2504.05
   07:43:28.000.28-May-2021 3306.00 4532.93 81.92 13.00 337.00 2504.05
   07:43:28.200.28-May-2021 3306.00 4532.93 81.92 13.00 337.20 2504.05
   07:43:28.400.28-May-2021 3306.00 4532.24 81.92 13.00 337.40 2504.05
   07:43:28.600.28-May-2021 3306.00 4532.22 81.92 13.00 337.60 2504.05
   07:43:28.800.28-May-2021 3306.00 4532.95 81.92 13.00 337.80 2504.05
   07:43:29.000.28-May-2021 3306.00 4532.96 81.92 13.00 338.00 2504.05
   07:43:29.200.28-May-2021 3306.00 4532.96 81.92 13.00 338.20 2504.05
   07:43:29.400.28-May-2021 3306.00 4533.10 81.92 13.00 338.40 2504.05
   07:43:29.600.28-May-2021 3306.00 4533.14 81.92 13.00 338.60 2504.05
   07:43:29.800.28-May-2021 3306.00 4533.14 81.92 13.00 338.80 2504.05
