~Version Information
 VERS.                  2.0:   CWLS log ASCII Standard -VERSION 2.0
 WRAP.                   NO:   One line per depth step
~Well Information Block
#MNEM.UNIT     VALUE/NAME     DESCRIPTION
#---------     -----------    ---------------------------
 STRT.S             05:31:02 28-May-21: START TIME 05:31:02 28-May-21
 STOP.S             05:38:03 28-May-21: STOP TIME  05:38:03 28-May-21
 STEP.S                   0.00: STEP TIME
 NULL.                 -999.25: NULL VALUE
 UWI .                     N/A:  UNIQUE WELL IDENTIFIER
 API .                     N/A:  API NUMBER
 UNIT.                     N/A:  LOGGING EQUIPMENT ID
 DCON.         Sperry Drilling:  DIRECTNL CONTR
 DOE .                     N/A:  DOE NUMBER
 MWDS.                    Baku:  MWD SHOP
 SRVC.     Turan Drilling and Engineering:  CONTRACTOR
 CTRY.              Azerbaijan:  COUNTRY NAME
 PROV.                    Baku:  PROVINCE
 STAT.                    Baku:  STATE NAME
 REGN.                   EESSA:  REGION
 BASE.              Azerbaijan:  LOGGING EQUIPMENT BASE LOCATION
 WTYP.                Deviated:  WELL TYPE
 RIG .              East Azeri:  RIG NAME
 WELL.                    D02y:  WELL NAME
 FLD .                     ACG:  FIELD NAME
 COMP.     BP Exploration (Caspian Sea) Ltd.:  COMPANY
 PDAT.          Mean Sea Level:  PERMANENT DATUM
 MDS .        Operator Entered:  MAG DATA SOURCE
 SON .        AZ-XX-0906997291:  JOB NUMBER
 FTOP.          Formation Tops:  FORM TOPS DESC
 ILTD.               Lithology:  INTERP LTH DESC
 SVYD.                  Survey:  SURVEY DESC
 DMOD.             Drill Model:  DRILL MOD DESC
 HPTY.       Minimum Curvature:  HOLE POS TYPE
 NREF.                    Grid:  NORTH REFERENCE
 SPUD.               05-May-21:  SPUD DATE
 DATE.      09.27.28 12-Jun-21:  END TIME
 STIM.      09.27.28 12-May-21:  START TIME
 DMF .             Drill Floor:  DRILL MEAS FROM
 DFST.                        :  DIST FSL TEXT
 DFWT.                        :  DIST FWL TEXT
 CNTY.                        :  COUNTY
 LOC .                        :  LOCATION
 LMF .             Drill Floor:  LOG MEASURED FROM
 DEP .m                2806.40:  DEPTH
 AGAP.m                  43.60:  AIR GAP
 VSNS.m                  -4.42:  VERT SEC N/S
 VSEW.m                  -7.31:  VERT SEC E/W
 APD .m                  43.60:  DEPTH ABOVE PD
 WDMS.m                 151.80:  WD ELEV
 EGL .m                   0.00:  GROUND ELEVATION
 EPD .m                   0.00:  ELEVATION
 AZTC.deg                 6.18:  AZM TOTAL CORR
 GRDC.deg                 0.29:  GRID CORRECTION
 MDEC.deg                 6.47:  MAGNETIC DECL
 MDIP.deg                59.50:  MAGNETIC DIP
 MFLD.nT              50350.00:  MAGNETIC FIELD
 GVFD.g                   1.00:  GRAVITY FIELD
 VSDR.deg               179.08:  VERT SEC DIRECT
 TDD .m                4300.00:  TOTAL DEPTH (DRILLER)
 SDEP.m                2800.00:  START DEPTH
 DFSL.m                   0.00:  DISTANCE FSL
 DFWL.m                   0.00:  DISTANCE FWL
 UTMY.m             4431871.34:  UTM Y
 UTMX.m              538762.90:  UTM X
 WHEW.m                  -7.31:  WELL HEAD E/W
 WHNS.m                  -4.42:  WELL HEAD N/S
 LONG.deg                51.45:  LONGITUDE
 LATI.deg                40.02:  LATITUDE
 TVDS.m                  43.60:  TVDSS CORRECTN
 EKB .m                  43.60:  KB ELEVATION
 EDF .m                  43.60:  DF ELEVATION
 TDL .m                 806.00:  TOTAL DEPTH (LOGGER)
 MAGU.                 1851231:  MAGUTM CHECKSUM
 VSC .                       0:  VS TO CLOSURE
~Parameter Information Block
#MNEM.UNIT       Value        Description
#---------     -----------    ---------------------------
 AV  .mps                 1.60:  Ann Velocity 
 AVMX.mps                 2.00:  Max Ann Veloc 
 AZIF.deg               140.24:  Azm, Final 
 BHAT.        Rotary Steerable:  BHA Type 
 BROT.°/30m               0.50:  Build Rotating 
 BS  .in                  8.50:  Bit Size 
 BTPL.psig              619.00:  Bit Press Loss 
 CABU.                     Yes:  Customer Abuse 
 CGEO.          Ilgar Gurbanov:  Customer Geo 
 COMM.                     LMh:  Run Comments 1 
 TCS .hr                 85.88:  Time Ciculation Ended 
 CV  .mps                 3.30:  Crit Velocity 
 CVMX.mps                 3.50:  Max Crit Veloc 
 DD1 .           Hamid Axmedov:  Direct Drillr 1 
 DD2 .           Teymur Aliyev:  Direct Drillr 2 
 DDSV.               Geo-Pilot:  DD Service 
 DEFF.%                 100.00:  % Det Eff 
 DLRX.°/30m               0.00:  Dogleg Rot Max 
 DLSO.°/30m               1.80:  Dogleg Oriented 
 DLSX.°/30m               3.34:  Dogleg Str Max 
 DRET.      11.50.00 27-May-21:  Drill End Time 
 DRST.      21.13.00 24-May-21:  Drill Start Tim 
 DTIM.hr                 45.11:  Time Drilling 
 EDEP.m                4054.00:  End Depth 
 ENG1.         Almaz Almadatov:  Engineer 1 
 ENG2.           Amrah Tahirov:  Engineer 2 
 ENG3.      Bakhtiyar Jabbarli:  Engineer 3 
 ENG4.          Nazrin Asgarli:  Engineer 4 
 ETIM.      10.00.00 30-May-21:  End Time 
 FLOI.gpm               530.00:  Flow In 
 FLON.gpm               400.00:  Flow In Min 
 FLOS.cptm                0.00:  Fluid Loss 
 FLOX.gpm               560.00:  Flow In Max 
 DFT .        Mineral Oil Base:  Mud Type 
 FTRO.       Formation Presure:  FTWD Run Obj 
 HFLO.                      No:  High Flow 
 HPRE.                      No:  High Pressure 
 HTEM.                      No:  High Temp 
 HYDO.m                   1.80:  Hydro Offset 
 IFIN.deg                73.83:  Inc, Final 
 IMAX.deg                73.83:  Inc Max 
 IMIN.deg                57.86:  Inc Min 
 IMND.m                3259.27:  Inc Min Depth 
 IMXD.m                4045.58:  Inc Max Depth 
 JARR.                     Yes:  Jarring 
 LETM.      11.50.00 27-May-21:  Log End Time 
 LOST.hr                     0:  Lost Rig Time 
 LSTM.      21.13.00 24-May-21:  Log Start Time 
 MDCL.ppm             42500.00:  Mud Chlorides 
 MDES.     Inversion Oil/Synthetic:  Mud Desc 
 DFD .sg                  1.52:  Mud Density 
 MDMN.sg                  1.52:  Dens Mud Min 
 MDMX.sg                  1.52:  Dens Mud Max 
 MOIL.                      70:  Run Mud Oil % 
 MOWR.                   70:30:  Run Mud OWR 
 MSND.                     0.2:  Run Mud Sand % 
 MSOL.                      22:  Run Mud Solids% 
 DFV .spqt               77.00:  Mud Viscosity 
 MWOD.in                  6.75:  MWD Tool OD 
 MWSI.                      No:  Serv Intrp, MWD 
 OTIM.hr                151.01:  Time Operating 
 PCON.          Wear / Scratch:  Pad Condition 
 PMAX.psia            11296.93:  Press Op, Max 
 PV  .cP                 37.00:  Mud PV 
 RUN .                     500:  Run Number 
 ROPA.m/hr               25.00:  ROP Avg 
 ROPN.m/hr                9.00:  ROP Min 
 ROPX.m/hr               28.00:  ROP Max 
 RPMA.rpm               140.00:  RPM Surface Avg 
 RPMN.rpm                90.00:  RPM Surface Min 
 RPMX.rpm               140.00:  RPM Surface Max 
 RRUN.                    0500:  Rig Run Number 
 SAZI.deg               172.17:  Azm, Start 
 SDEP.m                3248.00:  Start Depth 
 SIDD.                      No:  Serv Intrp, DD 
 SINC.deg                57.86:  Inc, Start 
 SPPA.psig             5620.00:  SPP Avg 
 SPPN.psig             5190.00:  SPP Min 
 SPPX.psig             6050.00:  SPP Max 
 STIM.      16.00.00 23-May-21:  Start Time 
 SVCS.                 DD, MWD:  Services 
 SVER.                    9.20:  Sperry Version 
 TDAT.m                 806.00:  Tot Depth Attmp 
 TDDF.                      No:  Trip for DD 
 TDLG.m                 806.00:  Tot Depth Loggd 
 TFF .                      No:  Trip for Fail 
 TQAA.f-kp               12.00:  Torque Abs Avg 
 TQAN.f-kp                8.00:  Torque Abs Min 
 TQAX.f-kp               15.00:  Torque Abs Max 
 TRRT.°/30m               0.30:  Turn Rotating 
 MRT .                  EWR-M5:  Maximum Recorded Temperature 
 TTMX.degC               93.00:  Max Tool Temp 
 VS01.                90649155:  Virtual Str1 SN 
 VS02.                90642264:  Virtual Str2 SN 
 VS03.                90642266:  Virtual Str3 SN 
 VS04.                90642261:  Virtual Str4 SN 
 WBMN.klb                 0.00:  WOB Min 
 WITN.             Anar Khalil:  Customer Rep 
 WITN.           Murad Guliyev:  Customer Rep 2 
 WOBA.klb                13.00:  WOB Avg 
 WOBX.klb                25.00:  WOB Max 
 YP  .lhf2               32.00:  Yield Point 
~Curve Information Block
#MNEM.UNIT                 API CODE     Curve Description
#---------               -----------    ---------------------------
 TIME.HHMMSS            00 000 000 000:  GT Time & Date
 GTDEPTH.m              00 000 000 000:  GT Depth
 GTPQH.psia             00 000 000 000:  GT HR Quartz Pressure
 GTTQ.degC              00 000 000 000:  GT Quartz Temperature
 GTTN.NONE              00 000 000 000:  GT Test Number
 GTET.sec               00 000 000 000:  GT Elapsed Test Time
 GTTVD.m                00 000 000 000:  GT True Vertical Depth
#Other Information
#
#WARRANTY: Halliburton will use its best efforts to furnish customers with 
#accurate information and interpretations that are part of, and incident to, the services 
#provided.  However, Halliburton cannot and does not warrant the accuracy 
#or correctness of such information and interpretations.  Under no circumstances should any 
#such information or interpretation be relied upon as the sole basis for any drilling, 
#completion, production, or financial decision or any procedure involving any risk to the 
#safety of any drilling venture, drilling rig or its crew or any other third party.  The 
#Customer has full responsibility for all drilling, completion and production operation.  
#Halliburton makes no representations or warranties, either expressed or 
#implied, including, but not limited to, the implied warranties of merchantability or fitness 
#for a particular purpose, with respect to the services rendered.  In no event will 
#Halliburton be liable for failure to obtain any particular results or for 
#any damages, including, but not limited to, indirect, special or consequential damages, 
#resulting from the use of any information or interpretation provided by Halliburton.
#
~A           TIME           GTDEPTH  GTPQH  GTTQ  GTTN   GTET   GTTVD  
# ...
   05:37:04.088.28-May-2021 3456.50 4230.70 82.92 10.00 361.75 2576.46
   05:37:04.288.28-May-2021 3456.50 4230.83 82.92 10.00 361.95 2576.46
   05:37:04.488.28-May-2021 3456.50 4230.76 82.92 10.00 362.15 2576.46
   05:37:04.688.28-May-2021 3456.50 4230.76 82.92 10.00 362.35 2576.46
   05:37:04.888.28-May-2021 3456.50 4230.94 82.92 10.00 362.55 2576.46
   05:37:05.089.28-May-2021 3456.50 4230.76 82.92 10.00 362.75 2576.46
   05:37:05.289.28-May-2021 3456.50 4230.77 82.92 10.00 362.95 2576.46
   05:37:05.489.28-May-2021 3456.50 4230.76 82.92 10.00 363.15 2576.46
   05:37:05.689.28-May-2021 3456.50 4230.76 82.92 10.00 363.35 2576.46
   05:37:05.889.28-May-2021 3456.50 4230.89 82.92 10.00 363.55 2576.46
   05:37:06.089.28-May-2021 3456.50 4230.76 82.92 10.00 363.75 2576.46
   05:37:06.289.28-May-2021 3456.50 4230.04 82.92 10.00 363.95 2576.46
   05:37:06.489.28-May-2021 3456.50 4236.79 82.92 10.00 364.15 2576.46
   05:37:06.689.28-May-2021 3456.50 4236.79 82.92 10.00 364.35 2576.46
   05:37:06.889.28-May-2021 3456.50 5211.69 82.92 10.00 364.55 2576.46
   05:37:07.089.28-May-2021 3456.50 6033.40 82.92 10.00 364.75 2576.46
   05:37:07.289.28-May-2021 3456.50 6032.72 82.92 10.00 364.95 2576.46
   05:37:07.490.28-May-2021 3456.50 6032.53 82.92 10.00 365.15 2576.46
   05:37:07.690.28-May-2021 3456.50 6032.53 82.92 10.00 365.35 2576.46
   05:37:07.890.28-May-2021 3456.50 6032.72 82.92 10.00 365.55 2576.46
   05:37:08.090.28-May-2021 3456.50 6032.89 82.93 10.00 365.75 2576.46
   05:37:08.290.28-May-2021 3456.50 6038.64 82.93 10.00 365.95 2576.46
   05:37:08.490.28-May-2021 3456.50 6033.54 82.93 10.00 366.15 2576.46
   05:37:08.690.28-May-2021 3456.50 6033.54 82.93 10.00 366.35 2576.46
   05:37:08.890.28-May-2021 3456.50 6035.03 82.93 10.00 366.55 2576.46
   05:37:09.090.28-May-2021 3456.50 6035.03 82.93 10.00 366.75 2576.46
   05:37:09.290.28-May-2021 3456.50 6035.62 82.93 10.00 366.95 2576.46
   05:37:09.490.28-May-2021 3456.50 6036.11 82.93 10.00 367.15 2576.46
   05:37:09.690.28-May-2021 3456.50 6036.11 82.93 10.00 367.35 2576.46
   05:37:09.891.28-May-2021 3456.50 6036.72 82.94 10.00 367.55 2576.46
   05:37:10.091.28-May-2021 3456.50 6036.59 82.94 10.00 367.75 2576.46
   05:37:10.291.28-May-2021 3456.50 6036.76 82.94 10.00 367.95 2576.46
   05:37:10.491.28-May-2021 3456.50 6036.67 82.94 10.00 368.15 2576.46
   05:37:10.691.28-May-2021 3456.50 6036.67 82.94 10.00 368.35 2576.46
   05:37:10.891.28-May-2021 3456.50 6042.42 82.94 10.00 368.55 2576.46
   05:37:11.091.28-May-2021 3456.50 6035.56 82.94 10.00 368.75 2576.46
   05:37:11.291.28-May-2021 3456.50 6037.02 82.95 10.00 368.95 2576.46
   05:37:11.491.28-May-2021 3456.50 6036.69 82.95 10.00 369.15 2576.46
   05:37:11.691.28-May-2021 3456.50 6036.69 82.95 10.00 369.35 2576.46
   05:37:11.891.28-May-2021 3456.50 6043.86 82.95 10.00 369.55 2576.46
   05:37:12.091.28-May-2021 3456.50 6034.63 82.95 10.00 369.75 2576.46
   05:37:12.292.28-May-2021 3456.50 6037.29 82.95 10.00 369.95 2576.46
   05:37:12.492.28-May-2021 3456.50 6040.64 82.95 10.00 370.15 2576.46
   05:37:12.692.28-May-2021 3456.50 6040.64 82.95 10.00 370.35 2576.46
   05:37:12.892.28-May-2021 3456.50 6037.62 82.95 10.00 370.55 2576.46
   05:37:13.092.28-May-2021 3456.50 6037.79 82.96 10.00 370.75 2576.46
   05:37:13.292.28-May-2021 3456.50 6037.96 82.96 10.00 370.96 2576.46
   05:37:13.492.28-May-2021 3456.50 6043.14 82.96 10.00 371.16 2576.46
   05:37:13.692.28-May-2021 3456.50 6043.14 82.96 10.00 371.36 2576.46
   05:37:13.892.28-May-2021 3456.50 6037.68 82.96 10.00 371.56 2576.46
   05:37:14.092.28-May-2021 3456.50 6037.89 82.96 10.00 371.76 2576.46
   05:37:14.292.28-May-2021 3456.50 6038.20 82.96 10.00 371.96 2576.46
   05:37:14.492.28-May-2021 3456.50 6037.38 82.96 10.00 372.16 2576.46
   05:37:14.693.28-May-2021 3456.50 6037.38 82.96 10.00 372.36 2576.46
   05:37:14.893.28-May-2021 3456.50 6037.75 82.96 10.00 372.56 2576.46
   05:37:15.093.28-May-2021 3456.50 6037.96 82.96 10.00 372.76 2576.46
   05:37:15.293.28-May-2021 3456.50 6037.66 82.96 10.00 372.96 2576.46
   05:37:15.493.28-May-2021 3456.50 6037.78 82.96 10.00 373.16 2576.46
   05:37:15.693.28-May-2021 3456.50 6037.78 82.96 10.00 373.36 2576.46
   05:37:15.893.28-May-2021 3456.50 6037.41 82.96 10.00 373.56 2576.46
   05:37:16.093.28-May-2021 3456.50 6044.69 82.97 10.00 373.76 2576.46
   05:37:16.293.28-May-2021 3456.50 6034.80 82.97 10.00 373.96 2576.46
   05:37:16.493.28-May-2021 3456.50 6037.80 82.97 10.00 374.16 2576.46
   05:37:16.693.28-May-2021 3456.50 6037.80 82.97 10.00 374.36 2576.46
   05:37:16.893.28-May-2021 3456.50 6038.06 82.97 10.00 374.56 2576.46
   05:37:17.094.28-May-2021 3456.50 6037.43 82.97 10.00 374.76 2576.46
   05:37:17.294.28-May-2021 3456.50 6037.99 82.97 10.00 374.96 2576.46
   05:37:17.494.28-May-2021 3456.50 6037.92 82.97 10.00 375.16 2576.46
   05:37:17.694.28-May-2021 3456.50 6037.92 82.97 10.00 375.36 2576.46
   05:37:17.894.28-May-2021 3456.50 6038.04 82.97 10.00 375.56 2576.46
   05:37:18.094.28-May-2021 3456.50 6038.12 82.97 10.00 375.76 2576.46
   05:37:18.294.28-May-2021 3456.50 6037.97 82.97 10.00 375.96 2576.46
   05:37:18.494.28-May-2021 3456.50 6037.75 82.97 10.00 376.16 2576.46
   05:37:18.694.28-May-2021 3456.50 6037.75 82.97 10.00 376.36 2576.46
   05:37:18.894.28-May-2021 3456.50 6044.91 82.97 10.00 376.56 2576.46
   05:37:19.094.28-May-2021 3456.50 6034.90 82.97 10.00 376.76 2576.46
   05:37:19.294.28-May-2021 3456.50 6037.91 82.97 10.00 376.96 2576.46
   05:37:19.495.28-May-2021 3456.50 6037.29 82.97 10.00 377.16 2576.46
   05:37:19.695.28-May-2021 3456.50 6037.29 82.97 10.00 377.36 2576.46
   05:37:19.895.28-May-2021 3456.50 6041.06 82.97 10.00 377.56 2576.46
   05:37:20.095.28-May-2021 3456.50 6038.22 82.97 10.00 377.76 2576.46
   05:37:20.295.28-May-2021 3456.50 6037.80 82.97 10.00 377.96 2576.46
   05:37:20.495.28-May-2021 3456.50 6038.16 82.97 10.00 378.16 2576.46
   05:37:20.695.28-May-2021 3456.50 6038.16 82.97 10.00 378.36 2576.46
   05:37:20.895.28-May-2021 3456.50 6038.19 82.97 10.00 378.56 2576.46
   05:37:21.095.28-May-2021 3456.50 6037.64 82.97 10.00 378.76 2576.46
   05:37:21.295.28-May-2021 3456.50 6038.05 82.97 10.00 378.96 2576.46
   05:37:21.495.28-May-2021 3456.50 6037.53 82.97 10.00 379.16 2576.46
   05:37:21.695.28-May-2021 3456.50 6037.53 82.97 10.00 379.36 2576.46
   05:37:21.896.28-May-2021 3456.50 6036.92 82.97 10.00 379.56 2576.46
   05:37:22.096.28-May-2021 3456.50 6038.21 82.97 10.00 379.76 2576.46
   05:37:22.296.28-May-2021 3456.50 6037.95 82.97 10.00 379.96 2576.46
   05:37:22.496.28-May-2021 3456.50 6038.01 82.97 10.00 380.16 2576.46
   05:37:22.696.28-May-2021 3456.50 6038.01 82.97 10.00 380.36 2576.46
   05:37:22.896.28-May-2021 3456.50 6037.91 82.97 10.00 380.56 2576.46
   05:37:23.096.28-May-2021 3456.50 6037.78 82.97 10.00 380.76 2576.46
   05:37:23.296.28-May-2021 3456.50 6037.93 82.97 10.00 380.96 2576.46
   05:37:23.496.28-May-2021 3456.50 6037.62 82.97 10.00 381.16 2576.46
   05:37:23.696.28-May-2021 3456.50 6037.62 82.97 10.00 381.36 2576.46
   05:37:23.896.28-May-2021 3456.50 6037.28 82.97 10.00 381.56 2576.46
   05:37:24.096.28-May-2021 3456.50 6037.23 82.97 10.00 381.76 2576.46
   05:37:24.297.28-May-2021 3456.50 6041.11 82.97 10.00 381.96 2576.46
   05:37:24.497.28-May-2021 3456.50 6037.87 82.97 10.00 382.16 2576.46
   05:37:24.697.28-May-2021 3456.50 6037.87 82.97 10.00 382.36 2576.46
   05:37:24.897.28-May-2021 3456.50 6037.76 82.97 10.00 382.56 2576.46
   05:37:25.097.28-May-2021 3456.50 6037.43 82.97 10.00 382.76 2576.46
   05:37:25.297.28-May-2021 3456.50 6037.65 82.97 10.00 382.96 2576.46
   05:37:25.497.28-May-2021 3456.50 6037.42 82.97 10.00 383.16 2576.46
   05:37:25.697.28-May-2021 3456.50 6037.42 82.97 10.00 383.36 2576.46
   05:37:25.897.28-May-2021 3456.50 6037.51 82.97 10.00 383.56 2576.46
   05:37:26.097.28-May-2021 3456.50 6037.48 82.97 10.00 383.76 2576.46
   05:37:26.297.28-May-2021 3456.50 6037.35 82.97 10.00 383.96 2576.46
   05:37:26.497.28-May-2021 3456.50 6037.21 82.97 10.00 384.16 2576.46
