~Version Information
 VERS.                  2.0:   CWLS log ASCII Standard -VERSION 2.0
 WRAP.                   NO:   One line per depth step
~Well Information Block
#MNEM.UNIT     VALUE/NAME     DESCRIPTION
#---------     -----------    ---------------------------
 STRT.S             00:59:34 28-May-21: START TIME 00:59:34 28-May-21
 STOP.S             01:06:40 28-May-21: STOP TIME  01:06:40 28-May-21
 STEP.S                   0.00: STEP TIME
 NULL.                 -999.25: NULL VALUE
 UWI .                     N/A:  UNIQUE WELL IDENTIFIER
 API .                     N/A:  API NUMBER
 UNIT.                     N/A:  LOGGING EQUIPMENT ID
 DCON.         Sperry Drilling:  DIRECTNL CONTR
 DOE .                     N/A:  DOE NUMBER
 MWDS.                    Baku:  MWD SHOP
 SRVC.     Turan Drilling and Engineering:  CONTRACTOR
 CTRY.              Azerbaijan:  COUNTRY NAME
 PROV.                    Baku:  PROVINCE
 STAT.                    Baku:  STATE NAME
 REGN.                   EESSA:  REGION
 BASE.              Azerbaijan:  LOGGING EQUIPMENT BASE LOCATION
 WTYP.                Deviated:  WELL TYPE
 RIG .              East Azeri:  RIG NAME
 WELL.                    D02y:  WELL NAME
 FLD .                     ACG:  FIELD NAME
 COMP.     BP Exploration (Caspian Sea) Ltd.:  COMPANY
 PDAT.          Mean Sea Level:  PERMANENT DATUM
 MDS .        Operator Entered:  MAG DATA SOURCE
 SON .        AZ-XX-0906997291:  JOB NUMBER
 FTOP.          Formation Tops:  FORM TOPS DESC
 ILTD.               Lithology:  INTERP LTH DESC
 SVYD.                  Survey:  SURVEY DESC
 DMOD.             Drill Model:  DRILL MOD DESC
 HPTY.       Minimum Curvature:  HOLE POS TYPE
 NREF.                    Grid:  NORTH REFERENCE
 SPUD.               05-May-21:  SPUD DATE
 DATE.      09.27.28 12-Jun-21:  END TIME
 STIM.      09.27.28 12-May-21:  START TIME
 DMF .             Drill Floor:  DRILL MEAS FROM
 DFST.                        :  DIST FSL TEXT
 DFWT.                        :  DIST FWL TEXT
 CNTY.                        :  COUNTY
 LOC .                        :  LOCATION
 LMF .             Drill Floor:  LOG MEASURED FROM
 DEP .m                2806.40:  DEPTH
 AGAP.m                  43.60:  AIR GAP
 VSNS.m                  -4.42:  VERT SEC N/S
 VSEW.m                  -7.31:  VERT SEC E/W
 APD .m                  43.60:  DEPTH ABOVE PD
 WDMS.m                 151.80:  WD ELEV
 EGL .m                   0.00:  GROUND ELEVATION
 EPD .m                   0.00:  ELEVATION
 AZTC.deg                 6.18:  AZM TOTAL CORR
 GRDC.deg                 0.29:  GRID CORRECTION
 MDEC.deg                 6.47:  MAGNETIC DECL
 MDIP.deg                59.50:  MAGNETIC DIP
 MFLD.nT              50350.00:  MAGNETIC FIELD
 GVFD.g                   1.00:  GRAVITY FIELD
 VSDR.deg               179.08:  VERT SEC DIRECT
 TDD .m                4300.00:  TOTAL DEPTH (DRILLER)
 SDEP.m                2800.00:  START DEPTH
 DFSL.m                   0.00:  DISTANCE FSL
 DFWL.m                   0.00:  DISTANCE FWL
 UTMY.m             4431871.34:  UTM Y
 UTMX.m              538762.90:  UTM X
 WHEW.m                  -7.31:  WELL HEAD E/W
 WHNS.m                  -4.42:  WELL HEAD N/S
 LONG.deg                51.45:  LONGITUDE
 LATI.deg                40.02:  LATITUDE
 TVDS.m                  43.60:  TVDSS CORRECTN
 EKB .m                  43.60:  KB ELEVATION
 EDF .m                  43.60:  DF ELEVATION
 TDL .m                 806.00:  TOTAL DEPTH (LOGGER)
 MAGU.                 1851231:  MAGUTM CHECKSUM
 VSC .                       0:  VS TO CLOSURE
~Parameter Information Block
#MNEM.UNIT       Value        Description
#---------     -----------    ---------------------------
 AV  .mps                 1.60:  Ann Velocity 
 AVMX.mps                 2.00:  Max Ann Veloc 
 AZIF.deg               140.24:  Azm, Final 
 BHAT.        Rotary Steerable:  BHA Type 
 BROT.°/30m               0.50:  Build Rotating 
 BS  .in                  8.50:  Bit Size 
 BTPL.psig              619.00:  Bit Press Loss 
 CABU.                     Yes:  Customer Abuse 
 CGEO.          Ilgar Gurbanov:  Customer Geo 
 COMM.                     ô:r:  Run Comments 1 
 TCS .hr                 85.88:  Time Ciculation Ended 
 CV  .mps                 3.30:  Crit Velocity 
 CVMX.mps                 3.50:  Max Crit Veloc 
 DD1 .           Hamid Axmedov:  Direct Drillr 1 
 DD2 .           Teymur Aliyev:  Direct Drillr 2 
 DDSV.               Geo-Pilot:  DD Service 
 DEFF.%                 100.00:  % Det Eff 
 DLRX.°/30m               0.00:  Dogleg Rot Max 
 DLSO.°/30m               1.80:  Dogleg Oriented 
 DLSX.°/30m               3.34:  Dogleg Str Max 
 DRET.      11.50.00 27-May-21:  Drill End Time 
 DRST.      21.13.00 24-May-21:  Drill Start Tim 
 DTIM.hr                 45.11:  Time Drilling 
 EDEP.m                4054.00:  End Depth 
 ENG1.         Almaz Almadatov:  Engineer 1 
 ENG2.           Amrah Tahirov:  Engineer 2 
 ENG3.      Bakhtiyar Jabbarli:  Engineer 3 
 ENG4.          Nazrin Asgarli:  Engineer 4 
 ETIM.      10.00.00 30-May-21:  End Time 
 FLOI.gpm               530.00:  Flow In 
 FLON.gpm               400.00:  Flow In Min 
 FLOS.cptm                0.00:  Fluid Loss 
 FLOX.gpm               560.00:  Flow In Max 
 DFT .        Mineral Oil Base:  Mud Type 
 FTRO.       Formation Presure:  FTWD Run Obj 
 HFLO.                      No:  High Flow 
 HPRE.                      No:  High Pressure 
 HTEM.                      No:  High Temp 
 HYDO.m                   1.80:  Hydro Offset 
 IFIN.deg                73.83:  Inc, Final 
 IMAX.deg                73.83:  Inc Max 
 IMIN.deg                57.86:  Inc Min 
 IMND.m                3259.27:  Inc Min Depth 
 IMXD.m                4045.58:  Inc Max Depth 
 JARR.                     Yes:  Jarring 
 LETM.      11.50.00 27-May-21:  Log End Time 
 LOST.hr                     0:  Lost Rig Time 
 LSTM.      21.13.00 24-May-21:  Log Start Time 
 MDCL.ppm             42500.00:  Mud Chlorides 
 MDES.     Inversion Oil/Synthetic:  Mud Desc 
 DFD .sg                  1.52:  Mud Density 
 MDMN.sg                  1.52:  Dens Mud Min 
 MDMX.sg                  1.52:  Dens Mud Max 
 MOIL.                      70:  Run Mud Oil % 
 MOWR.                   70:30:  Run Mud OWR 
 MSND.                     0.2:  Run Mud Sand % 
 MSOL.                      22:  Run Mud Solids% 
 DFV .spqt               77.00:  Mud Viscosity 
 MWOD.in                  6.75:  MWD Tool OD 
 MWSI.                      No:  Serv Intrp, MWD 
 OTIM.hr                151.01:  Time Operating 
 PCON.          Wear / Scratch:  Pad Condition 
 PMAX.psia            11296.93:  Press Op, Max 
 PV  .cP                 37.00:  Mud PV 
 RUN .                     500:  Run Number 
 ROPA.m/hr               25.00:  ROP Avg 
 ROPN.m/hr                9.00:  ROP Min 
 ROPX.m/hr               28.00:  ROP Max 
 RPMA.rpm               140.00:  RPM Surface Avg 
 RPMN.rpm                90.00:  RPM Surface Min 
 RPMX.rpm               140.00:  RPM Surface Max 
 RRUN.                    0500:  Rig Run Number 
 SAZI.deg               172.17:  Azm, Start 
 SDEP.m                3248.00:  Start Depth 
 SIDD.                      No:  Serv Intrp, DD 
 SINC.deg                57.86:  Inc, Start 
 SPPA.psig             5620.00:  SPP Avg 
 SPPN.psig             5190.00:  SPP Min 
 SPPX.psig             6050.00:  SPP Max 
 STIM.      16.00.00 23-May-21:  Start Time 
 SVCS.                 DD, MWD:  Services 
 SVER.                    9.20:  Sperry Version 
 TDAT.m                 806.00:  Tot Depth Attmp 
 TDDF.                      No:  Trip for DD 
 TDLG.m                 806.00:  Tot Depth Loggd 
 TFF .                      No:  Trip for Fail 
 TQAA.f-kp               12.00:  Torque Abs Avg 
 TQAN.f-kp                8.00:  Torque Abs Min 
 TQAX.f-kp               15.00:  Torque Abs Max 
 TRRT.°/30m               0.30:  Turn Rotating 
 MRT .                  EWR-M5:  Maximum Recorded Temperature 
 TTMX.degC               93.00:  Max Tool Temp 
 VS01.                90649155:  Virtual Str1 SN 
 VS02.                90642264:  Virtual Str2 SN 
 VS03.                90642266:  Virtual Str3 SN 
 VS04.                90642261:  Virtual Str4 SN 
 WBMN.klb                 0.00:  WOB Min 
 WITN.             Anar Khalil:  Customer Rep 
 WITN.           Murad Guliyev:  Customer Rep 2 
 WOBA.klb                13.00:  WOB Avg 
 WOBX.klb                25.00:  WOB Max 
 YP  .lhf2               32.00:  Yield Point 
~Curve Information Block
#MNEM.UNIT                 API CODE     Curve Description
#---------               -----------    ---------------------------
 TIME.HHMMSS            00 000 000 000:  GT Time & Date
 GTDEPTH.m              00 000 000 000:  GT Depth
 GTPQH.psia             00 000 000 000:  GT HR Quartz Pressure
 GTTQ.degC              00 000 000 000:  GT Quartz Temperature
 GTTN.NONE              00 000 000 000:  GT Test Number
 GTET.sec               00 000 000 000:  GT Elapsed Test Time
 GTTVD.m                00 000 000 000:  GT True Vertical Depth
#Other Information
#
#WARRANTY: Halliburton will use its best efforts to furnish customers with 
#accurate information and interpretations that are part of, and incident to, the services 
#provided.  However, Halliburton cannot and does not warrant the accuracy 
#or correctness of such information and interpretations.  Under no circumstances should any 
#such information or interpretation be relied upon as the sole basis for any drilling, 
#completion, production, or financial decision or any procedure involving any risk to the 
#safety of any drilling venture, drilling rig or its crew or any other third party.  The 
#Customer has full responsibility for all drilling, completion and production operation.  
#Halliburton makes no representations or warranties, either expressed or 
#implied, including, but not limited to, the implied warranties of merchantability or fitness 
#for a particular purpose, with respect to the services rendered.  In no event will 
#Halliburton be liable for failure to obtain any particular results or for 
#any damages, including, but not limited to, indirect, special or consequential damages, 
#resulting from the use of any information or interpretation provided by Halliburton.
#
~A           TIME           GTDEPTH  GTPQH  GTTQ  GTTN  GTET   GTTVD  
# ...
   01:04:11.239.28-May-2021 3649.00 3165.39 84.92 5.00 276.29 2653.32
   01:04:11.439.28-May-2021 3649.00 3165.39 84.92 5.00 276.49 2653.32
   01:04:11.639.28-May-2021 3649.00 3165.39 84.93 5.00 276.69 2653.32
   01:04:11.839.28-May-2021 3649.00 3165.40 84.92 5.00 276.89 2653.32
   01:04:12.040.28-May-2021 3649.00 3165.40 84.92 5.00 277.09 2653.32
   01:04:12.240.28-May-2021 3649.00 3165.39 84.92 5.00 277.29 2653.32
   01:04:12.440.28-May-2021 3649.00 3165.39 84.92 5.00 277.49 2653.32
   01:04:12.640.28-May-2021 3649.00 3165.35 84.92 5.00 277.69 2653.32
   01:04:12.840.28-May-2021 3649.00 3165.43 84.92 5.00 277.89 2653.32
   01:04:13.041.28-May-2021 3649.00 3165.41 84.92 5.00 278.09 2653.32
   01:04:13.241.28-May-2021 3649.00 3165.40 84.92 5.00 278.29 2653.32
   01:04:13.441.28-May-2021 3649.00 3165.40 84.92 5.00 278.49 2653.32
   01:04:13.641.28-May-2021 3649.00 3165.40 84.92 5.00 278.69 2653.32
   01:04:13.841.28-May-2021 3649.00 3165.40 84.92 5.00 278.89 2653.32
   01:04:14.042.28-May-2021 3649.00 3165.40 84.92 5.00 279.09 2653.32
   01:04:14.242.28-May-2021 3649.00 3165.40 84.92 5.00 279.29 2653.32
   01:04:14.442.28-May-2021 3649.00 3165.40 84.92 5.00 279.49 2653.32
   01:04:14.642.28-May-2021 3649.00 3165.39 84.92 5.00 279.69 2653.32
   01:04:14.843.28-May-2021 3649.00 3165.40 84.92 5.00 279.89 2653.32
   01:04:15.043.28-May-2021 3649.00 3165.40 84.92 5.00 280.09 2653.32
   01:04:15.243.28-May-2021 3649.00 3165.36 84.92 5.00 280.29 2653.32
   01:04:15.443.28-May-2021 3649.00 3165.36 84.92 5.00 280.49 2653.32
   01:04:15.643.28-May-2021 3649.00 3165.41 84.92 5.00 280.69 2653.32
   01:04:15.844.28-May-2021 3649.00 3165.37 84.92 5.00 280.89 2653.32
   01:04:16.044.28-May-2021 3649.00 3165.43 84.92 5.00 281.09 2653.32
   01:04:16.244.28-May-2021 3649.00 3165.42 84.92 5.00 281.29 2653.32
   01:04:16.444.28-May-2021 3649.00 3165.42 84.92 5.00 281.49 2653.32
   01:04:16.644.28-May-2021 3649.00 3165.41 84.92 5.00 281.69 2653.32
   01:04:16.845.28-May-2021 3649.00 3165.41 84.92 5.00 281.89 2653.32
   01:04:17.045.28-May-2021 3649.00 3165.38 84.92 5.00 282.09 2653.32
   01:04:17.245.28-May-2021 3649.00 3165.42 84.92 5.00 282.29 2653.32
   01:04:17.445.28-May-2021 3649.00 3165.42 84.92 5.00 282.49 2653.32
   01:04:17.645.28-May-2021 3649.00 3165.41 84.92 5.00 282.69 2653.32
   01:04:17.846.28-May-2021 3649.00 3165.41 84.92 5.00 282.89 2653.32
   01:04:18.046.28-May-2021 3649.00 3165.41 84.92 5.00 283.09 2653.32
   01:04:18.246.28-May-2021 3649.00 3165.41 84.92 5.00 283.29 2653.32
   01:04:18.446.28-May-2021 3649.00 3165.41 84.92 5.00 283.49 2653.32
   01:04:18.646.28-May-2021 3649.00 3165.42 84.92 5.00 283.70 2653.32
   01:04:18.847.28-May-2021 3649.00 3165.41 84.92 5.00 283.90 2653.32
   01:04:19.047.28-May-2021 3649.00 3165.41 84.92 5.00 284.10 2653.32
   01:04:19.247.28-May-2021 3649.00 3165.41 84.92 5.00 284.30 2653.32
   01:04:19.447.28-May-2021 3649.00 3165.41 84.92 5.00 284.50 2653.32
   01:04:19.648.28-May-2021 3649.00 3165.41 84.92 5.00 284.70 2653.32
   01:04:19.848.28-May-2021 3649.00 3165.41 84.92 5.00 284.90 2653.32
   01:04:20.048.28-May-2021 3649.00 3165.41 84.92 5.00 285.10 2653.32
   01:04:20.248.28-May-2021 3649.00 3165.41 84.92 5.00 285.30 2653.32
   01:04:20.448.28-May-2021 3649.00 3165.41 84.92 5.00 285.50 2653.32
   01:04:20.649.28-May-2021 3649.00 3165.40 84.92 5.00 285.70 2653.32
   01:04:20.849.28-May-2021 3649.00 3165.41 84.92 5.00 285.90 2653.32
   01:04:21.049.28-May-2021 3649.00 3165.40 84.92 5.00 286.10 2653.32
   01:04:21.249.28-May-2021 3649.00 3165.42 84.92 5.00 286.30 2653.32
   01:04:21.449.28-May-2021 3649.00 3165.42 84.92 5.00 286.50 2653.32
   01:04:21.650.28-May-2021 3649.00 3165.41 84.92 5.00 286.70 2653.32
   01:04:21.850.28-May-2021 3649.00 3165.41 84.92 5.00 286.90 2653.32
   01:04:22.050.28-May-2021 3649.00 3165.41 84.92 5.00 287.10 2653.32
   01:04:22.250.28-May-2021 3649.00 3165.41 84.92 5.00 287.30 2653.32
   01:04:22.450.28-May-2021 3649.00 3165.41 84.92 5.00 287.50 2653.32
   01:04:22.651.28-May-2021 3649.00 3165.42 84.92 5.00 287.70 2653.32
   01:04:22.851.28-May-2021 3649.00 3165.40 84.92 5.00 287.90 2653.32
   01:04:23.051.28-May-2021 3649.00 3165.41 84.92 5.00 288.10 2653.32
   01:04:23.251.28-May-2021 3649.00 3165.40 84.92 5.00 288.30 2653.32
   01:04:23.451.28-May-2021 3649.00 3165.40 84.92 5.00 288.50 2653.32
   01:04:23.652.28-May-2021 3649.00 3165.40 84.92 5.00 288.70 2653.32
   01:04:23.852.28-May-2021 3649.00 3165.40 84.92 5.00 288.90 2653.32
   01:04:24.052.28-May-2021 3649.00 3165.42 84.92 5.00 289.10 2653.32
   01:04:24.252.28-May-2021 3649.00 3165.41 84.92 5.00 289.30 2653.32
   01:04:24.453.28-May-2021 3649.00 3165.41 84.92 5.00 289.50 2653.32
   01:04:24.653.28-May-2021 3649.00 3165.40 84.92 5.00 289.70 2653.32
   01:04:24.853.28-May-2021 3649.00 3165.41 84.92 5.00 289.90 2653.32
   01:04:25.053.28-May-2021 3649.00 3165.40 84.92 5.00 290.10 2653.32
   01:04:25.253.28-May-2021 3649.00 3165.42 84.92 5.00 290.30 2653.32
   01:04:25.454.28-May-2021 3649.00 3165.42 84.92 5.00 290.50 2653.32
   01:04:25.654.28-May-2021 3649.00 3165.41 84.92 5.00 290.70 2653.32
   01:04:25.854.28-May-2021 3649.00 3165.40 84.92 5.00 290.90 2653.32
   01:04:26.054.28-May-2021 3649.00 3165.42 84.92 5.00 291.10 2653.32
   01:04:26.254.28-May-2021 3649.00 3165.41 84.92 5.00 291.30 2653.32
   01:04:26.455.28-May-2021 3649.00 3165.41 84.92 5.00 291.50 2653.32
   01:04:26.655.28-May-2021 3649.00 3165.41 84.92 5.00 291.70 2653.32
   01:04:26.855.28-May-2021 3649.00 3165.41 84.92 5.00 291.90 2653.32
   01:04:27.055.28-May-2021 3649.00 3165.42 84.92 5.00 292.10 2653.32
   01:04:27.255.28-May-2021 3649.00 3165.40 84.92 5.00 292.30 2653.32
   01:04:27.456.28-May-2021 3649.00 3165.40 84.92 5.00 292.50 2653.32
   01:04:27.656.28-May-2021 3649.00 3165.40 84.92 5.00 292.70 2653.32
   01:04:27.856.28-May-2021 3649.00 3165.41 84.92 5.00 292.90 2653.32
   01:04:28.056.28-May-2021 3649.00 3165.42 84.92 5.00 293.10 2653.32
   01:04:28.256.28-May-2021 3649.00 3165.41 84.92 5.00 293.31 2653.32
   01:04:28.457.28-May-2021 3649.00 3165.41 84.92 5.00 293.51 2653.32
   01:04:28.657.28-May-2021 3649.00 3165.41 84.92 5.00 293.71 2653.32
   01:04:28.857.28-May-2021 3649.00 3165.41 84.92 5.00 293.91 2653.32
   01:04:29.057.28-May-2021 3649.00 3165.40 84.92 5.00 294.11 2653.32
   01:04:29.258.28-May-2021 3649.00 3165.41 84.92 5.00 294.31 2653.32
   01:04:29.458.28-May-2021 3649.00 3165.41 84.92 5.00 294.51 2653.32
   01:04:29.658.28-May-2021 3649.00 3165.41 84.92 5.00 294.71 2653.32
   01:04:29.858.28-May-2021 3649.00 3165.41 84.92 5.00 294.91 2653.32
   01:04:30.058.28-May-2021 3649.00 3165.41 84.92 5.00 295.11 2653.32
   01:04:30.259.28-May-2021 3649.00 3165.40 84.92 5.00 295.31 2653.32
   01:04:30.459.28-May-2021 3649.00 3165.40 84.92 5.00 295.51 2653.32
   01:04:30.659.28-May-2021 3649.00 3165.40 84.92 5.00 295.71 2653.32
   01:04:30.859.28-May-2021 3649.00 3165.41 84.92 5.00 295.91 2653.32
   01:04:31.059.28-May-2021 3649.00 3165.41 84.92 5.00 296.11 2653.32
   01:04:31.260.28-May-2021 3649.00 3165.41 84.92 5.00 296.31 2653.32
   01:04:31.460.28-May-2021 3649.00 3165.41 84.92 5.00 296.51 2653.32
   01:04:31.660.28-May-2021 3649.00 3165.40 84.92 5.00 296.71 2653.32
   01:04:31.860.28-May-2021 3649.00 3165.41 84.92 5.00 296.91 2653.32
   01:04:32.060.28-May-2021 3649.00 3165.39 84.92 5.00 297.11 2653.32
   01:04:32.261.28-May-2021 3649.00 3165.43 84.92 5.00 297.31 2653.32
   01:04:32.461.28-May-2021 3649.00 3165.43 84.92 5.00 297.51 2653.32
   01:04:32.661.28-May-2021 3649.00 3165.42 84.92 5.00 297.71 2653.32
   01:04:32.861.28-May-2021 3649.00 3165.40 84.92 5.00 297.91 2653.32
   01:04:33.061.28-May-2021 3649.00 3165.41 84.92 5.00 298.11 2653.32
   01:04:33.262.28-May-2021 3649.00 3165.39 84.92 5.00 298.31 2653.32
   01:04:33.462.28-May-2021 3649.00 3165.39 84.92 5.00 298.51 2653.32
   01:04:33.662.28-May-2021 3649.00 3165.41 84.92 5.00 298.71 2653.32
   01:04:33.862.28-May-2021 3649.00 3165.40 84.92 5.00 298.91 2653.32
   01:04:34.063.28-May-2021 3649.00 3165.41 84.92 5.00 299.11 2653.32
