~Version Information
 VERS.                  2.0:   CWLS log ASCII Standard -VERSION 2.0
 WRAP.                   NO:   One line per depth step
~Well Information Block
#MNEM.UNIT     VALUE/NAME     DESCRIPTION
#---------     -----------    ---------------------------
 STRT.S             23:03:24 27-May-21: START TIME 23:03:24 27-May-21
 STOP.S             23:10:28 27-May-21: STOP TIME  23:10:28 27-May-21
 STEP.S                   0.00: STEP TIME
 NULL.                 -999.25: NULL VALUE
 UWI .                     N/A:  UNIQUE WELL IDENTIFIER
 API .                     N/A:  API NUMBER
 UNIT.                     N/A:  LOGGING EQUIPMENT ID
 DCON.         Sperry Drilling:  DIRECTNL CONTR
 DOE .                     N/A:  DOE NUMBER
 MWDS.                    Baku:  MWD SHOP
 SRVC.     Turan Drilling and Engineering:  CONTRACTOR
 CTRY.              Azerbaijan:  COUNTRY NAME
 PROV.                    Baku:  PROVINCE
 STAT.                    Baku:  STATE NAME
 REGN.                   EESSA:  REGION
 BASE.              Azerbaijan:  LOGGING EQUIPMENT BASE LOCATION
 WTYP.                Deviated:  WELL TYPE
 RIG .              East Azeri:  RIG NAME
 WELL.                    D02y:  WELL NAME
 FLD .                     ACG:  FIELD NAME
 COMP.     BP Exploration (Caspian Sea) Ltd.:  COMPANY
 PDAT.          Mean Sea Level:  PERMANENT DATUM
 MDS .        Operator Entered:  MAG DATA SOURCE
 SON .        AZ-XX-0906997291:  JOB NUMBER
 FTOP.          Formation Tops:  FORM TOPS DESC
 ILTD.               Lithology:  INTERP LTH DESC
 SVYD.                  Survey:  SURVEY DESC
 DMOD.             Drill Model:  DRILL MOD DESC
 HPTY.       Minimum Curvature:  HOLE POS TYPE
 NREF.                    Grid:  NORTH REFERENCE
 SPUD.               05-May-21:  SPUD DATE
 DATE.      09.27.28 12-Jun-21:  END TIME
 STIM.      09.27.28 12-May-21:  START TIME
 DMF .             Drill Floor:  DRILL MEAS FROM
 DFST.                        :  DIST FSL TEXT
 DFWT.                        :  DIST FWL TEXT
 CNTY.                        :  COUNTY
 LOC .                        :  LOCATION
 LMF .             Drill Floor:  LOG MEASURED FROM
 DEP .m                2806.40:  DEPTH
 AGAP.m                  43.60:  AIR GAP
 VSNS.m                  -4.42:  VERT SEC N/S
 VSEW.m                  -7.31:  VERT SEC E/W
 APD .m                  43.60:  DEPTH ABOVE PD
 WDMS.m                 151.80:  WD ELEV
 EGL .m                   0.00:  GROUND ELEVATION
 EPD .m                   0.00:  ELEVATION
 AZTC.deg                 6.18:  AZM TOTAL CORR
 GRDC.deg                 0.29:  GRID CORRECTION
 MDEC.deg                 6.47:  MAGNETIC DECL
 MDIP.deg                59.50:  MAGNETIC DIP
 MFLD.nT              50350.00:  MAGNETIC FIELD
 GVFD.g                   1.00:  GRAVITY FIELD
 VSDR.deg               179.08:  VERT SEC DIRECT
 TDD .m                4300.00:  TOTAL DEPTH (DRILLER)
 SDEP.m                2800.00:  START DEPTH
 DFSL.m                   0.00:  DISTANCE FSL
 DFWL.m                   0.00:  DISTANCE FWL
 UTMY.m             4431871.34:  UTM Y
 UTMX.m              538762.90:  UTM X
 WHEW.m                  -7.31:  WELL HEAD E/W
 WHNS.m                  -4.42:  WELL HEAD N/S
 LONG.deg                51.45:  LONGITUDE
 LATI.deg                40.02:  LATITUDE
 TVDS.m                  43.60:  TVDSS CORRECTN
 EKB .m                  43.60:  KB ELEVATION
 EDF .m                  43.60:  DF ELEVATION
 TDL .m                 806.00:  TOTAL DEPTH (LOGGER)
 MAGU.                 1851231:  MAGUTM CHECKSUM
 VSC .                       0:  VS TO CLOSURE
~Parameter Information Block
#MNEM.UNIT       Value        Description
#---------     -----------    ---------------------------
 AV  .mps                 1.60:  Ann Velocity 
 AVMX.mps                 2.00:  Max Ann Veloc 
 AZIF.deg               140.24:  Azm, Final 
 BHAT.        Rotary Steerable:  BHA Type 
 BROT.°/30m               0.50:  Build Rotating 
 BS  .in                  8.50:  Bit Size 
 BTPL.psig              619.00:  Bit Press Loss 
 CABU.                     Yes:  Customer Abuse 
 CGEO.          Ilgar Gurbanov:  Customer Geo 
 COMM.                     |¡U:  Run Comments 1 
 TCS .hr                 85.88:  Time Ciculation Ended 
 CV  .mps                 3.30:  Crit Velocity 
 CVMX.mps                 3.50:  Max Crit Veloc 
 DD1 .           Hamid Axmedov:  Direct Drillr 1 
 DD2 .           Teymur Aliyev:  Direct Drillr 2 
 DDSV.               Geo-Pilot:  DD Service 
 DEFF.%                 100.00:  % Det Eff 
 DLRX.°/30m               0.00:  Dogleg Rot Max 
 DLSO.°/30m               1.80:  Dogleg Oriented 
 DLSX.°/30m               3.34:  Dogleg Str Max 
 DRET.      11.50.00 27-May-21:  Drill End Time 
 DRST.      21.13.00 24-May-21:  Drill Start Tim 
 DTIM.hr                 45.11:  Time Drilling 
 EDEP.m                4054.00:  End Depth 
 ENG1.         Almaz Almadatov:  Engineer 1 
 ENG2.           Amrah Tahirov:  Engineer 2 
 ENG3.      Bakhtiyar Jabbarli:  Engineer 3 
 ENG4.          Nazrin Asgarli:  Engineer 4 
 ETIM.      10.00.00 30-May-21:  End Time 
 FLOI.gpm               530.00:  Flow In 
 FLON.gpm               400.00:  Flow In Min 
 FLOS.cptm                0.00:  Fluid Loss 
 FLOX.gpm               560.00:  Flow In Max 
 DFT .        Mineral Oil Base:  Mud Type 
 FTRO.       Formation Presure:  FTWD Run Obj 
 HFLO.                      No:  High Flow 
 HPRE.                      No:  High Pressure 
 HTEM.                      No:  High Temp 
 HYDO.m                   1.80:  Hydro Offset 
 IFIN.deg                73.83:  Inc, Final 
 IMAX.deg                73.83:  Inc Max 
 IMIN.deg                57.86:  Inc Min 
 IMND.m                3259.27:  Inc Min Depth 
 IMXD.m                4045.58:  Inc Max Depth 
 JARR.                     Yes:  Jarring 
 LETM.      11.50.00 27-May-21:  Log End Time 
 LOST.hr                     0:  Lost Rig Time 
 LSTM.      21.13.00 24-May-21:  Log Start Time 
 MDCL.ppm             42500.00:  Mud Chlorides 
 MDES.     Inversion Oil/Synthetic:  Mud Desc 
 DFD .sg                  1.52:  Mud Density 
 MDMN.sg                  1.52:  Dens Mud Min 
 MDMX.sg                  1.52:  Dens Mud Max 
 MOIL.                      70:  Run Mud Oil % 
 MOWR.                   70:30:  Run Mud OWR 
 MSND.                     0.2:  Run Mud Sand % 
 MSOL.                      22:  Run Mud Solids% 
 DFV .spqt               77.00:  Mud Viscosity 
 MWOD.in                  6.75:  MWD Tool OD 
 MWSI.                      No:  Serv Intrp, MWD 
 OTIM.hr                151.01:  Time Operating 
 PCON.          Wear / Scratch:  Pad Condition 
 PMAX.psia            11296.93:  Press Op, Max 
 PV  .cP                 37.00:  Mud PV 
 RUN .                     500:  Run Number 
 ROPA.m/hr               25.00:  ROP Avg 
 ROPN.m/hr                9.00:  ROP Min 
 ROPX.m/hr               28.00:  ROP Max 
 RPMA.rpm               140.00:  RPM Surface Avg 
 RPMN.rpm                90.00:  RPM Surface Min 
 RPMX.rpm               140.00:  RPM Surface Max 
 RRUN.                    0500:  Rig Run Number 
 SAZI.deg               172.17:  Azm, Start 
 SDEP.m                3248.00:  Start Depth 
 SIDD.                      No:  Serv Intrp, DD 
 SINC.deg                57.86:  Inc, Start 
 SPPA.psig             5620.00:  SPP Avg 
 SPPN.psig             5190.00:  SPP Min 
 SPPX.psig             6050.00:  SPP Max 
 STIM.      16.00.00 23-May-21:  Start Time 
 SVCS.                 DD, MWD:  Services 
 SVER.                    9.20:  Sperry Version 
 TDAT.m                 806.00:  Tot Depth Attmp 
 TDDF.                      No:  Trip for DD 
 TDLG.m                 806.00:  Tot Depth Loggd 
 TFF .                      No:  Trip for Fail 
 TQAA.f-kp               12.00:  Torque Abs Avg 
 TQAN.f-kp                8.00:  Torque Abs Min 
 TQAX.f-kp               15.00:  Torque Abs Max 
 TRRT.°/30m               0.30:  Turn Rotating 
 MRT .                  EWR-M5:  Maximum Recorded Temperature 
 TTMX.degC               93.00:  Max Tool Temp 
 VS01.                90649155:  Virtual Str1 SN 
 VS02.                90642264:  Virtual Str2 SN 
 VS03.                90642266:  Virtual Str3 SN 
 VS04.                90642261:  Virtual Str4 SN 
 WBMN.klb                 0.00:  WOB Min 
 WITN.             Anar Khalil:  Customer Rep 
 WITN.           Murad Guliyev:  Customer Rep 2 
 WOBA.klb                13.00:  WOB Avg 
 WOBX.klb                25.00:  WOB Max 
 YP  .lhf2               32.00:  Yield Point 
~Curve Information Block
#MNEM.UNIT                 API CODE     Curve Description
#---------               -----------    ---------------------------
 TIME.HHMMSS            00 000 000 000:  GT Time & Date
 GTDEPTH.m              00 000 000 000:  GT Depth
 GTPQH.psia             00 000 000 000:  GT HR Quartz Pressure
 GTTQ.degC              00 000 000 000:  GT Quartz Temperature
 GTTN.NONE              00 000 000 000:  GT Test Number
 GTET.sec               00 000 000 000:  GT Elapsed Test Time
 GTTVD.m                00 000 000 000:  GT True Vertical Depth
#Other Information
#
#WARRANTY: Halliburton will use its best efforts to furnish customers with 
#accurate information and interpretations that are part of, and incident to, the services 
#provided.  However, Halliburton cannot and does not warrant the accuracy 
#or correctness of such information and interpretations.  Under no circumstances should any 
#such information or interpretation be relied upon as the sole basis for any drilling, 
#completion, production, or financial decision or any procedure involving any risk to the 
#safety of any drilling venture, drilling rig or its crew or any other third party.  The 
#Customer has full responsibility for all drilling, completion and production operation.  
#Halliburton makes no representations or warranties, either expressed or 
#implied, including, but not limited to, the implied warranties of merchantability or fitness 
#for a particular purpose, with respect to the services rendered.  In no event will 
#Halliburton be liable for failure to obtain any particular results or for 
#any damages, including, but not limited to, indirect, special or consequential damages, 
#resulting from the use of any information or interpretation provided by Halliburton.
#
~A           TIME           GTDEPTH  GTPQH  GTTQ  GTTN  GTET   GTTVD  
# ...
   23:09:09.398.27-May-2021 3710.50 3139.40 84.60 2.00 345.14 2675.83
   23:09:09.599.27-May-2021 3710.50 3139.40 84.60 2.00 345.34 2675.83
   23:09:09.799.27-May-2021 3710.50 3139.40 84.60 2.00 345.54 2675.83
   23:09:09.999.27-May-2021 3710.50 3139.41 84.60 2.00 345.74 2675.83
   23:09:10.199.27-May-2021 3710.50 3139.40 84.60 2.00 345.94 2675.83
   23:09:10.399.27-May-2021 3710.50 3139.41 84.60 2.00 346.14 2675.83
   23:09:10.599.27-May-2021 3710.50 3139.41 84.60 2.00 346.34 2675.83
   23:09:10.799.27-May-2021 3710.50 3139.53 84.60 2.00 346.54 2675.83
   23:09:10.999.27-May-2021 3710.50 3139.41 84.60 2.00 346.74 2675.83
   23:09:11.199.27-May-2021 3710.50 3139.42 84.60 2.00 346.94 2675.83
   23:09:11.399.27-May-2021 3710.50 3139.41 84.60 2.00 347.14 2675.83
   23:09:11.599.27-May-2021 3710.50 3139.41 84.60 2.00 347.34 2675.83
   23:09:11.799.27-May-2021 3710.50 3139.40 84.60 2.00 347.54 2675.83
   23:09:12.000.27-May-2021 3710.50 3139.41 84.60 2.00 347.74 2675.83
   23:09:12.200.27-May-2021 3710.50 3139.40 84.60 2.00 347.94 2675.83
   23:09:12.400.27-May-2021 3710.50 3139.40 84.60 2.00 348.14 2675.83
   23:09:12.600.27-May-2021 3710.50 3139.40 84.60 2.00 348.34 2675.83
   23:09:12.800.27-May-2021 3710.50 3139.41 84.60 2.00 348.54 2675.83
   23:09:13.000.27-May-2021 3710.50 3139.40 84.60 2.00 348.74 2675.83
   23:09:13.200.27-May-2021 3710.50 3139.27 84.60 2.00 348.94 2675.83
   23:09:13.400.27-May-2021 3710.50 3139.54 84.60 2.00 349.14 2675.83
   23:09:13.600.27-May-2021 3710.50 3139.54 84.60 2.00 349.34 2675.83
   23:09:13.800.27-May-2021 3710.50 3139.40 84.60 2.00 349.54 2675.83
   23:09:14.000.27-May-2021 3710.50 3139.39 84.60 2.00 349.74 2675.83
   23:09:14.200.27-May-2021 3710.50 3139.42 84.60 2.00 349.94 2675.83
   23:09:14.400.27-May-2021 3710.50 3139.40 84.60 2.00 350.14 2675.83
   23:09:14.601.27-May-2021 3710.50 3139.40 84.60 2.00 350.34 2675.83
   23:09:14.801.27-May-2021 3710.50 3139.25 84.60 2.00 350.54 2675.83
   23:09:15.001.27-May-2021 3710.50 3139.53 84.60 2.00 350.74 2675.83
   23:09:15.201.27-May-2021 3710.50 3139.41 84.60 2.00 350.94 2675.83
   23:09:15.401.27-May-2021 3710.50 3139.40 84.60 2.00 351.14 2675.83
   23:09:15.601.27-May-2021 3710.50 3139.40 84.60 2.00 351.34 2675.83
   23:09:15.801.27-May-2021 3710.50 3139.39 84.60 2.00 351.54 2675.83
   23:09:16.001.27-May-2021 3710.50 3139.32 84.60 2.00 351.74 2675.83
   23:09:16.201.27-May-2021 3710.50 3139.48 84.60 2.00 351.94 2675.83
   23:09:16.401.27-May-2021 3710.50 3139.39 84.60 2.00 352.14 2675.83
   23:09:16.601.27-May-2021 3710.50 3139.39 84.60 2.00 352.34 2675.83
   23:09:16.801.27-May-2021 3710.50 3139.40 84.60 2.00 352.54 2675.83
   23:09:17.001.27-May-2021 3710.50 3139.40 84.60 2.00 352.74 2675.83
   23:09:17.202.27-May-2021 3710.50 3139.40 84.60 2.00 352.94 2675.83
   23:09:17.402.27-May-2021 3710.50 3139.40 84.60 2.00 353.14 2675.83
   23:09:17.602.27-May-2021 3710.50 3139.40 84.60 2.00 353.34 2675.83
   23:09:17.802.27-May-2021 3710.50 3139.40 84.60 2.00 353.54 2675.83
   23:09:18.002.27-May-2021 3710.50 3139.40 84.60 2.00 353.74 2675.83
   23:09:18.202.27-May-2021 3710.50 3139.40 84.60 2.00 353.94 2675.83
   23:09:18.402.27-May-2021 3710.50 3139.40 84.60 2.00 354.14 2675.83
   23:09:18.602.27-May-2021 3710.50 3139.40 84.60 2.00 354.34 2675.83
   23:09:18.802.27-May-2021 3710.50 3139.48 84.60 2.00 354.54 2675.83
   23:09:19.002.27-May-2021 3710.50 3139.41 84.60 2.00 354.74 2675.83
   23:09:19.202.27-May-2021 3710.50 3139.41 84.60 2.00 354.94 2675.83
   23:09:19.402.27-May-2021 3710.50 3139.39 84.60 2.00 355.14 2675.83
   23:09:19.602.27-May-2021 3710.50 3139.39 84.60 2.00 355.34 2675.83
   23:09:19.803.27-May-2021 3710.50 3139.40 84.60 2.00 355.54 2675.83
   23:09:20.003.27-May-2021 3710.50 3139.41 84.60 2.00 355.74 2675.83
   23:09:20.203.27-May-2021 3710.50 3139.40 84.60 2.00 355.94 2675.83
   23:09:20.403.27-May-2021 3710.50 3139.41 84.59 2.00 356.14 2675.83
   23:09:20.603.27-May-2021 3710.50 3139.41 84.59 2.00 356.34 2675.83
   23:09:20.803.27-May-2021 3710.50 3139.41 84.59 2.00 356.54 2675.83
   23:09:21.003.27-May-2021 3710.50 3139.40 84.59 2.00 356.74 2675.83
   23:09:21.203.27-May-2021 3710.50 3139.31 84.59 2.00 356.94 2675.83
   23:09:21.403.27-May-2021 3710.50 3139.49 84.59 2.00 357.14 2675.83
   23:09:21.603.27-May-2021 3710.50 3139.49 84.59 2.00 357.34 2675.83
   23:09:21.803.27-May-2021 3710.50 3139.32 84.59 2.00 357.54 2675.83
   23:09:22.003.27-May-2021 3710.50 3139.48 84.59 2.00 357.74 2675.83
   23:09:22.203.27-May-2021 3710.50 3139.41 84.59 2.00 357.94 2675.83
   23:09:22.404.27-May-2021 3710.50 3139.41 84.59 2.00 358.14 2675.83
   23:09:22.604.27-May-2021 3710.50 3139.41 84.59 2.00 358.34 2675.83
   23:09:22.804.27-May-2021 3710.50 3139.30 84.59 2.00 358.54 2675.83
   23:09:23.004.27-May-2021 3710.50 3139.48 84.59 2.00 358.74 2675.83
   23:09:23.204.27-May-2021 3710.50 3139.41 84.59 2.00 358.94 2675.83
   23:09:23.404.27-May-2021 3710.50 3139.42 84.59 2.00 359.14 2675.83
   23:09:23.604.27-May-2021 3710.50 3139.42 84.59 2.00 359.34 2675.83
   23:09:23.804.27-May-2021 3710.50 3139.38 84.59 2.00 359.54 2675.83
   23:09:24.004.27-May-2021 3710.50 3139.39 84.59 2.00 359.74 2675.83
   23:09:24.204.27-May-2021 3710.50 3139.42 84.59 2.00 359.94 2675.83
   23:09:24.404.27-May-2021 3710.50 3139.40 84.59 2.00 360.14 2675.83
   23:09:24.604.27-May-2021 3710.50 3139.40 84.59 2.00 360.34 2675.83
   23:09:24.805.27-May-2021 3710.50 3139.40 84.59 2.00 360.54 2675.83
   23:09:25.005.27-May-2021 3710.50 3139.39 84.59 2.00 360.74 2675.83
   23:09:25.205.27-May-2021 3710.50 3139.40 84.59 2.00 360.94 2675.83
   23:09:25.405.27-May-2021 3710.50 3139.42 84.59 2.00 361.14 2675.83
   23:09:25.605.27-May-2021 3710.50 3139.40 84.59 2.00 361.34 2675.83
   23:09:25.805.27-May-2021 3710.50 3139.40 84.59 2.00 361.54 2675.83
   23:09:26.005.27-May-2021 3710.50 3139.40 84.59 2.00 361.74 2675.83
   23:09:26.205.27-May-2021 3710.50 3139.40 84.59 2.00 361.94 2675.83
   23:09:26.405.27-May-2021 3710.50 3139.38 84.59 2.00 362.14 2675.83
   23:09:26.605.27-May-2021 3710.50 3139.38 84.59 2.00 362.34 2675.83
   23:09:26.805.27-May-2021 3710.50 3139.42 84.59 2.00 362.54 2675.83
   23:09:27.005.27-May-2021 3710.50 3139.39 84.59 2.00 362.74 2675.83
   23:09:27.205.27-May-2021 3710.50 3139.40 84.59 2.00 362.94 2675.83
   23:09:27.406.27-May-2021 3710.50 3139.40 84.59 2.00 363.14 2675.83
   23:09:27.606.27-May-2021 3710.50 3139.40 84.59 2.00 363.34 2675.83
   23:09:27.806.27-May-2021 3710.50 3139.39 84.59 2.00 363.54 2675.83
   23:09:28.006.27-May-2021 3710.50 3139.40 84.59 2.00 363.74 2675.83
   23:09:28.206.27-May-2021 3710.50 3139.39 84.59 2.00 363.94 2675.83
   23:09:28.406.27-May-2021 3710.50 3139.40 84.59 2.00 364.14 2675.83
   23:09:28.606.27-May-2021 3710.50 3139.40 84.59 2.00 364.34 2675.83
   23:09:28.806.27-May-2021 3710.50 3139.40 84.59 2.00 364.54 2675.83
   23:09:29.006.27-May-2021 3710.50 3139.38 84.59 2.00 364.74 2675.83
   23:09:29.206.27-May-2021 3710.50 3139.39 84.59 2.00 364.94 2675.83
   23:09:29.406.27-May-2021 3710.50 3139.42 84.59 2.00 365.14 2675.83
   23:09:29.606.27-May-2021 3710.50 3139.42 84.59 2.00 365.34 2675.83
   23:09:29.806.27-May-2021 3710.50 3139.44 84.59 2.00 365.54 2675.83
   23:09:30.007.27-May-2021 3710.50 3139.35 84.59 2.00 365.74 2675.83
   23:09:30.207.27-May-2021 3710.50 3139.39 84.59 2.00 365.94 2675.83
   23:09:30.407.27-May-2021 3710.50 3139.39 84.59 2.00 366.14 2675.83
   23:09:30.607.27-May-2021 3710.50 3139.39 84.59 2.00 366.34 2675.83
   23:09:30.807.27-May-2021 3710.50 3139.37 84.59 2.00 366.54 2675.83
   23:09:31.007.27-May-2021 3710.50 3139.42 84.59 2.00 366.74 2675.83
   23:09:31.207.27-May-2021 3710.50 3139.39 84.59 2.00 366.94 2675.83
   23:09:31.407.27-May-2021 3710.50 3139.41 84.59 2.00 367.14 2675.83
   23:09:31.607.27-May-2021 3710.50 3139.41 84.59 2.00 367.34 2675.83
   23:09:31.807.27-May-2021 3710.50 3139.30 84.59 2.00 367.54 2675.83
   23:09:32.007.27-May-2021 3710.50 3139.99 84.59 2.00 367.74 2675.83
   23:09:32.207.27-May-2021 3710.50 3140.69 84.59 2.00 367.94 2675.83
