~Version Information
 VERS.                  2.0:   CWLS log ASCII Standard -VERSION 2.0
 WRAP.                   NO:   One line per depth step
~Well Information Block
#MNEM.UNIT     VALUE/NAME     DESCRIPTION
#---------     -----------    ---------------------------
 STRT.S             09:05:41 28-May-21: START TIME 09:05:41 28-May-21
 STOP.S             09:12:44 28-May-21: STOP TIME  09:12:44 28-May-21
 STEP.S                   0.00: STEP TIME
 NULL.                 -999.25: NULL VALUE
 UWI .                     N/A:  UNIQUE WELL IDENTIFIER
 API .                     N/A:  API NUMBER
 UNIT.                     N/A:  LOGGING EQUIPMENT ID
 DCON.         Sperry Drilling:  DIRECTNL CONTR
 DOE .                     N/A:  DOE NUMBER
 MWDS.                    Baku:  MWD SHOP
 SRVC.     Turan Drilling and Engineering:  CONTRACTOR
 CTRY.              Azerbaijan:  COUNTRY NAME
 PROV.                    Baku:  PROVINCE
 STAT.                    Baku:  STATE NAME
 REGN.                   EESSA:  REGION
 BASE.              Azerbaijan:  LOGGING EQUIPMENT BASE LOCATION
 WTYP.                Deviated:  WELL TYPE
 RIG .              East Azeri:  RIG NAME
 WELL.                    D02y:  WELL NAME
 FLD .                     ACG:  FIELD NAME
 COMP.     BP Exploration (Caspian Sea) Ltd.:  COMPANY
 PDAT.          Mean Sea Level:  PERMANENT DATUM
 MDS .        Operator Entered:  MAG DATA SOURCE
 SON .        AZ-XX-0906997291:  JOB NUMBER
 FTOP.          Formation Tops:  FORM TOPS DESC
 ILTD.               Lithology:  INTERP LTH DESC
 SVYD.                  Survey:  SURVEY DESC
 DMOD.             Drill Model:  DRILL MOD DESC
 HPTY.       Minimum Curvature:  HOLE POS TYPE
 NREF.                    Grid:  NORTH REFERENCE
 SPUD.               05-May-21:  SPUD DATE
 DATE.      09.27.28 12-Jun-21:  END TIME
 STIM.      09.27.28 12-May-21:  START TIME
 DMF .             Drill Floor:  DRILL MEAS FROM
 DFST.                        :  DIST FSL TEXT
 DFWT.                        :  DIST FWL TEXT
 CNTY.                        :  COUNTY
 LOC .                        :  LOCATION
 LMF .             Drill Floor:  LOG MEASURED FROM
 DEP .m                2806.40:  DEPTH
 AGAP.m                  43.60:  AIR GAP
 VSNS.m                  -4.42:  VERT SEC N/S
 VSEW.m                  -7.31:  VERT SEC E/W
 APD .m                  43.60:  DEPTH ABOVE PD
 WDMS.m                 151.80:  WD ELEV
 EGL .m                   0.00:  GROUND ELEVATION
 EPD .m                   0.00:  ELEVATION
 AZTC.deg                 6.18:  AZM TOTAL CORR
 GRDC.deg                 0.29:  GRID CORRECTION
 MDEC.deg                 6.47:  MAGNETIC DECL
 MDIP.deg                59.50:  MAGNETIC DIP
 MFLD.nT              50350.00:  MAGNETIC FIELD
 GVFD.g                   1.00:  GRAVITY FIELD
 VSDR.deg               179.08:  VERT SEC DIRECT
 TDD .m                4300.00:  TOTAL DEPTH (DRILLER)
 SDEP.m                2800.00:  START DEPTH
 DFSL.m                   0.00:  DISTANCE FSL
 DFWL.m                   0.00:  DISTANCE FWL
 UTMY.m             4431871.34:  UTM Y
 UTMX.m              538762.90:  UTM X
 WHEW.m                  -7.31:  WELL HEAD E/W
 WHNS.m                  -4.42:  WELL HEAD N/S
 LONG.deg                51.45:  LONGITUDE
 LATI.deg                40.02:  LATITUDE
 TVDS.m                  43.60:  TVDSS CORRECTN
 EKB .m                  43.60:  KB ELEVATION
 EDF .m                  43.60:  DF ELEVATION
 TDL .m                 806.00:  TOTAL DEPTH (LOGGER)
 MAGU.                 1851231:  MAGUTM CHECKSUM
 VSC .                       0:  VS TO CLOSURE
~Parameter Information Block
#MNEM.UNIT       Value        Description
#---------     -----------    ---------------------------
 AV  .mps                 1.60:  Ann Velocity 
 AVMX.mps                 2.00:  Max Ann Veloc 
 AZIF.deg               140.24:  Azm, Final 
 BHAT.        Rotary Steerable:  BHA Type 
 BROT.°/30m               0.50:  Build Rotating 
 BS  .in                  8.50:  Bit Size 
 BTPL.psig              619.00:  Bit Press Loss 
 CABU.                     Yes:  Customer Abuse 
 CGEO.          Ilgar Gurbanov:  Customer Geo 
 COMM.                     ÜøQ:  Run Comments 1 
 TCS .hr                 85.88:  Time Ciculation Ended 
 CV  .mps                 3.30:  Crit Velocity 
 CVMX.mps                 3.50:  Max Crit Veloc 
 DD1 .           Hamid Axmedov:  Direct Drillr 1 
 DD2 .           Teymur Aliyev:  Direct Drillr 2 
 DDSV.               Geo-Pilot:  DD Service 
 DEFF.%                 100.00:  % Det Eff 
 DLRX.°/30m               0.00:  Dogleg Rot Max 
 DLSO.°/30m               1.80:  Dogleg Oriented 
 DLSX.°/30m               3.34:  Dogleg Str Max 
 DRET.      11.50.00 27-May-21:  Drill End Time 
 DRST.      21.13.00 24-May-21:  Drill Start Tim 
 DTIM.hr                 45.11:  Time Drilling 
 EDEP.m                4054.00:  End Depth 
 ENG1.         Almaz Almadatov:  Engineer 1 
 ENG2.           Amrah Tahirov:  Engineer 2 
 ENG3.      Bakhtiyar Jabbarli:  Engineer 3 
 ENG4.          Nazrin Asgarli:  Engineer 4 
 ETIM.      10.00.00 30-May-21:  End Time 
 FLOI.gpm               530.00:  Flow In 
 FLON.gpm               400.00:  Flow In Min 
 FLOS.cptm                0.00:  Fluid Loss 
 FLOX.gpm               560.00:  Flow In Max 
 DFT .        Mineral Oil Base:  Mud Type 
 FTRO.       Formation Presure:  FTWD Run Obj 
 HFLO.                      No:  High Flow 
 HPRE.                      No:  High Pressure 
 HTEM.                      No:  High Temp 
 HYDO.m                   1.80:  Hydro Offset 
 IFIN.deg                73.83:  Inc, Final 
 IMAX.deg                73.83:  Inc Max 
 IMIN.deg                57.86:  Inc Min 
 IMND.m                3259.27:  Inc Min Depth 
 IMXD.m                4045.58:  Inc Max Depth 
 JARR.                     Yes:  Jarring 
 LETM.      11.50.00 27-May-21:  Log End Time 
 LOST.hr                     0:  Lost Rig Time 
 LSTM.      21.13.00 24-May-21:  Log Start Time 
 MDCL.ppm             42500.00:  Mud Chlorides 
 MDES.     Inversion Oil/Synthetic:  Mud Desc 
 DFD .sg                  1.52:  Mud Density 
 MDMN.sg                  1.52:  Dens Mud Min 
 MDMX.sg                  1.52:  Dens Mud Max 
 MOIL.                      70:  Run Mud Oil % 
 MOWR.                   70:30:  Run Mud OWR 
 MSND.                     0.2:  Run Mud Sand % 
 MSOL.                      22:  Run Mud Solids% 
 DFV .spqt               77.00:  Mud Viscosity 
 MWOD.in                  6.75:  MWD Tool OD 
 MWSI.                      No:  Serv Intrp, MWD 
 OTIM.hr                151.01:  Time Operating 
 PCON.          Wear / Scratch:  Pad Condition 
 PMAX.psia            11296.93:  Press Op, Max 
 PV  .cP                 37.00:  Mud PV 
 RUN .                     500:  Run Number 
 ROPA.m/hr               25.00:  ROP Avg 
 ROPN.m/hr                9.00:  ROP Min 
 ROPX.m/hr               28.00:  ROP Max 
 RPMA.rpm               140.00:  RPM Surface Avg 
 RPMN.rpm                90.00:  RPM Surface Min 
 RPMX.rpm               140.00:  RPM Surface Max 
 RRUN.                    0500:  Rig Run Number 
 SAZI.deg               172.17:  Azm, Start 
 SDEP.m                3248.00:  Start Depth 
 SIDD.                      No:  Serv Intrp, DD 
 SINC.deg                57.86:  Inc, Start 
 SPPA.psig             5620.00:  SPP Avg 
 SPPN.psig             5190.00:  SPP Min 
 SPPX.psig             6050.00:  SPP Max 
 STIM.      16.00.00 23-May-21:  Start Time 
 SVCS.                 DD, MWD:  Services 
 SVER.                    9.20:  Sperry Version 
 TDAT.m                 806.00:  Tot Depth Attmp 
 TDDF.                      No:  Trip for DD 
 TDLG.m                 806.00:  Tot Depth Loggd 
 TFF .                      No:  Trip for Fail 
 TQAA.f-kp               12.00:  Torque Abs Avg 
 TQAN.f-kp                8.00:  Torque Abs Min 
 TQAX.f-kp               15.00:  Torque Abs Max 
 TRRT.°/30m               0.30:  Turn Rotating 
 MRT .                  EWR-M5:  Maximum Recorded Temperature 
 TTMX.degC               93.00:  Max Tool Temp 
 VS01.                90649155:  Virtual Str1 SN 
 VS02.                90642264:  Virtual Str2 SN 
 VS03.                90642266:  Virtual Str3 SN 
 VS04.                90642261:  Virtual Str4 SN 
 WBMN.klb                 0.00:  WOB Min 
 WITN.             Anar Khalil:  Customer Rep 
 WITN.           Murad Guliyev:  Customer Rep 2 
 WOBA.klb                13.00:  WOB Avg 
 WOBX.klb                25.00:  WOB Max 
 YP  .lhf2               32.00:  Yield Point 
~Curve Information Block
#MNEM.UNIT                 API CODE     Curve Description
#---------               -----------    ---------------------------
 TIME.HHMMSS            00 000 000 000:  GT Time & Date
 GTDEPTH.m              00 000 000 000:  GT Depth
 GTPQH.psia             00 000 000 000:  GT HR Quartz Pressure
 GTTQ.degC              00 000 000 000:  GT Quartz Temperature
 GTTN.NONE              00 000 000 000:  GT Test Number
 GTET.sec               00 000 000 000:  GT Elapsed Test Time
 GTTVD.m                00 000 000 000:  GT True Vertical Depth
#Other Information
#
#WARRANTY: Halliburton will use its best efforts to furnish customers with 
#accurate information and interpretations that are part of, and incident to, the services 
#provided.  However, Halliburton cannot and does not warrant the accuracy 
#or correctness of such information and interpretations.  Under no circumstances should any 
#such information or interpretation be relied upon as the sole basis for any drilling, 
#completion, production, or financial decision or any procedure involving any risk to the 
#safety of any drilling venture, drilling rig or its crew or any other third party.  The 
#Customer has full responsibility for all drilling, completion and production operation.  
#Halliburton makes no representations or warranties, either expressed or 
#implied, including, but not limited to, the implied warranties of merchantability or fitness 
#for a particular purpose, with respect to the services rendered.  In no event will 
#Halliburton be liable for failure to obtain any particular results or for 
#any damages, including, but not limited to, indirect, special or consequential damages, 
#resulting from the use of any information or interpretation provided by Halliburton.
#
~A           TIME           GTDEPTH  GTPQH  GTTQ  GTTN   GTET   GTTVD  
# ...
   09:08:19.341.28-May-2021 3286.00 3488.74 82.21 15.00 158.22 2493.81
   09:08:19.541.28-May-2021 3286.00 3489.62 82.20 15.00 158.42 2493.81
   09:08:19.741.28-May-2021 3286.00 3492.57 82.20 15.00 158.62 2493.81
   09:08:19.941.28-May-2021 3286.00 3489.71 82.20 15.00 158.82 2493.81
   09:08:20.141.28-May-2021 3286.00 3493.19 82.20 15.00 159.02 2493.81
   09:08:20.341.28-May-2021 3286.00 3493.19 82.20 15.00 159.22 2493.81
   09:08:20.542.28-May-2021 3286.00 3494.19 82.20 15.00 159.42 2493.81
   09:08:20.742.28-May-2021 3286.00 3495.10 82.20 15.00 159.62 2493.81
   09:08:20.942.28-May-2021 3286.00 3493.93 82.20 15.00 159.82 2493.81
   09:08:21.142.28-May-2021 3286.00 3494.01 82.20 15.00 160.02 2493.81
   09:08:21.342.28-May-2021 3286.00 3494.01 82.20 15.00 160.22 2493.81
   09:08:21.542.28-May-2021 3286.00 3495.35 82.20 15.00 160.42 2493.81
   09:08:21.742.28-May-2021 3286.00 3493.39 82.20 15.00 160.62 2493.81
   09:08:21.942.28-May-2021 3286.00 3495.08 82.20 15.00 160.82 2493.81
   09:08:22.142.28-May-2021 3286.00 3495.42 82.20 15.00 161.02 2493.81
   09:08:22.342.28-May-2021 3286.00 3495.42 82.20 15.00 161.22 2493.81
   09:08:22.542.28-May-2021 3286.00 3494.31 82.20 15.00 161.42 2493.81
   09:08:22.742.28-May-2021 3286.00 3498.77 82.20 15.00 161.62 2493.81
   09:08:22.942.28-May-2021 3286.00 3500.53 82.20 15.00 161.82 2493.81
   09:08:23.142.28-May-2021 3286.00 3498.84 82.20 15.00 162.02 2493.81
   09:08:23.342.28-May-2021 3286.00 3498.84 82.20 15.00 162.22 2493.81
   09:08:23.542.28-May-2021 3286.00 3497.57 82.20 15.00 162.42 2493.81
   09:08:23.742.28-May-2021 3286.00 3498.35 82.20 15.00 162.62 2493.81
   09:08:23.942.28-May-2021 3286.00 3501.50 82.20 15.00 162.82 2493.81
   09:08:24.142.28-May-2021 3286.00 3499.80 82.20 15.00 163.02 2493.81
   09:08:24.342.28-May-2021 3286.00 3499.80 82.20 15.00 163.22 2493.81
   09:08:24.542.28-May-2021 3286.00 3634.69 82.19 15.00 163.42 2493.81
   09:08:24.742.28-May-2021 3286.00 3878.28 82.19 15.00 163.62 2493.81
   09:08:24.942.28-May-2021 3286.00 3968.73 82.19 15.00 163.82 2493.81
   09:08:25.142.28-May-2021 3286.00 4001.12 82.19 15.00 164.02 2493.81
   09:08:25.342.28-May-2021 3286.00 4001.12 82.19 15.00 164.22 2493.81
   09:08:25.542.28-May-2021 3286.00 4013.22 82.19 15.00 164.42 2493.81
   09:08:25.742.28-May-2021 3286.00 4014.34 82.19 15.00 164.62 2493.81
   09:08:25.942.28-May-2021 3286.00 4014.15 82.19 15.00 164.82 2493.81
   09:08:26.142.28-May-2021 3286.00 4016.16 82.19 15.00 165.02 2493.81
   09:08:26.342.28-May-2021 3286.00 4016.16 82.19 15.00 165.22 2493.81
   09:08:26.542.28-May-2021 3286.00 4016.05 82.19 15.00 165.42 2493.81
   09:08:26.742.28-May-2021 3286.00 4016.06 82.19 15.00 165.62 2493.81
   09:08:26.942.28-May-2021 3286.00 4015.25 82.19 15.00 165.82 2493.81
   09:08:27.142.28-May-2021 3286.00 4017.16 82.19 15.00 166.02 2493.81
   09:08:27.342.28-May-2021 3286.00 4017.16 82.19 15.00 166.22 2493.81
   09:08:27.542.28-May-2021 3286.00 4016.83 82.20 15.00 166.42 2493.81
   09:08:27.742.28-May-2021 3286.00 4016.49 82.20 15.00 166.62 2493.81
   09:08:27.943.28-May-2021 3286.00 4016.78 82.20 15.00 166.82 2493.81
   09:08:28.143.28-May-2021 3286.00 4017.22 82.20 15.00 167.02 2493.81
   09:08:28.343.28-May-2021 3286.00 4017.22 82.20 15.00 167.22 2493.81
   09:08:28.543.28-May-2021 3286.00 4017.14 82.20 15.00 167.42 2493.81
   09:08:28.743.28-May-2021 3286.00 4017.12 82.20 15.00 167.62 2493.81
   09:08:28.943.28-May-2021 3286.00 4017.07 82.20 15.00 167.82 2493.81
   09:08:29.143.28-May-2021 3286.00 4017.09 82.20 15.00 168.02 2493.81
   09:08:29.343.28-May-2021 3286.00 4017.09 82.20 15.00 168.22 2493.81
   09:08:29.543.28-May-2021 3286.00 4017.05 82.20 15.00 168.42 2493.81
   09:08:29.743.28-May-2021 3286.00 4017.05 82.20 15.00 168.62 2493.81
   09:08:29.943.28-May-2021 3286.00 4017.03 82.20 15.00 168.82 2493.81
   09:08:30.143.28-May-2021 3286.00 4017.01 82.20 15.00 169.02 2493.81
   09:08:30.343.28-May-2021 3286.00 4017.01 82.20 15.00 169.22 2493.81
   09:08:30.543.28-May-2021 3286.00 4017.06 82.20 15.00 169.42 2493.81
   09:08:30.743.28-May-2021 3286.00 4017.54 82.20 15.00 169.62 2493.81
   09:08:30.943.28-May-2021 3286.00 4017.44 82.20 15.00 169.82 2493.81
   09:08:31.143.28-May-2021 3286.00 4017.44 82.20 15.00 170.02 2493.81
   09:08:31.343.28-May-2021 3286.00 4017.44 82.20 15.00 170.22 2493.81
   09:08:31.543.28-May-2021 3286.00 4017.40 82.20 15.00 170.42 2493.81
   09:08:31.743.28-May-2021 3286.00 4017.35 82.20 15.00 170.62 2493.81
   09:08:31.943.28-May-2021 3286.00 4017.32 82.20 15.00 170.82 2493.81
   09:08:32.143.28-May-2021 3286.00 4017.30 82.20 15.00 171.02 2493.81
   09:08:32.343.28-May-2021 3286.00 4017.30 82.20 15.00 171.22 2493.81
   09:08:32.543.28-May-2021 3286.00 4017.28 82.20 15.00 171.42 2493.81
   09:08:32.743.28-May-2021 3286.00 4017.27 82.20 15.00 171.62 2493.81
   09:08:32.943.28-May-2021 3286.00 4017.25 82.20 15.00 171.82 2493.81
   09:08:33.143.28-May-2021 3286.00 4016.82 82.20 15.00 172.02 2493.81
   09:08:33.343.28-May-2021 3286.00 4016.82 82.20 15.00 172.22 2493.81
   09:08:33.543.28-May-2021 3286.00 4017.61 82.20 15.00 172.42 2493.81
   09:08:33.743.28-May-2021 3286.00 4017.57 82.20 15.00 172.62 2493.81
   09:08:33.943.28-May-2021 3286.00 4017.56 82.20 15.00 172.82 2493.81
   09:08:34.143.28-May-2021 3286.00 4017.52 82.20 15.00 173.02 2493.81
   09:08:34.343.28-May-2021 3286.00 4017.52 82.20 15.00 173.22 2493.81
   09:08:34.543.28-May-2021 3286.00 4017.77 82.20 15.00 173.42 2493.81
   09:08:34.743.28-May-2021 3286.00 4017.66 82.20 15.00 173.62 2493.81
   09:08:34.943.28-May-2021 3286.00 4017.07 82.20 15.00 173.82 2493.81
   09:08:35.143.28-May-2021 3286.00 4017.83 82.20 15.00 174.02 2493.81
   09:08:35.344.28-May-2021 3286.00 4017.83 82.20 15.00 174.22 2493.81
   09:08:35.544.28-May-2021 3286.00 4017.70 82.20 15.00 174.42 2493.81
   09:08:35.744.28-May-2021 3286.00 4017.68 82.20 15.00 174.62 2493.81
   09:08:35.944.28-May-2021 3286.00 4016.85 82.20 15.00 174.82 2493.81
   09:08:36.144.28-May-2021 3286.00 4017.97 82.20 15.00 175.02 2493.81
   09:08:36.344.28-May-2021 3286.00 4017.97 82.20 15.00 175.22 2493.81
   09:08:36.544.28-May-2021 3286.00 4017.73 82.20 15.00 175.42 2493.81
   09:08:36.744.28-May-2021 3286.00 4017.71 82.20 15.00 175.62 2493.81
   09:08:36.944.28-May-2021 3286.00 4017.69 82.20 15.00 175.82 2493.81
   09:08:37.144.28-May-2021 3286.00 4017.68 82.20 15.00 176.02 2493.81
   09:08:37.344.28-May-2021 3286.00 4017.68 82.20 15.00 176.22 2493.81
   09:08:37.544.28-May-2021 3286.00 4017.64 82.20 15.00 176.42 2493.81
   09:08:37.744.28-May-2021 3286.00 4017.63 82.20 15.00 176.62 2493.81
   09:08:37.944.28-May-2021 3286.00 4017.60 82.20 15.00 176.82 2493.81
   09:08:38.144.28-May-2021 3286.00 4017.60 82.20 15.00 177.02 2493.81
   09:08:38.344.28-May-2021 3286.00 4017.60 82.20 15.00 177.22 2493.81
   09:08:38.544.28-May-2021 3286.00 4017.25 82.20 15.00 177.42 2493.81
   09:08:38.744.28-May-2021 3286.00 4017.46 82.20 15.00 177.62 2493.81
   09:08:38.944.28-May-2021 3286.00 4017.84 82.20 15.00 177.82 2493.81
   09:08:39.144.28-May-2021 3286.00 4017.74 82.20 15.00 178.02 2493.81
   09:08:39.344.28-May-2021 3286.00 4017.74 82.20 15.00 178.22 2493.81
   09:08:39.544.28-May-2021 3286.00 4017.76 82.20 15.00 178.42 2493.81
   09:08:39.744.28-May-2021 3286.00 4017.69 82.20 15.00 178.62 2493.81
   09:08:39.944.28-May-2021 3286.00 4017.68 82.20 15.00 178.82 2493.81
   09:08:40.144.28-May-2021 3286.00 4017.67 82.20 15.00 179.02 2493.81
   09:08:40.344.28-May-2021 3286.00 4017.67 82.20 15.00 179.22 2493.81
   09:08:40.544.28-May-2021 3286.00 4017.65 82.20 15.00 179.42 2493.81
   09:08:40.744.28-May-2021 3286.00 4017.63 82.20 15.00 179.62 2493.81
   09:08:40.944.28-May-2021 3286.00 4017.62 82.20 15.00 179.82 2493.81
   09:08:41.144.28-May-2021 3286.00 4017.62 82.20 15.00 180.02 2493.81
   09:08:41.344.28-May-2021 3286.00 4017.62 82.20 15.00 180.22 2493.81
   09:08:41.544.28-May-2021 3286.00 4017.90 82.20 15.00 180.42 2493.81
   09:08:41.744.28-May-2021 3286.00 4017.78 82.20 15.00 180.62 2493.81
