~Version Information
 VERS.                  2.0:   CWLS log ASCII Standard -VERSION 2.0
 WRAP.                   NO:   One line per depth step
~Well Information Block
#MNEM.UNIT     VALUE/NAME     DESCRIPTION
#---------     -----------    ---------------------------
 STRT.S             05:48:37 28-May-21: START TIME 05:48:37 28-May-21
 STOP.S             05:55:44 28-May-21: STOP TIME  05:55:44 28-May-21
 STEP.S                   0.00: STEP TIME
 NULL.                 -999.25: NULL VALUE
 UWI .                     N/A:  UNIQUE WELL IDENTIFIER
 API .                     N/A:  API NUMBER
 UNIT.                     N/A:  LOGGING EQUIPMENT ID
 DCON.         Sperry Drilling:  DIRECTNL CONTR
 DOE .                     N/A:  DOE NUMBER
 MWDS.                    Baku:  MWD SHOP
 SRVC.     Turan Drilling and Engineering:  CONTRACTOR
 CTRY.              Azerbaijan:  COUNTRY NAME
 PROV.                    Baku:  PROVINCE
 STAT.                    Baku:  STATE NAME
 REGN.                   EESSA:  REGION
 BASE.              Azerbaijan:  LOGGING EQUIPMENT BASE LOCATION
 WTYP.                Deviated:  WELL TYPE
 RIG .              East Azeri:  RIG NAME
 WELL.                    D02y:  WELL NAME
 FLD .                     ACG:  FIELD NAME
 COMP.     BP Exploration (Caspian Sea) Ltd.:  COMPANY
 PDAT.          Mean Sea Level:  PERMANENT DATUM
 MDS .        Operator Entered:  MAG DATA SOURCE
 SON .        AZ-XX-0906997291:  JOB NUMBER
 FTOP.          Formation Tops:  FORM TOPS DESC
 ILTD.               Lithology:  INTERP LTH DESC
 SVYD.                  Survey:  SURVEY DESC
 DMOD.             Drill Model:  DRILL MOD DESC
 HPTY.       Minimum Curvature:  HOLE POS TYPE
 NREF.                    Grid:  NORTH REFERENCE
 SPUD.               05-May-21:  SPUD DATE
 DATE.      09.27.28 12-Jun-21:  END TIME
 STIM.      09.27.28 12-May-21:  START TIME
 DMF .             Drill Floor:  DRILL MEAS FROM
 DFST.                        :  DIST FSL TEXT
 DFWT.                        :  DIST FWL TEXT
 CNTY.                        :  COUNTY
 LOC .                        :  LOCATION
 LMF .             Drill Floor:  LOG MEASURED FROM
 DEP .m                2806.40:  DEPTH
 AGAP.m                  43.60:  AIR GAP
 VSNS.m                  -4.42:  VERT SEC N/S
 VSEW.m                  -7.31:  VERT SEC E/W
 APD .m                  43.60:  DEPTH ABOVE PD
 WDMS.m                 151.80:  WD ELEV
 EGL .m                   0.00:  GROUND ELEVATION
 EPD .m                   0.00:  ELEVATION
 AZTC.deg                 6.18:  AZM TOTAL CORR
 GRDC.deg                 0.29:  GRID CORRECTION
 MDEC.deg                 6.47:  MAGNETIC DECL
 MDIP.deg                59.50:  MAGNETIC DIP
 MFLD.nT              50350.00:  MAGNETIC FIELD
 GVFD.g                   1.00:  GRAVITY FIELD
 VSDR.deg               179.08:  VERT SEC DIRECT
 TDD .m                4300.00:  TOTAL DEPTH (DRILLER)
 SDEP.m                2800.00:  START DEPTH
 DFSL.m                   0.00:  DISTANCE FSL
 DFWL.m                   0.00:  DISTANCE FWL
 UTMY.m             4431871.34:  UTM Y
 UTMX.m              538762.90:  UTM X
 WHEW.m                  -7.31:  WELL HEAD E/W
 WHNS.m                  -4.42:  WELL HEAD N/S
 LONG.deg                51.45:  LONGITUDE
 LATI.deg                40.02:  LATITUDE
 TVDS.m                  43.60:  TVDSS CORRECTN
 EKB .m                  43.60:  KB ELEVATION
 EDF .m                  43.60:  DF ELEVATION
 TDL .m                 806.00:  TOTAL DEPTH (LOGGER)
 MAGU.                 1851231:  MAGUTM CHECKSUM
 VSC .                       0:  VS TO CLOSURE
~Parameter Information Block
#MNEM.UNIT       Value        Description
#---------     -----------    ---------------------------
 AV  .mps                 1.60:  Ann Velocity 
 AVMX.mps                 2.00:  Max Ann Veloc 
 AZIF.deg               140.24:  Azm, Final 
 BHAT.        Rotary Steerable:  BHA Type 
 BROT.°/30m               0.50:  Build Rotating 
 BS  .in                  8.50:  Bit Size 
 BTPL.psig              619.00:  Bit Press Loss 
 CABU.                     Yes:  Customer Abuse 
 CGEO.          Ilgar Gurbanov:  Customer Geo 
 COMM.                     dAY:  Run Comments 1 
 TCS .hr                 85.88:  Time Ciculation Ended 
 CV  .mps                 3.30:  Crit Velocity 
 CVMX.mps                 3.50:  Max Crit Veloc 
 DD1 .           Hamid Axmedov:  Direct Drillr 1 
 DD2 .           Teymur Aliyev:  Direct Drillr 2 
 DDSV.               Geo-Pilot:  DD Service 
 DEFF.%                 100.00:  % Det Eff 
 DLRX.°/30m               0.00:  Dogleg Rot Max 
 DLSO.°/30m               1.80:  Dogleg Oriented 
 DLSX.°/30m               3.34:  Dogleg Str Max 
 DRET.      11.50.00 27-May-21:  Drill End Time 
 DRST.      21.13.00 24-May-21:  Drill Start Tim 
 DTIM.hr                 45.11:  Time Drilling 
 EDEP.m                4054.00:  End Depth 
 ENG1.         Almaz Almadatov:  Engineer 1 
 ENG2.           Amrah Tahirov:  Engineer 2 
 ENG3.      Bakhtiyar Jabbarli:  Engineer 3 
 ENG4.          Nazrin Asgarli:  Engineer 4 
 ETIM.      10.00.00 30-May-21:  End Time 
 FLOI.gpm               530.00:  Flow In 
 FLON.gpm               400.00:  Flow In Min 
 FLOS.cptm                0.00:  Fluid Loss 
 FLOX.gpm               560.00:  Flow In Max 
 DFT .        Mineral Oil Base:  Mud Type 
 FTRO.       Formation Presure:  FTWD Run Obj 
 HFLO.                      No:  High Flow 
 HPRE.                      No:  High Pressure 
 HTEM.                      No:  High Temp 
 HYDO.m                   1.80:  Hydro Offset 
 IFIN.deg                73.83:  Inc, Final 
 IMAX.deg                73.83:  Inc Max 
 IMIN.deg                57.86:  Inc Min 
 IMND.m                3259.27:  Inc Min Depth 
 IMXD.m                4045.58:  Inc Max Depth 
 JARR.                     Yes:  Jarring 
 LETM.      11.50.00 27-May-21:  Log End Time 
 LOST.hr                     0:  Lost Rig Time 
 LSTM.      21.13.00 24-May-21:  Log Start Time 
 MDCL.ppm             42500.00:  Mud Chlorides 
 MDES.     Inversion Oil/Synthetic:  Mud Desc 
 DFD .sg                  1.52:  Mud Density 
 MDMN.sg                  1.52:  Dens Mud Min 
 MDMX.sg                  1.52:  Dens Mud Max 
 MOIL.                      70:  Run Mud Oil % 
 MOWR.                   70:30:  Run Mud OWR 
 MSND.                     0.2:  Run Mud Sand % 
 MSOL.                      22:  Run Mud Solids% 
 DFV .spqt               77.00:  Mud Viscosity 
 MWOD.in                  6.75:  MWD Tool OD 
 MWSI.                      No:  Serv Intrp, MWD 
 OTIM.hr                151.01:  Time Operating 
 PCON.          Wear / Scratch:  Pad Condition 
 PMAX.psia            11296.93:  Press Op, Max 
 PV  .cP                 37.00:  Mud PV 
 RUN .                     500:  Run Number 
 ROPA.m/hr               25.00:  ROP Avg 
 ROPN.m/hr                9.00:  ROP Min 
 ROPX.m/hr               28.00:  ROP Max 
 RPMA.rpm               140.00:  RPM Surface Avg 
 RPMN.rpm                90.00:  RPM Surface Min 
 RPMX.rpm               140.00:  RPM Surface Max 
 RRUN.                    0500:  Rig Run Number 
 SAZI.deg               172.17:  Azm, Start 
 SDEP.m                3248.00:  Start Depth 
 SIDD.                      No:  Serv Intrp, DD 
 SINC.deg                57.86:  Inc, Start 
 SPPA.psig             5620.00:  SPP Avg 
 SPPN.psig             5190.00:  SPP Min 
 SPPX.psig             6050.00:  SPP Max 
 STIM.      16.00.00 23-May-21:  Start Time 
 SVCS.                 DD, MWD:  Services 
 SVER.                    9.20:  Sperry Version 
 TDAT.m                 806.00:  Tot Depth Attmp 
 TDDF.                      No:  Trip for DD 
 TDLG.m                 806.00:  Tot Depth Loggd 
 TFF .                      No:  Trip for Fail 
 TQAA.f-kp               12.00:  Torque Abs Avg 
 TQAN.f-kp                8.00:  Torque Abs Min 
 TQAX.f-kp               15.00:  Torque Abs Max 
 TRRT.°/30m               0.30:  Turn Rotating 
 MRT .                  EWR-M5:  Maximum Recorded Temperature 
 TTMX.degC               93.00:  Max Tool Temp 
 VS01.                90649155:  Virtual Str1 SN 
 VS02.                90642264:  Virtual Str2 SN 
 VS03.                90642266:  Virtual Str3 SN 
 VS04.                90642261:  Virtual Str4 SN 
 WBMN.klb                 0.00:  WOB Min 
 WITN.             Anar Khalil:  Customer Rep 
 WITN.           Murad Guliyev:  Customer Rep 2 
 WOBA.klb                13.00:  WOB Avg 
 WOBX.klb                25.00:  WOB Max 
 YP  .lhf2               32.00:  Yield Point 
~Curve Information Block
#MNEM.UNIT                 API CODE     Curve Description
#---------               -----------    ---------------------------
 TIME.HHMMSS            00 000 000 000:  GT Time & Date
 GTDEPTH.m              00 000 000 000:  GT Depth
 GTPQH.psia             00 000 000 000:  GT HR Quartz Pressure
 GTTQ.degC              00 000 000 000:  GT Quartz Temperature
 GTTN.NONE              00 000 000 000:  GT Test Number
 GTET.sec               00 000 000 000:  GT Elapsed Test Time
 GTTVD.m                00 000 000 000:  GT True Vertical Depth
#Other Information
#
#WARRANTY: Halliburton will use its best efforts to furnish customers with 
#accurate information and interpretations that are part of, and incident to, the services 
#provided.  However, Halliburton cannot and does not warrant the accuracy 
#or correctness of such information and interpretations.  Under no circumstances should any 
#such information or interpretation be relied upon as the sole basis for any drilling, 
#completion, production, or financial decision or any procedure involving any risk to the 
#safety of any drilling venture, drilling rig or its crew or any other third party.  The 
#Customer has full responsibility for all drilling, completion and production operation.  
#Halliburton makes no representations or warranties, either expressed or 
#implied, including, but not limited to, the implied warranties of merchantability or fitness 
#for a particular purpose, with respect to the services rendered.  In no event will 
#Halliburton be liable for failure to obtain any particular results or for 
#any damages, including, but not limited to, indirect, special or consequential damages, 
#resulting from the use of any information or interpretation provided by Halliburton.
#
~A           TIME           GTDEPTH  GTPQH  GTTQ  GTTN   GTET   GTTVD  
# ...
   05:52:23.873.28-May-2021 3439.00 4152.70 82.94 11.00 226.09 2568.67
   05:52:24.073.28-May-2021 3439.00 4152.70 82.94 11.00 226.29 2568.67
   05:52:24.273.28-May-2021 3439.00 4153.60 82.94 11.00 226.49 2568.67
   05:52:24.473.28-May-2021 3439.00 4153.14 82.94 11.00 226.69 2568.67
   05:52:24.673.28-May-2021 3439.00 4152.83 82.94 11.00 226.89 2568.67
   05:52:24.873.28-May-2021 3439.00 4153.83 82.94 11.00 227.09 2568.67
   05:52:25.073.28-May-2021 3439.00 4153.83 82.94 11.00 227.29 2568.67
   05:52:25.273.28-May-2021 3439.00 4154.05 82.94 11.00 227.50 2568.67
   05:52:25.473.28-May-2021 3439.00 4152.26 82.94 11.00 227.70 2568.67
   05:52:25.673.28-May-2021 3439.00 4154.08 82.94 11.00 227.90 2568.67
   05:52:25.873.28-May-2021 3439.00 4154.04 82.94 11.00 228.10 2568.67
   05:52:26.073.28-May-2021 3439.00 4154.04 82.94 11.00 228.30 2568.67
   05:52:26.274.28-May-2021 3439.00 4154.15 82.94 11.00 228.50 2568.67
   05:52:26.474.28-May-2021 3439.00 4154.17 82.94 11.00 228.70 2568.67
   05:52:26.674.28-May-2021 3439.00 4154.34 82.94 11.00 228.90 2568.67
   05:52:26.874.28-May-2021 3439.00 4154.32 82.94 11.00 229.10 2568.67
   05:52:27.074.28-May-2021 3439.00 4154.32 82.94 11.00 229.30 2568.67
   05:52:27.274.28-May-2021 3439.00 4154.45 82.94 11.00 229.50 2568.67
   05:52:27.474.28-May-2021 3439.00 4154.52 82.94 11.00 229.70 2568.67
   05:52:27.674.28-May-2021 3439.00 4154.59 82.94 11.00 229.90 2568.67
   05:52:27.874.28-May-2021 3439.00 4154.63 82.94 11.00 230.10 2568.67
   05:52:28.074.28-May-2021 3439.00 4154.63 82.94 11.00 230.30 2568.67
   05:52:28.274.28-May-2021 3439.00 4154.74 82.94 11.00 230.50 2568.67
   05:52:28.474.28-May-2021 3439.00 4154.08 82.94 11.00 230.70 2568.67
   05:52:28.675.28-May-2021 3439.00 4153.90 82.94 11.00 230.90 2568.67
   05:52:28.875.28-May-2021 3439.00 4154.88 82.94 11.00 231.10 2568.67
   05:52:29.075.28-May-2021 3439.00 4154.88 82.94 11.00 231.30 2568.67
   05:52:29.275.28-May-2021 3439.00 4155.09 82.94 11.00 231.50 2568.67
   05:52:29.475.28-May-2021 3439.00 4155.02 82.94 11.00 231.70 2568.67
   05:52:29.675.28-May-2021 3439.00 4155.13 82.94 11.00 231.90 2568.67
   05:52:29.875.28-May-2021 3439.00 4155.15 82.94 11.00 232.10 2568.67
   05:52:30.075.28-May-2021 3439.00 4155.15 82.94 11.00 232.30 2568.67
   05:52:30.275.28-May-2021 3439.00 4155.25 82.94 11.00 232.50 2568.67
   05:52:30.475.28-May-2021 3439.00 4155.34 82.94 11.00 232.70 2568.67
   05:52:30.675.28-May-2021 3439.00 4155.36 82.94 11.00 232.90 2568.67
   05:52:30.875.28-May-2021 3439.00 4155.40 82.94 11.00 233.10 2568.67
   05:52:31.076.28-May-2021 3439.00 4155.40 82.94 11.00 233.30 2568.67
   05:52:31.276.28-May-2021 3439.00 4153.83 82.94 11.00 233.50 2568.67
   05:52:31.476.28-May-2021 3439.00 4155.59 82.94 11.00 233.70 2568.67
   05:52:31.676.28-May-2021 3439.00 4155.56 82.94 11.00 233.90 2568.67
   05:52:31.876.28-May-2021 3439.00 4155.68 82.94 11.00 234.10 2568.67
   05:52:32.076.28-May-2021 3439.00 4155.68 82.94 11.00 234.30 2568.67
   05:52:32.276.28-May-2021 3439.00 4155.92 82.94 11.00 234.50 2568.67
   05:52:32.476.28-May-2021 3439.00 4155.71 82.94 11.00 234.70 2568.67
   05:52:32.676.28-May-2021 3439.00 4155.89 82.94 11.00 234.90 2568.67
   05:52:32.876.28-May-2021 3439.00 4153.96 82.94 11.00 235.10 2568.67
   05:52:33.076.28-May-2021 3439.00 4153.96 82.94 11.00 235.30 2568.67
   05:52:33.276.28-May-2021 3439.00 4155.92 82.94 11.00 235.50 2568.67
   05:52:33.477.28-May-2021 3439.00 4156.07 82.94 11.00 235.70 2568.67
   05:52:33.677.28-May-2021 3439.00 4156.03 82.94 11.00 235.90 2568.67
   05:52:33.877.28-May-2021 3439.00 4154.44 82.94 11.00 236.10 2568.67
   05:52:34.077.28-May-2021 3439.00 4154.44 82.94 11.00 236.30 2568.67
   05:52:34.277.28-May-2021 3439.00 4156.13 82.94 11.00 236.50 2568.67
   05:52:34.477.28-May-2021 3439.00 4156.38 82.94 11.00 236.70 2568.67
   05:52:34.677.28-May-2021 3439.00 4156.33 82.94 11.00 236.90 2568.67
   05:52:34.877.28-May-2021 3439.00 4156.42 82.94 11.00 237.10 2568.67
   05:52:35.077.28-May-2021 3439.00 4156.42 82.94 11.00 237.30 2568.67
   05:52:35.277.28-May-2021 3439.00 4156.53 82.94 11.00 237.50 2568.67
   05:52:35.477.28-May-2021 3439.00 4156.56 82.94 11.00 237.70 2568.67
   05:52:35.677.28-May-2021 3439.00 4156.64 82.94 11.00 237.90 2568.67
   05:52:35.878.28-May-2021 3439.00 4156.66 82.94 11.00 238.10 2568.67
   05:52:36.078.28-May-2021 3439.00 4156.66 82.94 11.00 238.30 2568.67
   05:52:36.278.28-May-2021 3439.00 4155.43 82.94 11.00 238.50 2568.67
   05:52:36.478.28-May-2021 3439.00 4156.46 82.94 11.00 238.70 2568.67
   05:52:36.678.28-May-2021 3439.00 4156.82 82.94 11.00 238.90 2568.67
   05:52:36.878.28-May-2021 3439.00 4156.89 82.94 11.00 239.10 2568.67
   05:52:37.078.28-May-2021 3439.00 4156.89 82.94 11.00 239.30 2568.67
   05:52:37.278.28-May-2021 3439.00 4157.00 82.94 11.00 239.50 2568.67
   05:52:37.478.28-May-2021 3439.00 4157.08 82.94 11.00 239.70 2568.67
   05:52:37.678.28-May-2021 3439.00 4157.09 82.94 11.00 239.90 2568.67
   05:52:37.878.28-May-2021 3439.00 4157.19 82.94 11.00 240.10 2568.67
   05:52:38.078.28-May-2021 3439.00 4157.19 82.94 11.00 240.30 2568.67
   05:52:38.279.28-May-2021 3439.00 4157.27 82.94 11.00 240.50 2568.67
   05:52:38.479.28-May-2021 3439.00 4157.31 82.94 11.00 240.70 2568.67
   05:52:38.679.28-May-2021 3439.00 4157.38 82.94 11.00 240.90 2568.67
   05:52:38.879.28-May-2021 3439.00 4157.41 82.94 11.00 241.10 2568.67
   05:52:39.079.28-May-2021 3439.00 4157.41 82.94 11.00 241.30 2568.67
   05:52:39.279.28-May-2021 3439.00 4157.47 82.94 11.00 241.50 2568.67
   05:52:39.479.28-May-2021 3439.00 4157.45 82.94 11.00 241.70 2568.67
   05:52:39.679.28-May-2021 3439.00 4157.65 82.94 11.00 241.90 2568.67
   05:52:39.879.28-May-2021 3439.00 4155.74 82.94 11.00 242.10 2568.67
   05:52:40.079.28-May-2021 3439.00 4155.74 82.94 11.00 242.30 2568.67
   05:52:40.279.28-May-2021 3439.00 4157.68 82.94 11.00 242.50 2568.67
   05:52:40.479.28-May-2021 3439.00 4157.84 82.94 11.00 242.70 2568.67
   05:52:40.680.28-May-2021 3439.00 4155.91 82.94 11.00 242.90 2568.67
   05:52:40.880.28-May-2021 3439.00 4158.06 82.94 11.00 243.10 2568.67
   05:52:41.080.28-May-2021 3439.00 4158.06 82.94 11.00 243.30 2568.67
   05:52:41.280.28-May-2021 3439.00 4158.01 82.94 11.00 243.50 2568.67
   05:52:41.480.28-May-2021 3439.00 4158.00 82.94 11.00 243.70 2568.67
   05:52:41.680.28-May-2021 3439.00 4157.36 82.94 11.00 243.90 2568.67
   05:52:41.880.28-May-2021 3439.00 4157.20 82.94 11.00 244.10 2568.67
   05:52:42.080.28-May-2021 3439.00 4157.20 82.94 11.00 244.30 2568.67
   05:52:42.280.28-May-2021 3439.00 4158.17 82.94 11.00 244.50 2568.67
   05:52:42.480.28-May-2021 3439.00 4158.36 82.94 11.00 244.70 2568.67
   05:52:42.680.28-May-2021 3439.00 4158.34 82.94 11.00 244.90 2568.67
   05:52:42.880.28-May-2021 3439.00 4158.42 82.94 11.00 245.10 2568.67
   05:52:43.081.28-May-2021 3439.00 4158.42 82.94 11.00 245.30 2568.67
   05:52:43.281.28-May-2021 3439.00 4158.53 82.94 11.00 245.50 2568.67
   05:52:43.481.28-May-2021 3439.00 4158.59 82.94 11.00 245.70 2568.67
   05:52:43.681.28-May-2021 3439.00 4158.60 82.94 11.00 245.90 2568.67
   05:52:43.881.28-May-2021 3439.00 4158.67 82.94 11.00 246.10 2568.67
   05:52:44.081.28-May-2021 3439.00 4158.67 82.94 11.00 246.30 2568.67
   05:52:44.281.28-May-2021 3439.00 4156.88 82.94 11.00 246.50 2568.67
   05:52:44.481.28-May-2021 3439.00 4159.03 82.94 11.00 246.70 2568.67
   05:52:44.681.28-May-2021 3439.00 4158.83 82.94 11.00 246.90 2568.67
   05:52:44.881.28-May-2021 3439.00 4158.97 82.94 11.00 247.10 2568.67
   05:52:45.081.28-May-2021 3439.00 4158.97 82.94 11.00 247.30 2568.67
   05:52:45.281.28-May-2021 3439.00 4159.01 82.95 11.00 247.50 2568.67
   05:52:45.482.28-May-2021 3439.00 4159.07 82.95 11.00 247.70 2568.67
   05:52:45.682.28-May-2021 3439.00 4159.15 82.95 11.00 247.90 2568.67
   05:52:45.882.28-May-2021 3439.00 4159.20 82.95 11.00 248.10 2568.67
   05:52:46.082.28-May-2021 3439.00 4159.20 82.95 11.00 248.30 2568.67
   05:52:46.282.28-May-2021 3439.00 4159.27 82.95 11.00 248.50 2568.67
