~Version Information
 VERS.                  2.0:   CWLS log ASCII Standard -VERSION 2.0
 WRAP.                   NO:   One line per depth step
~Well Information Block
#MNEM.UNIT     VALUE/NAME     DESCRIPTION
#---------     -----------    ---------------------------
 STRT.S             23:52:35 27-May-21: START TIME 23:52:35 27-May-21
 STOP.S             23:59:20 27-May-21: STOP TIME  23:59:20 27-May-21
 STEP.S                   0.00: STEP TIME
 NULL.                 -999.25: NULL VALUE
 UWI .                     N/A:  UNIQUE WELL IDENTIFIER
 API .                     N/A:  API NUMBER
 UNIT.                     N/A:  LOGGING EQUIPMENT ID
 DCON.         Sperry Drilling:  DIRECTNL CONTR
 DOE .                     N/A:  DOE NUMBER
 MWDS.                    Baku:  MWD SHOP
 SRVC.     Turan Drilling and Engineering:  CONTRACTOR
 CTRY.              Azerbaijan:  COUNTRY NAME
 PROV.                    Baku:  PROVINCE
 STAT.                    Baku:  STATE NAME
 REGN.                   EESSA:  REGION
 BASE.              Azerbaijan:  LOGGING EQUIPMENT BASE LOCATION
 WTYP.                Deviated:  WELL TYPE
 RIG .              East Azeri:  RIG NAME
 WELL.                    D02y:  WELL NAME
 FLD .                     ACG:  FIELD NAME
 COMP.     BP Exploration (Caspian Sea) Ltd.:  COMPANY
 PDAT.          Mean Sea Level:  PERMANENT DATUM
 MDS .        Operator Entered:  MAG DATA SOURCE
 SON .        AZ-XX-0906997291:  JOB NUMBER
 FTOP.          Formation Tops:  FORM TOPS DESC
 ILTD.               Lithology:  INTERP LTH DESC
 SVYD.                  Survey:  SURVEY DESC
 DMOD.             Drill Model:  DRILL MOD DESC
 HPTY.       Minimum Curvature:  HOLE POS TYPE
 NREF.                    Grid:  NORTH REFERENCE
 SPUD.               05-May-21:  SPUD DATE
 DATE.      09.27.28 12-Jun-21:  END TIME
 STIM.      09.27.28 12-May-21:  START TIME
 DMF .             Drill Floor:  DRILL MEAS FROM
 DFST.                        :  DIST FSL TEXT
 DFWT.                        :  DIST FWL TEXT
 CNTY.                        :  COUNTY
 LOC .                        :  LOCATION
 LMF .             Drill Floor:  LOG MEASURED FROM
 DEP .m                2806.40:  DEPTH
 AGAP.m                  43.60:  AIR GAP
 VSNS.m                  -4.42:  VERT SEC N/S
 VSEW.m                  -7.31:  VERT SEC E/W
 APD .m                  43.60:  DEPTH ABOVE PD
 WDMS.m                 151.80:  WD ELEV
 EGL .m                   0.00:  GROUND ELEVATION
 EPD .m                   0.00:  ELEVATION
 AZTC.deg                 6.18:  AZM TOTAL CORR
 GRDC.deg                 0.29:  GRID CORRECTION
 MDEC.deg                 6.47:  MAGNETIC DECL
 MDIP.deg                59.50:  MAGNETIC DIP
 MFLD.nT              50350.00:  MAGNETIC FIELD
 GVFD.g                   1.00:  GRAVITY FIELD
 VSDR.deg               179.08:  VERT SEC DIRECT
 TDD .m                4300.00:  TOTAL DEPTH (DRILLER)
 SDEP.m                2800.00:  START DEPTH
 DFSL.m                   0.00:  DISTANCE FSL
 DFWL.m                   0.00:  DISTANCE FWL
 UTMY.m             4431871.34:  UTM Y
 UTMX.m              538762.90:  UTM X
 WHEW.m                  -7.31:  WELL HEAD E/W
 WHNS.m                  -4.42:  WELL HEAD N/S
 LONG.deg                51.45:  LONGITUDE
 LATI.deg                40.02:  LATITUDE
 TVDS.m                  43.60:  TVDSS CORRECTN
 EKB .m                  43.60:  KB ELEVATION
 EDF .m                  43.60:  DF ELEVATION
 TDL .m                 806.00:  TOTAL DEPTH (LOGGER)
 MAGU.                 1851231:  MAGUTM CHECKSUM
 VSC .                       0:  VS TO CLOSURE
~Parameter Information Block
#MNEM.UNIT       Value        Description
#---------     -----------    ---------------------------
 AV  .mps                 1.60:  Ann Velocity 
 AVMX.mps                 2.00:  Max Ann Veloc 
 AZIF.deg               140.24:  Azm, Final 
 BHAT.        Rotary Steerable:  BHA Type 
 BROT.°/30m               0.50:  Build Rotating 
 BS  .in                  8.50:  Bit Size 
 BTPL.psig              619.00:  Bit Press Loss 
 CABU.                     Yes:  Customer Abuse 
 CGEO.          Ilgar Gurbanov:  Customer Geo 
 COMM.                     t\L:  Run Comments 1 
 TCS .hr                 85.88:  Time Ciculation Ended 
 CV  .mps                 3.30:  Crit Velocity 
 CVMX.mps                 3.50:  Max Crit Veloc 
 DD1 .           Hamid Axmedov:  Direct Drillr 1 
 DD2 .           Teymur Aliyev:  Direct Drillr 2 
 DDSV.               Geo-Pilot:  DD Service 
 DEFF.%                 100.00:  % Det Eff 
 DLRX.°/30m               0.00:  Dogleg Rot Max 
 DLSO.°/30m               1.80:  Dogleg Oriented 
 DLSX.°/30m               3.34:  Dogleg Str Max 
 DRET.      11.50.00 27-May-21:  Drill End Time 
 DRST.      21.13.00 24-May-21:  Drill Start Tim 
 DTIM.hr                 45.11:  Time Drilling 
 EDEP.m                4054.00:  End Depth 
 ENG1.         Almaz Almadatov:  Engineer 1 
 ENG2.           Amrah Tahirov:  Engineer 2 
 ENG3.      Bakhtiyar Jabbarli:  Engineer 3 
 ENG4.          Nazrin Asgarli:  Engineer 4 
 ETIM.      10.00.00 30-May-21:  End Time 
 FLOI.gpm               530.00:  Flow In 
 FLON.gpm               400.00:  Flow In Min 
 FLOS.cptm                0.00:  Fluid Loss 
 FLOX.gpm               560.00:  Flow In Max 
 DFT .        Mineral Oil Base:  Mud Type 
 FTRO.       Formation Presure:  FTWD Run Obj 
 HFLO.                      No:  High Flow 
 HPRE.                      No:  High Pressure 
 HTEM.                      No:  High Temp 
 HYDO.m                   1.80:  Hydro Offset 
 IFIN.deg                73.83:  Inc, Final 
 IMAX.deg                73.83:  Inc Max 
 IMIN.deg                57.86:  Inc Min 
 IMND.m                3259.27:  Inc Min Depth 
 IMXD.m                4045.58:  Inc Max Depth 
 JARR.                     Yes:  Jarring 
 LETM.      11.50.00 27-May-21:  Log End Time 
 LOST.hr                     0:  Lost Rig Time 
 LSTM.      21.13.00 24-May-21:  Log Start Time 
 MDCL.ppm             42500.00:  Mud Chlorides 
 MDES.     Inversion Oil/Synthetic:  Mud Desc 
 DFD .sg                  1.52:  Mud Density 
 MDMN.sg                  1.52:  Dens Mud Min 
 MDMX.sg                  1.52:  Dens Mud Max 
 MOIL.                      70:  Run Mud Oil % 
 MOWR.                   70:30:  Run Mud OWR 
 MSND.                     0.2:  Run Mud Sand % 
 MSOL.                      22:  Run Mud Solids% 
 DFV .spqt               77.00:  Mud Viscosity 
 MWOD.in                  6.75:  MWD Tool OD 
 MWSI.                      No:  Serv Intrp, MWD 
 OTIM.hr                151.01:  Time Operating 
 PCON.          Wear / Scratch:  Pad Condition 
 PMAX.psia            11296.93:  Press Op, Max 
 PV  .cP                 37.00:  Mud PV 
 RUN .                     500:  Run Number 
 ROPA.m/hr               25.00:  ROP Avg 
 ROPN.m/hr                9.00:  ROP Min 
 ROPX.m/hr               28.00:  ROP Max 
 RPMA.rpm               140.00:  RPM Surface Avg 
 RPMN.rpm                90.00:  RPM Surface Min 
 RPMX.rpm               140.00:  RPM Surface Max 
 RRUN.                    0500:  Rig Run Number 
 SAZI.deg               172.17:  Azm, Start 
 SDEP.m                3248.00:  Start Depth 
 SIDD.                      No:  Serv Intrp, DD 
 SINC.deg                57.86:  Inc, Start 
 SPPA.psig             5620.00:  SPP Avg 
 SPPN.psig             5190.00:  SPP Min 
 SPPX.psig             6050.00:  SPP Max 
 STIM.      16.00.00 23-May-21:  Start Time 
 SVCS.                 DD, MWD:  Services 
 SVER.                    9.20:  Sperry Version 
 TDAT.m                 806.00:  Tot Depth Attmp 
 TDDF.                      No:  Trip for DD 
 TDLG.m                 806.00:  Tot Depth Loggd 
 TFF .                      No:  Trip for Fail 
 TQAA.f-kp               12.00:  Torque Abs Avg 
 TQAN.f-kp                8.00:  Torque Abs Min 
 TQAX.f-kp               15.00:  Torque Abs Max 
 TRRT.°/30m               0.30:  Turn Rotating 
 MRT .                  EWR-M5:  Maximum Recorded Temperature 
 TTMX.degC               93.00:  Max Tool Temp 
 VS01.                90649155:  Virtual Str1 SN 
 VS02.                90642264:  Virtual Str2 SN 
 VS03.                90642266:  Virtual Str3 SN 
 VS04.                90642261:  Virtual Str4 SN 
 WBMN.klb                 0.00:  WOB Min 
 WITN.             Anar Khalil:  Customer Rep 
 WITN.           Murad Guliyev:  Customer Rep 2 
 WOBA.klb                13.00:  WOB Avg 
 WOBX.klb                25.00:  WOB Max 
 YP  .lhf2               32.00:  Yield Point 
~Curve Information Block
#MNEM.UNIT                 API CODE     Curve Description
#---------               -----------    ---------------------------
 TIME.HHMMSS            00 000 000 000:  GT Time & Date
 GTDEPTH.m              00 000 000 000:  GT Depth
 GTPQH.psia             00 000 000 000:  GT HR Quartz Pressure
 GTTQ.degC              00 000 000 000:  GT Quartz Temperature
 GTTN.NONE              00 000 000 000:  GT Test Number
 GTET.sec               00 000 000 000:  GT Elapsed Test Time
 GTTVD.m                00 000 000 000:  GT True Vertical Depth
#Other Information
#
#WARRANTY: Halliburton will use its best efforts to furnish customers with 
#accurate information and interpretations that are part of, and incident to, the services 
#provided.  However, Halliburton cannot and does not warrant the accuracy 
#or correctness of such information and interpretations.  Under no circumstances should any 
#such information or interpretation be relied upon as the sole basis for any drilling, 
#completion, production, or financial decision or any procedure involving any risk to the 
#safety of any drilling venture, drilling rig or its crew or any other third party.  The 
#Customer has full responsibility for all drilling, completion and production operation.  
#Halliburton makes no representations or warranties, either expressed or 
#implied, including, but not limited to, the implied warranties of merchantability or fitness 
#for a particular purpose, with respect to the services rendered.  In no event will 
#Halliburton be liable for failure to obtain any particular results or for 
#any damages, including, but not limited to, indirect, special or consequential damages, 
#resulting from the use of any information or interpretation provided by Halliburton.
#
~A           TIME           GTDEPTH  GTPQH  GTTQ  GTTN  GTET   GTTVD  
# ...
   23:52:58.000.27-May-2021 3671.50 6212.77 84.53 3.00  23.00 2661.54
   23:52:58.200.27-May-2021 3671.50 6212.77 84.53 3.00  23.20 2661.54
   23:52:58.400.27-May-2021 3671.50 6212.99 84.53 3.00  23.40 2661.54
   23:52:58.600.27-May-2021 3671.50 6218.23 84.53 3.00  23.60 2661.54
   23:52:58.800.27-May-2021 3671.50 6211.61 84.53 3.00  23.80 2661.54
   23:52:59.000.27-May-2021 3671.50 6213.23 84.53 3.00  24.00 2661.54
   23:52:59.200.27-May-2021 3671.50 6213.23 84.53 3.00  24.20 2661.54
   23:52:59.400.27-May-2021 3671.50 6213.50 84.53 3.00  24.40 2661.54
   23:52:59.600.27-May-2021 3671.50 6213.23 84.53 3.00  24.60 2661.54
   23:52:59.800.27-May-2021 3671.50 6213.06 84.53 3.00  24.80 2661.54
   23:53:00.000.27-May-2021 3671.50 6213.56 84.53 3.00  25.00 2661.54
   23:53:00.200.27-May-2021 3671.50 6213.56 84.53 3.00  25.20 2661.54
   23:53:00.400.27-May-2021 3671.50 6213.97 84.53 3.00  25.40 2661.54
   23:53:00.600.27-May-2021 3671.50 6214.27 84.53 3.00  25.60 2661.54
   23:53:00.800.27-May-2021 3671.50 6214.67 84.53 3.00  25.80 2661.54
   23:53:01.000.27-May-2021 3671.50 6214.73 84.53 3.00  26.00 2661.54
   23:53:01.200.27-May-2021 3671.50 6214.73 84.53 3.00  26.20 2661.54
   23:53:01.400.27-May-2021 3671.50 6218.36 84.53 3.00  26.40 2661.54
   23:53:01.600.27-May-2021 3671.50 6214.79 84.53 3.00  26.60 2661.54
   23:53:01.800.27-May-2021 3671.50 6214.48 84.53 3.00  26.80 2661.54
   23:53:02.000.27-May-2021 3671.50 6218.63 84.53 3.00  27.00 2661.54
   23:53:02.200.27-May-2021 3671.50 6218.63 84.53 3.00  27.20 2661.54
   23:53:02.400.27-May-2021 3671.50 6214.62 84.53 3.00  27.40 2661.54
   23:53:02.600.27-May-2021 3671.50 6215.13 84.53 3.00  27.60 2661.54
   23:53:02.800.27-May-2021 3671.50 6219.68 84.53 3.00  27.80 2661.54
   23:53:03.000.27-May-2021 3671.50 6212.90 84.53 3.00  28.00 2661.54
   23:53:03.200.27-May-2021 3671.50 6212.90 84.53 3.00  28.20 2661.54
   23:53:03.400.27-May-2021 3671.50 6215.30 84.53 3.00  28.40 2661.54
   23:53:03.600.27-May-2021 3671.50 6216.05 84.53 3.00  28.60 2661.54
   23:53:03.800.27-May-2021 3671.50 6221.74 84.53 3.00  28.80 2661.54
   23:53:04.000.27-May-2021 3671.50 6214.18 84.53 3.00  29.00 2661.54
   23:53:04.200.27-May-2021 3671.50 6214.18 84.53 3.00  29.20 2661.54
   23:53:04.400.27-May-2021 3671.50 6216.27 84.53 3.00  29.40 2661.54
   23:53:04.600.27-May-2021 3671.50 6216.14 84.53 3.00  29.60 2661.54
   23:53:04.800.27-May-2021 3671.50 6216.01 84.53 3.00  29.80 2661.54
   23:53:05.000.27-May-2021 3671.50 6216.46 84.53 3.00  30.00 2661.54
   23:53:05.200.27-May-2021 3671.50 6216.46 84.53 3.00  30.20 2661.54
   23:53:05.400.27-May-2021 3671.50 6216.31 84.53 3.00  30.40 2661.54
   23:53:05.600.27-May-2021 3671.50 6216.63 84.53 3.00  30.60 2661.54
   23:53:05.800.27-May-2021 3671.50 6217.02 84.53 3.00  30.80 2661.54
   23:53:06.000.27-May-2021 3671.50 6216.93 84.53 3.00  31.00 2661.54
   23:53:06.200.27-May-2021 3671.50 6216.93 84.53 3.00  31.20 2661.54
   23:53:06.400.27-May-2021 3671.50 6222.86 84.52 3.00  31.40 2661.54
   23:53:06.600.27-May-2021 3671.50 6215.25 84.52 3.00  31.60 2661.54
   23:53:06.800.27-May-2021 3671.50 6217.17 84.52 3.00  31.80 2661.54
   23:53:07.000.27-May-2021 3671.50 6217.21 84.52 3.00  32.00 2661.54
   23:53:07.200.27-May-2021 3671.50 6217.21 84.52 3.00  32.20 2661.54
   23:53:07.400.27-May-2021 3671.50 6216.75 84.52 3.00  32.40 2661.54
   23:53:07.600.27-May-2021 3671.50 6217.02 84.52 3.00  32.60 2661.54
   23:53:07.800.27-May-2021 3671.50 6217.08 84.52 3.00  32.80 2661.54
   23:53:08.000.27-May-2021 3671.50 6217.38 84.52 3.00  33.00 2661.54
   23:53:08.200.27-May-2021 3671.50 6217.38 84.52 3.00  33.20 2661.54
   23:53:08.400.27-May-2021 3671.50 6218.19 84.52 3.00  33.40 2661.54
   23:53:08.600.27-May-2021 3671.50 6218.46 84.52 3.00  33.60 2661.54
   23:53:08.800.27-May-2021 3671.50 6218.53 84.52 3.00  33.80 2661.54
   23:53:09.000.27-May-2021 3671.50 6224.05 84.52 3.00  34.00 2661.54
   23:53:09.200.27-May-2021 3671.50 6224.05 84.52 3.00  34.20 2661.54
   23:53:09.400.27-May-2021 3671.50 6218.54 84.52 3.00  34.40 2661.54
   23:53:09.600.27-May-2021 3671.50 6223.50 84.52 3.00  34.60 2661.54
   23:53:09.800.27-May-2021 3671.50 6217.12 84.52 3.00  34.80 2661.54
   23:53:10.000.27-May-2021 3671.50 6218.52 84.52 3.00  35.00 2661.54
   23:53:10.200.27-May-2021 3671.50 6218.52 84.52 3.00  35.20 2661.54
   23:53:10.400.27-May-2021 3671.50 6219.06 84.52 3.00  35.40 2661.54
   23:53:10.600.27-May-2021 3671.50 6220.90 84.52 3.00  35.60 2661.54
   23:53:10.800.27-May-2021 3671.50 6219.55 84.52 3.00  35.80 2661.54
   23:53:11.000.27-May-2021 3671.50 6219.04 84.52 3.00  36.00 2661.54
   23:53:11.200.27-May-2021 3671.50 6219.04 84.52 3.00  36.20 2661.54
   23:53:11.400.27-May-2021 3671.50 6219.54 84.52 3.00  36.40 2661.54
   23:53:11.600.27-May-2021 3671.50 6219.58 84.52 3.00  36.60 2661.54
   23:53:11.800.27-May-2021 3671.50 6224.54 84.52 3.00  36.80 2661.54
   23:53:12.000.27-May-2021 3671.50 6218.14 84.52 3.00  37.00 2661.54
   23:53:12.200.27-May-2021 3671.50 6218.14 84.52 3.00  37.20 2661.54
   23:53:12.400.27-May-2021 3671.50 6219.27 84.52 3.00  37.40 2661.54
   23:53:12.600.27-May-2021 3671.50 6220.11 84.52 3.00  37.60 2661.54
   23:53:12.800.27-May-2021 3671.50 6220.08 84.52 3.00  37.80 2661.54
   23:53:13.000.27-May-2021 3671.50 6219.18 84.52 3.00  38.00 2661.54
   23:53:13.200.27-May-2021 3671.50 6219.18 84.52 3.00  38.20 2661.54
   23:53:13.400.27-May-2021 3671.50 6219.72 84.52 3.00  38.40 2661.54
   23:53:13.600.27-May-2021 3671.50 6219.91 84.52 3.00  38.60 2661.54
   23:53:13.800.27-May-2021 3671.50 6220.30 84.52 3.00  38.80 2661.54
   23:53:14.000.27-May-2021 3671.50 6220.63 84.52 3.00  39.00 2661.54
   23:53:14.200.27-May-2021 3671.50 6220.63 84.52 3.00  39.20 2661.54
   23:53:14.400.27-May-2021 3671.50 6220.32 84.52 3.00  39.40 2661.54
   23:53:14.600.27-May-2021 3671.50 6220.96 84.52 3.00  39.60 2661.54
   23:53:14.800.27-May-2021 3671.50 6706.37 84.52 3.00  39.80 2661.54
   23:53:15.000.27-May-2021 3671.50 6944.87 84.52 3.00  40.00 2661.54
   23:53:15.200.27-May-2021 3671.50 6944.87 84.52 3.00  40.20 2661.54
   23:53:15.400.27-May-2021 3671.50 7013.79 84.52 3.00  40.40 2661.54
   23:53:15.600.27-May-2021 3671.50 7023.38 84.52 3.00  40.60 2661.54
   23:53:15.800.27-May-2021 3671.50 6964.51 84.52 3.00  40.80 2661.54
   23:53:16.000.27-May-2021 3671.50 6880.24 84.52 3.00  41.00 2661.54
   23:53:16.200.27-May-2021 3671.50 6880.24 84.52 3.00  41.20 2661.54
   23:53:16.400.27-May-2021 3671.50 6691.33 84.52 3.00  41.40 2661.54
   23:53:16.600.27-May-2021 3671.50 6736.85 84.52 3.00  41.60 2661.54
   23:53:16.800.27-May-2021 3671.50 6753.83 84.52 3.00  41.80 2661.54
   23:53:17.000.27-May-2021 3671.50 6755.31 84.52 3.00  42.00 2661.54
   23:53:17.200.27-May-2021 3671.50 6755.31 84.52 3.00  42.20 2661.54
   23:53:17.400.27-May-2021 3671.50 6749.95 84.52 3.00  42.40 2661.54
   23:53:17.600.27-May-2021 3671.50 6751.84 84.52 3.00  42.60 2661.54
   23:53:17.800.27-May-2021 3671.50 6750.04 84.52 3.00  42.80 2661.54
   23:53:18.000.27-May-2021 3671.50 6747.95 84.52 3.00  43.00 2661.54
   23:53:18.200.27-May-2021 3671.50 6747.95 84.52 3.00  43.20 2661.54
   23:53:18.400.27-May-2021 3671.50 6742.51 84.52 3.00  43.40 2661.54
   23:53:18.600.27-May-2021 3671.50 6745.73 84.52 3.00  43.60 2661.54
   23:53:18.800.27-May-2021 3671.50 6743.34 84.52 3.00  43.80 2661.54
   23:53:19.000.27-May-2021 3671.50 6741.36 84.52 3.00  44.00 2661.54
   23:53:19.200.27-May-2021 3671.50 6741.36 84.52 3.00  44.20 2661.54
   23:53:19.400.27-May-2021 3671.50 6736.36 84.52 3.00  44.40 2661.54
   23:53:19.600.27-May-2021 3671.50 6737.95 84.52 3.00  44.60 2661.54
   23:53:19.800.27-May-2021 3671.50 6733.38 84.52 3.00  44.80 2661.54
   23:53:20.000.27-May-2021 3671.50 6410.00 84.52 3.00  45.00 2661.54
   23:53:20.200.27-May-2021 3671.50 6410.00 84.52 3.00  45.20 2661.54
   23:53:20.400.27-May-2021 3671.50 6043.50 84.52 3.00  45.40 2661.54
   23:53:20.600.27-May-2021 3671.50 5760.24 84.52 3.00  45.60 2661.54
   23:53:20.800.27-May-2021 3671.50 5595.51 84.52 3.00  45.80 2661.54
