~Version Information
 VERS.                  2.0:   CWLS log ASCII Standard -VERSION 2.0
 WRAP.                   NO:   One line per depth step
~Well Information Block
#MNEM.UNIT     VALUE/NAME     DESCRIPTION
#---------     -----------    ---------------------------
 STRT.S             23:03:24 27-May-21: START TIME 23:03:24 27-May-21
 STOP.S             23:10:28 27-May-21: STOP TIME  23:10:28 27-May-21
 STEP.S                   0.00: STEP TIME
 NULL.                 -999.25: NULL VALUE
 UWI .                     N/A:  UNIQUE WELL IDENTIFIER
 API .                     N/A:  API NUMBER
 UNIT.                     N/A:  LOGGING EQUIPMENT ID
 DCON.         Sperry Drilling:  DIRECTNL CONTR
 DOE .                     N/A:  DOE NUMBER
 MWDS.                    Baku:  MWD SHOP
 SRVC.     Turan Drilling and Engineering:  CONTRACTOR
 CTRY.              Azerbaijan:  COUNTRY NAME
 PROV.                    Baku:  PROVINCE
 STAT.                    Baku:  STATE NAME
 REGN.                   EESSA:  REGION
 BASE.              Azerbaijan:  LOGGING EQUIPMENT BASE LOCATION
 WTYP.                Deviated:  WELL TYPE
 RIG .              East Azeri:  RIG NAME
 WELL.                    D02y:  WELL NAME
 FLD .                     ACG:  FIELD NAME
 COMP.     BP Exploration (Caspian Sea) Ltd.:  COMPANY
 PDAT.          Mean Sea Level:  PERMANENT DATUM
 MDS .        Operator Entered:  MAG DATA SOURCE
 SON .        AZ-XX-0906997291:  JOB NUMBER
 FTOP.          Formation Tops:  FORM TOPS DESC
 ILTD.               Lithology:  INTERP LTH DESC
 SVYD.                  Survey:  SURVEY DESC
 DMOD.             Drill Model:  DRILL MOD DESC
 HPTY.       Minimum Curvature:  HOLE POS TYPE
 NREF.                    Grid:  NORTH REFERENCE
 SPUD.               05-May-21:  SPUD DATE
 DATE.      09.27.28 12-Jun-21:  END TIME
 STIM.      09.27.28 12-May-21:  START TIME
 DMF .             Drill Floor:  DRILL MEAS FROM
 DFST.                        :  DIST FSL TEXT
 DFWT.                        :  DIST FWL TEXT
 CNTY.                        :  COUNTY
 LOC .                        :  LOCATION
 LMF .             Drill Floor:  LOG MEASURED FROM
 DEP .m                2806.40:  DEPTH
 AGAP.m                  43.60:  AIR GAP
 VSNS.m                  -4.42:  VERT SEC N/S
 VSEW.m                  -7.31:  VERT SEC E/W
 APD .m                  43.60:  DEPTH ABOVE PD
 WDMS.m                 151.80:  WD ELEV
 EGL .m                   0.00:  GROUND ELEVATION
 EPD .m                   0.00:  ELEVATION
 AZTC.deg                 6.18:  AZM TOTAL CORR
 GRDC.deg                 0.29:  GRID CORRECTION
 MDEC.deg                 6.47:  MAGNETIC DECL
 MDIP.deg                59.50:  MAGNETIC DIP
 MFLD.nT              50350.00:  MAGNETIC FIELD
 GVFD.g                   1.00:  GRAVITY FIELD
 VSDR.deg               179.08:  VERT SEC DIRECT
 TDD .m                4300.00:  TOTAL DEPTH (DRILLER)
 SDEP.m                2800.00:  START DEPTH
 DFSL.m                   0.00:  DISTANCE FSL
 DFWL.m                   0.00:  DISTANCE FWL
 UTMY.m             4431871.34:  UTM Y
 UTMX.m              538762.90:  UTM X
 WHEW.m                  -7.31:  WELL HEAD E/W
 WHNS.m                  -4.42:  WELL HEAD N/S
 LONG.deg                51.45:  LONGITUDE
 LATI.deg                40.02:  LATITUDE
 TVDS.m                  43.60:  TVDSS CORRECTN
 EKB .m                  43.60:  KB ELEVATION
 EDF .m                  43.60:  DF ELEVATION
 TDL .m                 806.00:  TOTAL DEPTH (LOGGER)
 MAGU.                 1851231:  MAGUTM CHECKSUM
 VSC .                       0:  VS TO CLOSURE
~Parameter Information Block
#MNEM.UNIT       Value        Description
#---------     -----------    ---------------------------
 AV  .mps                 1.60:  Ann Velocity 
 AVMX.mps                 2.00:  Max Ann Veloc 
 AZIF.deg               140.24:  Azm, Final 
 BHAT.        Rotary Steerable:  BHA Type 
 BROT.°/30m               0.50:  Build Rotating 
 BS  .in                  8.50:  Bit Size 
 BTPL.psig              619.00:  Bit Press Loss 
 CABU.                     Yes:  Customer Abuse 
 CGEO.          Ilgar Gurbanov:  Customer Geo 
 COMM.                     |¡U:  Run Comments 1 
 TCS .hr                 85.88:  Time Ciculation Ended 
 CV  .mps                 3.30:  Crit Velocity 
 CVMX.mps                 3.50:  Max Crit Veloc 
 DD1 .           Hamid Axmedov:  Direct Drillr 1 
 DD2 .           Teymur Aliyev:  Direct Drillr 2 
 DDSV.               Geo-Pilot:  DD Service 
 DEFF.%                 100.00:  % Det Eff 
 DLRX.°/30m               0.00:  Dogleg Rot Max 
 DLSO.°/30m               1.80:  Dogleg Oriented 
 DLSX.°/30m               3.34:  Dogleg Str Max 
 DRET.      11.50.00 27-May-21:  Drill End Time 
 DRST.      21.13.00 24-May-21:  Drill Start Tim 
 DTIM.hr                 45.11:  Time Drilling 
 EDEP.m                4054.00:  End Depth 
 ENG1.         Almaz Almadatov:  Engineer 1 
 ENG2.           Amrah Tahirov:  Engineer 2 
 ENG3.      Bakhtiyar Jabbarli:  Engineer 3 
 ENG4.          Nazrin Asgarli:  Engineer 4 
 ETIM.      10.00.00 30-May-21:  End Time 
 FLOI.gpm               530.00:  Flow In 
 FLON.gpm               400.00:  Flow In Min 
 FLOS.cptm                0.00:  Fluid Loss 
 FLOX.gpm               560.00:  Flow In Max 
 DFT .        Mineral Oil Base:  Mud Type 
 FTRO.       Formation Presure:  FTWD Run Obj 
 HFLO.                      No:  High Flow 
 HPRE.                      No:  High Pressure 
 HTEM.                      No:  High Temp 
 HYDO.m                   1.80:  Hydro Offset 
 IFIN.deg                73.83:  Inc, Final 
 IMAX.deg                73.83:  Inc Max 
 IMIN.deg                57.86:  Inc Min 
 IMND.m                3259.27:  Inc Min Depth 
 IMXD.m                4045.58:  Inc Max Depth 
 JARR.                     Yes:  Jarring 
 LETM.      11.50.00 27-May-21:  Log End Time 
 LOST.hr                     0:  Lost Rig Time 
 LSTM.      21.13.00 24-May-21:  Log Start Time 
 MDCL.ppm             42500.00:  Mud Chlorides 
 MDES.     Inversion Oil/Synthetic:  Mud Desc 
 DFD .sg                  1.52:  Mud Density 
 MDMN.sg                  1.52:  Dens Mud Min 
 MDMX.sg                  1.52:  Dens Mud Max 
 MOIL.                      70:  Run Mud Oil % 
 MOWR.                   70:30:  Run Mud OWR 
 MSND.                     0.2:  Run Mud Sand % 
 MSOL.                      22:  Run Mud Solids% 
 DFV .spqt               77.00:  Mud Viscosity 
 MWOD.in                  6.75:  MWD Tool OD 
 MWSI.                      No:  Serv Intrp, MWD 
 OTIM.hr                151.01:  Time Operating 
 PCON.          Wear / Scratch:  Pad Condition 
 PMAX.psia            11296.93:  Press Op, Max 
 PV  .cP                 37.00:  Mud PV 
 RUN .                     500:  Run Number 
 ROPA.m/hr               25.00:  ROP Avg 
 ROPN.m/hr                9.00:  ROP Min 
 ROPX.m/hr               28.00:  ROP Max 
 RPMA.rpm               140.00:  RPM Surface Avg 
 RPMN.rpm                90.00:  RPM Surface Min 
 RPMX.rpm               140.00:  RPM Surface Max 
 RRUN.                    0500:  Rig Run Number 
 SAZI.deg               172.17:  Azm, Start 
 SDEP.m                3248.00:  Start Depth 
 SIDD.                      No:  Serv Intrp, DD 
 SINC.deg                57.86:  Inc, Start 
 SPPA.psig             5620.00:  SPP Avg 
 SPPN.psig             5190.00:  SPP Min 
 SPPX.psig             6050.00:  SPP Max 
 STIM.      16.00.00 23-May-21:  Start Time 
 SVCS.                 DD, MWD:  Services 
 SVER.                    9.20:  Sperry Version 
 TDAT.m                 806.00:  Tot Depth Attmp 
 TDDF.                      No:  Trip for DD 
 TDLG.m                 806.00:  Tot Depth Loggd 
 TFF .                      No:  Trip for Fail 
 TQAA.f-kp               12.00:  Torque Abs Avg 
 TQAN.f-kp                8.00:  Torque Abs Min 
 TQAX.f-kp               15.00:  Torque Abs Max 
 TRRT.°/30m               0.30:  Turn Rotating 
 MRT .                  EWR-M5:  Maximum Recorded Temperature 
 TTMX.degC               93.00:  Max Tool Temp 
 VS01.                90649155:  Virtual Str1 SN 
 VS02.                90642264:  Virtual Str2 SN 
 VS03.                90642266:  Virtual Str3 SN 
 VS04.                90642261:  Virtual Str4 SN 
 WBMN.klb                 0.00:  WOB Min 
 WITN.             Anar Khalil:  Customer Rep 
 WITN.           Murad Guliyev:  Customer Rep 2 
 WOBA.klb                13.00:  WOB Avg 
 WOBX.klb                25.00:  WOB Max 
 YP  .lhf2               32.00:  Yield Point 
~Curve Information Block
#MNEM.UNIT                 API CODE     Curve Description
#---------               -----------    ---------------------------
 TIME.HHMMSS            00 000 000 000:  GT Time & Date
 GTDEPTH.m              00 000 000 000:  GT Depth
 GTPQH.psia             00 000 000 000:  GT HR Quartz Pressure
 GTTQ.degC              00 000 000 000:  GT Quartz Temperature
 GTTN.NONE              00 000 000 000:  GT Test Number
 GTET.sec               00 000 000 000:  GT Elapsed Test Time
 GTTVD.m                00 000 000 000:  GT True Vertical Depth
#Other Information
#
#WARRANTY: Halliburton will use its best efforts to furnish customers with 
#accurate information and interpretations that are part of, and incident to, the services 
#provided.  However, Halliburton cannot and does not warrant the accuracy 
#or correctness of such information and interpretations.  Under no circumstances should any 
#such information or interpretation be relied upon as the sole basis for any drilling, 
#completion, production, or financial decision or any procedure involving any risk to the 
#safety of any drilling venture, drilling rig or its crew or any other third party.  The 
#Customer has full responsibility for all drilling, completion and production operation.  
#Halliburton makes no representations or warranties, either expressed or 
#implied, including, but not limited to, the implied warranties of merchantability or fitness 
#for a particular purpose, with respect to the services rendered.  In no event will 
#Halliburton be liable for failure to obtain any particular results or for 
#any damages, including, but not limited to, indirect, special or consequential damages, 
#resulting from the use of any information or interpretation provided by Halliburton.
#
~A           TIME           GTDEPTH  GTPQH  GTTQ  GTTN  GTET   GTTVD  
# ...
   23:05:42.317.27-May-2021 3710.50 3139.70 84.61 2.00 138.05 2675.83
   23:05:42.518.27-May-2021 3710.50 3139.70 84.61 2.00 138.25 2675.83
   23:05:42.718.27-May-2021 3710.50 3139.66 84.61 2.00 138.45 2675.83
   23:05:42.918.27-May-2021 3710.50 3139.70 84.61 2.00 138.65 2675.83
   23:05:43.118.27-May-2021 3710.50 3139.70 84.61 2.00 138.85 2675.83
   23:05:43.318.27-May-2021 3710.50 3139.71 84.61 2.00 139.05 2675.83
   23:05:43.518.27-May-2021 3710.50 3139.71 84.61 2.00 139.25 2675.83
   23:05:43.718.27-May-2021 3710.50 3139.72 84.61 2.00 139.45 2675.83
   23:05:43.918.27-May-2021 3710.50 3139.71 84.61 2.00 139.65 2675.83
   23:05:44.118.27-May-2021 3710.50 3139.73 84.61 2.00 139.85 2675.83
   23:05:44.318.27-May-2021 3710.50 3139.72 84.61 2.00 140.05 2675.83
   23:05:44.518.27-May-2021 3710.50 3139.72 84.61 2.00 140.25 2675.83
   23:05:44.718.27-May-2021 3710.50 3139.74 84.61 2.00 140.45 2675.83
   23:05:44.918.27-May-2021 3710.50 3139.73 84.61 2.00 140.66 2675.83
   23:05:45.119.27-May-2021 3710.50 3139.76 84.61 2.00 140.86 2675.83
   23:05:45.319.27-May-2021 3710.50 3139.67 84.61 2.00 141.06 2675.83
   23:05:45.519.27-May-2021 3710.50 3139.67 84.61 2.00 141.26 2675.83
   23:05:45.719.27-May-2021 3710.50 3139.70 84.61 2.00 141.46 2675.83
   23:05:45.919.27-May-2021 3710.50 3139.72 84.61 2.00 141.66 2675.83
   23:05:46.119.27-May-2021 3710.50 3139.71 84.61 2.00 141.86 2675.83
   23:05:46.319.27-May-2021 3710.50 3139.72 84.61 2.00 142.06 2675.83
   23:05:46.519.27-May-2021 3710.50 3139.72 84.61 2.00 142.26 2675.83
   23:05:46.719.27-May-2021 3710.50 3139.72 84.61 2.00 142.46 2675.83
   23:05:46.919.27-May-2021 3710.50 3139.73 84.61 2.00 142.66 2675.83
   23:05:47.119.27-May-2021 3710.50 3139.74 84.61 2.00 142.86 2675.83
   23:05:47.319.27-May-2021 3710.50 3139.74 84.61 2.00 143.06 2675.83
   23:05:47.519.27-May-2021 3710.50 3139.74 84.61 2.00 143.26 2675.83
   23:05:47.720.27-May-2021 3710.50 3139.76 84.61 2.00 143.46 2675.83
   23:05:47.920.27-May-2021 3710.50 3139.67 84.61 2.00 143.66 2675.83
   23:05:48.120.27-May-2021 3710.50 3139.71 84.61 2.00 143.86 2675.83
   23:05:48.320.27-May-2021 3710.50 3139.64 84.61 2.00 144.06 2675.83
   23:05:48.520.27-May-2021 3710.50 3139.64 84.61 2.00 144.26 2675.83
   23:05:48.720.27-May-2021 3710.50 3139.70 84.61 2.00 144.46 2675.83
   23:05:48.920.27-May-2021 3710.50 3139.71 84.61 2.00 144.66 2675.83
   23:05:49.120.27-May-2021 3710.50 3139.69 84.61 2.00 144.86 2675.83
   23:05:49.320.27-May-2021 3710.50 3139.74 84.61 2.00 145.06 2675.83
   23:05:49.520.27-May-2021 3710.50 3139.74 84.61 2.00 145.26 2675.83
   23:05:49.720.27-May-2021 3710.50 3139.69 84.61 2.00 145.46 2675.83
   23:05:49.920.27-May-2021 3710.50 3139.70 84.61 2.00 145.66 2675.83
   23:05:50.120.27-May-2021 3710.50 3139.71 84.61 2.00 145.86 2675.83
   23:05:50.321.27-May-2021 3710.50 3139.56 84.61 2.00 146.06 2675.83
   23:05:50.521.27-May-2021 3710.50 3139.56 84.61 2.00 146.26 2675.83
   23:05:50.721.27-May-2021 3710.50 3139.68 84.61 2.00 146.46 2675.83
   23:05:50.921.27-May-2021 3710.50 3139.70 84.61 2.00 146.66 2675.83
   23:05:51.121.27-May-2021 3710.50 3139.70 84.61 2.00 146.86 2675.83
   23:05:51.321.27-May-2021 3710.50 3139.69 84.61 2.00 147.06 2675.83
   23:05:51.521.27-May-2021 3710.50 3139.69 84.61 2.00 147.26 2675.83
   23:05:51.721.27-May-2021 3710.50 3139.72 84.61 2.00 147.46 2675.83
   23:05:51.921.27-May-2021 3710.50 3139.71 84.61 2.00 147.66 2675.83
   23:05:52.121.27-May-2021 3710.50 3139.71 84.61 2.00 147.86 2675.83
   23:05:52.321.27-May-2021 3710.50 3139.72 84.61 2.00 148.06 2675.83
   23:05:52.521.27-May-2021 3710.50 3139.72 84.61 2.00 148.26 2675.83
   23:05:52.722.27-May-2021 3710.50 3139.72 84.61 2.00 148.46 2675.83
   23:05:52.922.27-May-2021 3710.50 3139.59 84.61 2.00 148.66 2675.83
   23:05:53.122.27-May-2021 3710.50 3139.84 84.61 2.00 148.86 2675.83
   23:05:53.322.27-May-2021 3710.50 3139.68 84.61 2.00 149.06 2675.83
   23:05:53.522.27-May-2021 3710.50 3139.68 84.61 2.00 149.26 2675.83
   23:05:53.722.27-May-2021 3710.50 3139.70 84.61 2.00 149.46 2675.83
   23:05:53.922.27-May-2021 3710.50 3139.70 84.61 2.00 149.66 2675.83
   23:05:54.122.27-May-2021 3710.50 3139.71 84.61 2.00 149.86 2675.83
   23:05:54.322.27-May-2021 3710.50 3139.71 84.61 2.00 150.06 2675.83
   23:05:54.522.27-May-2021 3710.50 3139.71 84.61 2.00 150.26 2675.83
   23:05:54.722.27-May-2021 3710.50 3139.73 84.61 2.00 150.46 2675.83
   23:05:54.922.27-May-2021 3710.50 3139.73 84.61 2.00 150.66 2675.83
   23:05:55.122.27-May-2021 3710.50 3139.74 84.61 2.00 150.86 2675.83
   23:05:55.323.27-May-2021 3710.50 3139.73 84.61 2.00 151.06 2675.83
   23:05:55.523.27-May-2021 3710.50 3139.73 84.61 2.00 151.26 2675.83
   23:05:55.723.27-May-2021 3710.50 3139.84 84.61 2.00 151.46 2675.83
   23:05:55.923.27-May-2021 3710.50 3139.70 84.61 2.00 151.66 2675.83
   23:05:56.123.27-May-2021 3710.50 3139.67 84.61 2.00 151.86 2675.83
   23:05:56.323.27-May-2021 3710.50 3139.72 84.61 2.00 152.06 2675.83
   23:05:56.523.27-May-2021 3710.50 3139.72 84.61 2.00 152.26 2675.83
   23:05:56.723.27-May-2021 3710.50 3139.68 84.61 2.00 152.46 2675.83
   23:05:56.923.27-May-2021 3710.50 3139.71 84.61 2.00 152.66 2675.83
   23:05:57.123.27-May-2021 3710.50 3139.55 84.61 2.00 152.86 2675.83
   23:05:57.323.27-May-2021 3710.50 3139.83 84.61 2.00 153.06 2675.83
   23:05:57.523.27-May-2021 3710.50 3139.83 84.61 2.00 153.26 2675.83
   23:05:57.723.27-May-2021 3710.50 3139.67 84.61 2.00 153.46 2675.83
   23:05:57.924.27-May-2021 3710.50 3127.90 84.61 2.00 153.66 2675.83
   23:05:58.124.27-May-2021 3710.50 3097.09 84.61 2.00 153.86 2675.83
   23:05:58.324.27-May-2021 3710.50 3095.56 84.61 2.00 154.06 2675.83
   23:05:58.524.27-May-2021 3710.50 3095.56 84.61 2.00 154.26 2675.83
   23:05:58.724.27-May-2021 3710.50 3095.56 84.61 2.00 154.46 2675.83
   23:05:58.924.27-May-2021 3710.50 3096.91 84.61 2.00 154.66 2675.83
   23:05:59.124.27-May-2021 3710.50 3096.74 84.61 2.00 154.86 2675.83
   23:05:59.324.27-May-2021 3710.50 3096.37 84.61 2.00 155.06 2675.83
   23:05:59.524.27-May-2021 3710.50 3096.37 84.61 2.00 155.26 2675.83
   23:05:59.724.27-May-2021 3710.50 3097.21 84.61 2.00 155.46 2675.83
   23:05:59.924.27-May-2021 3710.50 3096.39 84.61 2.00 155.66 2675.83
   23:06:00.124.27-May-2021 3710.50 3094.97 84.61 2.00 155.86 2675.83
   23:06:00.324.27-May-2021 3710.50 3095.46 84.61 2.00 156.06 2675.83
   23:06:00.525.27-May-2021 3710.50 3095.46 84.61 2.00 156.26 2675.83
   23:06:00.725.27-May-2021 3710.50 3096.62 84.61 2.00 156.46 2675.83
   23:06:00.925.27-May-2021 3710.50 3096.40 84.61 2.00 156.66 2675.83
   23:06:01.125.27-May-2021 3710.50 3096.96 84.61 2.00 156.86 2675.83
   23:06:01.325.27-May-2021 3710.50 3098.61 84.61 2.00 157.06 2675.83
   23:06:01.525.27-May-2021 3710.50 3098.61 84.61 2.00 157.26 2675.83
   23:06:01.725.27-May-2021 3710.50 3096.31 84.61 2.00 157.46 2675.83
   23:06:01.925.27-May-2021 3710.50 3096.25 84.61 2.00 157.66 2675.83
   23:06:02.125.27-May-2021 3710.50 3096.36 84.61 2.00 157.86 2675.83
   23:06:02.325.27-May-2021 3710.50 3096.51 84.61 2.00 158.06 2675.83
   23:06:02.525.27-May-2021 3710.50 3096.51 84.61 2.00 158.26 2675.83
   23:06:02.725.27-May-2021 3710.50 3097.15 84.61 2.00 158.46 2675.83
   23:06:02.925.27-May-2021 3710.50 3096.18 84.61 2.00 158.66 2675.83
   23:06:03.126.27-May-2021 3710.50 3096.47 84.61 2.00 158.86 2675.83
   23:06:03.326.27-May-2021 3710.50 3096.47 84.61 2.00 159.06 2675.83
   23:06:03.526.27-May-2021 3710.50 3096.47 84.61 2.00 159.26 2675.83
   23:06:03.726.27-May-2021 3710.50 3096.16 84.61 2.00 159.46 2675.83
   23:06:03.926.27-May-2021 3710.50 3096.12 84.61 2.00 159.66 2675.83
   23:06:04.126.27-May-2021 3710.50 3097.17 84.61 2.00 159.86 2675.83
   23:06:04.326.27-May-2021 3710.50 3096.15 84.61 2.00 160.06 2675.83
   23:06:04.526.27-May-2021 3710.50 3096.15 84.61 2.00 160.26 2675.83
   23:06:04.726.27-May-2021 3710.50 3096.76 84.61 2.00 160.46 2675.83
   23:06:04.926.27-May-2021 3710.50 3096.83 84.61 2.00 160.66 2675.83
   23:06:05.126.27-May-2021 3710.50 3096.20 84.61 2.00 160.86 2675.83
