~Version Information
 VERS.                  2.0:   CWLS log ASCII Standard -VERSION 2.0
 WRAP.                   NO:   One line per depth step
~Well Information Block
#MNEM.UNIT     VALUE/NAME     DESCRIPTION
#---------     -----------    ---------------------------
 STRT.S             05:31:02 28-May-21: START TIME 05:31:02 28-May-21
 STOP.S             05:38:03 28-May-21: STOP TIME  05:38:03 28-May-21
 STEP.S                   0.00: STEP TIME
 NULL.                 -999.25: NULL VALUE
 UWI .                     N/A:  UNIQUE WELL IDENTIFIER
 API .                     N/A:  API NUMBER
 UNIT.                     N/A:  LOGGING EQUIPMENT ID
 DCON.         Sperry Drilling:  DIRECTNL CONTR
 DOE .                     N/A:  DOE NUMBER
 MWDS.                    Baku:  MWD SHOP
 SRVC.     Turan Drilling and Engineering:  CONTRACTOR
 CTRY.              Azerbaijan:  COUNTRY NAME
 PROV.                    Baku:  PROVINCE
 STAT.                    Baku:  STATE NAME
 REGN.                   EESSA:  REGION
 BASE.              Azerbaijan:  LOGGING EQUIPMENT BASE LOCATION
 WTYP.                Deviated:  WELL TYPE
 RIG .              East Azeri:  RIG NAME
 WELL.                    D02y:  WELL NAME
 FLD .                     ACG:  FIELD NAME
 COMP.     BP Exploration (Caspian Sea) Ltd.:  COMPANY
 PDAT.          Mean Sea Level:  PERMANENT DATUM
 MDS .        Operator Entered:  MAG DATA SOURCE
 SON .        AZ-XX-0906997291:  JOB NUMBER
 FTOP.          Formation Tops:  FORM TOPS DESC
 ILTD.               Lithology:  INTERP LTH DESC
 SVYD.                  Survey:  SURVEY DESC
 DMOD.             Drill Model:  DRILL MOD DESC
 HPTY.       Minimum Curvature:  HOLE POS TYPE
 NREF.                    Grid:  NORTH REFERENCE
 SPUD.               05-May-21:  SPUD DATE
 DATE.      09.27.28 12-Jun-21:  END TIME
 STIM.      09.27.28 12-May-21:  START TIME
 DMF .             Drill Floor:  DRILL MEAS FROM
 DFST.                        :  DIST FSL TEXT
 DFWT.                        :  DIST FWL TEXT
 CNTY.                        :  COUNTY
 LOC .                        :  LOCATION
 LMF .             Drill Floor:  LOG MEASURED FROM
 DEP .m                2806.40:  DEPTH
 AGAP.m                  43.60:  AIR GAP
 VSNS.m                  -4.42:  VERT SEC N/S
 VSEW.m                  -7.31:  VERT SEC E/W
 APD .m                  43.60:  DEPTH ABOVE PD
 WDMS.m                 151.80:  WD ELEV
 EGL .m                   0.00:  GROUND ELEVATION
 EPD .m                   0.00:  ELEVATION
 AZTC.deg                 6.18:  AZM TOTAL CORR
 GRDC.deg                 0.29:  GRID CORRECTION
 MDEC.deg                 6.47:  MAGNETIC DECL
 MDIP.deg                59.50:  MAGNETIC DIP
 MFLD.nT              50350.00:  MAGNETIC FIELD
 GVFD.g                   1.00:  GRAVITY FIELD
 VSDR.deg               179.08:  VERT SEC DIRECT
 TDD .m                4300.00:  TOTAL DEPTH (DRILLER)
 SDEP.m                2800.00:  START DEPTH
 DFSL.m                   0.00:  DISTANCE FSL
 DFWL.m                   0.00:  DISTANCE FWL
 UTMY.m             4431871.34:  UTM Y
 UTMX.m              538762.90:  UTM X
 WHEW.m                  -7.31:  WELL HEAD E/W
 WHNS.m                  -4.42:  WELL HEAD N/S
 LONG.deg                51.45:  LONGITUDE
 LATI.deg                40.02:  LATITUDE
 TVDS.m                  43.60:  TVDSS CORRECTN
 EKB .m                  43.60:  KB ELEVATION
 EDF .m                  43.60:  DF ELEVATION
 TDL .m                 806.00:  TOTAL DEPTH (LOGGER)
 MAGU.                 1851231:  MAGUTM CHECKSUM
 VSC .                       0:  VS TO CLOSURE
~Parameter Information Block
#MNEM.UNIT       Value        Description
#---------     -----------    ---------------------------
 AV  .mps                 1.60:  Ann Velocity 
 AVMX.mps                 2.00:  Max Ann Veloc 
 AZIF.deg               140.24:  Azm, Final 
 BHAT.        Rotary Steerable:  BHA Type 
 BROT.°/30m               0.50:  Build Rotating 
 BS  .in                  8.50:  Bit Size 
 BTPL.psig              619.00:  Bit Press Loss 
 CABU.                     Yes:  Customer Abuse 
 CGEO.          Ilgar Gurbanov:  Customer Geo 
 COMM.                     LMh:  Run Comments 1 
 TCS .hr                 85.88:  Time Ciculation Ended 
 CV  .mps                 3.30:  Crit Velocity 
 CVMX.mps                 3.50:  Max Crit Veloc 
 DD1 .           Hamid Axmedov:  Direct Drillr 1 
 DD2 .           Teymur Aliyev:  Direct Drillr 2 
 DDSV.               Geo-Pilot:  DD Service 
 DEFF.%                 100.00:  % Det Eff 
 DLRX.°/30m               0.00:  Dogleg Rot Max 
 DLSO.°/30m               1.80:  Dogleg Oriented 
 DLSX.°/30m               3.34:  Dogleg Str Max 
 DRET.      11.50.00 27-May-21:  Drill End Time 
 DRST.      21.13.00 24-May-21:  Drill Start Tim 
 DTIM.hr                 45.11:  Time Drilling 
 EDEP.m                4054.00:  End Depth 
 ENG1.         Almaz Almadatov:  Engineer 1 
 ENG2.           Amrah Tahirov:  Engineer 2 
 ENG3.      Bakhtiyar Jabbarli:  Engineer 3 
 ENG4.          Nazrin Asgarli:  Engineer 4 
 ETIM.      10.00.00 30-May-21:  End Time 
 FLOI.gpm               530.00:  Flow In 
 FLON.gpm               400.00:  Flow In Min 
 FLOS.cptm                0.00:  Fluid Loss 
 FLOX.gpm               560.00:  Flow In Max 
 DFT .        Mineral Oil Base:  Mud Type 
 FTRO.       Formation Presure:  FTWD Run Obj 
 HFLO.                      No:  High Flow 
 HPRE.                      No:  High Pressure 
 HTEM.                      No:  High Temp 
 HYDO.m                   1.80:  Hydro Offset 
 IFIN.deg                73.83:  Inc, Final 
 IMAX.deg                73.83:  Inc Max 
 IMIN.deg                57.86:  Inc Min 
 IMND.m                3259.27:  Inc Min Depth 
 IMXD.m                4045.58:  Inc Max Depth 
 JARR.                     Yes:  Jarring 
 LETM.      11.50.00 27-May-21:  Log End Time 
 LOST.hr                     0:  Lost Rig Time 
 LSTM.      21.13.00 24-May-21:  Log Start Time 
 MDCL.ppm             42500.00:  Mud Chlorides 
 MDES.     Inversion Oil/Synthetic:  Mud Desc 
 DFD .sg                  1.52:  Mud Density 
 MDMN.sg                  1.52:  Dens Mud Min 
 MDMX.sg                  1.52:  Dens Mud Max 
 MOIL.                      70:  Run Mud Oil % 
 MOWR.                   70:30:  Run Mud OWR 
 MSND.                     0.2:  Run Mud Sand % 
 MSOL.                      22:  Run Mud Solids% 
 DFV .spqt               77.00:  Mud Viscosity 
 MWOD.in                  6.75:  MWD Tool OD 
 MWSI.                      No:  Serv Intrp, MWD 
 OTIM.hr                151.01:  Time Operating 
 PCON.          Wear / Scratch:  Pad Condition 
 PMAX.psia            11296.93:  Press Op, Max 
 PV  .cP                 37.00:  Mud PV 
 RUN .                     500:  Run Number 
 ROPA.m/hr               25.00:  ROP Avg 
 ROPN.m/hr                9.00:  ROP Min 
 ROPX.m/hr               28.00:  ROP Max 
 RPMA.rpm               140.00:  RPM Surface Avg 
 RPMN.rpm                90.00:  RPM Surface Min 
 RPMX.rpm               140.00:  RPM Surface Max 
 RRUN.                    0500:  Rig Run Number 
 SAZI.deg               172.17:  Azm, Start 
 SDEP.m                3248.00:  Start Depth 
 SIDD.                      No:  Serv Intrp, DD 
 SINC.deg                57.86:  Inc, Start 
 SPPA.psig             5620.00:  SPP Avg 
 SPPN.psig             5190.00:  SPP Min 
 SPPX.psig             6050.00:  SPP Max 
 STIM.      16.00.00 23-May-21:  Start Time 
 SVCS.                 DD, MWD:  Services 
 SVER.                    9.20:  Sperry Version 
 TDAT.m                 806.00:  Tot Depth Attmp 
 TDDF.                      No:  Trip for DD 
 TDLG.m                 806.00:  Tot Depth Loggd 
 TFF .                      No:  Trip for Fail 
 TQAA.f-kp               12.00:  Torque Abs Avg 
 TQAN.f-kp                8.00:  Torque Abs Min 
 TQAX.f-kp               15.00:  Torque Abs Max 
 TRRT.°/30m               0.30:  Turn Rotating 
 MRT .                  EWR-M5:  Maximum Recorded Temperature 
 TTMX.degC               93.00:  Max Tool Temp 
 VS01.                90649155:  Virtual Str1 SN 
 VS02.                90642264:  Virtual Str2 SN 
 VS03.                90642266:  Virtual Str3 SN 
 VS04.                90642261:  Virtual Str4 SN 
 WBMN.klb                 0.00:  WOB Min 
 WITN.             Anar Khalil:  Customer Rep 
 WITN.           Murad Guliyev:  Customer Rep 2 
 WOBA.klb                13.00:  WOB Avg 
 WOBX.klb                25.00:  WOB Max 
 YP  .lhf2               32.00:  Yield Point 
~Curve Information Block
#MNEM.UNIT                 API CODE     Curve Description
#---------               -----------    ---------------------------
 TIME.HHMMSS            00 000 000 000:  GT Time & Date
 GTDEPTH.m              00 000 000 000:  GT Depth
 GTPQH.psia             00 000 000 000:  GT HR Quartz Pressure
 GTTQ.degC              00 000 000 000:  GT Quartz Temperature
 GTTN.NONE              00 000 000 000:  GT Test Number
 GTET.sec               00 000 000 000:  GT Elapsed Test Time
 GTTVD.m                00 000 000 000:  GT True Vertical Depth
#Other Information
#
#WARRANTY: Halliburton will use its best efforts to furnish customers with 
#accurate information and interpretations that are part of, and incident to, the services 
#provided.  However, Halliburton cannot and does not warrant the accuracy 
#or correctness of such information and interpretations.  Under no circumstances should any 
#such information or interpretation be relied upon as the sole basis for any drilling, 
#completion, production, or financial decision or any procedure involving any risk to the 
#safety of any drilling venture, drilling rig or its crew or any other third party.  The 
#Customer has full responsibility for all drilling, completion and production operation.  
#Halliburton makes no representations or warranties, either expressed or 
#implied, including, but not limited to, the implied warranties of merchantability or fitness 
#for a particular purpose, with respect to the services rendered.  In no event will 
#Halliburton be liable for failure to obtain any particular results or for 
#any damages, including, but not limited to, indirect, special or consequential damages, 
#resulting from the use of any information or interpretation provided by Halliburton.
#
~A           TIME           GTDEPTH  GTPQH  GTTQ  GTTN   GTET   GTTVD  
# ...
   05:31:47.556.28-May-2021 3456.50 4186.28 83.03 10.00  45.22 2576.46
   05:31:47.756.28-May-2021 3456.50 4160.25 83.03 10.00  45.42 2576.46
   05:31:47.956.28-May-2021 3456.50 4148.70 83.03 10.00  45.62 2576.46
   05:31:48.156.28-May-2021 3456.50 4148.73 83.03 10.00  45.82 2576.46
   05:31:48.356.28-May-2021 3456.50 4149.71 83.03 10.00  46.02 2576.46
   05:31:48.556.28-May-2021 3456.50 4149.71 83.03 10.00  46.22 2576.46
   05:31:48.756.28-May-2021 3456.50 4149.25 83.02 10.00  46.42 2576.46
   05:31:48.956.28-May-2021 3456.50 4150.30 83.02 10.00  46.62 2576.46
   05:31:49.156.28-May-2021 3456.50 4148.93 83.02 10.00  46.82 2576.46
   05:31:49.357.28-May-2021 3456.50 4150.17 83.02 10.00  47.02 2576.46
   05:31:49.557.28-May-2021 3456.50 4150.17 83.02 10.00  47.22 2576.46
   05:31:49.757.28-May-2021 3456.50 4150.05 83.01 10.00  47.42 2576.46
   05:31:49.957.28-May-2021 3456.50 4160.47 83.01 10.00  47.62 2576.46
   05:31:50.157.28-May-2021 3456.50 4156.64 83.01 10.00  47.82 2576.46
   05:31:50.357.28-May-2021 3456.50 4156.22 83.01 10.00  48.02 2576.46
   05:31:50.557.28-May-2021 3456.50 4156.22 83.01 10.00  48.22 2576.46
   05:31:50.757.28-May-2021 3456.50 4155.91 83.01 10.00  48.42 2576.46
   05:31:50.957.28-May-2021 3456.50 4155.42 83.01 10.00  48.62 2576.46
   05:31:51.157.28-May-2021 3456.50 4157.76 83.00 10.00  48.82 2576.46
   05:31:51.357.28-May-2021 3456.50 4151.61 83.00 10.00  49.02 2576.46
   05:31:51.557.28-May-2021 3456.50 4151.61 83.00 10.00  49.22 2576.46
   05:31:51.758.28-May-2021 3456.50 4155.23 83.00 10.00  49.42 2576.46
   05:31:51.958.28-May-2021 3456.50 4155.37 83.00 10.00  49.62 2576.46
   05:31:52.158.28-May-2021 3456.50 4152.86 83.00 10.00  49.82 2576.46
   05:31:52.358.28-May-2021 3456.50 4153.40 83.00 10.00  50.02 2576.46
   05:31:52.558.28-May-2021 3456.50 4153.40 83.00 10.00  50.22 2576.46
   05:31:52.758.28-May-2021 3456.50 4152.54 82.99 10.00  50.42 2576.46
   05:31:52.958.28-May-2021 3456.50 4152.81 82.99 10.00  50.62 2576.46
   05:31:53.158.28-May-2021 3456.50 4151.60 82.99 10.00  50.82 2576.46
   05:31:53.358.28-May-2021 3456.50 4152.74 82.99 10.00  51.02 2576.46
   05:31:53.558.28-May-2021 3456.50 4152.74 82.99 10.00  51.22 2576.46
   05:31:53.758.28-May-2021 3456.50 4154.16 82.99 10.00  51.42 2576.46
   05:31:53.958.28-May-2021 3456.50 4150.50 82.99 10.00  51.62 2576.46
   05:31:54.159.28-May-2021 3456.50 4150.71 82.99 10.00  51.82 2576.46
   05:31:54.359.28-May-2021 3456.50 4149.94 82.99 10.00  52.02 2576.46
   05:31:54.559.28-May-2021 3456.50 4149.94 82.99 10.00  52.22 2576.46
   05:31:54.759.28-May-2021 3456.50 4147.03 82.98 10.00  52.42 2576.46
   05:31:54.959.28-May-2021 3456.50 4146.03 82.98 10.00  52.62 2576.46
   05:31:55.159.28-May-2021 3456.50 4191.77 82.98 10.00  52.82 2576.46
   05:31:55.359.28-May-2021 3456.50 4229.13 82.98 10.00  53.02 2576.46
   05:31:55.559.28-May-2021 3456.50 4229.13 82.98 10.00  53.22 2576.46
   05:31:55.759.28-May-2021 3456.50 4229.63 82.98 10.00  53.42 2576.46
   05:31:55.959.28-May-2021 3456.50 4230.04 82.98 10.00  53.62 2576.46
   05:31:56.159.28-May-2021 3456.50 4230.04 82.98 10.00  53.82 2576.46
   05:31:56.360.28-May-2021 3456.50 4230.14 82.98 10.00  54.02 2576.46
   05:31:56.560.28-May-2021 3456.50 4230.14 82.98 10.00  54.22 2576.46
   05:31:56.760.28-May-2021 3456.50 4230.14 82.98 10.00  54.42 2576.46
   05:31:56.960.28-May-2021 3456.50 4230.34 82.98 10.00  54.62 2576.46
   05:31:57.160.28-May-2021 3456.50 4230.38 82.98 10.00  54.82 2576.46
   05:31:57.360.28-May-2021 3456.50 4230.43 82.98 10.00  55.02 2576.46
   05:31:57.560.28-May-2021 3456.50 4230.43 82.98 10.00  55.22 2576.46
   05:31:57.760.28-May-2021 3456.50 4230.46 82.98 10.00  55.42 2576.46
   05:31:57.960.28-May-2021 3456.50 4230.52 82.98 10.00  55.62 2576.46
   05:31:58.160.28-May-2021 3456.50 4230.54 82.98 10.00  55.82 2576.46
   05:31:58.360.28-May-2021 3456.50 4230.48 82.98 10.00  56.02 2576.46
   05:31:58.560.28-May-2021 3456.50 4230.48 82.98 10.00  56.22 2576.46
   05:31:58.761.28-May-2021 3456.50 4230.44 82.98 10.00  56.42 2576.46
   05:31:58.961.28-May-2021 3456.50 4230.47 82.98 10.00  56.62 2576.46
   05:31:59.161.28-May-2021 3456.50 4230.33 82.98 10.00  56.82 2576.46
   05:31:59.361.28-May-2021 3456.50 4230.66 82.98 10.00  57.02 2576.46
   05:31:59.561.28-May-2021 3456.50 4230.66 82.98 10.00  57.22 2576.46
   05:31:59.761.28-May-2021 3456.50 4230.54 82.98 10.00  57.42 2576.46
   05:31:59.961.28-May-2021 3456.50 4230.56 82.98 10.00  57.62 2576.46
   05:32:00.161.28-May-2021 3456.50 4230.62 82.98 10.00  57.82 2576.46
   05:32:00.361.28-May-2021 3456.50 4230.44 82.98 10.00  58.02 2576.46
   05:32:00.561.28-May-2021 3456.50 4230.44 82.98 10.00  58.22 2576.46
   05:32:00.761.28-May-2021 3456.50 4230.51 82.98 10.00  58.42 2576.46
   05:32:00.961.28-May-2021 3456.50 4230.62 82.98 10.00  58.62 2576.46
   05:32:01.162.28-May-2021 3456.50 4230.55 82.98 10.00  58.82 2576.46
   05:32:01.362.28-May-2021 3456.50 4230.56 82.98 10.00  59.02 2576.46
   05:32:01.562.28-May-2021 3456.50 4230.56 82.98 10.00  59.22 2576.46
   05:32:01.762.28-May-2021 3456.50 4230.65 82.98 10.00  59.42 2576.46
   05:32:01.962.28-May-2021 3456.50 4230.67 82.98 10.00  59.62 2576.46
   05:32:02.162.28-May-2021 3456.50 4230.70 82.98 10.00  59.83 2576.46
   05:32:02.362.28-May-2021 3456.50 4230.73 82.98 10.00  60.03 2576.46
   05:32:02.562.28-May-2021 3456.50 4230.73 82.98 10.00  60.23 2576.46
   05:32:02.762.28-May-2021 3456.50 4230.76 82.97 10.00  60.43 2576.46
   05:32:02.962.28-May-2021 3456.50 4230.76 82.98 10.00  60.63 2576.46
   05:32:03.162.28-May-2021 3456.50 4230.77 82.97 10.00  60.83 2576.46
   05:32:03.362.28-May-2021 3456.50 4230.63 82.98 10.00  61.03 2576.46
   05:32:03.563.28-May-2021 3456.50 4230.63 82.98 10.00  61.23 2576.46
   05:32:03.763.28-May-2021 3456.50 4230.64 82.97 10.00  61.43 2576.46
   05:32:03.963.28-May-2021 3456.50 4230.69 82.97 10.00  61.63 2576.46
   05:32:04.163.28-May-2021 3456.50 4230.69 82.97 10.00  61.83 2576.46
   05:32:04.363.28-May-2021 3456.50 4230.74 82.97 10.00  62.03 2576.46
   05:32:04.563.28-May-2021 3456.50 4230.74 82.97 10.00  62.23 2576.46
   05:32:04.763.28-May-2021 3456.50 4230.78 82.97 10.00  62.43 2576.46
   05:32:04.963.28-May-2021 3456.50 4230.81 82.98 10.00  62.63 2576.46
   05:32:05.163.28-May-2021 3456.50 4230.83 82.97 10.00  62.83 2576.46
   05:32:05.363.28-May-2021 3456.50 4230.82 82.97 10.00  63.03 2576.46
   05:32:05.563.28-May-2021 3456.50 4230.82 82.97 10.00  63.23 2576.46
   05:32:05.763.28-May-2021 3456.50 4230.86 82.97 10.00  63.43 2576.46
   05:32:05.964.28-May-2021 3456.50 4230.78 82.97 10.00  63.63 2576.46
   05:32:06.164.28-May-2021 3456.50 4230.77 82.97 10.00  63.83 2576.46
   05:32:06.364.28-May-2021 3456.50 4230.69 82.97 10.00  64.03 2576.46
   05:32:06.564.28-May-2021 3456.50 4230.69 82.97 10.00  64.23 2576.46
   05:32:06.764.28-May-2021 3456.50 4230.76 82.97 10.00  64.43 2576.46
   05:32:06.964.28-May-2021 3456.50 4230.65 82.98 10.00  64.63 2576.46
   05:32:07.164.28-May-2021 3456.50 4230.81 82.97 10.00  64.83 2576.46
   05:32:07.364.28-May-2021 3456.50 4230.73 82.98 10.00  65.03 2576.46
   05:32:07.564.28-May-2021 3456.50 4230.73 82.98 10.00  65.23 2576.46
   05:32:07.764.28-May-2021 3456.50 4230.81 82.97 10.00  65.43 2576.46
   05:32:07.964.28-May-2021 3456.50 4230.62 82.97 10.00  65.63 2576.46
   05:32:08.164.28-May-2021 3456.50 4230.73 82.98 10.00  65.83 2576.46
   05:32:08.365.28-May-2021 3456.50 4230.75 82.98 10.00  66.03 2576.46
   05:32:08.565.28-May-2021 3456.50 4230.75 82.98 10.00  66.23 2576.46
   05:32:08.765.28-May-2021 3456.50 4230.81 82.98 10.00  66.43 2576.46
   05:32:08.965.28-May-2021 3456.50 4230.86 82.98 10.00  66.63 2576.46
   05:32:09.165.28-May-2021 3456.50 4230.66 82.98 10.00  66.83 2576.46
   05:32:09.365.28-May-2021 3456.50 4230.77 82.98 10.00  67.03 2576.46
   05:32:09.565.28-May-2021 3456.50 4230.77 82.98 10.00  67.23 2576.46
   05:32:09.765.28-May-2021 3456.50 4230.84 82.98 10.00  67.43 2576.46
   05:32:09.965.28-May-2021 3456.50 4230.83 82.98 10.00  67.63 2576.46
