~Version Information
 VERS.                  2.0:   CWLS log ASCII Standard -VERSION 2.0
 WRAP.                   NO:   One line per depth step
~Well Information Block
#MNEM.UNIT     VALUE/NAME     DESCRIPTION
#---------     -----------    ---------------------------
 STRT.S             22:21:57 27-May-21: START TIME 22:21:57 27-May-21
 STOP.S             22:28:58 27-May-21: STOP TIME  22:28:58 27-May-21
 STEP.S                   0.00: STEP TIME
 NULL.                 -999.25: NULL VALUE
 UWI .                     N/A:  UNIQUE WELL IDENTIFIER
 API .                     N/A:  API NUMBER
 UNIT.                     N/A:  LOGGING EQUIPMENT ID
 DCON.         Sperry Drilling:  DIRECTNL CONTR
 DOE .                     N/A:  DOE NUMBER
 MWDS.                    Baku:  MWD SHOP
 SRVC.     Turan Drilling and Engineering:  CONTRACTOR
 CTRY.              Azerbaijan:  COUNTRY NAME
 PROV.                    Baku:  PROVINCE
 STAT.                    Baku:  STATE NAME
 REGN.                   EESSA:  REGION
 BASE.              Azerbaijan:  LOGGING EQUIPMENT BASE LOCATION
 WTYP.                Deviated:  WELL TYPE
 RIG .              East Azeri:  RIG NAME
 WELL.                    D02y:  WELL NAME
 FLD .                     ACG:  FIELD NAME
 COMP.     BP Exploration (Caspian Sea) Ltd.:  COMPANY
 PDAT.          Mean Sea Level:  PERMANENT DATUM
 MDS .        Operator Entered:  MAG DATA SOURCE
 SON .        AZ-XX-0906997291:  JOB NUMBER
 FTOP.          Formation Tops:  FORM TOPS DESC
 ILTD.               Lithology:  INTERP LTH DESC
 SVYD.                  Survey:  SURVEY DESC
 DMOD.             Drill Model:  DRILL MOD DESC
 HPTY.       Minimum Curvature:  HOLE POS TYPE
 NREF.                    Grid:  NORTH REFERENCE
 SPUD.               05-May-21:  SPUD DATE
 DATE.      09.27.28 12-Jun-21:  END TIME
 STIM.      09.27.28 12-May-21:  START TIME
 DMF .             Drill Floor:  DRILL MEAS FROM
 DFST.                        :  DIST FSL TEXT
 DFWT.                        :  DIST FWL TEXT
 CNTY.                        :  COUNTY
 LOC .                        :  LOCATION
 LMF .             Drill Floor:  LOG MEASURED FROM
 DEP .m                2806.40:  DEPTH
 AGAP.m                  43.60:  AIR GAP
 VSNS.m                  -4.42:  VERT SEC N/S
 VSEW.m                  -7.31:  VERT SEC E/W
 APD .m                  43.60:  DEPTH ABOVE PD
 WDMS.m                 151.80:  WD ELEV
 EGL .m                   0.00:  GROUND ELEVATION
 EPD .m                   0.00:  ELEVATION
 AZTC.deg                 6.18:  AZM TOTAL CORR
 GRDC.deg                 0.29:  GRID CORRECTION
 MDEC.deg                 6.47:  MAGNETIC DECL
 MDIP.deg                59.50:  MAGNETIC DIP
 MFLD.nT              50350.00:  MAGNETIC FIELD
 GVFD.g                   1.00:  GRAVITY FIELD
 VSDR.deg               179.08:  VERT SEC DIRECT
 TDD .m                4300.00:  TOTAL DEPTH (DRILLER)
 SDEP.m                2800.00:  START DEPTH
 DFSL.m                   0.00:  DISTANCE FSL
 DFWL.m                   0.00:  DISTANCE FWL
 UTMY.m             4431871.34:  UTM Y
 UTMX.m              538762.90:  UTM X
 WHEW.m                  -7.31:  WELL HEAD E/W
 WHNS.m                  -4.42:  WELL HEAD N/S
 LONG.deg                51.45:  LONGITUDE
 LATI.deg                40.02:  LATITUDE
 TVDS.m                  43.60:  TVDSS CORRECTN
 EKB .m                  43.60:  KB ELEVATION
 EDF .m                  43.60:  DF ELEVATION
 TDL .m                 806.00:  TOTAL DEPTH (LOGGER)
 MAGU.                 1851231:  MAGUTM CHECKSUM
 VSC .                       0:  VS TO CLOSURE
~Parameter Information Block
#MNEM.UNIT       Value        Description
#---------     -----------    ---------------------------
 AV  .mps                 1.60:  Ann Velocity 
 AVMX.mps                 2.00:  Max Ann Veloc 
 AZIF.deg               140.24:  Azm, Final 
 BHAT.        Rotary Steerable:  BHA Type 
 BROT.°/30m               0.50:  Build Rotating 
 BS  .in                  8.50:  Bit Size 
 BTPL.psig              619.00:  Bit Press Loss 
 CABU.                     Yes:  Customer Abuse 
 CGEO.          Ilgar Gurbanov:  Customer Geo 
 COMM.                     ¼ƒj:  Run Comments 1 
 TCS .hr                 85.88:  Time Ciculation Ended 
 CV  .mps                 3.30:  Crit Velocity 
 CVMX.mps                 3.50:  Max Crit Veloc 
 DD1 .           Hamid Axmedov:  Direct Drillr 1 
 DD2 .           Teymur Aliyev:  Direct Drillr 2 
 DDSV.               Geo-Pilot:  DD Service 
 DEFF.%                 100.00:  % Det Eff 
 DLRX.°/30m               0.00:  Dogleg Rot Max 
 DLSO.°/30m               1.80:  Dogleg Oriented 
 DLSX.°/30m               3.34:  Dogleg Str Max 
 DRET.      11.50.00 27-May-21:  Drill End Time 
 DRST.      21.13.00 24-May-21:  Drill Start Tim 
 DTIM.hr                 45.11:  Time Drilling 
 EDEP.m                4054.00:  End Depth 
 ENG1.         Almaz Almadatov:  Engineer 1 
 ENG2.           Amrah Tahirov:  Engineer 2 
 ENG3.      Bakhtiyar Jabbarli:  Engineer 3 
 ENG4.          Nazrin Asgarli:  Engineer 4 
 ETIM.      10.00.00 30-May-21:  End Time 
 FLOI.gpm               530.00:  Flow In 
 FLON.gpm               400.00:  Flow In Min 
 FLOS.cptm                0.00:  Fluid Loss 
 FLOX.gpm               560.00:  Flow In Max 
 DFT .        Mineral Oil Base:  Mud Type 
 FTRO.       Formation Presure:  FTWD Run Obj 
 HFLO.                      No:  High Flow 
 HPRE.                      No:  High Pressure 
 HTEM.                      No:  High Temp 
 HYDO.m                   1.80:  Hydro Offset 
 IFIN.deg                73.83:  Inc, Final 
 IMAX.deg                73.83:  Inc Max 
 IMIN.deg                57.86:  Inc Min 
 IMND.m                3259.27:  Inc Min Depth 
 IMXD.m                4045.58:  Inc Max Depth 
 JARR.                     Yes:  Jarring 
 LETM.      11.50.00 27-May-21:  Log End Time 
 LOST.hr                     0:  Lost Rig Time 
 LSTM.      21.13.00 24-May-21:  Log Start Time 
 MDCL.ppm             42500.00:  Mud Chlorides 
 MDES.     Inversion Oil/Synthetic:  Mud Desc 
 DFD .sg                  1.52:  Mud Density 
 MDMN.sg                  1.52:  Dens Mud Min 
 MDMX.sg                  1.52:  Dens Mud Max 
 MOIL.                      70:  Run Mud Oil % 
 MOWR.                   70:30:  Run Mud OWR 
 MSND.                     0.2:  Run Mud Sand % 
 MSOL.                      22:  Run Mud Solids% 
 DFV .spqt               77.00:  Mud Viscosity 
 MWOD.in                  6.75:  MWD Tool OD 
 MWSI.                      No:  Serv Intrp, MWD 
 OTIM.hr                151.01:  Time Operating 
 PCON.          Wear / Scratch:  Pad Condition 
 PMAX.psia            11296.93:  Press Op, Max 
 PV  .cP                 37.00:  Mud PV 
 RUN .                     500:  Run Number 
 ROPA.m/hr               25.00:  ROP Avg 
 ROPN.m/hr                9.00:  ROP Min 
 ROPX.m/hr               28.00:  ROP Max 
 RPMA.rpm               140.00:  RPM Surface Avg 
 RPMN.rpm                90.00:  RPM Surface Min 
 RPMX.rpm               140.00:  RPM Surface Max 
 RRUN.                    0500:  Rig Run Number 
 SAZI.deg               172.17:  Azm, Start 
 SDEP.m                3248.00:  Start Depth 
 SIDD.                      No:  Serv Intrp, DD 
 SINC.deg                57.86:  Inc, Start 
 SPPA.psig             5620.00:  SPP Avg 
 SPPN.psig             5190.00:  SPP Min 
 SPPX.psig             6050.00:  SPP Max 
 STIM.      16.00.00 23-May-21:  Start Time 
 SVCS.                 DD, MWD:  Services 
 SVER.                    9.20:  Sperry Version 
 TDAT.m                 806.00:  Tot Depth Attmp 
 TDDF.                      No:  Trip for DD 
 TDLG.m                 806.00:  Tot Depth Loggd 
 TFF .                      No:  Trip for Fail 
 TQAA.f-kp               12.00:  Torque Abs Avg 
 TQAN.f-kp                8.00:  Torque Abs Min 
 TQAX.f-kp               15.00:  Torque Abs Max 
 TRRT.°/30m               0.30:  Turn Rotating 
 MRT .                  EWR-M5:  Maximum Recorded Temperature 
 TTMX.degC               93.00:  Max Tool Temp 
 VS01.                90649155:  Virtual Str1 SN 
 VS02.                90642264:  Virtual Str2 SN 
 VS03.                90642266:  Virtual Str3 SN 
 VS04.                90642261:  Virtual Str4 SN 
 WBMN.klb                 0.00:  WOB Min 
 WITN.             Anar Khalil:  Customer Rep 
 WITN.           Murad Guliyev:  Customer Rep 2 
 WOBA.klb                13.00:  WOB Avg 
 WOBX.klb                25.00:  WOB Max 
 YP  .lhf2               32.00:  Yield Point 
~Curve Information Block
#MNEM.UNIT                 API CODE     Curve Description
#---------               -----------    ---------------------------
 TIME.HHMMSS            00 000 000 000:  GT Time & Date
 GTDEPTH.m              00 000 000 000:  GT Depth
 GTPQH.psia             00 000 000 000:  GT HR Quartz Pressure
 GTTQ.degC              00 000 000 000:  GT Quartz Temperature
 GTTN.NONE              00 000 000 000:  GT Test Number
 GTET.sec               00 000 000 000:  GT Elapsed Test Time
 GTTVD.m                00 000 000 000:  GT True Vertical Depth
#Other Information
#
#WARRANTY: Halliburton will use its best efforts to furnish customers with 
#accurate information and interpretations that are part of, and incident to, the services 
#provided.  However, Halliburton cannot and does not warrant the accuracy 
#or correctness of such information and interpretations.  Under no circumstances should any 
#such information or interpretation be relied upon as the sole basis for any drilling, 
#completion, production, or financial decision or any procedure involving any risk to the 
#safety of any drilling venture, drilling rig or its crew or any other third party.  The 
#Customer has full responsibility for all drilling, completion and production operation.  
#Halliburton makes no representations or warranties, either expressed or 
#implied, including, but not limited to, the implied warranties of merchantability or fitness 
#for a particular purpose, with respect to the services rendered.  In no event will 
#Halliburton be liable for failure to obtain any particular results or for 
#any damages, including, but not limited to, indirect, special or consequential damages, 
#resulting from the use of any information or interpretation provided by Halliburton.
#
~A           TIME           GTDEPTH  GTPQH  GTTQ  GTTN  GTET   GTTVD  
# ...
   22:28:28.768.27-May-2021 3723.00 6242.74 84.40 1.00 391.06 2680.40
   22:28:28.968.27-May-2021 3723.00 6242.74 84.40 1.00 391.26 2680.40
   22:28:29.168.27-May-2021 3723.00 6242.89 84.40 1.00 391.46 2680.40
   22:28:29.368.27-May-2021 3723.00 6248.07 84.40 1.00 391.66 2680.40
   22:28:29.568.27-May-2021 3723.00 6241.66 84.40 1.00 391.86 2680.40
   22:28:29.768.27-May-2021 3723.00 6242.71 84.40 1.00 392.06 2680.40
   22:28:29.968.27-May-2021 3723.00 6242.71 84.40 1.00 392.26 2680.40
   22:28:30.168.27-May-2021 3723.00 6246.85 84.40 1.00 392.46 2680.40
   22:28:30.368.27-May-2021 3723.00 6242.18 84.40 1.00 392.66 2680.40
   22:28:30.569.27-May-2021 3723.00 6242.18 84.40 1.00 392.86 2680.40
   22:28:30.769.27-May-2021 3723.00 6242.65 84.40 1.00 393.06 2680.40
   22:28:30.969.27-May-2021 3723.00 6242.65 84.40 1.00 393.26 2680.40
   22:28:31.169.27-May-2021 3723.00 6242.65 84.40 1.00 393.46 2680.40
   22:28:31.369.27-May-2021 3723.00 6242.12 84.40 1.00 393.66 2680.40
   22:28:31.569.27-May-2021 3723.00 6242.41 84.40 1.00 393.86 2680.40
   22:28:31.769.27-May-2021 3723.00 6243.18 84.40 1.00 394.06 2680.40
   22:28:31.969.27-May-2021 3723.00 6243.18 84.40 1.00 394.26 2680.40
   22:28:32.169.27-May-2021 3723.00 6246.50 84.40 1.00 394.46 2680.40
   22:28:32.369.27-May-2021 3723.00 6242.83 84.40 1.00 394.66 2680.40
   22:28:32.569.27-May-2021 3723.00 6242.51 84.40 1.00 394.86 2680.40
   22:28:32.769.27-May-2021 3723.00 6243.15 84.40 1.00 395.06 2680.40
   22:28:32.969.27-May-2021 3723.00 6243.15 84.40 1.00 395.26 2680.40
   22:28:33.169.27-May-2021 3723.00 6242.66 84.40 1.00 395.46 2680.40
   22:28:33.369.27-May-2021 3723.00 6242.34 84.40 1.00 395.66 2680.40
   22:28:33.569.27-May-2021 3723.00 6243.23 84.40 1.00 395.86 2680.40
   22:28:33.769.27-May-2021 3723.00 6242.92 84.40 1.00 396.06 2680.40
   22:28:33.969.27-May-2021 3723.00 6242.92 84.40 1.00 396.26 2680.40
   22:28:34.169.27-May-2021 3723.00 6243.12 84.40 1.00 396.46 2680.40
   22:28:34.369.27-May-2021 3723.00 6243.04 84.40 1.00 396.66 2680.40
   22:28:34.569.27-May-2021 3723.00 6242.78 84.40 1.00 396.86 2680.40
   22:28:34.769.27-May-2021 3723.00 6246.52 84.40 1.00 397.06 2680.40
   22:28:34.969.27-May-2021 3723.00 6246.52 84.40 1.00 397.26 2680.40
   22:28:35.169.27-May-2021 3723.00 6242.69 84.40 1.00 397.46 2680.40
   22:28:35.369.27-May-2021 3723.00 6242.97 84.40 1.00 397.66 2680.40
   22:28:35.569.27-May-2021 3723.00 6242.44 84.40 1.00 397.86 2680.40
   22:28:35.769.27-May-2021 3723.00 6242.15 84.40 1.00 398.06 2680.40
   22:28:35.969.27-May-2021 3723.00 6242.15 84.40 1.00 398.26 2680.40
   22:28:36.169.27-May-2021 3723.00 6241.90 84.40 1.00 398.46 2680.40
   22:28:36.369.27-May-2021 3723.00 6242.08 84.40 1.00 398.66 2680.40
   22:28:36.570.27-May-2021 3723.00 6242.27 84.40 1.00 398.86 2680.40
   22:28:36.770.27-May-2021 3723.00 6242.56 84.40 1.00 399.06 2680.40
   22:28:36.970.27-May-2021 3723.00 6242.56 84.40 1.00 399.26 2680.40
   22:28:37.170.27-May-2021 3723.00 6242.86 84.40 1.00 399.47 2680.40
   22:28:37.370.27-May-2021 3723.00 6249.63 84.40 1.00 399.67 2680.40
   22:28:37.570.27-May-2021 3723.00 6239.77 84.40 1.00 399.87 2680.40
   22:28:37.770.27-May-2021 3723.00 6242.92 84.40 1.00 400.07 2680.40
   22:28:37.970.27-May-2021 3723.00 6242.92 84.40 1.00 400.27 2680.40
   22:28:38.170.27-May-2021 3723.00 6250.14 84.40 1.00 400.47 2680.40
   22:28:38.370.27-May-2021 3723.00 6238.78 84.40 1.00 400.67 2680.40
   22:28:38.570.27-May-2021 3723.00 6242.05 84.40 1.00 400.87 2680.40
   22:28:38.770.27-May-2021 3723.00 6242.13 84.40 1.00 401.07 2680.40
   22:28:38.970.27-May-2021 3723.00 6242.13 84.40 1.00 401.27 2680.40
   22:28:39.170.27-May-2021 3723.00 6246.81 84.40 1.00 401.47 2680.40
   22:28:39.370.27-May-2021 3723.00 6240.20 84.40 1.00 401.67 2680.40
   22:28:39.570.27-May-2021 3723.00 6242.17 84.40 1.00 401.87 2680.40
   22:28:39.770.27-May-2021 3723.00 6242.16 84.40 1.00 402.07 2680.40
   22:28:39.970.27-May-2021 3723.00 6242.16 84.40 1.00 402.27 2680.40
   22:28:40.170.27-May-2021 3723.00 6242.15 84.39 1.00 402.47 2680.40
   22:28:40.370.27-May-2021 3723.00 6247.71 84.39 1.00 402.67 2680.40
   22:28:40.570.27-May-2021 3723.00 6241.17 84.39 1.00 402.87 2680.40
   22:28:40.770.27-May-2021 3723.00 6242.25 84.39 1.00 403.07 2680.40
   22:28:40.970.27-May-2021 3723.00 6242.25 84.39 1.00 403.27 2680.40
   22:28:41.170.27-May-2021 3723.00 6243.25 84.39 1.00 403.47 2680.40
   22:28:41.370.27-May-2021 3723.00 6242.50 84.39 1.00 403.67 2680.40
   22:28:41.570.27-May-2021 3723.00 6242.25 84.39 1.00 403.87 2680.40
   22:28:41.770.27-May-2021 3723.00 6242.21 84.39 1.00 404.07 2680.40
   22:28:41.970.27-May-2021 3723.00 6242.21 84.39 1.00 404.27 2680.40
   22:28:42.170.27-May-2021 3723.00 6242.31 84.39 1.00 404.47 2680.40
   22:28:42.370.27-May-2021 3723.00 6242.43 84.39 1.00 404.67 2680.40
   22:28:42.570.27-May-2021 3723.00 6242.67 84.39 1.00 404.87 2680.40
   22:28:42.771.27-May-2021 3723.00 6242.38 84.39 1.00 405.07 2680.40
   22:28:42.971.27-May-2021 3723.00 6242.38 84.39 1.00 405.27 2680.40
   22:28:43.171.27-May-2021 3723.00 6241.28 84.39 1.00 405.47 2680.40
   22:28:43.371.27-May-2021 3723.00 6242.55 84.39 1.00 405.67 2680.40
   22:28:43.571.27-May-2021 3723.00 6242.62 84.39 1.00 405.87 2680.40
   22:28:43.771.27-May-2021 3723.00 6243.05 84.39 1.00 406.07 2680.40
   22:28:43.971.27-May-2021 3723.00 6243.05 84.39 1.00 406.27 2680.40
   22:28:44.171.27-May-2021 3723.00 6241.78 84.39 1.00 406.47 2680.40
   22:28:44.371.27-May-2021 3723.00 6242.18 84.39 1.00 406.67 2680.40
   22:28:44.571.27-May-2021 3723.00 6241.98 84.39 1.00 406.87 2680.40
   22:28:44.771.27-May-2021 3723.00 6242.24 84.39 1.00 407.07 2680.40
   22:28:44.971.27-May-2021 3723.00 6242.24 84.39 1.00 407.27 2680.40
   22:28:45.171.27-May-2021 3723.00 6242.76 84.39 1.00 407.47 2680.40
   22:28:45.371.27-May-2021 3723.00 6242.57 84.39 1.00 407.67 2680.40
   22:28:45.571.27-May-2021 3723.00 6248.15 84.39 1.00 407.87 2680.40
   22:28:45.771.27-May-2021 3723.00 6240.59 84.39 1.00 408.07 2680.40
   22:28:45.971.27-May-2021 3723.00 6240.59 84.39 1.00 408.27 2680.40
   22:28:46.171.27-May-2021 3723.00 6242.42 84.39 1.00 408.47 2680.40
   22:28:46.371.27-May-2021 3723.00 6248.49 84.39 1.00 408.67 2680.40
   22:28:46.571.27-May-2021 3723.00 6239.77 84.39 1.00 408.87 2680.40
   22:28:46.771.27-May-2021 3723.00 6242.09 84.39 1.00 409.07 2680.40
   22:28:46.971.27-May-2021 3723.00 6242.09 84.39 1.00 409.27 2680.40
   22:28:47.171.27-May-2021 3723.00 6242.17 84.39 1.00 409.47 2680.40
   22:28:47.371.27-May-2021 3723.00 6246.80 84.39 1.00 409.67 2680.40
   22:28:47.571.27-May-2021 3723.00 6240.03 84.39 1.00 409.87 2680.40
   22:28:47.771.27-May-2021 3723.00 6242.38 84.39 1.00 410.07 2680.40
   22:28:47.971.27-May-2021 3723.00 6242.38 84.39 1.00 410.27 2680.40
   22:28:48.171.27-May-2021 3723.00 6242.99 84.39 1.00 410.47 2680.40
   22:28:48.371.27-May-2021 3723.00 6245.30 84.39 1.00 410.67 2680.40
   22:28:48.571.27-May-2021 3723.00 6243.29 84.39 1.00 410.87 2680.40
   22:28:48.771.27-May-2021 3723.00 6242.51 84.39 1.00 411.07 2680.40
   22:28:48.972.27-May-2021 3723.00 6242.51 84.39 1.00 411.27 2680.40
   22:28:49.172.27-May-2021 3723.00 6243.23 84.39 1.00 411.47 2680.40
   22:28:49.372.27-May-2021 3723.00 6242.55 84.39 1.00 411.67 2680.40
   22:28:49.572.27-May-2021 3723.00 6242.56 84.39 1.00 411.87 2680.40
   22:28:49.772.27-May-2021 3723.00 6242.33 84.39 1.00 412.07 2680.40
   22:28:49.972.27-May-2021 3723.00 6242.33 84.39 1.00 412.27 2680.40
   22:28:50.172.27-May-2021 3723.00 6242.31 84.39 1.00 412.47 2680.40
   22:28:50.372.27-May-2021 3723.00 6242.08 84.39 1.00 412.67 2680.40
   22:28:50.572.27-May-2021 3723.00 6242.53 84.39 1.00 412.87 2680.40
   22:28:50.772.27-May-2021 3723.00 6242.53 84.39 1.00 413.07 2680.40
   22:28:50.972.27-May-2021 3723.00 6242.53 84.39 1.00 413.27 2680.40
   22:28:51.172.27-May-2021 3723.00 6243.30 84.39 1.00 413.47 2680.40
   22:28:51.372.27-May-2021 3723.00 6242.35 84.39 1.00 413.67 2680.40
   22:28:51.572.27-May-2021 3723.00 6242.44 84.39 1.00 413.87 2680.40
