~Version Information
 VERS.                  2.0:   CWLS log ASCII Standard -VERSION 2.0
 WRAP.                   NO:   One line per depth step
~Well Information Block
#MNEM.UNIT     VALUE/NAME     DESCRIPTION
#---------     -----------    ---------------------------
 STRT.S             23:03:24 27-May-21: START TIME 23:03:24 27-May-21
 STOP.S             23:10:28 27-May-21: STOP TIME  23:10:28 27-May-21
 STEP.S                   0.00: STEP TIME
 NULL.                 -999.25: NULL VALUE
 UWI .                     N/A:  UNIQUE WELL IDENTIFIER
 API .                     N/A:  API NUMBER
 UNIT.                     N/A:  LOGGING EQUIPMENT ID
 DCON.         Sperry Drilling:  DIRECTNL CONTR
 DOE .                     N/A:  DOE NUMBER
 MWDS.                    Baku:  MWD SHOP
 SRVC.     Turan Drilling and Engineering:  CONTRACTOR
 CTRY.              Azerbaijan:  COUNTRY NAME
 PROV.                    Baku:  PROVINCE
 STAT.                    Baku:  STATE NAME
 REGN.                   EESSA:  REGION
 BASE.              Azerbaijan:  LOGGING EQUIPMENT BASE LOCATION
 WTYP.                Deviated:  WELL TYPE
 RIG .              East Azeri:  RIG NAME
 WELL.                    D02y:  WELL NAME
 FLD .                     ACG:  FIELD NAME
 COMP.     BP Exploration (Caspian Sea) Ltd.:  COMPANY
 PDAT.          Mean Sea Level:  PERMANENT DATUM
 MDS .        Operator Entered:  MAG DATA SOURCE
 SON .        AZ-XX-0906997291:  JOB NUMBER
 FTOP.          Formation Tops:  FORM TOPS DESC
 ILTD.               Lithology:  INTERP LTH DESC
 SVYD.                  Survey:  SURVEY DESC
 DMOD.             Drill Model:  DRILL MOD DESC
 HPTY.       Minimum Curvature:  HOLE POS TYPE
 NREF.                    Grid:  NORTH REFERENCE
 SPUD.               05-May-21:  SPUD DATE
 DATE.      09.27.28 12-Jun-21:  END TIME
 STIM.      09.27.28 12-May-21:  START TIME
 DMF .             Drill Floor:  DRILL MEAS FROM
 DFST.                        :  DIST FSL TEXT
 DFWT.                        :  DIST FWL TEXT
 CNTY.                        :  COUNTY
 LOC .                        :  LOCATION
 LMF .             Drill Floor:  LOG MEASURED FROM
 DEP .m                2806.40:  DEPTH
 AGAP.m                  43.60:  AIR GAP
 VSNS.m                  -4.42:  VERT SEC N/S
 VSEW.m                  -7.31:  VERT SEC E/W
 APD .m                  43.60:  DEPTH ABOVE PD
 WDMS.m                 151.80:  WD ELEV
 EGL .m                   0.00:  GROUND ELEVATION
 EPD .m                   0.00:  ELEVATION
 AZTC.deg                 6.18:  AZM TOTAL CORR
 GRDC.deg                 0.29:  GRID CORRECTION
 MDEC.deg                 6.47:  MAGNETIC DECL
 MDIP.deg                59.50:  MAGNETIC DIP
 MFLD.nT              50350.00:  MAGNETIC FIELD
 GVFD.g                   1.00:  GRAVITY FIELD
 VSDR.deg               179.08:  VERT SEC DIRECT
 TDD .m                4300.00:  TOTAL DEPTH (DRILLER)
 SDEP.m                2800.00:  START DEPTH
 DFSL.m                   0.00:  DISTANCE FSL
 DFWL.m                   0.00:  DISTANCE FWL
 UTMY.m             4431871.34:  UTM Y
 UTMX.m              538762.90:  UTM X
 WHEW.m                  -7.31:  WELL HEAD E/W
 WHNS.m                  -4.42:  WELL HEAD N/S
 LONG.deg                51.45:  LONGITUDE
 LATI.deg                40.02:  LATITUDE
 TVDS.m                  43.60:  TVDSS CORRECTN
 EKB .m                  43.60:  KB ELEVATION
 EDF .m                  43.60:  DF ELEVATION
 TDL .m                 806.00:  TOTAL DEPTH (LOGGER)
 MAGU.                 1851231:  MAGUTM CHECKSUM
 VSC .                       0:  VS TO CLOSURE
~Parameter Information Block
#MNEM.UNIT       Value        Description
#---------     -----------    ---------------------------
 AV  .mps                 1.60:  Ann Velocity 
 AVMX.mps                 2.00:  Max Ann Veloc 
 AZIF.deg               140.24:  Azm, Final 
 BHAT.        Rotary Steerable:  BHA Type 
 BROT.°/30m               0.50:  Build Rotating 
 BS  .in                  8.50:  Bit Size 
 BTPL.psig              619.00:  Bit Press Loss 
 CABU.                     Yes:  Customer Abuse 
 CGEO.          Ilgar Gurbanov:  Customer Geo 
 COMM.                     |¡U:  Run Comments 1 
 TCS .hr                 85.88:  Time Ciculation Ended 
 CV  .mps                 3.30:  Crit Velocity 
 CVMX.mps                 3.50:  Max Crit Veloc 
 DD1 .           Hamid Axmedov:  Direct Drillr 1 
 DD2 .           Teymur Aliyev:  Direct Drillr 2 
 DDSV.               Geo-Pilot:  DD Service 
 DEFF.%                 100.00:  % Det Eff 
 DLRX.°/30m               0.00:  Dogleg Rot Max 
 DLSO.°/30m               1.80:  Dogleg Oriented 
 DLSX.°/30m               3.34:  Dogleg Str Max 
 DRET.      11.50.00 27-May-21:  Drill End Time 
 DRST.      21.13.00 24-May-21:  Drill Start Tim 
 DTIM.hr                 45.11:  Time Drilling 
 EDEP.m                4054.00:  End Depth 
 ENG1.         Almaz Almadatov:  Engineer 1 
 ENG2.           Amrah Tahirov:  Engineer 2 
 ENG3.      Bakhtiyar Jabbarli:  Engineer 3 
 ENG4.          Nazrin Asgarli:  Engineer 4 
 ETIM.      10.00.00 30-May-21:  End Time 
 FLOI.gpm               530.00:  Flow In 
 FLON.gpm               400.00:  Flow In Min 
 FLOS.cptm                0.00:  Fluid Loss 
 FLOX.gpm               560.00:  Flow In Max 
 DFT .        Mineral Oil Base:  Mud Type 
 FTRO.       Formation Presure:  FTWD Run Obj 
 HFLO.                      No:  High Flow 
 HPRE.                      No:  High Pressure 
 HTEM.                      No:  High Temp 
 HYDO.m                   1.80:  Hydro Offset 
 IFIN.deg                73.83:  Inc, Final 
 IMAX.deg                73.83:  Inc Max 
 IMIN.deg                57.86:  Inc Min 
 IMND.m                3259.27:  Inc Min Depth 
 IMXD.m                4045.58:  Inc Max Depth 
 JARR.                     Yes:  Jarring 
 LETM.      11.50.00 27-May-21:  Log End Time 
 LOST.hr                     0:  Lost Rig Time 
 LSTM.      21.13.00 24-May-21:  Log Start Time 
 MDCL.ppm             42500.00:  Mud Chlorides 
 MDES.     Inversion Oil/Synthetic:  Mud Desc 
 DFD .sg                  1.52:  Mud Density 
 MDMN.sg                  1.52:  Dens Mud Min 
 MDMX.sg                  1.52:  Dens Mud Max 
 MOIL.                      70:  Run Mud Oil % 
 MOWR.                   70:30:  Run Mud OWR 
 MSND.                     0.2:  Run Mud Sand % 
 MSOL.                      22:  Run Mud Solids% 
 DFV .spqt               77.00:  Mud Viscosity 
 MWOD.in                  6.75:  MWD Tool OD 
 MWSI.                      No:  Serv Intrp, MWD 
 OTIM.hr                151.01:  Time Operating 
 PCON.          Wear / Scratch:  Pad Condition 
 PMAX.psia            11296.93:  Press Op, Max 
 PV  .cP                 37.00:  Mud PV 
 RUN .                     500:  Run Number 
 ROPA.m/hr               25.00:  ROP Avg 
 ROPN.m/hr                9.00:  ROP Min 
 ROPX.m/hr               28.00:  ROP Max 
 RPMA.rpm               140.00:  RPM Surface Avg 
 RPMN.rpm                90.00:  RPM Surface Min 
 RPMX.rpm               140.00:  RPM Surface Max 
 RRUN.                    0500:  Rig Run Number 
 SAZI.deg               172.17:  Azm, Start 
 SDEP.m                3248.00:  Start Depth 
 SIDD.                      No:  Serv Intrp, DD 
 SINC.deg                57.86:  Inc, Start 
 SPPA.psig             5620.00:  SPP Avg 
 SPPN.psig             5190.00:  SPP Min 
 SPPX.psig             6050.00:  SPP Max 
 STIM.      16.00.00 23-May-21:  Start Time 
 SVCS.                 DD, MWD:  Services 
 SVER.                    9.20:  Sperry Version 
 TDAT.m                 806.00:  Tot Depth Attmp 
 TDDF.                      No:  Trip for DD 
 TDLG.m                 806.00:  Tot Depth Loggd 
 TFF .                      No:  Trip for Fail 
 TQAA.f-kp               12.00:  Torque Abs Avg 
 TQAN.f-kp                8.00:  Torque Abs Min 
 TQAX.f-kp               15.00:  Torque Abs Max 
 TRRT.°/30m               0.30:  Turn Rotating 
 MRT .                  EWR-M5:  Maximum Recorded Temperature 
 TTMX.degC               93.00:  Max Tool Temp 
 VS01.                90649155:  Virtual Str1 SN 
 VS02.                90642264:  Virtual Str2 SN 
 VS03.                90642266:  Virtual Str3 SN 
 VS04.                90642261:  Virtual Str4 SN 
 WBMN.klb                 0.00:  WOB Min 
 WITN.             Anar Khalil:  Customer Rep 
 WITN.           Murad Guliyev:  Customer Rep 2 
 WOBA.klb                13.00:  WOB Avg 
 WOBX.klb                25.00:  WOB Max 
 YP  .lhf2               32.00:  Yield Point 
~Curve Information Block
#MNEM.UNIT                 API CODE     Curve Description
#---------               -----------    ---------------------------
 TIME.HHMMSS            00 000 000 000:  GT Time & Date
 GTDEPTH.m              00 000 000 000:  GT Depth
 GTPQH.psia             00 000 000 000:  GT HR Quartz Pressure
 GTTQ.degC              00 000 000 000:  GT Quartz Temperature
 GTTN.NONE              00 000 000 000:  GT Test Number
 GTET.sec               00 000 000 000:  GT Elapsed Test Time
 GTTVD.m                00 000 000 000:  GT True Vertical Depth
#Other Information
#
#WARRANTY: Halliburton will use its best efforts to furnish customers with 
#accurate information and interpretations that are part of, and incident to, the services 
#provided.  However, Halliburton cannot and does not warrant the accuracy 
#or correctness of such information and interpretations.  Under no circumstances should any 
#such information or interpretation be relied upon as the sole basis for any drilling, 
#completion, production, or financial decision or any procedure involving any risk to the 
#safety of any drilling venture, drilling rig or its crew or any other third party.  The 
#Customer has full responsibility for all drilling, completion and production operation.  
#Halliburton makes no representations or warranties, either expressed or 
#implied, including, but not limited to, the implied warranties of merchantability or fitness 
#for a particular purpose, with respect to the services rendered.  In no event will 
#Halliburton be liable for failure to obtain any particular results or for 
#any damages, including, but not limited to, indirect, special or consequential damages, 
#resulting from the use of any information or interpretation provided by Halliburton.
#
~A           TIME           GTDEPTH  GTPQH  GTTQ  GTTN  GTET   GTTVD  
# ...
   23:04:10.281.27-May-2021 3710.50 6505.08 84.68 2.00  46.02 2675.83
   23:04:10.481.27-May-2021 3710.50 6505.08 84.68 2.00  46.22 2675.83
   23:04:10.682.27-May-2021 3710.50 6506.12 84.68 2.00  46.42 2675.83
   23:04:10.882.27-May-2021 3710.50 6507.40 84.68 2.00  46.62 2675.83
   23:04:11.082.27-May-2021 3710.50 6494.13 84.68 2.00  46.82 2675.83
   23:04:11.282.27-May-2021 3710.50 6232.95 84.68 2.00  47.02 2675.83
   23:04:11.482.27-May-2021 3710.50 6232.95 84.68 2.00  47.22 2675.83
   23:04:11.682.27-May-2021 3710.50 5853.60 84.68 2.00  47.42 2675.83
   23:04:11.882.27-May-2021 3710.50 5470.20 84.68 2.00  47.62 2675.83
   23:04:12.082.27-May-2021 3710.50 4887.86 84.68 2.00  47.82 2675.83
   23:04:12.282.27-May-2021 3710.50 4320.34 84.68 2.00  48.02 2675.83
   23:04:12.482.27-May-2021 3710.50 4320.34 84.68 2.00  48.22 2675.83
   23:04:12.682.27-May-2021 3710.50 3668.67 84.68 2.00  48.42 2675.83
   23:04:12.882.27-May-2021 3710.50 3157.96 84.68 2.00  48.62 2675.83
   23:04:13.083.27-May-2021 3710.50 3101.22 84.68 2.00  48.82 2675.83
   23:04:13.283.27-May-2021 3710.50 3093.60 84.68 2.00  49.02 2675.83
   23:04:13.483.27-May-2021 3710.50 3093.60 84.68 2.00  49.22 2675.83
   23:04:13.683.27-May-2021 3710.50 3096.79 84.67 2.00  49.42 2675.83
   23:04:13.883.27-May-2021 3710.50 3096.84 84.67 2.00  49.62 2675.83
   23:04:14.083.27-May-2021 3710.50 3096.07 84.67 2.00  49.82 2675.83
   23:04:14.283.27-May-2021 3710.50 3095.84 84.67 2.00  50.02 2675.83
   23:04:14.483.27-May-2021 3710.50 3095.84 84.67 2.00  50.22 2675.83
   23:04:14.683.27-May-2021 3710.50 3095.29 84.66 2.00  50.42 2675.83
   23:04:14.883.27-May-2021 3710.50 3094.67 84.66 2.00  50.62 2675.83
   23:04:15.083.27-May-2021 3710.50 3095.08 84.66 2.00  50.82 2675.83
   23:04:15.283.27-May-2021 3710.50 3094.91 84.65 2.00  51.02 2675.83
   23:04:15.483.27-May-2021 3710.50 3094.91 84.65 2.00  51.22 2675.83
   23:04:15.684.27-May-2021 3710.50 3095.00 84.65 2.00  51.42 2675.83
   23:04:15.884.27-May-2021 3710.50 3095.13 84.64 2.00  51.62 2675.83
   23:04:16.084.27-May-2021 3710.50 3095.76 84.64 2.00  51.82 2675.83
   23:04:16.284.27-May-2021 3710.50 3095.29 84.64 2.00  52.02 2675.83
   23:04:16.484.27-May-2021 3710.50 3095.29 84.64 2.00  52.22 2675.83
   23:04:16.684.27-May-2021 3710.50 3095.32 84.63 2.00  52.42 2675.83
   23:04:16.884.27-May-2021 3710.50 3095.32 84.63 2.00  52.62 2675.83
   23:04:17.084.27-May-2021 3710.50 3095.26 84.63 2.00  52.82 2675.83
   23:04:17.284.27-May-2021 3710.50 3095.50 84.63 2.00  53.02 2675.83
   23:04:17.484.27-May-2021 3710.50 3095.50 84.63 2.00  53.22 2675.83
   23:04:17.684.27-May-2021 3710.50 3095.50 84.62 2.00  53.42 2675.83
   23:04:17.884.27-May-2021 3710.50 3095.74 84.62 2.00  53.62 2675.83
   23:04:18.084.27-May-2021 3710.50 3095.54 84.62 2.00  53.82 2675.83
   23:04:18.285.27-May-2021 3710.50 3095.23 84.62 2.00  54.02 2675.83
   23:04:18.485.27-May-2021 3710.50 3095.23 84.62 2.00  54.22 2675.83
   23:04:18.685.27-May-2021 3710.50 3095.23 84.62 2.00  54.42 2675.83
   23:04:18.885.27-May-2021 3710.50 3094.98 84.61 2.00  54.62 2675.83
   23:04:19.085.27-May-2021 3710.50 3094.89 84.61 2.00  54.82 2675.83
   23:04:19.285.27-May-2021 3710.50 3094.77 84.61 2.00  55.02 2675.83
   23:04:19.485.27-May-2021 3710.50 3094.77 84.61 2.00  55.22 2675.83
   23:04:19.685.27-May-2021 3710.50 3095.06 84.61 2.00  55.42 2675.83
   23:04:19.885.27-May-2021 3710.50 3095.47 84.60 2.00  55.62 2675.83
   23:04:20.085.27-May-2021 3710.50 3095.99 84.60 2.00  55.82 2675.83
   23:04:20.285.27-May-2021 3710.50 3095.71 84.60 2.00  56.02 2675.83
   23:04:20.485.27-May-2021 3710.50 3095.71 84.60 2.00  56.22 2675.83
   23:04:20.685.27-May-2021 3710.50 3095.53 84.60 2.00  56.42 2675.83
   23:04:20.886.27-May-2021 3710.50 3095.62 84.60 2.00  56.62 2675.83
   23:04:21.086.27-May-2021 3710.50 3133.03 84.60 2.00  56.82 2675.83
   23:04:21.286.27-May-2021 3710.50 3138.00 84.60 2.00  57.02 2675.83
   23:04:21.486.27-May-2021 3710.50 3138.00 84.60 2.00  57.22 2675.83
   23:04:21.686.27-May-2021 3710.50 3138.39 84.59 2.00  57.42 2675.83
   23:04:21.886.27-May-2021 3710.50 3138.51 84.59 2.00  57.62 2675.83
   23:04:22.086.27-May-2021 3710.50 3138.49 84.59 2.00  57.82 2675.83
   23:04:22.286.27-May-2021 3710.50 3138.52 84.59 2.00  58.02 2675.83
   23:04:22.486.27-May-2021 3710.50 3138.52 84.59 2.00  58.22 2675.83
   23:04:22.686.27-May-2021 3710.50 3138.61 84.59 2.00  58.42 2675.83
   23:04:22.886.27-May-2021 3710.50 3138.53 84.59 2.00  58.62 2675.83
   23:04:23.086.27-May-2021 3710.50 3138.65 84.59 2.00  58.82 2675.83
   23:04:23.287.27-May-2021 3710.50 3138.62 84.59 2.00  59.02 2675.83
   23:04:23.487.27-May-2021 3710.50 3138.62 84.59 2.00  59.22 2675.83
   23:04:23.687.27-May-2021 3710.50 3138.64 84.59 2.00  59.42 2675.83
   23:04:23.887.27-May-2021 3710.50 3138.66 84.59 2.00  59.62 2675.83
   23:04:24.087.27-May-2021 3710.50 3138.66 84.59 2.00  59.82 2675.83
   23:04:24.287.27-May-2021 3710.50 3138.70 84.59 2.00  60.02 2675.83
   23:04:24.487.27-May-2021 3710.50 3138.70 84.59 2.00  60.22 2675.83
   23:04:24.687.27-May-2021 3710.50 3138.76 84.59 2.00  60.42 2675.83
   23:04:24.887.27-May-2021 3710.50 3138.77 84.59 2.00  60.62 2675.83
   23:04:25.087.27-May-2021 3710.50 3138.79 84.59 2.00  60.82 2675.83
   23:04:25.287.27-May-2021 3710.50 3138.80 84.59 2.00  61.02 2675.83
   23:04:25.487.27-May-2021 3710.50 3138.80 84.59 2.00  61.22 2675.83
   23:04:25.687.27-May-2021 3710.50 3138.83 84.58 2.00  61.42 2675.83
   23:04:25.888.27-May-2021 3710.50 3138.85 84.58 2.00  61.62 2675.83
   23:04:26.088.27-May-2021 3710.50 3138.85 84.58 2.00  61.82 2675.83
   23:04:26.288.27-May-2021 3710.50 3138.82 84.58 2.00  62.02 2675.83
   23:04:26.488.27-May-2021 3710.50 3138.82 84.58 2.00  62.22 2675.83
   23:04:26.688.27-May-2021 3710.50 3138.78 84.58 2.00  62.42 2675.83
   23:04:26.888.27-May-2021 3710.50 3138.80 84.58 2.00  62.62 2675.83
   23:04:27.088.27-May-2021 3710.50 3138.86 84.58 2.00  62.82 2675.83
   23:04:27.288.27-May-2021 3710.50 3138.87 84.58 2.00  63.02 2675.83
   23:04:27.488.27-May-2021 3710.50 3138.87 84.58 2.00  63.22 2675.83
   23:04:27.688.27-May-2021 3710.50 3138.92 84.58 2.00  63.42 2675.83
   23:04:27.888.27-May-2021 3710.50 3138.93 84.58 2.00  63.62 2675.83
   23:04:28.088.27-May-2021 3710.50 3138.94 84.58 2.00  63.82 2675.83
   23:04:28.288.27-May-2021 3710.50 3138.95 84.58 2.00  64.03 2675.83
   23:04:28.489.27-May-2021 3710.50 3138.95 84.58 2.00  64.23 2675.83
   23:04:28.689.27-May-2021 3710.50 3138.98 84.58 2.00  64.43 2675.83
   23:04:28.889.27-May-2021 3710.50 3138.95 84.58 2.00  64.63 2675.83
   23:04:29.089.27-May-2021 3710.50 3138.88 84.58 2.00  64.83 2675.83
   23:04:29.289.27-May-2021 3710.50 3138.88 84.58 2.00  65.03 2675.83
   23:04:29.489.27-May-2021 3710.50 3138.88 84.58 2.00  65.23 2675.83
   23:04:29.689.27-May-2021 3710.50 3138.94 84.58 2.00  65.43 2675.83
   23:04:29.889.27-May-2021 3710.50 3138.84 84.58 2.00  65.63 2675.83
   23:04:30.089.27-May-2021 3710.50 3138.92 84.58 2.00  65.83 2675.83
   23:04:30.289.27-May-2021 3710.50 3138.97 84.58 2.00  66.03 2675.83
   23:04:30.489.27-May-2021 3710.50 3138.97 84.58 2.00  66.23 2675.83
   23:04:30.689.27-May-2021 3710.50 3139.01 84.58 2.00  66.43 2675.83
   23:04:30.889.27-May-2021 3710.50 3138.94 84.58 2.00  66.63 2675.83
   23:04:31.090.27-May-2021 3710.50 3138.89 84.58 2.00  66.83 2675.83
   23:04:31.290.27-May-2021 3710.50 3139.01 84.58 2.00  67.03 2675.83
   23:04:31.490.27-May-2021 3710.50 3139.01 84.58 2.00  67.23 2675.83
   23:04:31.690.27-May-2021 3710.50 3139.01 84.58 2.00  67.43 2675.83
   23:04:31.890.27-May-2021 3710.50 3139.05 84.58 2.00  67.63 2675.83
   23:04:32.090.27-May-2021 3710.50 3139.06 84.59 2.00  67.83 2675.83
   23:04:32.290.27-May-2021 3710.50 3139.10 84.59 2.00  68.03 2675.83
   23:04:32.490.27-May-2021 3710.50 3139.10 84.59 2.00  68.23 2675.83
   23:04:32.690.27-May-2021 3710.50 3139.14 84.59 2.00  68.43 2675.83
   23:04:32.890.27-May-2021 3710.50 3139.16 84.59 2.00  68.63 2675.83
   23:04:33.090.27-May-2021 3710.50 3139.17 84.59 2.00  68.83 2675.83
