~Version Information
 VERS.                  2.0:   CWLS log ASCII Standard -VERSION 2.0
 WRAP.                   NO:   One line per depth step
~Well Information Block
#MNEM.UNIT     VALUE/NAME     DESCRIPTION
#---------     -----------    ---------------------------
 STRT.S             05:48:37 28-May-21: START TIME 05:48:37 28-May-21
 STOP.S             05:55:44 28-May-21: STOP TIME  05:55:44 28-May-21
 STEP.S                   0.00: STEP TIME
 NULL.                 -999.25: NULL VALUE
 UWI .                     N/A:  UNIQUE WELL IDENTIFIER
 API .                     N/A:  API NUMBER
 UNIT.                     N/A:  LOGGING EQUIPMENT ID
 DCON.         Sperry Drilling:  DIRECTNL CONTR
 DOE .                     N/A:  DOE NUMBER
 MWDS.                    Baku:  MWD SHOP
 SRVC.     Turan Drilling and Engineering:  CONTRACTOR
 CTRY.              Azerbaijan:  COUNTRY NAME
 PROV.                    Baku:  PROVINCE
 STAT.                    Baku:  STATE NAME
 REGN.                   EESSA:  REGION
 BASE.              Azerbaijan:  LOGGING EQUIPMENT BASE LOCATION
 WTYP.                Deviated:  WELL TYPE
 RIG .              East Azeri:  RIG NAME
 WELL.                    D02y:  WELL NAME
 FLD .                     ACG:  FIELD NAME
 COMP.     BP Exploration (Caspian Sea) Ltd.:  COMPANY
 PDAT.          Mean Sea Level:  PERMANENT DATUM
 MDS .        Operator Entered:  MAG DATA SOURCE
 SON .        AZ-XX-0906997291:  JOB NUMBER
 FTOP.          Formation Tops:  FORM TOPS DESC
 ILTD.               Lithology:  INTERP LTH DESC
 SVYD.                  Survey:  SURVEY DESC
 DMOD.             Drill Model:  DRILL MOD DESC
 HPTY.       Minimum Curvature:  HOLE POS TYPE
 NREF.                    Grid:  NORTH REFERENCE
 SPUD.               05-May-21:  SPUD DATE
 DATE.      09.27.28 12-Jun-21:  END TIME
 STIM.      09.27.28 12-May-21:  START TIME
 DMF .             Drill Floor:  DRILL MEAS FROM
 DFST.                        :  DIST FSL TEXT
 DFWT.                        :  DIST FWL TEXT
 CNTY.                        :  COUNTY
 LOC .                        :  LOCATION
 LMF .             Drill Floor:  LOG MEASURED FROM
 DEP .m                2806.40:  DEPTH
 AGAP.m                  43.60:  AIR GAP
 VSNS.m                  -4.42:  VERT SEC N/S
 VSEW.m                  -7.31:  VERT SEC E/W
 APD .m                  43.60:  DEPTH ABOVE PD
 WDMS.m                 151.80:  WD ELEV
 EGL .m                   0.00:  GROUND ELEVATION
 EPD .m                   0.00:  ELEVATION
 AZTC.deg                 6.18:  AZM TOTAL CORR
 GRDC.deg                 0.29:  GRID CORRECTION
 MDEC.deg                 6.47:  MAGNETIC DECL
 MDIP.deg                59.50:  MAGNETIC DIP
 MFLD.nT              50350.00:  MAGNETIC FIELD
 GVFD.g                   1.00:  GRAVITY FIELD
 VSDR.deg               179.08:  VERT SEC DIRECT
 TDD .m                4300.00:  TOTAL DEPTH (DRILLER)
 SDEP.m                2800.00:  START DEPTH
 DFSL.m                   0.00:  DISTANCE FSL
 DFWL.m                   0.00:  DISTANCE FWL
 UTMY.m             4431871.34:  UTM Y
 UTMX.m              538762.90:  UTM X
 WHEW.m                  -7.31:  WELL HEAD E/W
 WHNS.m                  -4.42:  WELL HEAD N/S
 LONG.deg                51.45:  LONGITUDE
 LATI.deg                40.02:  LATITUDE
 TVDS.m                  43.60:  TVDSS CORRECTN
 EKB .m                  43.60:  KB ELEVATION
 EDF .m                  43.60:  DF ELEVATION
 TDL .m                 806.00:  TOTAL DEPTH (LOGGER)
 MAGU.                 1851231:  MAGUTM CHECKSUM
 VSC .                       0:  VS TO CLOSURE
~Parameter Information Block
#MNEM.UNIT       Value        Description
#---------     -----------    ---------------------------
 AV  .mps                 1.60:  Ann Velocity 
 AVMX.mps                 2.00:  Max Ann Veloc 
 AZIF.deg               140.24:  Azm, Final 
 BHAT.        Rotary Steerable:  BHA Type 
 BROT.°/30m               0.50:  Build Rotating 
 BS  .in                  8.50:  Bit Size 
 BTPL.psig              619.00:  Bit Press Loss 
 CABU.                     Yes:  Customer Abuse 
 CGEO.          Ilgar Gurbanov:  Customer Geo 
 COMM.                     dAY:  Run Comments 1 
 TCS .hr                 85.88:  Time Ciculation Ended 
 CV  .mps                 3.30:  Crit Velocity 
 CVMX.mps                 3.50:  Max Crit Veloc 
 DD1 .           Hamid Axmedov:  Direct Drillr 1 
 DD2 .           Teymur Aliyev:  Direct Drillr 2 
 DDSV.               Geo-Pilot:  DD Service 
 DEFF.%                 100.00:  % Det Eff 
 DLRX.°/30m               0.00:  Dogleg Rot Max 
 DLSO.°/30m               1.80:  Dogleg Oriented 
 DLSX.°/30m               3.34:  Dogleg Str Max 
 DRET.      11.50.00 27-May-21:  Drill End Time 
 DRST.      21.13.00 24-May-21:  Drill Start Tim 
 DTIM.hr                 45.11:  Time Drilling 
 EDEP.m                4054.00:  End Depth 
 ENG1.         Almaz Almadatov:  Engineer 1 
 ENG2.           Amrah Tahirov:  Engineer 2 
 ENG3.      Bakhtiyar Jabbarli:  Engineer 3 
 ENG4.          Nazrin Asgarli:  Engineer 4 
 ETIM.      10.00.00 30-May-21:  End Time 
 FLOI.gpm               530.00:  Flow In 
 FLON.gpm               400.00:  Flow In Min 
 FLOS.cptm                0.00:  Fluid Loss 
 FLOX.gpm               560.00:  Flow In Max 
 DFT .        Mineral Oil Base:  Mud Type 
 FTRO.       Formation Presure:  FTWD Run Obj 
 HFLO.                      No:  High Flow 
 HPRE.                      No:  High Pressure 
 HTEM.                      No:  High Temp 
 HYDO.m                   1.80:  Hydro Offset 
 IFIN.deg                73.83:  Inc, Final 
 IMAX.deg                73.83:  Inc Max 
 IMIN.deg                57.86:  Inc Min 
 IMND.m                3259.27:  Inc Min Depth 
 IMXD.m                4045.58:  Inc Max Depth 
 JARR.                     Yes:  Jarring 
 LETM.      11.50.00 27-May-21:  Log End Time 
 LOST.hr                     0:  Lost Rig Time 
 LSTM.      21.13.00 24-May-21:  Log Start Time 
 MDCL.ppm             42500.00:  Mud Chlorides 
 MDES.     Inversion Oil/Synthetic:  Mud Desc 
 DFD .sg                  1.52:  Mud Density 
 MDMN.sg                  1.52:  Dens Mud Min 
 MDMX.sg                  1.52:  Dens Mud Max 
 MOIL.                      70:  Run Mud Oil % 
 MOWR.                   70:30:  Run Mud OWR 
 MSND.                     0.2:  Run Mud Sand % 
 MSOL.                      22:  Run Mud Solids% 
 DFV .spqt               77.00:  Mud Viscosity 
 MWOD.in                  6.75:  MWD Tool OD 
 MWSI.                      No:  Serv Intrp, MWD 
 OTIM.hr                151.01:  Time Operating 
 PCON.          Wear / Scratch:  Pad Condition 
 PMAX.psia            11296.93:  Press Op, Max 
 PV  .cP                 37.00:  Mud PV 
 RUN .                     500:  Run Number 
 ROPA.m/hr               25.00:  ROP Avg 
 ROPN.m/hr                9.00:  ROP Min 
 ROPX.m/hr               28.00:  ROP Max 
 RPMA.rpm               140.00:  RPM Surface Avg 
 RPMN.rpm                90.00:  RPM Surface Min 
 RPMX.rpm               140.00:  RPM Surface Max 
 RRUN.                    0500:  Rig Run Number 
 SAZI.deg               172.17:  Azm, Start 
 SDEP.m                3248.00:  Start Depth 
 SIDD.                      No:  Serv Intrp, DD 
 SINC.deg                57.86:  Inc, Start 
 SPPA.psig             5620.00:  SPP Avg 
 SPPN.psig             5190.00:  SPP Min 
 SPPX.psig             6050.00:  SPP Max 
 STIM.      16.00.00 23-May-21:  Start Time 
 SVCS.                 DD, MWD:  Services 
 SVER.                    9.20:  Sperry Version 
 TDAT.m                 806.00:  Tot Depth Attmp 
 TDDF.                      No:  Trip for DD 
 TDLG.m                 806.00:  Tot Depth Loggd 
 TFF .                      No:  Trip for Fail 
 TQAA.f-kp               12.00:  Torque Abs Avg 
 TQAN.f-kp                8.00:  Torque Abs Min 
 TQAX.f-kp               15.00:  Torque Abs Max 
 TRRT.°/30m               0.30:  Turn Rotating 
 MRT .                  EWR-M5:  Maximum Recorded Temperature 
 TTMX.degC               93.00:  Max Tool Temp 
 VS01.                90649155:  Virtual Str1 SN 
 VS02.                90642264:  Virtual Str2 SN 
 VS03.                90642266:  Virtual Str3 SN 
 VS04.                90642261:  Virtual Str4 SN 
 WBMN.klb                 0.00:  WOB Min 
 WITN.             Anar Khalil:  Customer Rep 
 WITN.           Murad Guliyev:  Customer Rep 2 
 WOBA.klb                13.00:  WOB Avg 
 WOBX.klb                25.00:  WOB Max 
 YP  .lhf2               32.00:  Yield Point 
~Curve Information Block
#MNEM.UNIT                 API CODE     Curve Description
#---------               -----------    ---------------------------
 TIME.HHMMSS            00 000 000 000:  GT Time & Date
 GTDEPTH.m              00 000 000 000:  GT Depth
 GTPQH.psia             00 000 000 000:  GT HR Quartz Pressure
 GTTQ.degC              00 000 000 000:  GT Quartz Temperature
 GTTN.NONE              00 000 000 000:  GT Test Number
 GTET.sec               00 000 000 000:  GT Elapsed Test Time
 GTTVD.m                00 000 000 000:  GT True Vertical Depth
#Other Information
#
#WARRANTY: Halliburton will use its best efforts to furnish customers with 
#accurate information and interpretations that are part of, and incident to, the services 
#provided.  However, Halliburton cannot and does not warrant the accuracy 
#or correctness of such information and interpretations.  Under no circumstances should any 
#such information or interpretation be relied upon as the sole basis for any drilling, 
#completion, production, or financial decision or any procedure involving any risk to the 
#safety of any drilling venture, drilling rig or its crew or any other third party.  The 
#Customer has full responsibility for all drilling, completion and production operation.  
#Halliburton makes no representations or warranties, either expressed or 
#implied, including, but not limited to, the implied warranties of merchantability or fitness 
#for a particular purpose, with respect to the services rendered.  In no event will 
#Halliburton be liable for failure to obtain any particular results or for 
#any damages, including, but not limited to, indirect, special or consequential damages, 
#resulting from the use of any information or interpretation provided by Halliburton.
#
~A           TIME           GTDEPTH  GTPQH  GTTQ  GTTN   GTET   GTTVD  
# ...
   05:53:09.091.28-May-2021 3439.00 3912.30 82.95 11.00 271.31 2568.67
   05:53:09.292.28-May-2021 3439.00 4064.83 82.95 11.00 271.51 2568.67
   05:53:09.492.28-May-2021 3439.00 4120.39 82.95 11.00 271.71 2568.67
   05:53:09.692.28-May-2021 3439.00 3607.22 82.95 11.00 271.91 2568.67
   05:53:09.892.28-May-2021 3439.00 3107.89 82.95 11.00 272.11 2568.67
   05:53:10.092.28-May-2021 3439.00 3107.89 82.95 11.00 272.31 2568.67
   05:53:10.292.28-May-2021 3439.00 3822.83 82.95 11.00 272.51 2568.67
   05:53:10.492.28-May-2021 3439.00 3597.10 82.95 11.00 272.71 2568.67
   05:53:10.692.28-May-2021 3439.00 4548.35 82.95 11.00 272.91 2568.67
   05:53:10.892.28-May-2021 3439.00 3953.03 82.95 11.00 273.11 2568.67
   05:53:11.092.28-May-2021 3439.00 3953.03 82.95 11.00 273.31 2568.67
   05:53:11.292.28-May-2021 3439.00 3954.58 82.95 11.00 273.51 2568.67
   05:53:11.492.28-May-2021 3439.00 4118.25 82.95 11.00 273.71 2568.67
   05:53:11.693.28-May-2021 3439.00 3852.06 82.95 11.00 273.91 2568.67
   05:53:11.893.28-May-2021 3439.00 3586.78 82.95 11.00 274.11 2568.67
   05:53:12.093.28-May-2021 3439.00 3586.78 82.95 11.00 274.31 2568.67
   05:53:12.293.28-May-2021 3439.00 4575.52 82.95 11.00 274.51 2568.67
   05:53:12.493.28-May-2021 3439.00 4564.68 82.95 11.00 274.71 2568.67
   05:53:12.693.28-May-2021 3439.00 4561.13 82.95 11.00 274.91 2568.67
   05:53:12.893.28-May-2021 3439.00 4558.88 82.95 11.00 275.11 2568.67
   05:53:13.093.28-May-2021 3439.00 4558.88 82.95 11.00 275.32 2568.67
   05:53:13.293.28-May-2021 3439.00 4555.28 82.95 11.00 275.52 2568.67
   05:53:13.493.28-May-2021 3439.00 4554.34 82.95 11.00 275.72 2568.67
   05:53:13.693.28-May-2021 3439.00 4553.31 82.95 11.00 275.92 2568.67
   05:53:13.893.28-May-2021 3439.00 4552.47 82.95 11.00 276.12 2568.67
   05:53:14.094.28-May-2021 3439.00 4552.47 82.95 11.00 276.32 2568.67
   05:53:14.294.28-May-2021 3439.00 4550.82 82.95 11.00 276.52 2568.67
   05:53:14.494.28-May-2021 3439.00 4550.09 82.95 11.00 276.72 2568.67
   05:53:14.694.28-May-2021 3439.00 4549.38 82.95 11.00 276.92 2568.67
   05:53:14.894.28-May-2021 3439.00 4548.66 82.95 11.00 277.12 2568.67
   05:53:15.094.28-May-2021 3439.00 4548.66 82.95 11.00 277.32 2568.67
   05:53:15.294.28-May-2021 3439.00 4547.36 82.95 11.00 277.52 2568.67
   05:53:15.494.28-May-2021 3439.00 4546.73 82.95 11.00 277.72 2568.67
   05:53:15.694.28-May-2021 3439.00 4545.54 82.95 11.00 277.92 2568.67
   05:53:15.894.28-May-2021 3439.00 4544.41 82.95 11.00 278.12 2568.67
   05:53:16.094.28-May-2021 3439.00 4544.41 82.95 11.00 278.32 2568.67
   05:53:16.294.28-May-2021 3439.00 4543.97 82.96 11.00 278.52 2568.67
   05:53:16.495.28-May-2021 3439.00 4543.58 82.96 11.00 278.72 2568.67
   05:53:16.695.28-May-2021 3439.00 4543.07 82.96 11.00 278.92 2568.67
   05:53:16.895.28-May-2021 3439.00 4542.63 82.96 11.00 279.12 2568.67
   05:53:17.095.28-May-2021 3439.00 4542.63 82.96 11.00 279.32 2568.67
   05:53:17.295.28-May-2021 3439.00 4541.74 82.96 11.00 279.52 2568.67
   05:53:17.495.28-May-2021 3439.00 4541.29 82.96 11.00 279.72 2568.67
   05:53:17.695.28-May-2021 3439.00 4540.85 82.96 11.00 279.92 2568.67
   05:53:17.895.28-May-2021 3439.00 4540.44 82.96 11.00 280.12 2568.67
   05:53:18.095.28-May-2021 3439.00 4540.44 82.96 11.00 280.32 2568.67
   05:53:18.295.28-May-2021 3439.00 4539.07 82.96 11.00 280.52 2568.67
   05:53:18.495.28-May-2021 3439.00 4538.15 82.96 11.00 280.72 2568.67
   05:53:18.695.28-May-2021 3439.00 4538.44 82.96 11.00 280.92 2568.67
   05:53:18.896.28-May-2021 3439.00 4538.05 82.96 11.00 281.12 2568.67
   05:53:19.096.28-May-2021 3439.00 4538.05 82.96 11.00 281.32 2568.67
   05:53:19.296.28-May-2021 3439.00 4537.31 82.96 11.00 281.52 2568.67
   05:53:19.496.28-May-2021 3439.00 4536.97 82.96 11.00 281.72 2568.67
   05:53:19.696.28-May-2021 3439.00 4535.46 82.96 11.00 281.92 2568.67
   05:53:19.896.28-May-2021 3439.00 4536.27 82.96 11.00 282.12 2568.67
   05:53:20.096.28-May-2021 3439.00 4536.27 82.96 11.00 282.32 2568.67
   05:53:20.296.28-May-2021 3439.00 4535.22 82.96 11.00 282.52 2568.67
   05:53:20.496.28-May-2021 3439.00 4534.65 82.96 11.00 282.72 2568.67
   05:53:20.696.28-May-2021 3439.00 4534.99 82.96 11.00 282.92 2568.67
   05:53:20.896.28-May-2021 3439.00 4534.70 82.96 11.00 283.12 2568.67
   05:53:21.096.28-May-2021 3439.00 4534.70 82.96 11.00 283.32 2568.67
   05:53:21.297.28-May-2021 3439.00 4534.25 82.97 11.00 283.52 2568.67
   05:53:21.497.28-May-2021 3439.00 4534.05 82.97 11.00 283.72 2568.67
   05:53:21.697.28-May-2021 3439.00 4533.81 82.97 11.00 283.92 2568.67
   05:53:21.897.28-May-2021 3439.00 4533.60 82.97 11.00 284.12 2568.67
   05:53:22.097.28-May-2021 3439.00 4533.60 82.97 11.00 284.32 2568.67
   05:53:22.297.28-May-2021 3439.00 4533.12 82.97 11.00 284.52 2568.67
   05:53:22.497.28-May-2021 3439.00 4532.91 82.97 11.00 284.72 2568.67
   05:53:22.697.28-May-2021 3439.00 4532.67 82.97 11.00 284.92 2568.67
   05:53:22.897.28-May-2021 3439.00 4530.98 82.97 11.00 285.12 2568.67
   05:53:23.097.28-May-2021 3439.00 4530.98 82.97 11.00 285.32 2568.67
   05:53:23.297.28-May-2021 3439.00 4531.78 82.97 11.00 285.52 2568.67
   05:53:23.497.28-May-2021 3439.00 4531.63 82.97 11.00 285.72 2568.67
   05:53:23.698.28-May-2021 3439.00 4531.38 82.97 11.00 285.92 2568.67
   05:53:23.898.28-May-2021 3439.00 4531.20 82.97 11.00 286.12 2568.67
   05:53:24.098.28-May-2021 3439.00 4531.20 82.97 11.00 286.32 2568.67
   05:53:24.298.28-May-2021 3439.00 4530.88 82.97 11.00 286.52 2568.67
   05:53:24.498.28-May-2021 3439.00 4530.70 82.97 11.00 286.72 2568.67
   05:53:24.698.28-May-2021 3439.00 4530.51 82.97 11.00 286.92 2568.67
   05:53:24.898.28-May-2021 3439.00 4530.34 82.97 11.00 287.12 2568.67
   05:53:25.098.28-May-2021 3439.00 4530.34 82.97 11.00 287.32 2568.67
   05:53:25.298.28-May-2021 3439.00 4529.99 82.97 11.00 287.52 2568.67
   05:53:25.498.28-May-2021 3439.00 4529.81 82.97 11.00 287.72 2568.67
   05:53:25.698.28-May-2021 3439.00 4528.31 82.97 11.00 287.92 2568.67
   05:53:25.898.28-May-2021 3439.00 4529.21 82.97 11.00 288.12 2568.67
   05:53:26.099.28-May-2021 3439.00 4529.21 82.97 11.00 288.32 2568.67
   05:53:26.299.28-May-2021 3439.00 4529.01 82.97 11.00 288.52 2568.67
   05:53:26.499.28-May-2021 3439.00 4527.77 82.97 11.00 288.72 2568.67
   05:53:26.699.28-May-2021 3439.00 4528.31 82.97 11.00 288.92 2568.67
   05:53:26.899.28-May-2021 3439.00 4528.36 82.97 11.00 289.12 2568.67
   05:53:27.099.28-May-2021 3439.00 4528.36 82.97 11.00 289.32 2568.67
   05:53:27.299.28-May-2021 3439.00 4528.12 82.97 11.00 289.52 2568.67
   05:53:27.499.28-May-2021 3439.00 4526.53 82.97 11.00 289.72 2568.67
   05:53:27.699.28-May-2021 3439.00 4527.93 82.97 11.00 289.92 2568.67
   05:53:27.899.28-May-2021 3439.00 4527.58 82.97 11.00 290.12 2568.67
   05:53:28.099.28-May-2021 3439.00 4527.58 82.97 11.00 290.32 2568.67
   05:53:28.299.28-May-2021 3439.00 4526.57 82.97 11.00 290.52 2568.67
   05:53:28.500.28-May-2021 3439.00 4527.11 82.97 11.00 290.72 2568.67
   05:53:28.700.28-May-2021 3439.00 4526.96 82.97 11.00 290.92 2568.67
   05:53:28.900.28-May-2021 3439.00 4526.99 82.97 11.00 291.12 2568.67
   05:53:29.100.28-May-2021 3439.00 4526.99 82.97 11.00 291.32 2568.67
   05:53:29.300.28-May-2021 3439.00 4526.70 82.97 11.00 291.52 2568.67
   05:53:29.500.28-May-2021 3439.00 4526.57 82.97 11.00 291.72 2568.67
   05:53:29.700.28-May-2021 3439.00 4526.48 82.97 11.00 291.92 2568.67
   05:53:29.900.28-May-2021 3439.00 4526.37 82.97 11.00 292.12 2568.67
   05:53:30.100.28-May-2021 3439.00 4526.37 82.97 11.00 292.32 2568.67
   05:53:30.300.28-May-2021 3439.00 4526.16 82.97 11.00 292.52 2568.67
   05:53:30.500.28-May-2021 3439.00 4526.03 82.97 11.00 292.72 2568.67
   05:53:30.700.28-May-2021 3439.00 4524.49 82.97 11.00 292.92 2568.67
   05:53:30.901.28-May-2021 3439.00 4525.87 82.97 11.00 293.12 2568.67
   05:53:31.101.28-May-2021 3439.00 4525.87 82.97 11.00 293.32 2568.67
   05:53:31.301.28-May-2021 3439.00 4525.53 82.97 11.00 293.52 2568.67
   05:53:31.501.28-May-2021 3439.00 4526.58 82.97 11.00 293.72 2568.67
