~Version Information
 VERS.                  2.0:   CWLS log ASCII Standard -VERSION 2.0
 WRAP.                   NO:   One line per depth step
~Well Information Block
#MNEM.UNIT     VALUE/NAME     DESCRIPTION
#---------     -----------    ---------------------------
 STRT.S             00:59:34 28-May-21: START TIME 00:59:34 28-May-21
 STOP.S             01:06:40 28-May-21: STOP TIME  01:06:40 28-May-21
 STEP.S                   0.00: STEP TIME
 NULL.                 -999.25: NULL VALUE
 UWI .                     N/A:  UNIQUE WELL IDENTIFIER
 API .                     N/A:  API NUMBER
 UNIT.                     N/A:  LOGGING EQUIPMENT ID
 DCON.         Sperry Drilling:  DIRECTNL CONTR
 DOE .                     N/A:  DOE NUMBER
 MWDS.                    Baku:  MWD SHOP
 SRVC.     Turan Drilling and Engineering:  CONTRACTOR
 CTRY.              Azerbaijan:  COUNTRY NAME
 PROV.                    Baku:  PROVINCE
 STAT.                    Baku:  STATE NAME
 REGN.                   EESSA:  REGION
 BASE.              Azerbaijan:  LOGGING EQUIPMENT BASE LOCATION
 WTYP.                Deviated:  WELL TYPE
 RIG .              East Azeri:  RIG NAME
 WELL.                    D02y:  WELL NAME
 FLD .                     ACG:  FIELD NAME
 COMP.     BP Exploration (Caspian Sea) Ltd.:  COMPANY
 PDAT.          Mean Sea Level:  PERMANENT DATUM
 MDS .        Operator Entered:  MAG DATA SOURCE
 SON .        AZ-XX-0906997291:  JOB NUMBER
 FTOP.          Formation Tops:  FORM TOPS DESC
 ILTD.               Lithology:  INTERP LTH DESC
 SVYD.                  Survey:  SURVEY DESC
 DMOD.             Drill Model:  DRILL MOD DESC
 HPTY.       Minimum Curvature:  HOLE POS TYPE
 NREF.                    Grid:  NORTH REFERENCE
 SPUD.               05-May-21:  SPUD DATE
 DATE.      09.27.28 12-Jun-21:  END TIME
 STIM.      09.27.28 12-May-21:  START TIME
 DMF .             Drill Floor:  DRILL MEAS FROM
 DFST.                        :  DIST FSL TEXT
 DFWT.                        :  DIST FWL TEXT
 CNTY.                        :  COUNTY
 LOC .                        :  LOCATION
 LMF .             Drill Floor:  LOG MEASURED FROM
 DEP .m                2806.40:  DEPTH
 AGAP.m                  43.60:  AIR GAP
 VSNS.m                  -4.42:  VERT SEC N/S
 VSEW.m                  -7.31:  VERT SEC E/W
 APD .m                  43.60:  DEPTH ABOVE PD
 WDMS.m                 151.80:  WD ELEV
 EGL .m                   0.00:  GROUND ELEVATION
 EPD .m                   0.00:  ELEVATION
 AZTC.deg                 6.18:  AZM TOTAL CORR
 GRDC.deg                 0.29:  GRID CORRECTION
 MDEC.deg                 6.47:  MAGNETIC DECL
 MDIP.deg                59.50:  MAGNETIC DIP
 MFLD.nT              50350.00:  MAGNETIC FIELD
 GVFD.g                   1.00:  GRAVITY FIELD
 VSDR.deg               179.08:  VERT SEC DIRECT
 TDD .m                4300.00:  TOTAL DEPTH (DRILLER)
 SDEP.m                2800.00:  START DEPTH
 DFSL.m                   0.00:  DISTANCE FSL
 DFWL.m                   0.00:  DISTANCE FWL
 UTMY.m             4431871.34:  UTM Y
 UTMX.m              538762.90:  UTM X
 WHEW.m                  -7.31:  WELL HEAD E/W
 WHNS.m                  -4.42:  WELL HEAD N/S
 LONG.deg                51.45:  LONGITUDE
 LATI.deg                40.02:  LATITUDE
 TVDS.m                  43.60:  TVDSS CORRECTN
 EKB .m                  43.60:  KB ELEVATION
 EDF .m                  43.60:  DF ELEVATION
 TDL .m                 806.00:  TOTAL DEPTH (LOGGER)
 MAGU.                 1851231:  MAGUTM CHECKSUM
 VSC .                       0:  VS TO CLOSURE
~Parameter Information Block
#MNEM.UNIT       Value        Description
#---------     -----------    ---------------------------
 AV  .mps                 1.60:  Ann Velocity 
 AVMX.mps                 2.00:  Max Ann Veloc 
 AZIF.deg               140.24:  Azm, Final 
 BHAT.        Rotary Steerable:  BHA Type 
 BROT.°/30m               0.50:  Build Rotating 
 BS  .in                  8.50:  Bit Size 
 BTPL.psig              619.00:  Bit Press Loss 
 CABU.                     Yes:  Customer Abuse 
 CGEO.          Ilgar Gurbanov:  Customer Geo 
 COMM.                     ô:r:  Run Comments 1 
 TCS .hr                 85.88:  Time Ciculation Ended 
 CV  .mps                 3.30:  Crit Velocity 
 CVMX.mps                 3.50:  Max Crit Veloc 
 DD1 .           Hamid Axmedov:  Direct Drillr 1 
 DD2 .           Teymur Aliyev:  Direct Drillr 2 
 DDSV.               Geo-Pilot:  DD Service 
 DEFF.%                 100.00:  % Det Eff 
 DLRX.°/30m               0.00:  Dogleg Rot Max 
 DLSO.°/30m               1.80:  Dogleg Oriented 
 DLSX.°/30m               3.34:  Dogleg Str Max 
 DRET.      11.50.00 27-May-21:  Drill End Time 
 DRST.      21.13.00 24-May-21:  Drill Start Tim 
 DTIM.hr                 45.11:  Time Drilling 
 EDEP.m                4054.00:  End Depth 
 ENG1.         Almaz Almadatov:  Engineer 1 
 ENG2.           Amrah Tahirov:  Engineer 2 
 ENG3.      Bakhtiyar Jabbarli:  Engineer 3 
 ENG4.          Nazrin Asgarli:  Engineer 4 
 ETIM.      10.00.00 30-May-21:  End Time 
 FLOI.gpm               530.00:  Flow In 
 FLON.gpm               400.00:  Flow In Min 
 FLOS.cptm                0.00:  Fluid Loss 
 FLOX.gpm               560.00:  Flow In Max 
 DFT .        Mineral Oil Base:  Mud Type 
 FTRO.       Formation Presure:  FTWD Run Obj 
 HFLO.                      No:  High Flow 
 HPRE.                      No:  High Pressure 
 HTEM.                      No:  High Temp 
 HYDO.m                   1.80:  Hydro Offset 
 IFIN.deg                73.83:  Inc, Final 
 IMAX.deg                73.83:  Inc Max 
 IMIN.deg                57.86:  Inc Min 
 IMND.m                3259.27:  Inc Min Depth 
 IMXD.m                4045.58:  Inc Max Depth 
 JARR.                     Yes:  Jarring 
 LETM.      11.50.00 27-May-21:  Log End Time 
 LOST.hr                     0:  Lost Rig Time 
 LSTM.      21.13.00 24-May-21:  Log Start Time 
 MDCL.ppm             42500.00:  Mud Chlorides 
 MDES.     Inversion Oil/Synthetic:  Mud Desc 
 DFD .sg                  1.52:  Mud Density 
 MDMN.sg                  1.52:  Dens Mud Min 
 MDMX.sg                  1.52:  Dens Mud Max 
 MOIL.                      70:  Run Mud Oil % 
 MOWR.                   70:30:  Run Mud OWR 
 MSND.                     0.2:  Run Mud Sand % 
 MSOL.                      22:  Run Mud Solids% 
 DFV .spqt               77.00:  Mud Viscosity 
 MWOD.in                  6.75:  MWD Tool OD 
 MWSI.                      No:  Serv Intrp, MWD 
 OTIM.hr                151.01:  Time Operating 
 PCON.          Wear / Scratch:  Pad Condition 
 PMAX.psia            11296.93:  Press Op, Max 
 PV  .cP                 37.00:  Mud PV 
 RUN .                     500:  Run Number 
 ROPA.m/hr               25.00:  ROP Avg 
 ROPN.m/hr                9.00:  ROP Min 
 ROPX.m/hr               28.00:  ROP Max 
 RPMA.rpm               140.00:  RPM Surface Avg 
 RPMN.rpm                90.00:  RPM Surface Min 
 RPMX.rpm               140.00:  RPM Surface Max 
 RRUN.                    0500:  Rig Run Number 
 SAZI.deg               172.17:  Azm, Start 
 SDEP.m                3248.00:  Start Depth 
 SIDD.                      No:  Serv Intrp, DD 
 SINC.deg                57.86:  Inc, Start 
 SPPA.psig             5620.00:  SPP Avg 
 SPPN.psig             5190.00:  SPP Min 
 SPPX.psig             6050.00:  SPP Max 
 STIM.      16.00.00 23-May-21:  Start Time 
 SVCS.                 DD, MWD:  Services 
 SVER.                    9.20:  Sperry Version 
 TDAT.m                 806.00:  Tot Depth Attmp 
 TDDF.                      No:  Trip for DD 
 TDLG.m                 806.00:  Tot Depth Loggd 
 TFF .                      No:  Trip for Fail 
 TQAA.f-kp               12.00:  Torque Abs Avg 
 TQAN.f-kp                8.00:  Torque Abs Min 
 TQAX.f-kp               15.00:  Torque Abs Max 
 TRRT.°/30m               0.30:  Turn Rotating 
 MRT .                  EWR-M5:  Maximum Recorded Temperature 
 TTMX.degC               93.00:  Max Tool Temp 
 VS01.                90649155:  Virtual Str1 SN 
 VS02.                90642264:  Virtual Str2 SN 
 VS03.                90642266:  Virtual Str3 SN 
 VS04.                90642261:  Virtual Str4 SN 
 WBMN.klb                 0.00:  WOB Min 
 WITN.             Anar Khalil:  Customer Rep 
 WITN.           Murad Guliyev:  Customer Rep 2 
 WOBA.klb                13.00:  WOB Avg 
 WOBX.klb                25.00:  WOB Max 
 YP  .lhf2               32.00:  Yield Point 
~Curve Information Block
#MNEM.UNIT                 API CODE     Curve Description
#---------               -----------    ---------------------------
 TIME.HHMMSS            00 000 000 000:  GT Time & Date
 GTDEPTH.m              00 000 000 000:  GT Depth
 GTPQH.psia             00 000 000 000:  GT HR Quartz Pressure
 GTTQ.degC              00 000 000 000:  GT Quartz Temperature
 GTTN.NONE              00 000 000 000:  GT Test Number
 GTET.sec               00 000 000 000:  GT Elapsed Test Time
 GTTVD.m                00 000 000 000:  GT True Vertical Depth
#Other Information
#
#WARRANTY: Halliburton will use its best efforts to furnish customers with 
#accurate information and interpretations that are part of, and incident to, the services 
#provided.  However, Halliburton cannot and does not warrant the accuracy 
#or correctness of such information and interpretations.  Under no circumstances should any 
#such information or interpretation be relied upon as the sole basis for any drilling, 
#completion, production, or financial decision or any procedure involving any risk to the 
#safety of any drilling venture, drilling rig or its crew or any other third party.  The 
#Customer has full responsibility for all drilling, completion and production operation.  
#Halliburton makes no representations or warranties, either expressed or 
#implied, including, but not limited to, the implied warranties of merchantability or fitness 
#for a particular purpose, with respect to the services rendered.  In no event will 
#Halliburton be liable for failure to obtain any particular results or for 
#any damages, including, but not limited to, indirect, special or consequential damages, 
#resulting from the use of any information or interpretation provided by Halliburton.
#
~A           TIME           GTDEPTH  GTPQH  GTTQ  GTTN  GTET   GTTVD  
# ...
   01:02:39.143.28-May-2021 3649.00 3165.56 84.94 5.00 184.19 2653.32
   01:02:39.343.28-May-2021 3649.00 3165.56 84.94 5.00 184.39 2653.32
   01:02:39.543.28-May-2021 3649.00 3165.54 84.94 5.00 184.59 2653.32
   01:02:39.744.28-May-2021 3649.00 3165.56 84.94 5.00 184.79 2653.32
   01:02:39.944.28-May-2021 3649.00 3165.54 84.94 5.00 184.99 2653.32
   01:02:40.144.28-May-2021 3649.00 3165.53 84.94 5.00 185.19 2653.32
   01:02:40.344.28-May-2021 3649.00 3165.53 84.94 5.00 185.39 2653.32
   01:02:40.544.28-May-2021 3649.00 3165.55 84.94 5.00 185.59 2653.32
   01:02:40.745.28-May-2021 3649.00 3165.56 84.94 5.00 185.79 2653.32
   01:02:40.945.28-May-2021 3649.00 3165.55 84.94 5.00 185.99 2653.32
   01:02:41.145.28-May-2021 3649.00 3165.56 84.94 5.00 186.19 2653.32
   01:02:41.345.28-May-2021 3649.00 3165.56 84.94 5.00 186.39 2653.32
   01:02:41.545.28-May-2021 3649.00 3165.55 84.94 5.00 186.59 2653.32
   01:02:41.746.28-May-2021 3649.00 3165.56 84.94 5.00 186.79 2653.32
   01:02:41.946.28-May-2021 3649.00 3165.55 84.94 5.00 186.99 2653.32
   01:02:42.146.28-May-2021 3649.00 3165.57 84.94 5.00 187.19 2653.32
   01:02:42.346.28-May-2021 3649.00 3165.57 84.94 5.00 187.39 2653.32
   01:02:42.546.28-May-2021 3649.00 3165.55 84.94 5.00 187.60 2653.32
   01:02:42.747.28-May-2021 3649.00 3165.54 84.94 5.00 187.80 2653.32
   01:02:42.947.28-May-2021 3649.00 3165.57 84.94 5.00 188.00 2653.32
   01:02:43.147.28-May-2021 3649.00 3165.55 84.94 5.00 188.20 2653.32
   01:02:43.347.28-May-2021 3649.00 3165.55 84.94 5.00 188.40 2653.32
   01:02:43.548.28-May-2021 3649.00 3165.54 84.94 5.00 188.60 2653.32
   01:02:43.748.28-May-2021 3649.00 3165.55 84.94 5.00 188.80 2653.32
   01:02:43.948.28-May-2021 3649.00 3165.55 84.94 5.00 189.00 2653.32
   01:02:44.148.28-May-2021 3649.00 3165.55 84.94 5.00 189.20 2653.32
   01:02:44.348.28-May-2021 3649.00 3165.55 84.94 5.00 189.40 2653.32
   01:02:44.549.28-May-2021 3649.00 3165.56 84.94 5.00 189.60 2653.32
   01:02:44.749.28-May-2021 3649.00 3165.56 84.94 5.00 189.80 2653.32
   01:02:44.949.28-May-2021 3649.00 3165.56 84.94 5.00 190.00 2653.32
   01:02:45.149.28-May-2021 3649.00 3165.55 84.94 5.00 190.20 2653.32
   01:02:45.349.28-May-2021 3649.00 3165.55 84.94 5.00 190.40 2653.32
   01:02:45.550.28-May-2021 3649.00 3165.57 84.94 5.00 190.60 2653.32
   01:02:45.750.28-May-2021 3649.00 3165.55 84.94 5.00 190.80 2653.32
   01:02:45.950.28-May-2021 3649.00 3165.54 84.94 5.00 191.00 2653.32
   01:02:46.150.28-May-2021 3649.00 3165.55 84.94 5.00 191.20 2653.32
   01:02:46.350.28-May-2021 3649.00 3165.55 84.94 5.00 191.40 2653.32
   01:02:46.551.28-May-2021 3649.00 3165.54 84.94 5.00 191.60 2653.32
   01:02:46.751.28-May-2021 3649.00 3165.55 84.94 5.00 191.80 2653.32
   01:02:46.951.28-May-2021 3649.00 3165.55 84.94 5.00 192.00 2653.32
   01:02:47.151.28-May-2021 3649.00 3165.55 84.94 5.00 192.20 2653.32
   01:02:47.351.28-May-2021 3649.00 3165.55 84.94 5.00 192.40 2653.32
   01:02:47.552.28-May-2021 3649.00 3165.54 84.94 5.00 192.60 2653.32
   01:02:47.752.28-May-2021 3649.00 3165.55 84.94 5.00 192.80 2653.32
   01:02:47.952.28-May-2021 3649.00 3165.56 84.94 5.00 193.00 2653.32
   01:02:48.152.28-May-2021 3649.00 3165.55 84.94 5.00 193.20 2653.32
   01:02:48.353.28-May-2021 3649.00 3165.55 84.94 5.00 193.40 2653.32
   01:02:48.553.28-May-2021 3649.00 3165.57 84.94 5.00 193.60 2653.32
   01:02:48.753.28-May-2021 3649.00 3165.55 84.94 5.00 193.80 2653.32
   01:02:48.953.28-May-2021 3649.00 3165.55 84.94 5.00 194.00 2653.32
   01:02:49.153.28-May-2021 3649.00 3165.55 84.94 5.00 194.20 2653.32
   01:02:49.354.28-May-2021 3649.00 3165.55 84.94 5.00 194.40 2653.32
   01:02:49.554.28-May-2021 3649.00 3165.54 84.94 5.00 194.60 2653.32
   01:02:49.754.28-May-2021 3649.00 3165.55 84.94 5.00 194.80 2653.32
   01:02:49.954.28-May-2021 3649.00 3165.55 84.94 5.00 195.00 2653.32
   01:02:50.154.28-May-2021 3649.00 3165.55 84.94 5.00 195.20 2653.32
   01:02:50.355.28-May-2021 3649.00 3165.55 84.94 5.00 195.40 2653.32
   01:02:50.555.28-May-2021 3649.00 3165.55 84.94 5.00 195.60 2653.32
   01:02:50.755.28-May-2021 3649.00 3165.56 84.94 5.00 195.80 2653.32
   01:02:50.955.28-May-2021 3649.00 3165.53 84.94 5.00 196.00 2653.32
   01:02:51.155.28-May-2021 3649.00 3165.56 84.94 5.00 196.20 2653.32
   01:02:51.356.28-May-2021 3649.00 3165.56 84.94 5.00 196.40 2653.32
   01:02:51.556.28-May-2021 3649.00 3165.55 84.94 5.00 196.60 2653.32
   01:02:51.756.28-May-2021 3649.00 3165.54 84.94 5.00 196.80 2653.32
   01:02:51.956.28-May-2021 3649.00 3165.55 84.94 5.00 197.00 2653.32
   01:02:52.156.28-May-2021 3649.00 3165.55 84.94 5.00 197.21 2653.32
   01:02:52.357.28-May-2021 3649.00 3165.55 84.94 5.00 197.41 2653.32
   01:02:52.557.28-May-2021 3649.00 3165.54 84.94 5.00 197.61 2653.32
   01:02:52.757.28-May-2021 3649.00 3165.55 84.94 5.00 197.81 2653.32
   01:02:52.957.28-May-2021 3649.00 3165.56 84.94 5.00 198.01 2653.32
   01:02:53.158.28-May-2021 3649.00 3165.55 84.94 5.00 198.21 2653.32
   01:02:53.358.28-May-2021 3649.00 3165.55 84.94 5.00 198.41 2653.32
   01:02:53.558.28-May-2021 3649.00 3165.53 84.94 5.00 198.61 2653.32
   01:02:53.758.28-May-2021 3649.00 3165.56 84.94 5.00 198.81 2653.32
   01:02:53.958.28-May-2021 3649.00 3165.55 84.94 5.00 199.01 2653.32
   01:02:54.159.28-May-2021 3649.00 3165.54 84.94 5.00 199.21 2653.32
   01:02:54.359.28-May-2021 3649.00 3165.54 84.94 5.00 199.41 2653.32
   01:02:54.559.28-May-2021 3649.00 3165.54 84.94 5.00 199.61 2653.32
   01:02:54.759.28-May-2021 3649.00 3165.54 84.94 5.00 199.81 2653.32
   01:02:54.959.28-May-2021 3649.00 3165.55 84.94 5.00 200.01 2653.32
   01:02:55.160.28-May-2021 3649.00 3165.55 84.94 5.00 200.21 2653.32
   01:02:55.360.28-May-2021 3649.00 3165.55 84.94 5.00 200.41 2653.32
   01:02:55.560.28-May-2021 3649.00 3165.54 84.94 5.00 200.61 2653.32
   01:02:55.760.28-May-2021 3649.00 3165.55 84.94 5.00 200.81 2653.32
   01:02:55.960.28-May-2021 3649.00 3165.53 84.94 5.00 201.01 2653.32
   01:02:56.161.28-May-2021 3649.00 3165.55 84.94 5.00 201.21 2653.32
   01:02:56.361.28-May-2021 3649.00 3165.55 84.94 5.00 201.41 2653.32
   01:02:56.561.28-May-2021 3649.00 3165.52 84.94 5.00 201.61 2653.32
   01:02:56.761.28-May-2021 3649.00 3165.56 84.94 5.00 201.81 2653.32
   01:02:56.961.28-May-2021 3649.00 3165.54 84.94 5.00 202.01 2653.32
   01:02:57.162.28-May-2021 3649.00 3165.54 84.94 5.00 202.21 2653.32
   01:02:57.362.28-May-2021 3649.00 3165.54 84.94 5.00 202.41 2653.32
   01:02:57.562.28-May-2021 3649.00 3165.54 84.94 5.00 202.61 2653.32
   01:02:57.762.28-May-2021 3649.00 3165.55 84.94 5.00 202.81 2653.32
   01:02:57.963.28-May-2021 3649.00 3165.54 84.94 5.00 203.01 2653.32
   01:02:58.163.28-May-2021 3649.00 3165.55 84.94 5.00 203.21 2653.32
   01:02:58.363.28-May-2021 3649.00 3165.55 84.94 5.00 203.41 2653.32
   01:02:58.563.28-May-2021 3649.00 3165.55 84.94 5.00 203.61 2653.32
   01:02:58.763.28-May-2021 3649.00 3165.54 84.94 5.00 203.81 2653.32
   01:02:58.964.28-May-2021 3649.00 3165.55 84.94 5.00 204.01 2653.32
   01:02:59.164.28-May-2021 3649.00 3165.53 84.94 5.00 204.21 2653.32
   01:02:59.364.28-May-2021 3649.00 3165.53 84.94 5.00 204.41 2653.32
   01:02:59.564.28-May-2021 3649.00 3165.54 84.94 5.00 204.61 2653.32
   01:02:59.764.28-May-2021 3649.00 3165.54 84.94 5.00 204.81 2653.32
   01:02:59.965.28-May-2021 3649.00 3165.54 84.94 5.00 205.01 2653.32
   01:03:00.165.28-May-2021 3649.00 3165.54 84.94 5.00 205.21 2653.32
   01:03:00.365.28-May-2021 3649.00 3165.54 84.94 5.00 205.41 2653.32
   01:03:00.565.28-May-2021 3649.00 3165.54 84.94 5.00 205.61 2653.32
   01:03:00.765.28-May-2021 3649.00 3165.54 84.94 5.00 205.81 2653.32
   01:03:00.966.28-May-2021 3649.00 3165.55 84.94 5.00 206.01 2653.32
   01:03:01.166.28-May-2021 3649.00 3165.55 84.94 5.00 206.21 2653.32
   01:03:01.366.28-May-2021 3649.00 3165.55 84.94 5.00 206.41 2653.32
   01:03:01.566.28-May-2021 3649.00 3165.55 84.94 5.00 206.61 2653.32
   01:03:01.766.28-May-2021 3649.00 3165.53 84.94 5.00 206.82 2653.32
   01:03:01.967.28-May-2021 3649.00 3165.56 84.94 5.00 207.02 2653.32
