~Version Information
 VERS.                  2.0:   CWLS log ASCII Standard -VERSION 2.0
 WRAP.                   NO:   One line per depth step
~Well Information Block
#MNEM.UNIT     VALUE/NAME     DESCRIPTION
#---------     -----------    ---------------------------
 STRT.S             22:21:57 27-May-21: START TIME 22:21:57 27-May-21
 STOP.S             22:28:58 27-May-21: STOP TIME  22:28:58 27-May-21
 STEP.S                   0.00: STEP TIME
 NULL.                 -999.25: NULL VALUE
 UWI .                     N/A:  UNIQUE WELL IDENTIFIER
 API .                     N/A:  API NUMBER
 UNIT.                     N/A:  LOGGING EQUIPMENT ID
 DCON.         Sperry Drilling:  DIRECTNL CONTR
 DOE .                     N/A:  DOE NUMBER
 MWDS.                    Baku:  MWD SHOP
 SRVC.     Turan Drilling and Engineering:  CONTRACTOR
 CTRY.              Azerbaijan:  COUNTRY NAME
 PROV.                    Baku:  PROVINCE
 STAT.                    Baku:  STATE NAME
 REGN.                   EESSA:  REGION
 BASE.              Azerbaijan:  LOGGING EQUIPMENT BASE LOCATION
 WTYP.                Deviated:  WELL TYPE
 RIG .              East Azeri:  RIG NAME
 WELL.                    D02y:  WELL NAME
 FLD .                     ACG:  FIELD NAME
 COMP.     BP Exploration (Caspian Sea) Ltd.:  COMPANY
 PDAT.          Mean Sea Level:  PERMANENT DATUM
 MDS .        Operator Entered:  MAG DATA SOURCE
 SON .        AZ-XX-0906997291:  JOB NUMBER
 FTOP.          Formation Tops:  FORM TOPS DESC
 ILTD.               Lithology:  INTERP LTH DESC
 SVYD.                  Survey:  SURVEY DESC
 DMOD.             Drill Model:  DRILL MOD DESC
 HPTY.       Minimum Curvature:  HOLE POS TYPE
 NREF.                    Grid:  NORTH REFERENCE
 SPUD.               05-May-21:  SPUD DATE
 DATE.      09.27.28 12-Jun-21:  END TIME
 STIM.      09.27.28 12-May-21:  START TIME
 DMF .             Drill Floor:  DRILL MEAS FROM
 DFST.                        :  DIST FSL TEXT
 DFWT.                        :  DIST FWL TEXT
 CNTY.                        :  COUNTY
 LOC .                        :  LOCATION
 LMF .             Drill Floor:  LOG MEASURED FROM
 DEP .m                2806.40:  DEPTH
 AGAP.m                  43.60:  AIR GAP
 VSNS.m                  -4.42:  VERT SEC N/S
 VSEW.m                  -7.31:  VERT SEC E/W
 APD .m                  43.60:  DEPTH ABOVE PD
 WDMS.m                 151.80:  WD ELEV
 EGL .m                   0.00:  GROUND ELEVATION
 EPD .m                   0.00:  ELEVATION
 AZTC.deg                 6.18:  AZM TOTAL CORR
 GRDC.deg                 0.29:  GRID CORRECTION
 MDEC.deg                 6.47:  MAGNETIC DECL
 MDIP.deg                59.50:  MAGNETIC DIP
 MFLD.nT              50350.00:  MAGNETIC FIELD
 GVFD.g                   1.00:  GRAVITY FIELD
 VSDR.deg               179.08:  VERT SEC DIRECT
 TDD .m                4300.00:  TOTAL DEPTH (DRILLER)
 SDEP.m                2800.00:  START DEPTH
 DFSL.m                   0.00:  DISTANCE FSL
 DFWL.m                   0.00:  DISTANCE FWL
 UTMY.m             4431871.34:  UTM Y
 UTMX.m              538762.90:  UTM X
 WHEW.m                  -7.31:  WELL HEAD E/W
 WHNS.m                  -4.42:  WELL HEAD N/S
 LONG.deg                51.45:  LONGITUDE
 LATI.deg                40.02:  LATITUDE
 TVDS.m                  43.60:  TVDSS CORRECTN
 EKB .m                  43.60:  KB ELEVATION
 EDF .m                  43.60:  DF ELEVATION
 TDL .m                 806.00:  TOTAL DEPTH (LOGGER)
 MAGU.                 1851231:  MAGUTM CHECKSUM
 VSC .                       0:  VS TO CLOSURE
~Parameter Information Block
#MNEM.UNIT       Value        Description
#---------     -----------    ---------------------------
 AV  .mps                 1.60:  Ann Velocity 
 AVMX.mps                 2.00:  Max Ann Veloc 
 AZIF.deg               140.24:  Azm, Final 
 BHAT.        Rotary Steerable:  BHA Type 
 BROT.°/30m               0.50:  Build Rotating 
 BS  .in                  8.50:  Bit Size 
 BTPL.psig              619.00:  Bit Press Loss 
 CABU.                     Yes:  Customer Abuse 
 CGEO.          Ilgar Gurbanov:  Customer Geo 
 COMM.                     ¼ƒj:  Run Comments 1 
 TCS .hr                 85.88:  Time Ciculation Ended 
 CV  .mps                 3.30:  Crit Velocity 
 CVMX.mps                 3.50:  Max Crit Veloc 
 DD1 .           Hamid Axmedov:  Direct Drillr 1 
 DD2 .           Teymur Aliyev:  Direct Drillr 2 
 DDSV.               Geo-Pilot:  DD Service 
 DEFF.%                 100.00:  % Det Eff 
 DLRX.°/30m               0.00:  Dogleg Rot Max 
 DLSO.°/30m               1.80:  Dogleg Oriented 
 DLSX.°/30m               3.34:  Dogleg Str Max 
 DRET.      11.50.00 27-May-21:  Drill End Time 
 DRST.      21.13.00 24-May-21:  Drill Start Tim 
 DTIM.hr                 45.11:  Time Drilling 
 EDEP.m                4054.00:  End Depth 
 ENG1.         Almaz Almadatov:  Engineer 1 
 ENG2.           Amrah Tahirov:  Engineer 2 
 ENG3.      Bakhtiyar Jabbarli:  Engineer 3 
 ENG4.          Nazrin Asgarli:  Engineer 4 
 ETIM.      10.00.00 30-May-21:  End Time 
 FLOI.gpm               530.00:  Flow In 
 FLON.gpm               400.00:  Flow In Min 
 FLOS.cptm                0.00:  Fluid Loss 
 FLOX.gpm               560.00:  Flow In Max 
 DFT .        Mineral Oil Base:  Mud Type 
 FTRO.       Formation Presure:  FTWD Run Obj 
 HFLO.                      No:  High Flow 
 HPRE.                      No:  High Pressure 
 HTEM.                      No:  High Temp 
 HYDO.m                   1.80:  Hydro Offset 
 IFIN.deg                73.83:  Inc, Final 
 IMAX.deg                73.83:  Inc Max 
 IMIN.deg                57.86:  Inc Min 
 IMND.m                3259.27:  Inc Min Depth 
 IMXD.m                4045.58:  Inc Max Depth 
 JARR.                     Yes:  Jarring 
 LETM.      11.50.00 27-May-21:  Log End Time 
 LOST.hr                     0:  Lost Rig Time 
 LSTM.      21.13.00 24-May-21:  Log Start Time 
 MDCL.ppm             42500.00:  Mud Chlorides 
 MDES.     Inversion Oil/Synthetic:  Mud Desc 
 DFD .sg                  1.52:  Mud Density 
 MDMN.sg                  1.52:  Dens Mud Min 
 MDMX.sg                  1.52:  Dens Mud Max 
 MOIL.                      70:  Run Mud Oil % 
 MOWR.                   70:30:  Run Mud OWR 
 MSND.                     0.2:  Run Mud Sand % 
 MSOL.                      22:  Run Mud Solids% 
 DFV .spqt               77.00:  Mud Viscosity 
 MWOD.in                  6.75:  MWD Tool OD 
 MWSI.                      No:  Serv Intrp, MWD 
 OTIM.hr                151.01:  Time Operating 
 PCON.          Wear / Scratch:  Pad Condition 
 PMAX.psia            11296.93:  Press Op, Max 
 PV  .cP                 37.00:  Mud PV 
 RUN .                     500:  Run Number 
 ROPA.m/hr               25.00:  ROP Avg 
 ROPN.m/hr                9.00:  ROP Min 
 ROPX.m/hr               28.00:  ROP Max 
 RPMA.rpm               140.00:  RPM Surface Avg 
 RPMN.rpm                90.00:  RPM Surface Min 
 RPMX.rpm               140.00:  RPM Surface Max 
 RRUN.                    0500:  Rig Run Number 
 SAZI.deg               172.17:  Azm, Start 
 SDEP.m                3248.00:  Start Depth 
 SIDD.                      No:  Serv Intrp, DD 
 SINC.deg                57.86:  Inc, Start 
 SPPA.psig             5620.00:  SPP Avg 
 SPPN.psig             5190.00:  SPP Min 
 SPPX.psig             6050.00:  SPP Max 
 STIM.      16.00.00 23-May-21:  Start Time 
 SVCS.                 DD, MWD:  Services 
 SVER.                    9.20:  Sperry Version 
 TDAT.m                 806.00:  Tot Depth Attmp 
 TDDF.                      No:  Trip for DD 
 TDLG.m                 806.00:  Tot Depth Loggd 
 TFF .                      No:  Trip for Fail 
 TQAA.f-kp               12.00:  Torque Abs Avg 
 TQAN.f-kp                8.00:  Torque Abs Min 
 TQAX.f-kp               15.00:  Torque Abs Max 
 TRRT.°/30m               0.30:  Turn Rotating 
 MRT .                  EWR-M5:  Maximum Recorded Temperature 
 TTMX.degC               93.00:  Max Tool Temp 
 VS01.                90649155:  Virtual Str1 SN 
 VS02.                90642264:  Virtual Str2 SN 
 VS03.                90642266:  Virtual Str3 SN 
 VS04.                90642261:  Virtual Str4 SN 
 WBMN.klb                 0.00:  WOB Min 
 WITN.             Anar Khalil:  Customer Rep 
 WITN.           Murad Guliyev:  Customer Rep 2 
 WOBA.klb                13.00:  WOB Avg 
 WOBX.klb                25.00:  WOB Max 
 YP  .lhf2               32.00:  Yield Point 
~Curve Information Block
#MNEM.UNIT                 API CODE     Curve Description
#---------               -----------    ---------------------------
 TIME.HHMMSS            00 000 000 000:  GT Time & Date
 GTDEPTH.m              00 000 000 000:  GT Depth
 GTPQH.psia             00 000 000 000:  GT HR Quartz Pressure
 GTTQ.degC              00 000 000 000:  GT Quartz Temperature
 GTTN.NONE              00 000 000 000:  GT Test Number
 GTET.sec               00 000 000 000:  GT Elapsed Test Time
 GTTVD.m                00 000 000 000:  GT True Vertical Depth
#Other Information
#
#WARRANTY: Halliburton will use its best efforts to furnish customers with 
#accurate information and interpretations that are part of, and incident to, the services 
#provided.  However, Halliburton cannot and does not warrant the accuracy 
#or correctness of such information and interpretations.  Under no circumstances should any 
#such information or interpretation be relied upon as the sole basis for any drilling, 
#completion, production, or financial decision or any procedure involving any risk to the 
#safety of any drilling venture, drilling rig or its crew or any other third party.  The 
#Customer has full responsibility for all drilling, completion and production operation.  
#Halliburton makes no representations or warranties, either expressed or 
#implied, including, but not limited to, the implied warranties of merchantability or fitness 
#for a particular purpose, with respect to the services rendered.  In no event will 
#Halliburton be liable for failure to obtain any particular results or for 
#any damages, including, but not limited to, indirect, special or consequential damages, 
#resulting from the use of any information or interpretation provided by Halliburton.
#
~A           TIME           GTDEPTH  GTPQH  GTTQ  GTTN  GTET   GTTVD  
# ...
   22:28:05.764.27-May-2021 3723.00 6240.80 84.35 1.00 368.06 2680.40
   22:28:05.965.27-May-2021 3723.00 6240.80 84.35 1.00 368.26 2680.40
   22:28:06.165.27-May-2021 3723.00 6241.12 84.36 1.00 368.46 2680.40
   22:28:06.365.27-May-2021 3723.00 6240.87 84.36 1.00 368.66 2680.40
   22:28:06.565.27-May-2021 3723.00 6245.65 84.36 1.00 368.86 2680.40
   22:28:06.765.27-May-2021 3723.00 6239.46 84.36 1.00 369.06 2680.40
   22:28:06.965.27-May-2021 3723.00 6239.46 84.36 1.00 369.26 2680.40
   22:28:07.165.27-May-2021 3723.00 6241.74 84.37 1.00 369.46 2680.40
   22:28:07.365.27-May-2021 3723.00 6242.40 84.37 1.00 369.66 2680.40
   22:28:07.565.27-May-2021 3723.00 6244.91 84.37 1.00 369.86 2680.40
   22:28:07.765.27-May-2021 3723.00 6242.92 84.37 1.00 370.06 2680.40
   22:28:07.965.27-May-2021 3723.00 6242.92 84.37 1.00 370.26 2680.40
   22:28:08.165.27-May-2021 3723.00 6242.02 84.38 1.00 370.46 2680.40
   22:28:08.365.27-May-2021 3723.00 6243.20 84.38 1.00 370.66 2680.40
   22:28:08.565.27-May-2021 3723.00 6242.33 84.38 1.00 370.86 2680.40
   22:28:08.765.27-May-2021 3723.00 6242.20 84.38 1.00 371.06 2680.40
   22:28:08.965.27-May-2021 3723.00 6242.20 84.38 1.00 371.26 2680.40
   22:28:09.165.27-May-2021 3723.00 6241.89 84.39 1.00 371.46 2680.40
   22:28:09.365.27-May-2021 3723.00 6242.24 84.39 1.00 371.66 2680.40
   22:28:09.565.27-May-2021 3723.00 6242.25 84.39 1.00 371.86 2680.40
   22:28:09.765.27-May-2021 3723.00 6242.61 84.39 1.00 372.06 2680.40
   22:28:09.965.27-May-2021 3723.00 6242.61 84.39 1.00 372.26 2680.40
   22:28:10.165.27-May-2021 3723.00 6245.60 84.39 1.00 372.46 2680.40
   22:28:10.365.27-May-2021 3723.00 6243.56 84.39 1.00 372.66 2680.40
   22:28:10.565.27-May-2021 3723.00 6242.83 84.40 1.00 372.86 2680.40
   22:28:10.765.27-May-2021 3723.00 6242.96 84.40 1.00 373.06 2680.40
   22:28:10.965.27-May-2021 3723.00 6242.96 84.40 1.00 373.26 2680.40
   22:28:11.165.27-May-2021 3723.00 6242.52 84.40 1.00 373.46 2680.40
   22:28:11.365.27-May-2021 3723.00 6242.40 84.40 1.00 373.66 2680.40
   22:28:11.565.27-May-2021 3723.00 6242.40 84.40 1.00 373.86 2680.40
   22:28:11.765.27-May-2021 3723.00 6242.24 84.40 1.00 374.06 2680.40
   22:28:11.965.27-May-2021 3723.00 6242.24 84.40 1.00 374.26 2680.40
   22:28:12.166.27-May-2021 3723.00 6242.47 84.40 1.00 374.46 2680.40
   22:28:12.366.27-May-2021 3723.00 6242.98 84.40 1.00 374.66 2680.40
   22:28:12.566.27-May-2021 3723.00 6243.16 84.40 1.00 374.86 2680.40
   22:28:12.766.27-May-2021 3723.00 6243.09 84.41 1.00 375.06 2680.40
   22:28:12.966.27-May-2021 3723.00 6243.09 84.41 1.00 375.26 2680.40
   22:28:13.166.27-May-2021 3723.00 6241.86 84.41 1.00 375.46 2680.40
   22:28:13.366.27-May-2021 3723.00 6243.12 84.41 1.00 375.66 2680.40
   22:28:13.566.27-May-2021 3723.00 6246.15 84.41 1.00 375.86 2680.40
   22:28:13.766.27-May-2021 3723.00 6244.13 84.41 1.00 376.06 2680.40
   22:28:13.966.27-May-2021 3723.00 6244.13 84.41 1.00 376.26 2680.40
   22:28:14.166.27-May-2021 3723.00 6242.68 84.41 1.00 376.46 2680.40
   22:28:14.366.27-May-2021 3723.00 6243.31 84.41 1.00 376.66 2680.40
   22:28:14.566.27-May-2021 3723.00 6242.11 84.41 1.00 376.86 2680.40
   22:28:14.766.27-May-2021 3723.00 6249.01 84.41 1.00 377.06 2680.40
   22:28:14.966.27-May-2021 3723.00 6249.01 84.41 1.00 377.26 2680.40
   22:28:15.166.27-May-2021 3723.00 6242.88 84.41 1.00 377.46 2680.40
   22:28:15.366.27-May-2021 3723.00 6243.18 84.41 1.00 377.66 2680.40
   22:28:15.566.27-May-2021 3723.00 6243.77 84.41 1.00 377.86 2680.40
   22:28:15.766.27-May-2021 3723.00 6243.18 84.41 1.00 378.06 2680.40
   22:28:15.966.27-May-2021 3723.00 6243.18 84.41 1.00 378.26 2680.40
   22:28:16.166.27-May-2021 3723.00 6241.95 84.41 1.00 378.46 2680.40
   22:28:16.366.27-May-2021 3723.00 6243.04 84.41 1.00 378.66 2680.40
   22:28:16.566.27-May-2021 3723.00 6243.49 84.41 1.00 378.86 2680.40
   22:28:16.766.27-May-2021 3723.00 6243.73 84.41 1.00 379.06 2680.40
   22:28:16.966.27-May-2021 3723.00 6243.73 84.41 1.00 379.26 2680.40
   22:28:17.166.27-May-2021 3723.00 6242.82 84.41 1.00 379.46 2680.40
   22:28:17.366.27-May-2021 3723.00 6243.03 84.41 1.00 379.66 2680.40
   22:28:17.566.27-May-2021 3723.00 6243.01 84.41 1.00 379.86 2680.40
   22:28:17.766.27-May-2021 3723.00 6243.12 84.41 1.00 380.06 2680.40
   22:28:17.966.27-May-2021 3723.00 6243.12 84.41 1.00 380.26 2680.40
   22:28:18.167.27-May-2021 3723.00 6243.48 84.41 1.00 380.46 2680.40
   22:28:18.367.27-May-2021 3723.00 6243.11 84.41 1.00 380.66 2680.40
   22:28:18.567.27-May-2021 3723.00 6248.35 84.41 1.00 380.86 2680.40
   22:28:18.767.27-May-2021 3723.00 6241.96 84.41 1.00 381.06 2680.40
   22:28:18.967.27-May-2021 3723.00 6241.96 84.41 1.00 381.26 2680.40
   22:28:19.167.27-May-2021 3723.00 6243.32 84.41 1.00 381.46 2680.40
   22:28:19.367.27-May-2021 3723.00 6243.54 84.41 1.00 381.66 2680.40
   22:28:19.567.27-May-2021 3723.00 6242.70 84.41 1.00 381.86 2680.40
   22:28:19.767.27-May-2021 3723.00 6242.56 84.41 1.00 382.06 2680.40
   22:28:19.967.27-May-2021 3723.00 6242.56 84.41 1.00 382.26 2680.40
   22:28:20.167.27-May-2021 3723.00 6242.65 84.41 1.00 382.46 2680.40
   22:28:20.367.27-May-2021 3723.00 6242.91 84.41 1.00 382.66 2680.40
   22:28:20.567.27-May-2021 3723.00 6243.06 84.41 1.00 382.86 2680.40
   22:28:20.767.27-May-2021 3723.00 6243.39 84.41 1.00 383.06 2680.40
   22:28:20.967.27-May-2021 3723.00 6243.39 84.41 1.00 383.26 2680.40
   22:28:21.167.27-May-2021 3723.00 6248.60 84.41 1.00 383.46 2680.40
   22:28:21.367.27-May-2021 3723.00 6241.17 84.41 1.00 383.66 2680.40
   22:28:21.567.27-May-2021 3723.00 6243.45 84.41 1.00 383.86 2680.40
   22:28:21.767.27-May-2021 3723.00 6242.95 84.41 1.00 384.06 2680.40
   22:28:21.967.27-May-2021 3723.00 6242.95 84.41 1.00 384.26 2680.40
   22:28:22.167.27-May-2021 3723.00 6240.55 84.41 1.00 384.46 2680.40
   22:28:22.367.27-May-2021 3723.00 6242.72 84.41 1.00 384.66 2680.40
   22:28:22.567.27-May-2021 3723.00 6242.70 84.41 1.00 384.86 2680.40
   22:28:22.767.27-May-2021 3723.00 6242.95 84.41 1.00 385.06 2680.40
   22:28:22.967.27-May-2021 3723.00 6242.95 84.41 1.00 385.26 2680.40
   22:28:23.167.27-May-2021 3723.00 6240.84 84.41 1.00 385.46 2680.40
   22:28:23.367.27-May-2021 3723.00 6242.94 84.41 1.00 385.66 2680.40
   22:28:23.567.27-May-2021 3723.00 6242.57 84.41 1.00 385.86 2680.40
   22:28:23.767.27-May-2021 3723.00 6243.57 84.41 1.00 386.06 2680.40
   22:28:23.967.27-May-2021 3723.00 6243.57 84.41 1.00 386.26 2680.40
   22:28:24.167.27-May-2021 3723.00 6243.53 84.41 1.00 386.46 2680.40
   22:28:24.368.27-May-2021 3723.00 6242.83 84.41 1.00 386.66 2680.40
   22:28:24.568.27-May-2021 3723.00 6242.73 84.41 1.00 386.86 2680.40
   22:28:24.768.27-May-2021 3723.00 6243.40 84.41 1.00 387.06 2680.40
   22:28:24.968.27-May-2021 3723.00 6243.40 84.41 1.00 387.26 2680.40
   22:28:25.168.27-May-2021 3723.00 6242.73 84.41 1.00 387.46 2680.40
   22:28:25.368.27-May-2021 3723.00 6242.62 84.41 1.00 387.66 2680.40
   22:28:25.568.27-May-2021 3723.00 6242.34 84.41 1.00 387.86 2680.40
   22:28:25.768.27-May-2021 3723.00 6242.62 84.41 1.00 388.06 2680.40
   22:28:25.968.27-May-2021 3723.00 6242.62 84.41 1.00 388.26 2680.40
   22:28:26.168.27-May-2021 3723.00 6243.04 84.41 1.00 388.46 2680.40
   22:28:26.368.27-May-2021 3723.00 6242.90 84.41 1.00 388.66 2680.40
   22:28:26.568.27-May-2021 3723.00 6245.81 84.41 1.00 388.86 2680.40
   22:28:26.768.27-May-2021 3723.00 6243.75 84.41 1.00 389.06 2680.40
   22:28:26.968.27-May-2021 3723.00 6243.75 84.41 1.00 389.26 2680.40
   22:28:27.168.27-May-2021 3723.00 6243.07 84.41 1.00 389.46 2680.40
   22:28:27.368.27-May-2021 3723.00 6243.39 84.40 1.00 389.66 2680.40
   22:28:27.568.27-May-2021 3723.00 6242.52 84.40 1.00 389.86 2680.40
   22:28:27.768.27-May-2021 3723.00 6242.46 84.40 1.00 390.06 2680.40
   22:28:27.968.27-May-2021 3723.00 6242.46 84.40 1.00 390.26 2680.40
   22:28:28.168.27-May-2021 3723.00 6242.06 84.40 1.00 390.46 2680.40
   22:28:28.368.27-May-2021 3723.00 6242.41 84.40 1.00 390.66 2680.40
   22:28:28.568.27-May-2021 3723.00 6242.34 84.40 1.00 390.86 2680.40
