~Version Information
 VERS.                  2.0:   CWLS log ASCII Standard -VERSION 2.0
 WRAP.                   NO:   One line per depth step
~Well Information Block
#MNEM.UNIT     VALUE/NAME     DESCRIPTION
#---------     -----------    ---------------------------
 STRT.S             07:37:51 28-May-21: START TIME 07:37:51 28-May-21
 STOP.S             07:44:58 28-May-21: STOP TIME  07:44:58 28-May-21
 STEP.S                   0.00: STEP TIME
 NULL.                 -999.25: NULL VALUE
 UWI .                     N/A:  UNIQUE WELL IDENTIFIER
 API .                     N/A:  API NUMBER
 UNIT.                     N/A:  LOGGING EQUIPMENT ID
 DCON.         Sperry Drilling:  DIRECTNL CONTR
 DOE .                     N/A:  DOE NUMBER
 MWDS.                    Baku:  MWD SHOP
 SRVC.     Turan Drilling and Engineering:  CONTRACTOR
 CTRY.              Azerbaijan:  COUNTRY NAME
 PROV.                    Baku:  PROVINCE
 STAT.                    Baku:  STATE NAME
 REGN.                   EESSA:  REGION
 BASE.              Azerbaijan:  LOGGING EQUIPMENT BASE LOCATION
 WTYP.                Deviated:  WELL TYPE
 RIG .              East Azeri:  RIG NAME
 WELL.                    D02y:  WELL NAME
 FLD .                     ACG:  FIELD NAME
 COMP.     BP Exploration (Caspian Sea) Ltd.:  COMPANY
 PDAT.          Mean Sea Level:  PERMANENT DATUM
 MDS .        Operator Entered:  MAG DATA SOURCE
 SON .        AZ-XX-0906997291:  JOB NUMBER
 FTOP.          Formation Tops:  FORM TOPS DESC
 ILTD.               Lithology:  INTERP LTH DESC
 SVYD.                  Survey:  SURVEY DESC
 DMOD.             Drill Model:  DRILL MOD DESC
 HPTY.       Minimum Curvature:  HOLE POS TYPE
 NREF.                    Grid:  NORTH REFERENCE
 SPUD.               05-May-21:  SPUD DATE
 DATE.      09.27.28 12-Jun-21:  END TIME
 STIM.      09.27.28 12-May-21:  START TIME
 DMF .             Drill Floor:  DRILL MEAS FROM
 DFST.                        :  DIST FSL TEXT
 DFWT.                        :  DIST FWL TEXT
 CNTY.                        :  COUNTY
 LOC .                        :  LOCATION
 LMF .             Drill Floor:  LOG MEASURED FROM
 DEP .m                2806.40:  DEPTH
 AGAP.m                  43.60:  AIR GAP
 VSNS.m                  -4.42:  VERT SEC N/S
 VSEW.m                  -7.31:  VERT SEC E/W
 APD .m                  43.60:  DEPTH ABOVE PD
 WDMS.m                 151.80:  WD ELEV
 EGL .m                   0.00:  GROUND ELEVATION
 EPD .m                   0.00:  ELEVATION
 AZTC.deg                 6.18:  AZM TOTAL CORR
 GRDC.deg                 0.29:  GRID CORRECTION
 MDEC.deg                 6.47:  MAGNETIC DECL
 MDIP.deg                59.50:  MAGNETIC DIP
 MFLD.nT              50350.00:  MAGNETIC FIELD
 GVFD.g                   1.00:  GRAVITY FIELD
 VSDR.deg               179.08:  VERT SEC DIRECT
 TDD .m                4300.00:  TOTAL DEPTH (DRILLER)
 SDEP.m                2800.00:  START DEPTH
 DFSL.m                   0.00:  DISTANCE FSL
 DFWL.m                   0.00:  DISTANCE FWL
 UTMY.m             4431871.34:  UTM Y
 UTMX.m              538762.90:  UTM X
 WHEW.m                  -7.31:  WELL HEAD E/W
 WHNS.m                  -4.42:  WELL HEAD N/S
 LONG.deg                51.45:  LONGITUDE
 LATI.deg                40.02:  LATITUDE
 TVDS.m                  43.60:  TVDSS CORRECTN
 EKB .m                  43.60:  KB ELEVATION
 EDF .m                  43.60:  DF ELEVATION
 TDL .m                 806.00:  TOTAL DEPTH (LOGGER)
 MAGU.                 1851231:  MAGUTM CHECKSUM
 VSC .                       0:  VS TO CLOSURE
~Parameter Information Block
#MNEM.UNIT       Value        Description
#---------     -----------    ---------------------------
 AV  .mps                 1.60:  Ann Velocity 
 AVMX.mps                 2.00:  Max Ann Veloc 
 AZIF.deg               140.24:  Azm, Final 
 BHAT.        Rotary Steerable:  BHA Type 
 BROT.°/30m               0.50:  Build Rotating 
 BS  .in                  8.50:  Bit Size 
 BTPL.psig              619.00:  Bit Press Loss 
 CABU.                     Yes:  Customer Abuse 
 CGEO.          Ilgar Gurbanov:  Customer Geo 
 COMM.                     dSc:  Run Comments 1 
 TCS .hr                 85.88:  Time Ciculation Ended 
 CV  .mps                 3.30:  Crit Velocity 
 CVMX.mps                 3.50:  Max Crit Veloc 
 DD1 .           Hamid Axmedov:  Direct Drillr 1 
 DD2 .           Teymur Aliyev:  Direct Drillr 2 
 DDSV.               Geo-Pilot:  DD Service 
 DEFF.%                 100.00:  % Det Eff 
 DLRX.°/30m               0.00:  Dogleg Rot Max 
 DLSO.°/30m               1.80:  Dogleg Oriented 
 DLSX.°/30m               3.34:  Dogleg Str Max 
 DRET.      11.50.00 27-May-21:  Drill End Time 
 DRST.      21.13.00 24-May-21:  Drill Start Tim 
 DTIM.hr                 45.11:  Time Drilling 
 EDEP.m                4054.00:  End Depth 
 ENG1.         Almaz Almadatov:  Engineer 1 
 ENG2.           Amrah Tahirov:  Engineer 2 
 ENG3.      Bakhtiyar Jabbarli:  Engineer 3 
 ENG4.          Nazrin Asgarli:  Engineer 4 
 ETIM.      10.00.00 30-May-21:  End Time 
 FLOI.gpm               530.00:  Flow In 
 FLON.gpm               400.00:  Flow In Min 
 FLOS.cptm                0.00:  Fluid Loss 
 FLOX.gpm               560.00:  Flow In Max 
 DFT .        Mineral Oil Base:  Mud Type 
 FTRO.       Formation Presure:  FTWD Run Obj 
 HFLO.                      No:  High Flow 
 HPRE.                      No:  High Pressure 
 HTEM.                      No:  High Temp 
 HYDO.m                   1.80:  Hydro Offset 
 IFIN.deg                73.83:  Inc, Final 
 IMAX.deg                73.83:  Inc Max 
 IMIN.deg                57.86:  Inc Min 
 IMND.m                3259.27:  Inc Min Depth 
 IMXD.m                4045.58:  Inc Max Depth 
 JARR.                     Yes:  Jarring 
 LETM.      11.50.00 27-May-21:  Log End Time 
 LOST.hr                     0:  Lost Rig Time 
 LSTM.      21.13.00 24-May-21:  Log Start Time 
 MDCL.ppm             42500.00:  Mud Chlorides 
 MDES.     Inversion Oil/Synthetic:  Mud Desc 
 DFD .sg                  1.52:  Mud Density 
 MDMN.sg                  1.52:  Dens Mud Min 
 MDMX.sg                  1.52:  Dens Mud Max 
 MOIL.                      70:  Run Mud Oil % 
 MOWR.                   70:30:  Run Mud OWR 
 MSND.                     0.2:  Run Mud Sand % 
 MSOL.                      22:  Run Mud Solids% 
 DFV .spqt               77.00:  Mud Viscosity 
 MWOD.in                  6.75:  MWD Tool OD 
 MWSI.                      No:  Serv Intrp, MWD 
 OTIM.hr                151.01:  Time Operating 
 PCON.          Wear / Scratch:  Pad Condition 
 PMAX.psia            11296.93:  Press Op, Max 
 PV  .cP                 37.00:  Mud PV 
 RUN .                     500:  Run Number 
 ROPA.m/hr               25.00:  ROP Avg 
 ROPN.m/hr                9.00:  ROP Min 
 ROPX.m/hr               28.00:  ROP Max 
 RPMA.rpm               140.00:  RPM Surface Avg 
 RPMN.rpm                90.00:  RPM Surface Min 
 RPMX.rpm               140.00:  RPM Surface Max 
 RRUN.                    0500:  Rig Run Number 
 SAZI.deg               172.17:  Azm, Start 
 SDEP.m                3248.00:  Start Depth 
 SIDD.                      No:  Serv Intrp, DD 
 SINC.deg                57.86:  Inc, Start 
 SPPA.psig             5620.00:  SPP Avg 
 SPPN.psig             5190.00:  SPP Min 
 SPPX.psig             6050.00:  SPP Max 
 STIM.      16.00.00 23-May-21:  Start Time 
 SVCS.                 DD, MWD:  Services 
 SVER.                    9.20:  Sperry Version 
 TDAT.m                 806.00:  Tot Depth Attmp 
 TDDF.                      No:  Trip for DD 
 TDLG.m                 806.00:  Tot Depth Loggd 
 TFF .                      No:  Trip for Fail 
 TQAA.f-kp               12.00:  Torque Abs Avg 
 TQAN.f-kp                8.00:  Torque Abs Min 
 TQAX.f-kp               15.00:  Torque Abs Max 
 TRRT.°/30m               0.30:  Turn Rotating 
 MRT .                  EWR-M5:  Maximum Recorded Temperature 
 TTMX.degC               93.00:  Max Tool Temp 
 VS01.                90649155:  Virtual Str1 SN 
 VS02.                90642264:  Virtual Str2 SN 
 VS03.                90642266:  Virtual Str3 SN 
 VS04.                90642261:  Virtual Str4 SN 
 WBMN.klb                 0.00:  WOB Min 
 WITN.             Anar Khalil:  Customer Rep 
 WITN.           Murad Guliyev:  Customer Rep 2 
 WOBA.klb                13.00:  WOB Avg 
 WOBX.klb                25.00:  WOB Max 
 YP  .lhf2               32.00:  Yield Point 
~Curve Information Block
#MNEM.UNIT                 API CODE     Curve Description
#---------               -----------    ---------------------------
 TIME.HHMMSS            00 000 000 000:  GT Time & Date
 GTDEPTH.m              00 000 000 000:  GT Depth
 GTPQH.psia             00 000 000 000:  GT HR Quartz Pressure
 GTTQ.degC              00 000 000 000:  GT Quartz Temperature
 GTTN.NONE              00 000 000 000:  GT Test Number
 GTET.sec               00 000 000 000:  GT Elapsed Test Time
 GTTVD.m                00 000 000 000:  GT True Vertical Depth
#Other Information
#
#WARRANTY: Halliburton will use its best efforts to furnish customers with 
#accurate information and interpretations that are part of, and incident to, the services 
#provided.  However, Halliburton cannot and does not warrant the accuracy 
#or correctness of such information and interpretations.  Under no circumstances should any 
#such information or interpretation be relied upon as the sole basis for any drilling, 
#completion, production, or financial decision or any procedure involving any risk to the 
#safety of any drilling venture, drilling rig or its crew or any other third party.  The 
#Customer has full responsibility for all drilling, completion and production operation.  
#Halliburton makes no representations or warranties, either expressed or 
#implied, including, but not limited to, the implied warranties of merchantability or fitness 
#for a particular purpose, with respect to the services rendered.  In no event will 
#Halliburton be liable for failure to obtain any particular results or for 
#any damages, including, but not limited to, indirect, special or consequential damages, 
#resulting from the use of any information or interpretation provided by Halliburton.
#
~A           TIME           GTDEPTH  GTPQH  GTTQ  GTTN   GTET   GTTVD  
# ...
   07:41:59.600.28-May-2021 3306.00 5418.94 81.99 13.00 248.60 2504.05
   07:41:59.800.28-May-2021 3306.00 5416.77 81.99 13.00 248.80 2504.05
   07:42:00.000.28-May-2021 3306.00 5419.15 81.98 13.00 249.00 2504.05
   07:42:00.200.28-May-2021 3306.00 5419.15 81.98 13.00 249.20 2504.05
   07:42:00.400.28-May-2021 3306.00 5419.01 81.98 13.00 249.40 2504.05
   07:42:00.600.28-May-2021 3306.00 5418.94 81.98 13.00 249.60 2504.05
   07:42:00.800.28-May-2021 3306.00 5419.03 81.98 13.00 249.80 2504.05
   07:42:01.000.28-May-2021 3306.00 5419.03 81.98 13.00 250.00 2504.05
   07:42:01.200.28-May-2021 3306.00 5419.03 81.98 13.00 250.20 2504.05
   07:42:01.400.28-May-2021 3306.00 5419.05 81.98 13.00 250.40 2504.05
   07:42:01.600.28-May-2021 3306.00 5419.04 81.98 13.00 250.60 2504.05
   07:42:01.800.28-May-2021 3306.00 5419.04 81.98 13.00 250.80 2504.05
   07:42:02.000.28-May-2021 3306.00 5419.05 81.98 13.00 251.00 2504.05
   07:42:02.200.28-May-2021 3306.00 5419.05 81.98 13.00 251.20 2504.05
   07:42:02.400.28-May-2021 3306.00 5417.15 81.98 13.00 251.40 2504.05
   07:42:02.600.28-May-2021 3306.00 5419.05 81.98 13.00 251.60 2504.05
   07:42:02.800.28-May-2021 3306.00 5418.97 81.98 13.00 251.80 2504.05
   07:42:03.000.28-May-2021 3306.00 5419.18 81.98 13.00 252.00 2504.05
   07:42:03.200.28-May-2021 3306.00 5419.18 81.98 13.00 252.20 2504.05
   07:42:03.400.28-May-2021 3306.00 5419.14 81.98 13.00 252.40 2504.05
   07:42:03.600.28-May-2021 3306.00 5419.14 81.98 13.00 252.60 2504.05
   07:42:03.800.28-May-2021 3306.00 5419.14 81.98 13.00 252.80 2504.05
   07:42:04.000.28-May-2021 3306.00 5419.14 81.98 13.00 253.00 2504.05
   07:42:04.200.28-May-2021 3306.00 5419.14 81.98 13.00 253.20 2504.05
   07:42:04.400.28-May-2021 3306.00 5419.15 81.98 13.00 253.40 2504.05
   07:42:04.600.28-May-2021 3306.00 5419.12 81.98 13.00 253.60 2504.05
   07:42:04.800.28-May-2021 3306.00 5419.12 81.98 13.00 253.80 2504.05
   07:42:05.000.28-May-2021 3306.00 5419.04 81.98 13.00 254.00 2504.05
   07:42:05.200.28-May-2021 3306.00 5419.04 81.98 13.00 254.20 2504.05
   07:42:05.400.28-May-2021 3306.00 5419.11 81.98 13.00 254.40 2504.05
   07:42:05.600.28-May-2021 3306.00 5419.03 81.98 13.00 254.60 2504.05
   07:42:05.800.28-May-2021 3306.00 5419.20 81.98 13.00 254.80 2504.05
   07:42:06.000.28-May-2021 3306.00 5416.88 81.98 13.00 255.00 2504.05
   07:42:06.200.28-May-2021 3306.00 5416.88 81.98 13.00 255.20 2504.05
   07:42:06.400.28-May-2021 3306.00 5419.10 81.98 13.00 255.40 2504.05
   07:42:06.600.28-May-2021 3306.00 5416.95 81.98 13.00 255.60 2504.05
   07:42:06.800.28-May-2021 3306.00 5419.28 81.98 13.00 255.80 2504.05
   07:42:07.000.28-May-2021 3306.00 5419.09 81.98 13.00 256.00 2504.05
   07:42:07.200.28-May-2021 3306.00 5419.09 81.98 13.00 256.20 2504.05
   07:42:07.400.28-May-2021 3306.00 5419.10 81.98 13.00 256.40 2504.05
   07:42:07.600.28-May-2021 3306.00 5419.12 81.98 13.00 256.60 2504.05
   07:42:07.800.28-May-2021 3306.00 5416.95 81.98 13.00 256.80 2504.05
   07:42:08.000.28-May-2021 3306.00 5419.36 81.98 13.00 257.00 2504.05
   07:42:08.200.28-May-2021 3306.00 5419.36 81.98 13.00 257.20 2504.05
   07:42:08.400.28-May-2021 3306.00 5419.19 81.98 13.00 257.40 2504.05
   07:42:08.600.28-May-2021 3306.00 5419.17 81.98 13.00 257.60 2504.05
   07:42:08.800.28-May-2021 3306.00 5419.20 81.98 13.00 257.80 2504.05
   07:42:09.000.28-May-2021 3306.00 5419.22 81.98 13.00 258.00 2504.05
   07:42:09.200.28-May-2021 3306.00 5419.22 81.98 13.00 258.20 2504.05
   07:42:09.400.28-May-2021 3306.00 5419.22 81.98 13.00 258.40 2504.05
   07:42:09.600.28-May-2021 3306.00 5419.23 81.98 13.00 258.60 2504.05
   07:42:09.800.28-May-2021 3306.00 5419.23 81.98 13.00 258.80 2504.05
   07:42:10.000.28-May-2021 3306.00 5419.22 81.98 13.00 259.00 2504.05
   07:42:10.200.28-May-2021 3306.00 5419.22 81.98 13.00 259.20 2504.05
   07:42:10.400.28-May-2021 3306.00 5417.35 81.98 13.00 259.40 2504.05
   07:42:10.600.28-May-2021 3306.00 5419.24 81.98 13.00 259.60 2504.05
   07:42:10.800.28-May-2021 3306.00 5419.15 81.98 13.00 259.80 2504.05
   07:42:11.000.28-May-2021 3306.00 5419.36 81.98 13.00 260.00 2504.05
   07:42:11.200.28-May-2021 3306.00 5419.36 81.98 13.00 260.20 2504.05
   07:42:11.400.28-May-2021 3306.00 5419.31 81.98 13.00 260.40 2504.05
   07:42:11.600.28-May-2021 3306.00 5419.33 81.98 13.00 260.60 2504.05
   07:42:11.800.28-May-2021 3306.00 5419.30 81.98 13.00 260.80 2504.05
   07:42:12.000.28-May-2021 3306.00 5419.32 81.98 13.00 261.00 2504.05
   07:42:12.200.28-May-2021 3306.00 5419.32 81.98 13.00 261.20 2504.05
   07:42:12.400.28-May-2021 3306.00 5419.32 81.98 13.00 261.40 2504.05
   07:42:12.600.28-May-2021 3306.00 5419.30 81.98 13.00 261.60 2504.05
   07:42:12.800.28-May-2021 3306.00 5419.29 81.98 13.00 261.80 2504.05
   07:42:13.000.28-May-2021 3306.00 5419.22 81.98 13.00 262.00 2504.05
   07:42:13.200.28-May-2021 3306.00 5419.22 81.98 13.00 262.20 2504.05
   07:42:13.400.28-May-2021 3306.00 5419.28 81.98 13.00 262.40 2504.05
   07:42:13.600.28-May-2021 3306.00 5419.19 81.98 13.00 262.60 2504.05
   07:42:13.800.28-May-2021 3306.00 5419.38 81.98 13.00 262.80 2504.05
   07:42:14.000.28-May-2021 3306.00 5417.30 81.98 13.00 263.00 2504.05
   07:42:14.200.28-May-2021 3306.00 5417.30 81.98 13.00 263.20 2504.05
   07:42:14.400.28-May-2021 3306.00 5419.27 81.98 13.00 263.40 2504.05
   07:42:14.600.28-May-2021 3306.00 5417.01 81.98 13.00 263.60 2504.05
   07:42:14.800.28-May-2021 3306.00 5067.09 81.98 13.00 263.80 2504.05
   07:42:15.000.28-May-2021 3306.00 4760.35 81.98 13.00 264.00 2504.05
   07:42:15.200.28-May-2021 3306.00 4760.35 81.98 13.00 264.20 2504.05
   07:42:15.400.28-May-2021 3306.00 4072.27 81.97 13.00 264.40 2504.05
   07:42:15.600.28-May-2021 3306.00 4791.10 81.97 13.00 264.60 2504.05
   07:42:15.800.28-May-2021 3306.00 5117.11 81.97 13.00 264.80 2504.05
   07:42:16.000.28-May-2021 3306.00 4992.10 81.97 13.00 265.00 2504.05
   07:42:16.200.28-May-2021 3306.00 4992.10 81.97 13.00 265.20 2504.05
   07:42:16.400.28-May-2021 3306.00 4646.69 81.97 13.00 265.40 2504.05
   07:42:16.600.28-May-2021 3306.00 4985.77 81.97 13.00 265.60 2504.05
   07:42:16.800.28-May-2021 3306.00 4941.94 81.97 13.00 265.80 2504.05
   07:42:17.000.28-May-2021 3306.00 4331.96 81.97 13.00 266.00 2504.05
   07:42:17.200.28-May-2021 3306.00 4331.96 81.97 13.00 266.20 2504.05
   07:42:17.400.28-May-2021 3306.00 5539.96 81.97 13.00 266.40 2504.05
   07:42:17.600.28-May-2021 3306.00 4945.97 81.97 13.00 266.60 2504.05
   07:42:17.800.28-May-2021 3306.00 4378.86 81.97 13.00 266.80 2504.05
   07:42:18.000.28-May-2021 3306.00 4287.55 81.97 13.00 267.00 2504.05
   07:42:18.200.28-May-2021 3306.00 4287.55 81.97 13.00 267.20 2504.05
   07:42:18.400.28-May-2021 3306.00 3837.08 81.97 13.00 267.40 2504.05
   07:42:18.600.28-May-2021 3306.00 5839.73 81.96 13.00 267.60 2504.05
   07:42:18.800.28-May-2021 3306.00 5705.47 81.96 13.00 267.80 2504.05
   07:42:19.000.28-May-2021 3306.00 5310.04 81.96 13.00 268.00 2504.05
   07:42:19.200.28-May-2021 3306.00 5310.04 81.96 13.00 268.20 2504.05
   07:42:19.400.28-May-2021 3306.00 5300.28 81.96 13.00 268.40 2504.05
   07:42:19.600.28-May-2021 3306.00 4965.82 81.96 13.00 268.60 2504.05
   07:42:19.800.28-May-2021 3306.00 4991.23 81.96 13.00 268.80 2504.05
   07:42:20.000.28-May-2021 3306.00 5366.53 81.96 13.00 269.00 2504.05
   07:42:20.200.28-May-2021 3306.00 5366.53 81.96 13.00 269.20 2504.05
   07:42:20.400.28-May-2021 3306.00 5460.90 81.96 13.00 269.40 2504.05
   07:42:20.600.28-May-2021 3306.00 5657.12 81.96 13.00 269.60 2504.05
   07:42:20.800.28-May-2021 3306.00 5263.35 81.96 13.00 269.80 2504.05
   07:42:21.000.28-May-2021 3306.00 4755.65 81.96 13.00 270.00 2504.05
   07:42:21.200.28-May-2021 3306.00 4755.65 81.96 13.00 270.20 2504.05
   07:42:21.400.28-May-2021 3306.00 4252.64 81.96 13.00 270.40 2504.05
   07:42:21.600.28-May-2021 3306.00 4526.37 81.96 13.00 270.60 2504.05
   07:42:21.800.28-May-2021 3306.00 3978.15 81.96 13.00 270.80 2504.05
   07:42:22.000.28-May-2021 3306.00 4536.23 81.96 13.00 271.00 2504.05
