~Version Information
 VERS.                  2.0:   CWLS log ASCII Standard -VERSION 2.0
 WRAP.                   NO:   One line per depth step
~Well Information Block
#MNEM.UNIT     VALUE/NAME     DESCRIPTION
#---------     -----------    ---------------------------
 STRT.S             23:52:35 27-May-21: START TIME 23:52:35 27-May-21
 STOP.S             23:59:20 27-May-21: STOP TIME  23:59:20 27-May-21
 STEP.S                   0.00: STEP TIME
 NULL.                 -999.25: NULL VALUE
 UWI .                     N/A:  UNIQUE WELL IDENTIFIER
 API .                     N/A:  API NUMBER
 UNIT.                     N/A:  LOGGING EQUIPMENT ID
 DCON.         Sperry Drilling:  DIRECTNL CONTR
 DOE .                     N/A:  DOE NUMBER
 MWDS.                    Baku:  MWD SHOP
 SRVC.     Turan Drilling and Engineering:  CONTRACTOR
 CTRY.              Azerbaijan:  COUNTRY NAME
 PROV.                    Baku:  PROVINCE
 STAT.                    Baku:  STATE NAME
 REGN.                   EESSA:  REGION
 BASE.              Azerbaijan:  LOGGING EQUIPMENT BASE LOCATION
 WTYP.                Deviated:  WELL TYPE
 RIG .              East Azeri:  RIG NAME
 WELL.                    D02y:  WELL NAME
 FLD .                     ACG:  FIELD NAME
 COMP.     BP Exploration (Caspian Sea) Ltd.:  COMPANY
 PDAT.          Mean Sea Level:  PERMANENT DATUM
 MDS .        Operator Entered:  MAG DATA SOURCE
 SON .        AZ-XX-0906997291:  JOB NUMBER
 FTOP.          Formation Tops:  FORM TOPS DESC
 ILTD.               Lithology:  INTERP LTH DESC
 SVYD.                  Survey:  SURVEY DESC
 DMOD.             Drill Model:  DRILL MOD DESC
 HPTY.       Minimum Curvature:  HOLE POS TYPE
 NREF.                    Grid:  NORTH REFERENCE
 SPUD.               05-May-21:  SPUD DATE
 DATE.      09.27.28 12-Jun-21:  END TIME
 STIM.      09.27.28 12-May-21:  START TIME
 DMF .             Drill Floor:  DRILL MEAS FROM
 DFST.                        :  DIST FSL TEXT
 DFWT.                        :  DIST FWL TEXT
 CNTY.                        :  COUNTY
 LOC .                        :  LOCATION
 LMF .             Drill Floor:  LOG MEASURED FROM
 DEP .m                2806.40:  DEPTH
 AGAP.m                  43.60:  AIR GAP
 VSNS.m                  -4.42:  VERT SEC N/S
 VSEW.m                  -7.31:  VERT SEC E/W
 APD .m                  43.60:  DEPTH ABOVE PD
 WDMS.m                 151.80:  WD ELEV
 EGL .m                   0.00:  GROUND ELEVATION
 EPD .m                   0.00:  ELEVATION
 AZTC.deg                 6.18:  AZM TOTAL CORR
 GRDC.deg                 0.29:  GRID CORRECTION
 MDEC.deg                 6.47:  MAGNETIC DECL
 MDIP.deg                59.50:  MAGNETIC DIP
 MFLD.nT              50350.00:  MAGNETIC FIELD
 GVFD.g                   1.00:  GRAVITY FIELD
 VSDR.deg               179.08:  VERT SEC DIRECT
 TDD .m                4300.00:  TOTAL DEPTH (DRILLER)
 SDEP.m                2800.00:  START DEPTH
 DFSL.m                   0.00:  DISTANCE FSL
 DFWL.m                   0.00:  DISTANCE FWL
 UTMY.m             4431871.34:  UTM Y
 UTMX.m              538762.90:  UTM X
 WHEW.m                  -7.31:  WELL HEAD E/W
 WHNS.m                  -4.42:  WELL HEAD N/S
 LONG.deg                51.45:  LONGITUDE
 LATI.deg                40.02:  LATITUDE
 TVDS.m                  43.60:  TVDSS CORRECTN
 EKB .m                  43.60:  KB ELEVATION
 EDF .m                  43.60:  DF ELEVATION
 TDL .m                 806.00:  TOTAL DEPTH (LOGGER)
 MAGU.                 1851231:  MAGUTM CHECKSUM
 VSC .                       0:  VS TO CLOSURE
~Parameter Information Block
#MNEM.UNIT       Value        Description
#---------     -----------    ---------------------------
 AV  .mps                 1.60:  Ann Velocity 
 AVMX.mps                 2.00:  Max Ann Veloc 
 AZIF.deg               140.24:  Azm, Final 
 BHAT.        Rotary Steerable:  BHA Type 
 BROT.°/30m               0.50:  Build Rotating 
 BS  .in                  8.50:  Bit Size 
 BTPL.psig              619.00:  Bit Press Loss 
 CABU.                     Yes:  Customer Abuse 
 CGEO.          Ilgar Gurbanov:  Customer Geo 
 COMM.                     t\L:  Run Comments 1 
 TCS .hr                 85.88:  Time Ciculation Ended 
 CV  .mps                 3.30:  Crit Velocity 
 CVMX.mps                 3.50:  Max Crit Veloc 
 DD1 .           Hamid Axmedov:  Direct Drillr 1 
 DD2 .           Teymur Aliyev:  Direct Drillr 2 
 DDSV.               Geo-Pilot:  DD Service 
 DEFF.%                 100.00:  % Det Eff 
 DLRX.°/30m               0.00:  Dogleg Rot Max 
 DLSO.°/30m               1.80:  Dogleg Oriented 
 DLSX.°/30m               3.34:  Dogleg Str Max 
 DRET.      11.50.00 27-May-21:  Drill End Time 
 DRST.      21.13.00 24-May-21:  Drill Start Tim 
 DTIM.hr                 45.11:  Time Drilling 
 EDEP.m                4054.00:  End Depth 
 ENG1.         Almaz Almadatov:  Engineer 1 
 ENG2.           Amrah Tahirov:  Engineer 2 
 ENG3.      Bakhtiyar Jabbarli:  Engineer 3 
 ENG4.          Nazrin Asgarli:  Engineer 4 
 ETIM.      10.00.00 30-May-21:  End Time 
 FLOI.gpm               530.00:  Flow In 
 FLON.gpm               400.00:  Flow In Min 
 FLOS.cptm                0.00:  Fluid Loss 
 FLOX.gpm               560.00:  Flow In Max 
 DFT .        Mineral Oil Base:  Mud Type 
 FTRO.       Formation Presure:  FTWD Run Obj 
 HFLO.                      No:  High Flow 
 HPRE.                      No:  High Pressure 
 HTEM.                      No:  High Temp 
 HYDO.m                   1.80:  Hydro Offset 
 IFIN.deg                73.83:  Inc, Final 
 IMAX.deg                73.83:  Inc Max 
 IMIN.deg                57.86:  Inc Min 
 IMND.m                3259.27:  Inc Min Depth 
 IMXD.m                4045.58:  Inc Max Depth 
 JARR.                     Yes:  Jarring 
 LETM.      11.50.00 27-May-21:  Log End Time 
 LOST.hr                     0:  Lost Rig Time 
 LSTM.      21.13.00 24-May-21:  Log Start Time 
 MDCL.ppm             42500.00:  Mud Chlorides 
 MDES.     Inversion Oil/Synthetic:  Mud Desc 
 DFD .sg                  1.52:  Mud Density 
 MDMN.sg                  1.52:  Dens Mud Min 
 MDMX.sg                  1.52:  Dens Mud Max 
 MOIL.                      70:  Run Mud Oil % 
 MOWR.                   70:30:  Run Mud OWR 
 MSND.                     0.2:  Run Mud Sand % 
 MSOL.                      22:  Run Mud Solids% 
 DFV .spqt               77.00:  Mud Viscosity 
 MWOD.in                  6.75:  MWD Tool OD 
 MWSI.                      No:  Serv Intrp, MWD 
 OTIM.hr                151.01:  Time Operating 
 PCON.          Wear / Scratch:  Pad Condition 
 PMAX.psia            11296.93:  Press Op, Max 
 PV  .cP                 37.00:  Mud PV 
 RUN .                     500:  Run Number 
 ROPA.m/hr               25.00:  ROP Avg 
 ROPN.m/hr                9.00:  ROP Min 
 ROPX.m/hr               28.00:  ROP Max 
 RPMA.rpm               140.00:  RPM Surface Avg 
 RPMN.rpm                90.00:  RPM Surface Min 
 RPMX.rpm               140.00:  RPM Surface Max 
 RRUN.                    0500:  Rig Run Number 
 SAZI.deg               172.17:  Azm, Start 
 SDEP.m                3248.00:  Start Depth 
 SIDD.                      No:  Serv Intrp, DD 
 SINC.deg                57.86:  Inc, Start 
 SPPA.psig             5620.00:  SPP Avg 
 SPPN.psig             5190.00:  SPP Min 
 SPPX.psig             6050.00:  SPP Max 
 STIM.      16.00.00 23-May-21:  Start Time 
 SVCS.                 DD, MWD:  Services 
 SVER.                    9.20:  Sperry Version 
 TDAT.m                 806.00:  Tot Depth Attmp 
 TDDF.                      No:  Trip for DD 
 TDLG.m                 806.00:  Tot Depth Loggd 
 TFF .                      No:  Trip for Fail 
 TQAA.f-kp               12.00:  Torque Abs Avg 
 TQAN.f-kp                8.00:  Torque Abs Min 
 TQAX.f-kp               15.00:  Torque Abs Max 
 TRRT.°/30m               0.30:  Turn Rotating 
 MRT .                  EWR-M5:  Maximum Recorded Temperature 
 TTMX.degC               93.00:  Max Tool Temp 
 VS01.                90649155:  Virtual Str1 SN 
 VS02.                90642264:  Virtual Str2 SN 
 VS03.                90642266:  Virtual Str3 SN 
 VS04.                90642261:  Virtual Str4 SN 
 WBMN.klb                 0.00:  WOB Min 
 WITN.             Anar Khalil:  Customer Rep 
 WITN.           Murad Guliyev:  Customer Rep 2 
 WOBA.klb                13.00:  WOB Avg 
 WOBX.klb                25.00:  WOB Max 
 YP  .lhf2               32.00:  Yield Point 
~Curve Information Block
#MNEM.UNIT                 API CODE     Curve Description
#---------               -----------    ---------------------------
 TIME.HHMMSS            00 000 000 000:  GT Time & Date
 GTDEPTH.m              00 000 000 000:  GT Depth
 GTPQH.psia             00 000 000 000:  GT HR Quartz Pressure
 GTTQ.degC              00 000 000 000:  GT Quartz Temperature
 GTTN.NONE              00 000 000 000:  GT Test Number
 GTET.sec               00 000 000 000:  GT Elapsed Test Time
 GTTVD.m                00 000 000 000:  GT True Vertical Depth
#Other Information
#
#WARRANTY: Halliburton will use its best efforts to furnish customers with 
#accurate information and interpretations that are part of, and incident to, the services 
#provided.  However, Halliburton cannot and does not warrant the accuracy 
#or correctness of such information and interpretations.  Under no circumstances should any 
#such information or interpretation be relied upon as the sole basis for any drilling, 
#completion, production, or financial decision or any procedure involving any risk to the 
#safety of any drilling venture, drilling rig or its crew or any other third party.  The 
#Customer has full responsibility for all drilling, completion and production operation.  
#Halliburton makes no representations or warranties, either expressed or 
#implied, including, but not limited to, the implied warranties of merchantability or fitness 
#for a particular purpose, with respect to the services rendered.  In no event will 
#Halliburton be liable for failure to obtain any particular results or for 
#any damages, including, but not limited to, indirect, special or consequential damages, 
#resulting from the use of any information or interpretation provided by Halliburton.
#
~A           TIME           GTDEPTH  GTPQH  GTTQ  GTTN  GTET   GTTVD  
# ...
   23:55:16.000.27-May-2021 3671.50   65.75 84.37 3.00 161.00 2661.54
   23:55:16.200.27-May-2021 3671.50   65.75 84.37 3.00 161.20 2661.54
   23:55:16.400.27-May-2021 3671.50   65.08 84.37 3.00 161.40 2661.54
   23:55:16.600.27-May-2021 3671.50   64.72 84.37 3.00 161.60 2661.54
   23:55:16.800.27-May-2021 3671.50   64.41 84.37 3.00 161.80 2661.54
   23:55:17.000.27-May-2021 3671.50   64.39 84.37 3.00 162.00 2661.54
   23:55:17.200.27-May-2021 3671.50   64.39 84.37 3.00 162.20 2661.54
   23:55:17.400.27-May-2021 3671.50   64.52 84.37 3.00 162.40 2661.54
   23:55:17.600.27-May-2021 3671.50   64.78 84.37 3.00 162.60 2661.54
   23:55:17.800.27-May-2021 3671.50   64.93 84.37 3.00 162.80 2661.54
   23:55:18.000.27-May-2021 3671.50   65.07 84.37 3.00 163.00 2661.54
   23:55:18.200.27-May-2021 3671.50   65.07 84.37 3.00 163.20 2661.54
   23:55:18.400.27-May-2021 3671.50   65.33 84.37 3.00 163.40 2661.54
   23:55:18.600.27-May-2021 3671.50   65.50 84.36 3.00 163.60 2661.54
   23:55:18.800.27-May-2021 3671.50   65.62 84.36 3.00 163.80 2661.54
   23:55:19.000.27-May-2021 3671.50   65.74 84.36 3.00 164.00 2661.54
   23:55:19.200.27-May-2021 3671.50   65.74 84.36 3.00 164.20 2661.54
   23:55:19.400.27-May-2021 3671.50   66.00 84.36 3.00 164.40 2661.54
   23:55:19.600.27-May-2021 3671.50   66.17 84.36 3.00 164.60 2661.54
   23:55:19.800.27-May-2021 3671.50   66.28 84.36 3.00 164.80 2661.54
   23:55:20.000.27-May-2021 3671.50   66.40 84.36 3.00 165.00 2661.54
   23:55:20.200.27-May-2021 3671.50   66.40 84.36 3.00 165.20 2661.54
   23:55:20.400.27-May-2021 3671.50   66.64 84.36 3.00 165.40 2661.54
   23:55:20.600.27-May-2021 3671.50   66.75 84.36 3.00 165.60 2661.54
   23:55:20.800.27-May-2021 3671.50   66.88 84.36 3.00 165.80 2661.54
   23:55:21.000.27-May-2021 3671.50   67.00 84.36 3.00 166.00 2661.54
   23:55:21.200.27-May-2021 3671.50   67.00 84.36 3.00 166.20 2661.54
   23:55:21.400.27-May-2021 3671.50   67.23 84.36 3.00 166.40 2661.54
   23:55:21.600.27-May-2021 3671.50   67.34 84.36 3.00 166.60 2661.54
   23:55:21.800.27-May-2021 3671.50   67.45 84.36 3.00 166.80 2661.54
   23:55:22.000.27-May-2021 3671.50   67.57 84.36 3.00 167.00 2661.54
   23:55:22.200.27-May-2021 3671.50   67.57 84.36 3.00 167.20 2661.54
   23:55:22.400.27-May-2021 3671.50   67.81 84.36 3.00 167.40 2661.54
   23:55:22.600.27-May-2021 3671.50   67.90 84.36 3.00 167.60 2661.54
   23:55:22.800.27-May-2021 3671.50   68.01 84.36 3.00 167.80 2661.54
   23:55:23.000.27-May-2021 3671.50   68.10 84.36 3.00 168.00 2661.54
   23:55:23.200.27-May-2021 3671.50   68.10 84.36 3.00 168.20 2661.54
   23:55:23.400.27-May-2021 3671.50   68.31 84.36 3.00 168.40 2661.54
   23:55:23.600.27-May-2021 3671.50   68.41 84.36 3.00 168.60 2661.54
   23:55:23.800.27-May-2021 3671.50   68.51 84.36 3.00 168.80 2661.54
   23:55:24.000.27-May-2021 3671.50   68.60 84.36 3.00 169.00 2661.54
   23:55:24.200.27-May-2021 3671.50   68.60 84.36 3.00 169.20 2661.54
   23:55:24.400.27-May-2021 3671.50   68.80 84.36 3.00 169.40 2661.54
   23:55:24.600.27-May-2021 3671.50   68.92 84.36 3.00 169.60 2661.54
   23:55:24.800.27-May-2021 3671.50   69.03 84.36 3.00 169.80 2661.54
   23:55:25.000.27-May-2021 3671.50   69.11 84.36 3.00 170.00 2661.54
   23:55:25.200.27-May-2021 3671.50   69.11 84.36 3.00 170.20 2661.54
   23:55:25.400.27-May-2021 3671.50   69.30 84.36 3.00 170.40 2661.54
   23:55:25.600.27-May-2021 3671.50   69.39 84.36 3.00 170.60 2661.54
   23:55:25.800.27-May-2021 3671.50   69.47 84.36 3.00 170.80 2661.54
   23:55:26.000.27-May-2021 3671.50   69.55 84.36 3.00 171.00 2661.54
   23:55:26.200.27-May-2021 3671.50   69.55 84.36 3.00 171.20 2661.54
   23:55:26.400.27-May-2021 3671.50   69.75 84.36 3.00 171.40 2661.54
   23:55:26.600.27-May-2021 3671.50   69.81 84.36 3.00 171.60 2661.54
   23:55:26.800.27-May-2021 3671.50   69.90 84.36 3.00 171.80 2661.54
   23:55:27.000.27-May-2021 3671.50   69.97 84.36 3.00 172.00 2661.54
   23:55:27.200.27-May-2021 3671.50   69.97 84.36 3.00 172.20 2661.54
   23:55:27.400.27-May-2021 3671.50   70.17 84.36 3.00 172.40 2661.54
   23:55:27.600.27-May-2021 3671.50   70.25 84.36 3.00 172.60 2661.54
   23:55:27.800.27-May-2021 3671.50   70.32 84.36 3.00 172.80 2661.54
   23:55:28.000.27-May-2021 3671.50   70.39 84.36 3.00 173.00 2661.54
   23:55:28.200.27-May-2021 3671.50   70.39 84.36 3.00 173.20 2661.54
   23:55:28.400.27-May-2021 3671.50   70.54 84.36 3.00 173.40 2661.54
   23:55:28.600.27-May-2021 3671.50   70.61 84.36 3.00 173.60 2661.54
   23:55:28.800.27-May-2021 3671.50   70.68 84.36 3.00 173.80 2661.54
   23:55:29.000.27-May-2021 3671.50   70.76 84.36 3.00 174.00 2661.54
   23:55:29.200.27-May-2021 3671.50   70.76 84.36 3.00 174.20 2661.54
   23:55:29.400.27-May-2021 3671.50   70.91 84.36 3.00 174.40 2661.54
   23:55:29.600.27-May-2021 3671.50   70.99 84.36 3.00 174.60 2661.54
   23:55:29.800.27-May-2021 3671.50   71.06 84.36 3.00 174.80 2661.54
   23:55:30.000.27-May-2021 3671.50   71.18 84.36 3.00 175.00 2661.54
   23:55:30.200.27-May-2021 3671.50   71.18 84.36 3.00 175.20 2661.54
   23:55:30.400.27-May-2021 3671.50   71.31 84.36 3.00 175.40 2661.54
   23:55:30.600.27-May-2021 3671.50   71.36 84.36 3.00 175.60 2661.54
   23:55:30.800.27-May-2021 3671.50   71.43 84.36 3.00 175.80 2661.54
   23:55:31.000.27-May-2021 3671.50   71.50 84.36 3.00 176.00 2661.54
   23:55:31.200.27-May-2021 3671.50   71.50 84.36 3.00 176.20 2661.54
   23:55:31.400.27-May-2021 3671.50   71.63 84.36 3.00 176.40 2661.54
   23:55:31.600.27-May-2021 3671.50   71.70 84.36 3.00 176.60 2661.54
   23:55:31.800.27-May-2021 3671.50   71.76 84.36 3.00 176.80 2661.54
   23:55:32.000.27-May-2021 3671.50   71.83 84.36 3.00 177.00 2661.54
   23:55:32.200.27-May-2021 3671.50   71.83 84.36 3.00 177.20 2661.54
   23:55:32.400.27-May-2021 3671.50   71.99 84.36 3.00 177.40 2661.54
   23:55:32.600.27-May-2021 3671.50   72.06 84.36 3.00 177.60 2661.54
   23:55:32.800.27-May-2021 3671.50   72.12 84.36 3.00 177.80 2661.54
   23:55:33.000.27-May-2021 3671.50   72.18 84.36 3.00 178.00 2661.54
   23:55:33.200.27-May-2021 3671.50   72.18 84.36 3.00 178.20 2661.54
   23:55:33.400.27-May-2021 3671.50   72.33 84.36 3.00 178.40 2661.54
   23:55:33.600.27-May-2021 3671.50   72.38 84.36 3.00 178.60 2661.54
   23:55:33.800.27-May-2021 3671.50   72.43 84.36 3.00 178.80 2661.54
   23:55:34.000.27-May-2021 3671.50   72.51 84.36 3.00 179.00 2661.54
   23:55:34.200.27-May-2021 3671.50   72.51 84.36 3.00 179.20 2661.54
   23:55:34.400.27-May-2021 3671.50   72.62 84.36 3.00 179.40 2661.54
   23:55:34.600.27-May-2021 3671.50   72.69 84.36 3.00 179.60 2661.54
   23:55:34.800.27-May-2021 3671.50   72.74 84.36 3.00 179.80 2661.54
   23:55:35.000.27-May-2021 3671.50   72.78 84.36 3.00 180.00 2661.54
   23:55:35.200.27-May-2021 3671.50   72.78 84.36 3.00 180.20 2661.54
   23:55:35.400.27-May-2021 3671.50   72.93 84.36 3.00 180.40 2661.54
   23:55:35.600.27-May-2021 3671.50   72.99 84.36 3.00 180.60 2661.54
   23:55:35.800.27-May-2021 3671.50   73.03 84.36 3.00 180.80 2661.54
   23:55:36.000.27-May-2021 3671.50   73.09 84.36 3.00 181.00 2661.54
   23:55:36.200.27-May-2021 3671.50   73.09 84.36 3.00 181.20 2661.54
   23:55:36.400.27-May-2021 3671.50   73.20 84.36 3.00 181.40 2661.54
   23:55:36.600.27-May-2021 3671.50   73.24 84.36 3.00 181.60 2661.54
   23:55:36.800.27-May-2021 3671.50   73.31 84.36 3.00 181.80 2661.54
   23:55:37.000.27-May-2021 3671.50   73.35 84.36 3.00 182.00 2661.54
   23:55:37.200.27-May-2021 3671.50   73.35 84.36 3.00 182.20 2661.54
   23:55:37.400.27-May-2021 3671.50   73.46 84.36 3.00 182.40 2661.54
   23:55:37.600.27-May-2021 3671.50   73.51 84.36 3.00 182.60 2661.54
   23:55:37.800.27-May-2021 3671.50   73.61 84.36 3.00 182.80 2661.54
   23:55:38.000.27-May-2021 3671.50   73.66 84.36 3.00 183.00 2661.54
   23:55:38.200.27-May-2021 3671.50   73.66 84.36 3.00 183.20 2661.54
   23:55:38.400.27-May-2021 3671.50   73.74 84.36 3.00 183.40 2661.54
   23:55:38.600.27-May-2021 3671.50   73.80 84.36 3.00 183.60 2661.54
   23:55:38.800.27-May-2021 3671.50   73.84 84.36 3.00 183.80 2661.54
