~Version Information
 VERS.                  2.0:   CWLS log ASCII Standard -VERSION 2.0
 WRAP.                   NO:   One line per depth step
~Well Information Block
#MNEM.UNIT     VALUE/NAME     DESCRIPTION
#---------     -----------    ---------------------------
 STRT.S             06:06:39 28-May-21: START TIME 06:06:39 28-May-21
 STOP.S             06:13:42 28-May-21: STOP TIME  06:13:42 28-May-21
 STEP.S                   0.00: STEP TIME
 NULL.                 -999.25: NULL VALUE
 UWI .                     N/A:  UNIQUE WELL IDENTIFIER
 API .                     N/A:  API NUMBER
 UNIT.                     N/A:  LOGGING EQUIPMENT ID
 DCON.         Sperry Drilling:  DIRECTNL CONTR
 DOE .                     N/A:  DOE NUMBER
 MWDS.                    Baku:  MWD SHOP
 SRVC.     Turan Drilling and Engineering:  CONTRACTOR
 CTRY.              Azerbaijan:  COUNTRY NAME
 PROV.                    Baku:  PROVINCE
 STAT.                    Baku:  STATE NAME
 REGN.                   EESSA:  REGION
 BASE.              Azerbaijan:  LOGGING EQUIPMENT BASE LOCATION
 WTYP.                Deviated:  WELL TYPE
 RIG .              East Azeri:  RIG NAME
 WELL.                    D02y:  WELL NAME
 FLD .                     ACG:  FIELD NAME
 COMP.     BP Exploration (Caspian Sea) Ltd.:  COMPANY
 PDAT.          Mean Sea Level:  PERMANENT DATUM
 MDS .        Operator Entered:  MAG DATA SOURCE
 SON .        AZ-XX-0906997291:  JOB NUMBER
 FTOP.          Formation Tops:  FORM TOPS DESC
 ILTD.               Lithology:  INTERP LTH DESC
 SVYD.                  Survey:  SURVEY DESC
 DMOD.             Drill Model:  DRILL MOD DESC
 HPTY.       Minimum Curvature:  HOLE POS TYPE
 NREF.                    Grid:  NORTH REFERENCE
 SPUD.               05-May-21:  SPUD DATE
 DATE.      09.27.28 12-Jun-21:  END TIME
 STIM.      09.27.28 12-May-21:  START TIME
 DMF .             Drill Floor:  DRILL MEAS FROM
 DFST.                        :  DIST FSL TEXT
 DFWT.                        :  DIST FWL TEXT
 CNTY.                        :  COUNTY
 LOC .                        :  LOCATION
 LMF .             Drill Floor:  LOG MEASURED FROM
 DEP .m                2806.40:  DEPTH
 AGAP.m                  43.60:  AIR GAP
 VSNS.m                  -4.42:  VERT SEC N/S
 VSEW.m                  -7.31:  VERT SEC E/W
 APD .m                  43.60:  DEPTH ABOVE PD
 WDMS.m                 151.80:  WD ELEV
 EGL .m                   0.00:  GROUND ELEVATION
 EPD .m                   0.00:  ELEVATION
 AZTC.deg                 6.18:  AZM TOTAL CORR
 GRDC.deg                 0.29:  GRID CORRECTION
 MDEC.deg                 6.47:  MAGNETIC DECL
 MDIP.deg                59.50:  MAGNETIC DIP
 MFLD.nT              50350.00:  MAGNETIC FIELD
 GVFD.g                   1.00:  GRAVITY FIELD
 VSDR.deg               179.08:  VERT SEC DIRECT
 TDD .m                4300.00:  TOTAL DEPTH (DRILLER)
 SDEP.m                2800.00:  START DEPTH
 DFSL.m                   0.00:  DISTANCE FSL
 DFWL.m                   0.00:  DISTANCE FWL
 UTMY.m             4431871.34:  UTM Y
 UTMX.m              538762.90:  UTM X
 WHEW.m                  -7.31:  WELL HEAD E/W
 WHNS.m                  -4.42:  WELL HEAD N/S
 LONG.deg                51.45:  LONGITUDE
 LATI.deg                40.02:  LATITUDE
 TVDS.m                  43.60:  TVDSS CORRECTN
 EKB .m                  43.60:  KB ELEVATION
 EDF .m                  43.60:  DF ELEVATION
 TDL .m                 806.00:  TOTAL DEPTH (LOGGER)
 MAGU.                 1851231:  MAGUTM CHECKSUM
 VSC .                       0:  VS TO CLOSURE
~Parameter Information Block
#MNEM.UNIT       Value        Description
#---------     -----------    ---------------------------
 AV  .mps                 1.60:  Ann Velocity 
 AVMX.mps                 2.00:  Max Ann Veloc 
 AZIF.deg               140.24:  Azm, Final 
 BHAT.        Rotary Steerable:  BHA Type 
 BROT.°/30m               0.50:  Build Rotating 
 BS  .in                  8.50:  Bit Size 
 BTPL.psig              619.00:  Bit Press Loss 
 CABU.                     Yes:  Customer Abuse 
 CGEO.          Ilgar Gurbanov:  Customer Geo 
 COMM.                     ´.T:  Run Comments 1 
 TCS .hr                 85.88:  Time Ciculation Ended 
 CV  .mps                 3.30:  Crit Velocity 
 CVMX.mps                 3.50:  Max Crit Veloc 
 DD1 .           Hamid Axmedov:  Direct Drillr 1 
 DD2 .           Teymur Aliyev:  Direct Drillr 2 
 DDSV.               Geo-Pilot:  DD Service 
 DEFF.%                 100.00:  % Det Eff 
 DLRX.°/30m               0.00:  Dogleg Rot Max 
 DLSO.°/30m               1.80:  Dogleg Oriented 
 DLSX.°/30m               3.34:  Dogleg Str Max 
 DRET.      11.50.00 27-May-21:  Drill End Time 
 DRST.      21.13.00 24-May-21:  Drill Start Tim 
 DTIM.hr                 45.11:  Time Drilling 
 EDEP.m                4054.00:  End Depth 
 ENG1.         Almaz Almadatov:  Engineer 1 
 ENG2.           Amrah Tahirov:  Engineer 2 
 ENG3.      Bakhtiyar Jabbarli:  Engineer 3 
 ENG4.          Nazrin Asgarli:  Engineer 4 
 ETIM.      10.00.00 30-May-21:  End Time 
 FLOI.gpm               530.00:  Flow In 
 FLON.gpm               400.00:  Flow In Min 
 FLOS.cptm                0.00:  Fluid Loss 
 FLOX.gpm               560.00:  Flow In Max 
 DFT .        Mineral Oil Base:  Mud Type 
 FTRO.       Formation Presure:  FTWD Run Obj 
 HFLO.                      No:  High Flow 
 HPRE.                      No:  High Pressure 
 HTEM.                      No:  High Temp 
 HYDO.m                   1.80:  Hydro Offset 
 IFIN.deg                73.83:  Inc, Final 
 IMAX.deg                73.83:  Inc Max 
 IMIN.deg                57.86:  Inc Min 
 IMND.m                3259.27:  Inc Min Depth 
 IMXD.m                4045.58:  Inc Max Depth 
 JARR.                     Yes:  Jarring 
 LETM.      11.50.00 27-May-21:  Log End Time 
 LOST.hr                     0:  Lost Rig Time 
 LSTM.      21.13.00 24-May-21:  Log Start Time 
 MDCL.ppm             42500.00:  Mud Chlorides 
 MDES.     Inversion Oil/Synthetic:  Mud Desc 
 DFD .sg                  1.52:  Mud Density 
 MDMN.sg                  1.52:  Dens Mud Min 
 MDMX.sg                  1.52:  Dens Mud Max 
 MOIL.                      70:  Run Mud Oil % 
 MOWR.                   70:30:  Run Mud OWR 
 MSND.                     0.2:  Run Mud Sand % 
 MSOL.                      22:  Run Mud Solids% 
 DFV .spqt               77.00:  Mud Viscosity 
 MWOD.in                  6.75:  MWD Tool OD 
 MWSI.                      No:  Serv Intrp, MWD 
 OTIM.hr                151.01:  Time Operating 
 PCON.          Wear / Scratch:  Pad Condition 
 PMAX.psia            11296.93:  Press Op, Max 
 PV  .cP                 37.00:  Mud PV 
 RUN .                     500:  Run Number 
 ROPA.m/hr               25.00:  ROP Avg 
 ROPN.m/hr                9.00:  ROP Min 
 ROPX.m/hr               28.00:  ROP Max 
 RPMA.rpm               140.00:  RPM Surface Avg 
 RPMN.rpm                90.00:  RPM Surface Min 
 RPMX.rpm               140.00:  RPM Surface Max 
 RRUN.                    0500:  Rig Run Number 
 SAZI.deg               172.17:  Azm, Start 
 SDEP.m                3248.00:  Start Depth 
 SIDD.                      No:  Serv Intrp, DD 
 SINC.deg                57.86:  Inc, Start 
 SPPA.psig             5620.00:  SPP Avg 
 SPPN.psig             5190.00:  SPP Min 
 SPPX.psig             6050.00:  SPP Max 
 STIM.      16.00.00 23-May-21:  Start Time 
 SVCS.                 DD, MWD:  Services 
 SVER.                    9.20:  Sperry Version 
 TDAT.m                 806.00:  Tot Depth Attmp 
 TDDF.                      No:  Trip for DD 
 TDLG.m                 806.00:  Tot Depth Loggd 
 TFF .                      No:  Trip for Fail 
 TQAA.f-kp               12.00:  Torque Abs Avg 
 TQAN.f-kp                8.00:  Torque Abs Min 
 TQAX.f-kp               15.00:  Torque Abs Max 
 TRRT.°/30m               0.30:  Turn Rotating 
 MRT .                  EWR-M5:  Maximum Recorded Temperature 
 TTMX.degC               93.00:  Max Tool Temp 
 VS01.                90649155:  Virtual Str1 SN 
 VS02.                90642264:  Virtual Str2 SN 
 VS03.                90642266:  Virtual Str3 SN 
 VS04.                90642261:  Virtual Str4 SN 
 WBMN.klb                 0.00:  WOB Min 
 WITN.             Anar Khalil:  Customer Rep 
 WITN.           Murad Guliyev:  Customer Rep 2 
 WOBA.klb                13.00:  WOB Avg 
 WOBX.klb                25.00:  WOB Max 
 YP  .lhf2               32.00:  Yield Point 
~Curve Information Block
#MNEM.UNIT                 API CODE     Curve Description
#---------               -----------    ---------------------------
 TIME.HHMMSS            00 000 000 000:  GT Time & Date
 GTDEPTH.m              00 000 000 000:  GT Depth
 GTPQH.psia             00 000 000 000:  GT HR Quartz Pressure
 GTTQ.degC              00 000 000 000:  GT Quartz Temperature
 GTTN.NONE              00 000 000 000:  GT Test Number
 GTET.sec               00 000 000 000:  GT Elapsed Test Time
 GTTVD.m                00 000 000 000:  GT True Vertical Depth
#Other Information
#
#WARRANTY: Halliburton will use its best efforts to furnish customers with 
#accurate information and interpretations that are part of, and incident to, the services 
#provided.  However, Halliburton cannot and does not warrant the accuracy 
#or correctness of such information and interpretations.  Under no circumstances should any 
#such information or interpretation be relied upon as the sole basis for any drilling, 
#completion, production, or financial decision or any procedure involving any risk to the 
#safety of any drilling venture, drilling rig or its crew or any other third party.  The 
#Customer has full responsibility for all drilling, completion and production operation.  
#Halliburton makes no representations or warranties, either expressed or 
#implied, including, but not limited to, the implied warranties of merchantability or fitness 
#for a particular purpose, with respect to the services rendered.  In no event will 
#Halliburton be liable for failure to obtain any particular results or for 
#any damages, including, but not limited to, indirect, special or consequential damages, 
#resulting from the use of any information or interpretation provided by Halliburton.
#
~A           TIME           GTDEPTH  GTPQH  GTTQ  GTTN   GTET   GTTVD  
# ...
   06:10:47.934.28-May-2021 3440.00 4242.64 83.28 12.00 248.70 2569.12
   06:10:48.134.28-May-2021 3440.00 4242.29 83.28 12.00 248.90 2569.12
   06:10:48.334.28-May-2021 3440.00 4242.98 83.28 12.00 249.10 2569.12
   06:10:48.534.28-May-2021 3440.00 4242.98 83.28 12.00 249.30 2569.12
   06:10:48.734.28-May-2021 3440.00 4242.59 83.28 12.00 249.50 2569.12
   06:10:48.934.28-May-2021 3440.00 4242.25 83.28 12.00 249.70 2569.12
   06:10:49.134.28-May-2021 3440.00 4243.04 83.28 12.00 249.90 2569.12
   06:10:49.335.28-May-2021 3440.00 4242.60 83.28 12.00 250.10 2569.12
   06:10:49.535.28-May-2021 3440.00 4242.60 83.28 12.00 250.30 2569.12
   06:10:49.735.28-May-2021 3440.00 4242.24 83.28 12.00 250.50 2569.12
   06:10:49.935.28-May-2021 3440.00 4243.00 83.28 12.00 250.70 2569.12
   06:10:50.135.28-May-2021 3440.00 4242.61 83.28 12.00 250.90 2569.12
   06:10:50.335.28-May-2021 3440.00 4242.64 83.28 12.00 251.10 2569.12
   06:10:50.535.28-May-2021 3440.00 4242.64 83.28 12.00 251.31 2569.12
   06:10:50.735.28-May-2021 3440.00 4242.61 83.28 12.00 251.51 2569.12
   06:10:50.935.28-May-2021 3440.00 4242.63 83.28 12.00 251.71 2569.12
   06:10:51.135.28-May-2021 3440.00 4242.61 83.28 12.00 251.91 2569.12
   06:10:51.335.28-May-2021 3440.00 4242.63 83.28 12.00 252.11 2569.12
   06:10:51.535.28-May-2021 3440.00 4242.63 83.28 12.00 252.31 2569.12
   06:10:51.736.28-May-2021 3440.00 4242.62 83.28 12.00 252.51 2569.12
   06:10:51.936.28-May-2021 3440.00 4242.63 83.28 12.00 252.71 2569.12
   06:10:52.136.28-May-2021 3440.00 4242.62 83.28 12.00 252.91 2569.12
   06:10:52.336.28-May-2021 3440.00 4242.61 83.28 12.00 253.11 2569.12
   06:10:52.536.28-May-2021 3440.00 4242.61 83.28 12.00 253.31 2569.12
   06:10:52.736.28-May-2021 3440.00 4242.60 83.28 12.00 253.51 2569.12
   06:10:52.936.28-May-2021 3440.00 4242.63 83.28 12.00 253.71 2569.12
   06:10:53.136.28-May-2021 3440.00 4242.62 83.28 12.00 253.91 2569.12
   06:10:53.336.28-May-2021 3440.00 4242.61 83.28 12.00 254.11 2569.12
   06:10:53.536.28-May-2021 3440.00 4242.61 83.28 12.00 254.31 2569.12
   06:10:53.736.28-May-2021 3440.00 4242.64 83.28 12.00 254.51 2569.12
   06:10:53.936.28-May-2021 3440.00 4242.63 83.28 12.00 254.71 2569.12
   06:10:54.137.28-May-2021 3440.00 4242.63 83.28 12.00 254.91 2569.12
   06:10:54.337.28-May-2021 3440.00 4242.64 83.28 12.00 255.11 2569.12
   06:10:54.537.28-May-2021 3440.00 4242.64 83.28 12.00 255.31 2569.12
   06:10:54.737.28-May-2021 3440.00 4242.63 83.28 12.00 255.51 2569.12
   06:10:54.937.28-May-2021 3440.00 4242.26 83.28 12.00 255.71 2569.12
   06:10:55.137.28-May-2021 3440.00 4243.05 83.28 12.00 255.91 2569.12
   06:10:55.337.28-May-2021 3440.00 4242.59 83.28 12.00 256.11 2569.12
   06:10:55.537.28-May-2021 3440.00 4242.59 83.28 12.00 256.31 2569.12
   06:10:55.737.28-May-2021 3440.00 4242.60 83.28 12.00 256.51 2569.12
   06:10:55.937.28-May-2021 3440.00 4242.25 83.28 12.00 256.71 2569.12
   06:10:56.137.28-May-2021 3440.00 4243.04 83.28 12.00 256.91 2569.12
   06:10:56.337.28-May-2021 3440.00 4242.60 83.28 12.00 257.11 2569.12
   06:10:56.538.28-May-2021 3440.00 4242.60 83.28 12.00 257.31 2569.12
   06:10:56.738.28-May-2021 3440.00 4242.26 83.28 12.00 257.51 2569.12
   06:10:56.938.28-May-2021 3440.00 4242.99 83.28 12.00 257.71 2569.12
   06:10:57.138.28-May-2021 3440.00 4242.61 83.28 12.00 257.91 2569.12
   06:10:57.338.28-May-2021 3440.00 4242.66 83.28 12.00 258.11 2569.12
   06:10:57.538.28-May-2021 3440.00 4242.66 83.28 12.00 258.31 2569.12
   06:10:57.738.28-May-2021 3440.00 4242.97 83.28 12.00 258.51 2569.12
   06:10:57.938.28-May-2021 3440.00 4242.82 83.28 12.00 258.71 2569.12
   06:10:58.138.28-May-2021 3440.00 4099.55 83.28 12.00 258.91 2569.12
   06:10:58.338.28-May-2021 3440.00 4034.59 83.28 12.00 259.11 2569.12
   06:10:58.538.28-May-2021 3440.00 4034.59 83.28 12.00 259.31 2569.12
   06:10:58.738.28-May-2021 3440.00 4020.57 83.28 12.00 259.51 2569.12
   06:10:58.939.28-May-2021 3440.00 4024.17 83.28 12.00 259.71 2569.12
   06:10:59.139.28-May-2021 3440.00 4019.29 83.28 12.00 259.91 2569.12
   06:10:59.339.28-May-2021 3440.00 4016.65 83.28 12.00 260.11 2569.12
   06:10:59.539.28-May-2021 3440.00 4016.65 83.28 12.00 260.31 2569.12
   06:10:59.739.28-May-2021 3440.00 4012.86 83.28 12.00 260.51 2569.12
   06:10:59.939.28-May-2021 3440.00 4011.29 83.28 12.00 260.71 2569.12
   06:11:00.139.28-May-2021 3440.00 4010.11 83.28 12.00 260.91 2569.12
   06:11:00.339.28-May-2021 3440.00 4008.40 83.28 12.00 261.11 2569.12
   06:11:00.539.28-May-2021 3440.00 4008.40 83.28 12.00 261.31 2569.12
   06:11:00.739.28-May-2021 3440.00 4004.84 83.28 12.00 261.51 2569.12
   06:11:00.939.28-May-2021 3440.00 4003.53 83.28 12.00 261.71 2569.12
   06:11:01.139.28-May-2021 3440.00 4002.04 83.28 12.00 261.91 2569.12
   06:11:01.340.28-May-2021 3440.00 4001.39 83.28 12.00 262.11 2569.12
   06:11:01.540.28-May-2021 3440.00 4001.39 83.28 12.00 262.31 2569.12
   06:11:01.740.28-May-2021 3440.00 3998.62 83.28 12.00 262.51 2569.12
   06:11:01.940.28-May-2021 3440.00 4001.46 83.28 12.00 262.71 2569.12
   06:11:02.140.28-May-2021 3440.00 3999.95 83.28 12.00 262.91 2569.12
   06:11:02.340.28-May-2021 3440.00 3999.35 83.28 12.00 263.11 2569.12
   06:11:02.540.28-May-2021 3440.00 3999.35 83.28 12.00 263.31 2569.12
   06:11:02.740.28-May-2021 3440.00 3996.84 83.28 12.00 263.51 2569.12
   06:11:02.940.28-May-2021 3440.00 3994.65 83.28 12.00 263.71 2569.12
   06:11:03.140.28-May-2021 3440.00 3995.09 83.28 12.00 263.91 2569.12
   06:11:03.340.28-May-2021 3440.00 3995.65 83.28 12.00 264.11 2569.12
   06:11:03.540.28-May-2021 3440.00 3995.65 83.28 12.00 264.31 2569.12
   06:11:03.741.28-May-2021 3440.00 3989.96 83.28 12.00 264.51 2569.12
   06:11:03.941.28-May-2021 3440.00 3989.10 83.28 12.00 264.71 2569.12
   06:11:04.141.28-May-2021 3440.00 3988.83 83.28 12.00 264.91 2569.12
   06:11:04.341.28-May-2021 3440.00 3985.80 83.28 12.00 265.11 2569.12
   06:11:04.541.28-May-2021 3440.00 3985.80 83.28 12.00 265.31 2569.12
   06:11:04.741.28-May-2021 3440.00 3984.97 83.28 12.00 265.51 2569.12
   06:11:04.941.28-May-2021 3440.00 3996.44 83.28 12.00 265.71 2569.12
   06:11:05.141.28-May-2021 3440.00 3989.30 83.28 12.00 265.91 2569.12
   06:11:05.341.28-May-2021 3440.00 3987.09 83.28 12.00 266.11 2569.12
   06:11:05.541.28-May-2021 3440.00 3987.09 83.28 12.00 266.31 2569.12
   06:11:05.741.28-May-2021 3440.00 3983.22 83.28 12.00 266.51 2569.12
   06:11:05.941.28-May-2021 3440.00 3982.79 83.28 12.00 266.71 2569.12
   06:11:06.142.28-May-2021 3440.00 3981.45 83.28 12.00 266.91 2569.12
   06:11:06.342.28-May-2021 3440.00 3983.36 83.28 12.00 267.11 2569.12
   06:11:06.542.28-May-2021 3440.00 3983.36 83.28 12.00 267.31 2569.12
   06:11:06.742.28-May-2021 3440.00 3979.64 83.28 12.00 267.51 2569.12
   06:11:06.942.28-May-2021 3440.00 3978.77 83.28 12.00 267.71 2569.12
   06:11:07.142.28-May-2021 3440.00 3975.55 83.28 12.00 267.91 2569.12
   06:11:07.342.28-May-2021 3440.00 3975.45 83.28 12.00 268.11 2569.12
   06:11:07.542.28-May-2021 3440.00 3975.45 83.28 12.00 268.31 2569.12
   06:11:07.742.28-May-2021 3440.00 3979.69 83.28 12.00 268.51 2569.12
   06:11:07.942.28-May-2021 3440.00 3980.95 83.28 12.00 268.71 2569.12
   06:11:08.142.28-May-2021 3440.00 4006.68 83.28 12.00 268.91 2569.12
   06:11:08.342.28-May-2021 3440.00 4184.94 83.28 12.00 269.11 2569.12
   06:11:08.543.28-May-2021 3440.00 4184.94 83.28 12.00 269.31 2569.12
   06:11:08.743.28-May-2021 3440.00 4238.79 83.28 12.00 269.51 2569.12
   06:11:08.943.28-May-2021 3440.00 4239.62 83.28 12.00 269.71 2569.12
   06:11:09.143.28-May-2021 3440.00 4239.92 83.28 12.00 269.91 2569.12
   06:11:09.343.28-May-2021 3440.00 4240.12 83.28 12.00 270.11 2569.12
   06:11:09.543.28-May-2021 3440.00 4240.12 83.28 12.00 270.31 2569.12
   06:11:09.743.28-May-2021 3440.00 4240.46 83.28 12.00 270.51 2569.12
   06:11:09.943.28-May-2021 3440.00 4240.59 83.28 12.00 270.71 2569.12
   06:11:10.143.28-May-2021 3440.00 4240.75 83.28 12.00 270.91 2569.12
   06:11:10.343.28-May-2021 3440.00 4240.83 83.28 12.00 271.11 2569.12
