~Version Information
 VERS.                  2.0:   CWLS log ASCII Standard -VERSION 2.0
 WRAP.                   NO:   One line per depth step
~Well Information Block
#MNEM.UNIT     VALUE/NAME     DESCRIPTION
#---------     -----------    ---------------------------
 STRT.S             22:21:57 27-May-21: START TIME 22:21:57 27-May-21
 STOP.S             22:28:58 27-May-21: STOP TIME  22:28:58 27-May-21
 STEP.S                   0.00: STEP TIME
 NULL.                 -999.25: NULL VALUE
 UWI .                     N/A:  UNIQUE WELL IDENTIFIER
 API .                     N/A:  API NUMBER
 UNIT.                     N/A:  LOGGING EQUIPMENT ID
 DCON.         Sperry Drilling:  DIRECTNL CONTR
 DOE .                     N/A:  DOE NUMBER
 MWDS.                    Baku:  MWD SHOP
 SRVC.     Turan Drilling and Engineering:  CONTRACTOR
 CTRY.              Azerbaijan:  COUNTRY NAME
 PROV.                    Baku:  PROVINCE
 STAT.                    Baku:  STATE NAME
 REGN.                   EESSA:  REGION
 BASE.              Azerbaijan:  LOGGING EQUIPMENT BASE LOCATION
 WTYP.                Deviated:  WELL TYPE
 RIG .              East Azeri:  RIG NAME
 WELL.                    D02y:  WELL NAME
 FLD .                     ACG:  FIELD NAME
 COMP.     BP Exploration (Caspian Sea) Ltd.:  COMPANY
 PDAT.          Mean Sea Level:  PERMANENT DATUM
 MDS .        Operator Entered:  MAG DATA SOURCE
 SON .        AZ-XX-0906997291:  JOB NUMBER
 FTOP.          Formation Tops:  FORM TOPS DESC
 ILTD.               Lithology:  INTERP LTH DESC
 SVYD.                  Survey:  SURVEY DESC
 DMOD.             Drill Model:  DRILL MOD DESC
 HPTY.       Minimum Curvature:  HOLE POS TYPE
 NREF.                    Grid:  NORTH REFERENCE
 SPUD.               05-May-21:  SPUD DATE
 DATE.      09.27.28 12-Jun-21:  END TIME
 STIM.      09.27.28 12-May-21:  START TIME
 DMF .             Drill Floor:  DRILL MEAS FROM
 DFST.                        :  DIST FSL TEXT
 DFWT.                        :  DIST FWL TEXT
 CNTY.                        :  COUNTY
 LOC .                        :  LOCATION
 LMF .             Drill Floor:  LOG MEASURED FROM
 DEP .m                2806.40:  DEPTH
 AGAP.m                  43.60:  AIR GAP
 VSNS.m                  -4.42:  VERT SEC N/S
 VSEW.m                  -7.31:  VERT SEC E/W
 APD .m                  43.60:  DEPTH ABOVE PD
 WDMS.m                 151.80:  WD ELEV
 EGL .m                   0.00:  GROUND ELEVATION
 EPD .m                   0.00:  ELEVATION
 AZTC.deg                 6.18:  AZM TOTAL CORR
 GRDC.deg                 0.29:  GRID CORRECTION
 MDEC.deg                 6.47:  MAGNETIC DECL
 MDIP.deg                59.50:  MAGNETIC DIP
 MFLD.nT              50350.00:  MAGNETIC FIELD
 GVFD.g                   1.00:  GRAVITY FIELD
 VSDR.deg               179.08:  VERT SEC DIRECT
 TDD .m                4300.00:  TOTAL DEPTH (DRILLER)
 SDEP.m                2800.00:  START DEPTH
 DFSL.m                   0.00:  DISTANCE FSL
 DFWL.m                   0.00:  DISTANCE FWL
 UTMY.m             4431871.34:  UTM Y
 UTMX.m              538762.90:  UTM X
 WHEW.m                  -7.31:  WELL HEAD E/W
 WHNS.m                  -4.42:  WELL HEAD N/S
 LONG.deg                51.45:  LONGITUDE
 LATI.deg                40.02:  LATITUDE
 TVDS.m                  43.60:  TVDSS CORRECTN
 EKB .m                  43.60:  KB ELEVATION
 EDF .m                  43.60:  DF ELEVATION
 TDL .m                 806.00:  TOTAL DEPTH (LOGGER)
 MAGU.                 1851231:  MAGUTM CHECKSUM
 VSC .                       0:  VS TO CLOSURE
~Parameter Information Block
#MNEM.UNIT       Value        Description
#---------     -----------    ---------------------------
 AV  .mps                 1.60:  Ann Velocity 
 AVMX.mps                 2.00:  Max Ann Veloc 
 AZIF.deg               140.24:  Azm, Final 
 BHAT.        Rotary Steerable:  BHA Type 
 BROT.°/30m               0.50:  Build Rotating 
 BS  .in                  8.50:  Bit Size 
 BTPL.psig              619.00:  Bit Press Loss 
 CABU.                     Yes:  Customer Abuse 
 CGEO.          Ilgar Gurbanov:  Customer Geo 
 COMM.                     ¼ƒj:  Run Comments 1 
 TCS .hr                 85.88:  Time Ciculation Ended 
 CV  .mps                 3.30:  Crit Velocity 
 CVMX.mps                 3.50:  Max Crit Veloc 
 DD1 .           Hamid Axmedov:  Direct Drillr 1 
 DD2 .           Teymur Aliyev:  Direct Drillr 2 
 DDSV.               Geo-Pilot:  DD Service 
 DEFF.%                 100.00:  % Det Eff 
 DLRX.°/30m               0.00:  Dogleg Rot Max 
 DLSO.°/30m               1.80:  Dogleg Oriented 
 DLSX.°/30m               3.34:  Dogleg Str Max 
 DRET.      11.50.00 27-May-21:  Drill End Time 
 DRST.      21.13.00 24-May-21:  Drill Start Tim 
 DTIM.hr                 45.11:  Time Drilling 
 EDEP.m                4054.00:  End Depth 
 ENG1.         Almaz Almadatov:  Engineer 1 
 ENG2.           Amrah Tahirov:  Engineer 2 
 ENG3.      Bakhtiyar Jabbarli:  Engineer 3 
 ENG4.          Nazrin Asgarli:  Engineer 4 
 ETIM.      10.00.00 30-May-21:  End Time 
 FLOI.gpm               530.00:  Flow In 
 FLON.gpm               400.00:  Flow In Min 
 FLOS.cptm                0.00:  Fluid Loss 
 FLOX.gpm               560.00:  Flow In Max 
 DFT .        Mineral Oil Base:  Mud Type 
 FTRO.       Formation Presure:  FTWD Run Obj 
 HFLO.                      No:  High Flow 
 HPRE.                      No:  High Pressure 
 HTEM.                      No:  High Temp 
 HYDO.m                   1.80:  Hydro Offset 
 IFIN.deg                73.83:  Inc, Final 
 IMAX.deg                73.83:  Inc Max 
 IMIN.deg                57.86:  Inc Min 
 IMND.m                3259.27:  Inc Min Depth 
 IMXD.m                4045.58:  Inc Max Depth 
 JARR.                     Yes:  Jarring 
 LETM.      11.50.00 27-May-21:  Log End Time 
 LOST.hr                     0:  Lost Rig Time 
 LSTM.      21.13.00 24-May-21:  Log Start Time 
 MDCL.ppm             42500.00:  Mud Chlorides 
 MDES.     Inversion Oil/Synthetic:  Mud Desc 
 DFD .sg                  1.52:  Mud Density 
 MDMN.sg                  1.52:  Dens Mud Min 
 MDMX.sg                  1.52:  Dens Mud Max 
 MOIL.                      70:  Run Mud Oil % 
 MOWR.                   70:30:  Run Mud OWR 
 MSND.                     0.2:  Run Mud Sand % 
 MSOL.                      22:  Run Mud Solids% 
 DFV .spqt               77.00:  Mud Viscosity 
 MWOD.in                  6.75:  MWD Tool OD 
 MWSI.                      No:  Serv Intrp, MWD 
 OTIM.hr                151.01:  Time Operating 
 PCON.          Wear / Scratch:  Pad Condition 
 PMAX.psia            11296.93:  Press Op, Max 
 PV  .cP                 37.00:  Mud PV 
 RUN .                     500:  Run Number 
 ROPA.m/hr               25.00:  ROP Avg 
 ROPN.m/hr                9.00:  ROP Min 
 ROPX.m/hr               28.00:  ROP Max 
 RPMA.rpm               140.00:  RPM Surface Avg 
 RPMN.rpm                90.00:  RPM Surface Min 
 RPMX.rpm               140.00:  RPM Surface Max 
 RRUN.                    0500:  Rig Run Number 
 SAZI.deg               172.17:  Azm, Start 
 SDEP.m                3248.00:  Start Depth 
 SIDD.                      No:  Serv Intrp, DD 
 SINC.deg                57.86:  Inc, Start 
 SPPA.psig             5620.00:  SPP Avg 
 SPPN.psig             5190.00:  SPP Min 
 SPPX.psig             6050.00:  SPP Max 
 STIM.      16.00.00 23-May-21:  Start Time 
 SVCS.                 DD, MWD:  Services 
 SVER.                    9.20:  Sperry Version 
 TDAT.m                 806.00:  Tot Depth Attmp 
 TDDF.                      No:  Trip for DD 
 TDLG.m                 806.00:  Tot Depth Loggd 
 TFF .                      No:  Trip for Fail 
 TQAA.f-kp               12.00:  Torque Abs Avg 
 TQAN.f-kp                8.00:  Torque Abs Min 
 TQAX.f-kp               15.00:  Torque Abs Max 
 TRRT.°/30m               0.30:  Turn Rotating 
 MRT .                  EWR-M5:  Maximum Recorded Temperature 
 TTMX.degC               93.00:  Max Tool Temp 
 VS01.                90649155:  Virtual Str1 SN 
 VS02.                90642264:  Virtual Str2 SN 
 VS03.                90642266:  Virtual Str3 SN 
 VS04.                90642261:  Virtual Str4 SN 
 WBMN.klb                 0.00:  WOB Min 
 WITN.             Anar Khalil:  Customer Rep 
 WITN.           Murad Guliyev:  Customer Rep 2 
 WOBA.klb                13.00:  WOB Avg 
 WOBX.klb                25.00:  WOB Max 
 YP  .lhf2               32.00:  Yield Point 
~Curve Information Block
#MNEM.UNIT                 API CODE     Curve Description
#---------               -----------    ---------------------------
 TIME.HHMMSS            00 000 000 000:  GT Time & Date
 GTDEPTH.m              00 000 000 000:  GT Depth
 GTPQH.psia             00 000 000 000:  GT HR Quartz Pressure
 GTTQ.degC              00 000 000 000:  GT Quartz Temperature
 GTTN.NONE              00 000 000 000:  GT Test Number
 GTET.sec               00 000 000 000:  GT Elapsed Test Time
 GTTVD.m                00 000 000 000:  GT True Vertical Depth
#Other Information
#
#WARRANTY: Halliburton will use its best efforts to furnish customers with 
#accurate information and interpretations that are part of, and incident to, the services 
#provided.  However, Halliburton cannot and does not warrant the accuracy 
#or correctness of such information and interpretations.  Under no circumstances should any 
#such information or interpretation be relied upon as the sole basis for any drilling, 
#completion, production, or financial decision or any procedure involving any risk to the 
#safety of any drilling venture, drilling rig or its crew or any other third party.  The 
#Customer has full responsibility for all drilling, completion and production operation.  
#Halliburton makes no representations or warranties, either expressed or 
#implied, including, but not limited to, the implied warranties of merchantability or fitness 
#for a particular purpose, with respect to the services rendered.  In no event will 
#Halliburton be liable for failure to obtain any particular results or for 
#any damages, including, but not limited to, indirect, special or consequential damages, 
#resulting from the use of any information or interpretation provided by Halliburton.
#
~A           TIME           GTDEPTH  GTPQH  GTTQ  GTTN  GTET   GTTVD  
# ...
   22:24:38.731.27-May-2021 3723.00 3140.88 84.30 1.00 161.03 2680.40
   22:24:38.931.27-May-2021 3723.00 3140.88 84.30 1.00 161.23 2680.40
   22:24:39.131.27-May-2021 3723.00 3140.95 84.30 1.00 161.43 2680.40
   22:24:39.331.27-May-2021 3723.00 3141.02 84.30 1.00 161.63 2680.40
   22:24:39.531.27-May-2021 3723.00 3141.04 84.30 1.00 161.83 2680.40
   22:24:39.731.27-May-2021 3723.00 3141.13 84.30 1.00 162.03 2680.40
   22:24:39.931.27-May-2021 3723.00 3141.13 84.30 1.00 162.23 2680.40
   22:24:40.131.27-May-2021 3723.00 3141.19 84.30 1.00 162.43 2680.40
   22:24:40.331.27-May-2021 3723.00 3141.22 84.30 1.00 162.63 2680.40
   22:24:40.531.27-May-2021 3723.00 3141.25 84.30 1.00 162.83 2680.40
   22:24:40.731.27-May-2021 3723.00 3141.12 84.30 1.00 163.03 2680.40
   22:24:40.931.27-May-2021 3723.00 3141.12 84.30 1.00 163.23 2680.40
   22:24:41.131.27-May-2021 3723.00 3141.33 84.30 1.00 163.43 2680.40
   22:24:41.331.27-May-2021 3723.00 3141.33 84.30 1.00 163.63 2680.40
   22:24:41.531.27-May-2021 3723.00 3141.34 84.30 1.00 163.83 2680.40
   22:24:41.731.27-May-2021 3723.00 3141.34 84.30 1.00 164.03 2680.40
   22:24:41.931.27-May-2021 3723.00 3141.34 84.30 1.00 164.23 2680.40
   22:24:42.131.27-May-2021 3723.00 3141.36 84.30 1.00 164.43 2680.40
   22:24:42.331.27-May-2021 3723.00 3141.37 84.30 1.00 164.63 2680.40
   22:24:42.531.27-May-2021 3723.00 3141.37 84.30 1.00 164.83 2680.40
   22:24:42.731.27-May-2021 3723.00 3141.38 84.30 1.00 165.03 2680.40
   22:24:42.931.27-May-2021 3723.00 3141.38 84.30 1.00 165.23 2680.40
   22:24:43.132.27-May-2021 3723.00 3141.38 84.30 1.00 165.43 2680.40
   22:24:43.332.27-May-2021 3723.00 3141.39 84.30 1.00 165.63 2680.40
   22:24:43.532.27-May-2021 3723.00 3141.40 84.30 1.00 165.83 2680.40
   22:24:43.732.27-May-2021 3723.00 3141.42 84.30 1.00 166.03 2680.40
   22:24:43.932.27-May-2021 3723.00 3141.42 84.30 1.00 166.23 2680.40
   22:24:44.132.27-May-2021 3723.00 3141.42 84.30 1.00 166.43 2680.40
   22:24:44.332.27-May-2021 3723.00 3141.43 84.30 1.00 166.63 2680.40
   22:24:44.532.27-May-2021 3723.00 3141.43 84.30 1.00 166.83 2680.40
   22:24:44.732.27-May-2021 3723.00 3141.43 84.30 1.00 167.03 2680.40
   22:24:44.932.27-May-2021 3723.00 3141.43 84.30 1.00 167.23 2680.40
   22:24:45.132.27-May-2021 3723.00 3141.43 84.30 1.00 167.43 2680.40
   22:24:45.332.27-May-2021 3723.00 3141.43 84.30 1.00 167.63 2680.40
   22:24:45.532.27-May-2021 3723.00 3141.45 84.30 1.00 167.83 2680.40
   22:24:45.732.27-May-2021 3723.00 3141.44 84.30 1.00 168.03 2680.40
   22:24:45.932.27-May-2021 3723.00 3141.44 84.30 1.00 168.23 2680.40
   22:24:46.132.27-May-2021 3723.00 3141.59 84.30 1.00 168.43 2680.40
   22:24:46.332.27-May-2021 3723.00 3141.44 84.30 1.00 168.63 2680.40
   22:24:46.532.27-May-2021 3723.00 3141.46 84.30 1.00 168.83 2680.40
   22:24:46.732.27-May-2021 3723.00 3141.46 84.30 1.00 169.03 2680.40
   22:24:46.932.27-May-2021 3723.00 3141.46 84.30 1.00 169.23 2680.40
   22:24:47.132.27-May-2021 3723.00 3141.34 84.30 1.00 169.43 2680.40
   22:24:47.332.27-May-2021 3723.00 3141.58 84.30 1.00 169.63 2680.40
   22:24:47.532.27-May-2021 3723.00 3141.45 84.30 1.00 169.83 2680.40
   22:24:47.732.27-May-2021 3723.00 3141.48 84.30 1.00 170.03 2680.40
   22:24:47.932.27-May-2021 3723.00 3141.48 84.30 1.00 170.23 2680.40
   22:24:48.132.27-May-2021 3723.00 3141.32 84.30 1.00 170.43 2680.40
   22:24:48.332.27-May-2021 3723.00 3141.61 84.30 1.00 170.63 2680.40
   22:24:48.532.27-May-2021 3723.00 3141.48 84.30 1.00 170.83 2680.40
   22:24:48.732.27-May-2021 3723.00 3141.48 84.30 1.00 171.03 2680.40
   22:24:48.932.27-May-2021 3723.00 3141.48 84.30 1.00 171.23 2680.40
   22:24:49.132.27-May-2021 3723.00 3141.47 84.30 1.00 171.43 2680.40
   22:24:49.333.27-May-2021 3723.00 3141.35 84.30 1.00 171.63 2680.40
   22:24:49.533.27-May-2021 3723.00 3141.59 84.30 1.00 171.83 2680.40
   22:24:49.733.27-May-2021 3723.00 3141.48 84.30 1.00 172.03 2680.40
   22:24:49.933.27-May-2021 3723.00 3141.48 84.30 1.00 172.23 2680.40
   22:24:50.133.27-May-2021 3723.00 3141.48 84.30 1.00 172.43 2680.40
   22:24:50.333.27-May-2021 3723.00 3141.48 84.30 1.00 172.63 2680.40
   22:24:50.533.27-May-2021 3723.00 3141.49 84.30 1.00 172.83 2680.40
   22:24:50.733.27-May-2021 3723.00 3141.49 84.30 1.00 173.03 2680.40
   22:24:50.933.27-May-2021 3723.00 3141.49 84.30 1.00 173.23 2680.40
   22:24:51.133.27-May-2021 3723.00 3141.48 84.30 1.00 173.43 2680.40
   22:24:51.333.27-May-2021 3723.00 3141.49 84.30 1.00 173.63 2680.40
   22:24:51.533.27-May-2021 3723.00 3141.48 84.30 1.00 173.83 2680.40
   22:24:51.733.27-May-2021 3723.00 3141.48 84.30 1.00 174.03 2680.40
   22:24:51.933.27-May-2021 3723.00 3141.48 84.30 1.00 174.23 2680.40
   22:24:52.133.27-May-2021 3723.00 3141.60 84.30 1.00 174.43 2680.40
   22:24:52.333.27-May-2021 3723.00 3141.48 84.30 1.00 174.63 2680.40
   22:24:52.533.27-May-2021 3723.00 3141.49 84.30 1.00 174.83 2680.40
   22:24:52.733.27-May-2021 3723.00 3141.47 84.30 1.00 175.03 2680.40
   22:24:52.933.27-May-2021 3723.00 3141.47 84.30 1.00 175.23 2680.40
   22:24:53.133.27-May-2021 3723.00 3141.48 84.30 1.00 175.43 2680.40
   22:24:53.333.27-May-2021 3723.00 3141.49 84.30 1.00 175.63 2680.40
   22:24:53.533.27-May-2021 3723.00 3141.49 84.30 1.00 175.83 2680.40
   22:24:53.733.27-May-2021 3723.00 3141.48 84.30 1.00 176.03 2680.40
   22:24:53.933.27-May-2021 3723.00 3141.48 84.30 1.00 176.23 2680.40
   22:24:54.133.27-May-2021 3723.00 3141.49 84.30 1.00 176.43 2680.40
   22:24:54.333.27-May-2021 3723.00 3141.48 84.30 1.00 176.63 2680.40
   22:24:54.533.27-May-2021 3723.00 3141.38 84.30 1.00 176.83 2680.40
   22:24:54.733.27-May-2021 3723.00 3141.60 84.30 1.00 177.03 2680.40
   22:24:54.933.27-May-2021 3723.00 3141.60 84.30 1.00 177.23 2680.40
   22:24:55.133.27-May-2021 3723.00 3141.39 84.30 1.00 177.43 2680.40
   22:24:55.333.27-May-2021 3723.00 3141.60 84.30 1.00 177.63 2680.40
   22:24:55.534.27-May-2021 3723.00 3141.48 84.30 1.00 177.83 2680.40
   22:24:55.734.27-May-2021 3723.00 3141.49 84.30 1.00 178.03 2680.40
   22:24:55.934.27-May-2021 3723.00 3141.49 84.30 1.00 178.23 2680.40
   22:24:56.134.27-May-2021 3723.00 3141.35 84.30 1.00 178.43 2680.40
   22:24:56.334.27-May-2021 3723.00 3141.63 84.30 1.00 178.63 2680.40
   22:24:56.534.27-May-2021 3723.00 3141.49 84.30 1.00 178.83 2680.40
   22:24:56.734.27-May-2021 3723.00 3141.49 84.30 1.00 179.03 2680.40
   22:24:56.934.27-May-2021 3723.00 3141.49 84.30 1.00 179.23 2680.40
   22:24:57.134.27-May-2021 3723.00 3141.49 84.30 1.00 179.43 2680.40
   22:24:57.334.27-May-2021 3723.00 3141.37 84.30 1.00 179.63 2680.40
   22:24:57.534.27-May-2021 3723.00 3141.61 84.30 1.00 179.83 2680.40
   22:24:57.734.27-May-2021 3723.00 3141.48 84.30 1.00 180.03 2680.40
   22:24:57.934.27-May-2021 3723.00 3141.48 84.30 1.00 180.23 2680.40
   22:24:58.134.27-May-2021 3723.00 3141.48 84.30 1.00 180.43 2680.40
   22:24:58.334.27-May-2021 3723.00 3141.49 84.30 1.00 180.63 2680.40
   22:24:58.534.27-May-2021 3723.00 3141.48 84.30 1.00 180.83 2680.40
   22:24:58.734.27-May-2021 3723.00 3141.49 84.30 1.00 181.03 2680.40
   22:24:58.934.27-May-2021 3723.00 3141.49 84.30 1.00 181.23 2680.40
   22:24:59.134.27-May-2021 3723.00 3141.49 84.30 1.00 181.43 2680.40
   22:24:59.334.27-May-2021 3723.00 3141.49 84.30 1.00 181.63 2680.40
   22:24:59.534.27-May-2021 3723.00 3141.49 84.30 1.00 181.83 2680.40
   22:24:59.734.27-May-2021 3723.00 3141.49 84.30 1.00 182.03 2680.40
   22:24:59.934.27-May-2021 3723.00 3141.49 84.30 1.00 182.23 2680.40
   22:25:00.134.27-May-2021 3723.00 3141.59 84.30 1.00 182.43 2680.40
   22:25:00.334.27-May-2021 3723.00 3141.49 84.30 1.00 182.63 2680.40
   22:25:00.534.27-May-2021 3723.00 3141.50 84.30 1.00 182.83 2680.40
   22:25:00.734.27-May-2021 3723.00 3141.47 84.30 1.00 183.03 2680.40
   22:25:00.934.27-May-2021 3723.00 3141.47 84.30 1.00 183.23 2680.40
   22:25:01.134.27-May-2021 3723.00 3141.48 84.30 1.00 183.43 2680.40
   22:25:01.334.27-May-2021 3723.00 3141.48 84.30 1.00 183.63 2680.40
   22:25:01.535.27-May-2021 3723.00 3141.50 84.30 1.00 183.83 2680.40
