~Version Information
 VERS.                  2.0:   CWLS log ASCII Standard -VERSION 2.0
 WRAP.                   NO:   One line per depth step
~Well Information Block
#MNEM.UNIT     VALUE/NAME     DESCRIPTION
#---------     -----------    ---------------------------
 STRT.S             04:01:58 28-May-21: START TIME 04:01:58 28-May-21
 STOP.S             04:09:02 28-May-21: STOP TIME  04:09:02 28-May-21
 STEP.S                   0.00: STEP TIME
 NULL.                 -999.25: NULL VALUE
 UWI .                     N/A:  UNIQUE WELL IDENTIFIER
 API .                     N/A:  API NUMBER
 UNIT.                     N/A:  LOGGING EQUIPMENT ID
 DCON.         Sperry Drilling:  DIRECTNL CONTR
 DOE .                     N/A:  DOE NUMBER
 MWDS.                    Baku:  MWD SHOP
 SRVC.     Turan Drilling and Engineering:  CONTRACTOR
 CTRY.              Azerbaijan:  COUNTRY NAME
 PROV.                    Baku:  PROVINCE
 STAT.                    Baku:  STATE NAME
 REGN.                   EESSA:  REGION
 BASE.              Azerbaijan:  LOGGING EQUIPMENT BASE LOCATION
 WTYP.                Deviated:  WELL TYPE
 RIG .              East Azeri:  RIG NAME
 WELL.                    D02y:  WELL NAME
 FLD .                     ACG:  FIELD NAME
 COMP.     BP Exploration (Caspian Sea) Ltd.:  COMPANY
 PDAT.          Mean Sea Level:  PERMANENT DATUM
 MDS .        Operator Entered:  MAG DATA SOURCE
 SON .        AZ-XX-0906997291:  JOB NUMBER
 FTOP.          Formation Tops:  FORM TOPS DESC
 ILTD.               Lithology:  INTERP LTH DESC
 SVYD.                  Survey:  SURVEY DESC
 DMOD.             Drill Model:  DRILL MOD DESC
 HPTY.       Minimum Curvature:  HOLE POS TYPE
 NREF.                    Grid:  NORTH REFERENCE
 SPUD.               05-May-21:  SPUD DATE
 DATE.      09.27.28 12-Jun-21:  END TIME
 STIM.      09.27.28 12-May-21:  START TIME
 DMF .             Drill Floor:  DRILL MEAS FROM
 DFST.                        :  DIST FSL TEXT
 DFWT.                        :  DIST FWL TEXT
 CNTY.                        :  COUNTY
 LOC .                        :  LOCATION
 LMF .             Drill Floor:  LOG MEASURED FROM
 DEP .m                2806.40:  DEPTH
 AGAP.m                  43.60:  AIR GAP
 VSNS.m                  -4.42:  VERT SEC N/S
 VSEW.m                  -7.31:  VERT SEC E/W
 APD .m                  43.60:  DEPTH ABOVE PD
 WDMS.m                 151.80:  WD ELEV
 EGL .m                   0.00:  GROUND ELEVATION
 EPD .m                   0.00:  ELEVATION
 AZTC.deg                 6.18:  AZM TOTAL CORR
 GRDC.deg                 0.29:  GRID CORRECTION
 MDEC.deg                 6.47:  MAGNETIC DECL
 MDIP.deg                59.50:  MAGNETIC DIP
 MFLD.nT              50350.00:  MAGNETIC FIELD
 GVFD.g                   1.00:  GRAVITY FIELD
 VSDR.deg               179.08:  VERT SEC DIRECT
 TDD .m                4300.00:  TOTAL DEPTH (DRILLER)
 SDEP.m                2800.00:  START DEPTH
 DFSL.m                   0.00:  DISTANCE FSL
 DFWL.m                   0.00:  DISTANCE FWL
 UTMY.m             4431871.34:  UTM Y
 UTMX.m              538762.90:  UTM X
 WHEW.m                  -7.31:  WELL HEAD E/W
 WHNS.m                  -4.42:  WELL HEAD N/S
 LONG.deg                51.45:  LONGITUDE
 LATI.deg                40.02:  LATITUDE
 TVDS.m                  43.60:  TVDSS CORRECTN
 EKB .m                  43.60:  KB ELEVATION
 EDF .m                  43.60:  DF ELEVATION
 TDL .m                 806.00:  TOTAL DEPTH (LOGGER)
 MAGU.                 1851231:  MAGUTM CHECKSUM
 VSC .                       0:  VS TO CLOSURE
~Parameter Information Block
#MNEM.UNIT       Value        Description
#---------     -----------    ---------------------------
 AV  .mps                 1.60:  Ann Velocity 
 AVMX.mps                 2.00:  Max Ann Veloc 
 AZIF.deg               140.24:  Azm, Final 
 BHAT.        Rotary Steerable:  BHA Type 
 BROT.°/30m               0.50:  Build Rotating 
 BS  .in                  8.50:  Bit Size 
 BTPL.psig              619.00:  Bit Press Loss 
 CABU.                     Yes:  Customer Abuse 
 CGEO.          Ilgar Gurbanov:  Customer Geo 
 COMM.                     4`:  Run Comments 1 
 TCS .hr                 85.88:  Time Ciculation Ended 
 CV  .mps                 3.30:  Crit Velocity 
 CVMX.mps                 3.50:  Max Crit Veloc 
 DD1 .           Hamid Axmedov:  Direct Drillr 1 
 DD2 .           Teymur Aliyev:  Direct Drillr 2 
 DDSV.               Geo-Pilot:  DD Service 
 DEFF.%                 100.00:  % Det Eff 
 DLRX.°/30m               0.00:  Dogleg Rot Max 
 DLSO.°/30m               1.80:  Dogleg Oriented 
 DLSX.°/30m               3.34:  Dogleg Str Max 
 DRET.      11.50.00 27-May-21:  Drill End Time 
 DRST.      21.13.00 24-May-21:  Drill Start Tim 
 DTIM.hr                 45.11:  Time Drilling 
 EDEP.m                4054.00:  End Depth 
 ENG1.         Almaz Almadatov:  Engineer 1 
 ENG2.           Amrah Tahirov:  Engineer 2 
 ENG3.      Bakhtiyar Jabbarli:  Engineer 3 
 ENG4.          Nazrin Asgarli:  Engineer 4 
 ETIM.      10.00.00 30-May-21:  End Time 
 FLOI.gpm               530.00:  Flow In 
 FLON.gpm               400.00:  Flow In Min 
 FLOS.cptm                0.00:  Fluid Loss 
 FLOX.gpm               560.00:  Flow In Max 
 DFT .        Mineral Oil Base:  Mud Type 
 FTRO.       Formation Presure:  FTWD Run Obj 
 HFLO.                      No:  High Flow 
 HPRE.                      No:  High Pressure 
 HTEM.                      No:  High Temp 
 HYDO.m                   1.80:  Hydro Offset 
 IFIN.deg                73.83:  Inc, Final 
 IMAX.deg                73.83:  Inc Max 
 IMIN.deg                57.86:  Inc Min 
 IMND.m                3259.27:  Inc Min Depth 
 IMXD.m                4045.58:  Inc Max Depth 
 JARR.                     Yes:  Jarring 
 LETM.      11.50.00 27-May-21:  Log End Time 
 LOST.hr                     0:  Lost Rig Time 
 LSTM.      21.13.00 24-May-21:  Log Start Time 
 MDCL.ppm             42500.00:  Mud Chlorides 
 MDES.     Inversion Oil/Synthetic:  Mud Desc 
 DFD .sg                  1.52:  Mud Density 
 MDMN.sg                  1.52:  Dens Mud Min 
 MDMX.sg                  1.52:  Dens Mud Max 
 MOIL.                      70:  Run Mud Oil % 
 MOWR.                   70:30:  Run Mud OWR 
 MSND.                     0.2:  Run Mud Sand % 
 MSOL.                      22:  Run Mud Solids% 
 DFV .spqt               77.00:  Mud Viscosity 
 MWOD.in                  6.75:  MWD Tool OD 
 MWSI.                      No:  Serv Intrp, MWD 
 OTIM.hr                151.01:  Time Operating 
 PCON.          Wear / Scratch:  Pad Condition 
 PMAX.psia            11296.93:  Press Op, Max 
 PV  .cP                 37.00:  Mud PV 
 RUN .                     500:  Run Number 
 ROPA.m/hr               25.00:  ROP Avg 
 ROPN.m/hr                9.00:  ROP Min 
 ROPX.m/hr               28.00:  ROP Max 
 RPMA.rpm               140.00:  RPM Surface Avg 
 RPMN.rpm                90.00:  RPM Surface Min 
 RPMX.rpm               140.00:  RPM Surface Max 
 RRUN.                    0500:  Rig Run Number 
 SAZI.deg               172.17:  Azm, Start 
 SDEP.m                3248.00:  Start Depth 
 SIDD.                      No:  Serv Intrp, DD 
 SINC.deg                57.86:  Inc, Start 
 SPPA.psig             5620.00:  SPP Avg 
 SPPN.psig             5190.00:  SPP Min 
 SPPX.psig             6050.00:  SPP Max 
 STIM.      16.00.00 23-May-21:  Start Time 
 SVCS.                 DD, MWD:  Services 
 SVER.                    9.20:  Sperry Version 
 TDAT.m                 806.00:  Tot Depth Attmp 
 TDDF.                      No:  Trip for DD 
 TDLG.m                 806.00:  Tot Depth Loggd 
 TFF .                      No:  Trip for Fail 
 TQAA.f-kp               12.00:  Torque Abs Avg 
 TQAN.f-kp                8.00:  Torque Abs Min 
 TQAX.f-kp               15.00:  Torque Abs Max 
 TRRT.°/30m               0.30:  Turn Rotating 
 MRT .                  EWR-M5:  Maximum Recorded Temperature 
 TTMX.degC               93.00:  Max Tool Temp 
 VS01.                90649155:  Virtual Str1 SN 
 VS02.                90642264:  Virtual Str2 SN 
 VS03.                90642266:  Virtual Str3 SN 
 VS04.                90642261:  Virtual Str4 SN 
 WBMN.klb                 0.00:  WOB Min 
 WITN.             Anar Khalil:  Customer Rep 
 WITN.           Murad Guliyev:  Customer Rep 2 
 WOBA.klb                13.00:  WOB Avg 
 WOBX.klb                25.00:  WOB Max 
 YP  .lhf2               32.00:  Yield Point 
~Curve Information Block
#MNEM.UNIT                 API CODE     Curve Description
#---------               -----------    ---------------------------
 TIME.HHMMSS            00 000 000 000:  GT Time & Date
 GTDEPTH.m              00 000 000 000:  GT Depth
 GTPQH.psia             00 000 000 000:  GT HR Quartz Pressure
 GTTQ.degC              00 000 000 000:  GT Quartz Temperature
 GTTN.NONE              00 000 000 000:  GT Test Number
 GTET.sec               00 000 000 000:  GT Elapsed Test Time
 GTTVD.m                00 000 000 000:  GT True Vertical Depth
#Other Information
#
#WARRANTY: Halliburton will use its best efforts to furnish customers with 
#accurate information and interpretations that are part of, and incident to, the services 
#provided.  However, Halliburton cannot and does not warrant the accuracy 
#or correctness of such information and interpretations.  Under no circumstances should any 
#such information or interpretation be relied upon as the sole basis for any drilling, 
#completion, production, or financial decision or any procedure involving any risk to the 
#safety of any drilling venture, drilling rig or its crew or any other third party.  The 
#Customer has full responsibility for all drilling, completion and production operation.  
#Halliburton makes no representations or warranties, either expressed or 
#implied, including, but not limited to, the implied warranties of merchantability or fitness 
#for a particular purpose, with respect to the services rendered.  In no event will 
#Halliburton be liable for failure to obtain any particular results or for 
#any damages, including, but not limited to, indirect, special or consequential damages, 
#resulting from the use of any information or interpretation provided by Halliburton.
#
~A           TIME           GTDEPTH  GTPQH  GTTQ  GTTN  GTET   GTTVD  
# ...
   04:07:20.449.28-May-2021 3493.50 4216.75 83.03 8.00 322.10 2592.27
   04:07:20.649.28-May-2021 3493.50 4216.75 83.03 8.00 322.30 2592.27
   04:07:20.850.28-May-2021 3493.50 4216.78 83.03 8.00 322.50 2592.27
   04:07:21.050.28-May-2021 3493.50 4216.78 83.03 8.00 322.70 2592.27
   04:07:21.250.28-May-2021 3493.50 4216.77 83.03 8.00 322.90 2592.27
   04:07:21.450.28-May-2021 3493.50 4216.77 83.03 8.00 323.10 2592.27
   04:07:21.650.28-May-2021 3493.50 4216.77 83.03 8.00 323.30 2592.27
   04:07:21.850.28-May-2021 3493.50 4216.77 83.03 8.00 323.50 2592.27
   04:07:22.050.28-May-2021 3493.50 4216.77 83.02 8.00 323.70 2592.27
   04:07:22.250.28-May-2021 3493.50 4216.83 83.02 8.00 323.90 2592.27
   04:07:22.450.28-May-2021 3493.50 4216.71 83.02 8.00 324.10 2592.27
   04:07:22.650.28-May-2021 3493.50 4216.71 83.02 8.00 324.30 2592.27
   04:07:22.850.28-May-2021 3493.50 4216.78 83.02 8.00 324.50 2592.27
   04:07:23.050.28-May-2021 3493.50 4216.78 83.02 8.00 324.70 2592.27
   04:07:23.250.28-May-2021 3493.50 4216.77 83.02 8.00 324.90 2592.27
   04:07:23.450.28-May-2021 3493.50 4216.79 83.02 8.00 325.10 2592.27
   04:07:23.650.28-May-2021 3493.50 4216.79 83.02 8.00 325.30 2592.27
   04:07:23.851.28-May-2021 3493.50 4216.77 83.02 8.00 325.50 2592.27
   04:07:24.051.28-May-2021 3493.50 4216.76 83.02 8.00 325.70 2592.27
   04:07:24.251.28-May-2021 3493.50 4216.77 83.02 8.00 325.90 2592.27
   04:07:24.451.28-May-2021 3493.50 4216.76 83.02 8.00 326.10 2592.27
   04:07:24.651.28-May-2021 3493.50 4216.76 83.02 8.00 326.31 2592.27
   04:07:24.851.28-May-2021 3493.50 4216.76 83.02 8.00 326.51 2592.27
   04:07:25.051.28-May-2021 3493.50 4217.01 83.02 8.00 326.71 2592.27
   04:07:25.251.28-May-2021 3493.50 4216.78 83.02 8.00 326.91 2592.27
   04:07:25.451.28-May-2021 3493.50 4216.80 83.02 8.00 327.11 2592.27
   04:07:25.651.28-May-2021 3493.50 4216.80 83.02 8.00 327.31 2592.27
   04:07:25.851.28-May-2021 3493.50 4217.07 83.02 8.00 327.51 2592.27
   04:07:26.051.28-May-2021 3493.50 4216.77 83.02 8.00 327.71 2592.27
   04:07:26.251.28-May-2021 3493.50 4216.79 83.02 8.00 327.91 2592.27
   04:07:26.451.28-May-2021 3493.50 4216.77 83.02 8.00 328.11 2592.27
   04:07:26.651.28-May-2021 3493.50 4216.77 83.02 8.00 328.31 2592.27
   04:07:26.851.28-May-2021 3493.50 4216.83 83.02 8.00 328.51 2592.27
   04:07:27.052.28-May-2021 3493.50 4216.72 83.02 8.00 328.71 2592.27
   04:07:27.252.28-May-2021 3493.50 4216.78 83.02 8.00 328.91 2592.27
   04:07:27.452.28-May-2021 3493.50 4216.77 83.02 8.00 329.11 2592.27
   04:07:27.652.28-May-2021 3493.50 4216.77 83.02 8.00 329.31 2592.27
   04:07:27.852.28-May-2021 3493.50 4216.57 83.02 8.00 329.51 2592.27
   04:07:28.052.28-May-2021 3493.50 4216.97 83.02 8.00 329.71 2592.27
   04:07:28.252.28-May-2021 3493.50 4216.78 83.02 8.00 329.91 2592.27
   04:07:28.452.28-May-2021 3493.50 4216.80 83.02 8.00 330.11 2592.27
   04:07:28.652.28-May-2021 3493.50 4216.80 83.02 8.00 330.31 2592.27
   04:07:28.852.28-May-2021 3493.50 4216.75 83.02 8.00 330.51 2592.27
   04:07:29.052.28-May-2021 3493.50 4216.78 83.02 8.00 330.71 2592.27
   04:07:29.252.28-May-2021 3493.50 4216.77 83.02 8.00 330.91 2592.27
   04:07:29.452.28-May-2021 3493.50 4216.77 83.02 8.00 331.11 2592.27
   04:07:29.652.28-May-2021 3493.50 4216.77 83.02 8.00 331.31 2592.27
   04:07:29.852.28-May-2021 3493.50 4216.77 83.02 8.00 331.51 2592.27
   04:07:30.053.28-May-2021 3493.50 4216.76 83.02 8.00 331.71 2592.27
   04:07:30.253.28-May-2021 3493.50 4216.71 83.02 8.00 331.91 2592.27
   04:07:30.453.28-May-2021 3493.50 4216.82 83.02 8.00 332.11 2592.27
   04:07:30.653.28-May-2021 3493.50 4216.82 83.02 8.00 332.31 2592.27
   04:07:30.853.28-May-2021 3493.50 4216.76 83.02 8.00 332.51 2592.27
   04:07:31.053.28-May-2021 3493.50 4216.78 83.02 8.00 332.71 2592.27
   04:07:31.253.28-May-2021 3493.50 4216.78 83.02 8.00 332.91 2592.27
   04:07:31.453.28-May-2021 3493.50 4216.77 83.02 8.00 333.11 2592.27
   04:07:31.653.28-May-2021 3493.50 4216.77 83.02 8.00 333.31 2592.27
   04:07:31.853.28-May-2021 3493.50 4216.78 83.02 8.00 333.51 2592.27
   04:07:32.053.28-May-2021 3493.50 4216.77 83.02 8.00 333.71 2592.27
   04:07:32.253.28-May-2021 3493.50 4216.76 83.02 8.00 333.91 2592.27
   04:07:32.453.28-May-2021 3493.50 4216.77 83.02 8.00 334.11 2592.27
   04:07:32.653.28-May-2021 3493.50 4216.77 83.02 8.00 334.31 2592.27
   04:07:32.853.28-May-2021 3493.50 4216.77 83.02 8.00 334.51 2592.27
   04:07:33.053.28-May-2021 3493.50 4216.57 83.02 8.00 334.71 2592.27
   04:07:33.254.28-May-2021 3493.50 4216.97 83.02 8.00 334.91 2592.27
   04:07:33.454.28-May-2021 3493.50 4216.77 83.02 8.00 335.11 2592.27
   04:07:33.654.28-May-2021 3493.50 4216.77 83.02 8.00 335.31 2592.27
   04:07:33.854.28-May-2021 3493.50 4216.50 83.02 8.00 335.51 2592.27
   04:07:34.054.28-May-2021 3493.50 4217.00 83.02 8.00 335.71 2592.27
   04:07:34.254.28-May-2021 3493.50 4216.78 83.02 8.00 335.91 2592.27
   04:07:34.454.28-May-2021 3493.50 4216.81 83.02 8.00 336.11 2592.27
   04:07:34.654.28-May-2021 3493.50 4216.81 83.02 8.00 336.31 2592.27
   04:07:34.854.28-May-2021 3493.50 4216.71 83.02 8.00 336.51 2592.27
   04:07:35.054.28-May-2021 3493.50 4216.83 83.02 8.00 336.71 2592.27
   04:07:35.254.28-May-2021 3493.50 4216.78 83.02 8.00 336.91 2592.27
   04:07:35.454.28-May-2021 3493.50 4216.76 83.02 8.00 337.11 2592.27
   04:07:35.654.28-May-2021 3493.50 4216.76 83.02 8.00 337.31 2592.27
   04:07:35.854.28-May-2021 3493.50 4216.78 83.02 8.00 337.51 2592.27
   04:07:36.054.28-May-2021 3493.50 4216.83 83.02 8.00 337.71 2592.27
   04:07:36.255.28-May-2021 3493.50 4216.72 83.02 8.00 337.91 2592.27
   04:07:36.455.28-May-2021 3493.50 4216.77 83.02 8.00 338.11 2592.27
   04:07:36.655.28-May-2021 3493.50 4216.77 83.02 8.00 338.31 2592.27
   04:07:36.855.28-May-2021 3493.50 4216.77 83.02 8.00 338.51 2592.27
   04:07:37.055.28-May-2021 3493.50 4216.77 83.02 8.00 338.71 2592.27
   04:07:37.255.28-May-2021 3493.50 4216.77 83.02 8.00 338.91 2592.27
   04:07:37.455.28-May-2021 3493.50 4216.76 83.02 8.00 339.11 2592.27
   04:07:37.655.28-May-2021 3493.50 4216.76 83.02 8.00 339.31 2592.27
   04:07:37.855.28-May-2021 3493.50 4216.76 83.02 8.00 339.51 2592.27
   04:07:38.055.28-May-2021 3493.50 4216.75 83.02 8.00 339.71 2592.27
   04:07:38.255.28-May-2021 3493.50 4216.76 83.02 8.00 339.91 2592.27
   04:07:38.455.28-May-2021 3493.50 4216.45 83.02 8.00 340.11 2592.27
   04:07:38.655.28-May-2021 3493.50 4216.45 83.02 8.00 340.31 2592.27
   04:07:38.855.28-May-2021 3493.50 4216.77 83.02 8.00 340.51 2592.27
   04:07:39.055.28-May-2021 3493.50 4216.77 83.02 8.00 340.71 2592.27
   04:07:39.255.28-May-2021 3493.50 4216.76 83.02 8.00 340.91 2592.27
   04:07:39.456.28-May-2021 3493.50 4216.76 83.02 8.00 341.11 2592.27
   04:07:39.656.28-May-2021 3493.50 4216.76 83.02 8.00 341.31 2592.27
   04:07:39.856.28-May-2021 3493.50 4216.77 83.02 8.00 341.51 2592.27
   04:07:40.056.28-May-2021 3493.50 4216.76 83.02 8.00 341.71 2592.27
   04:07:40.256.28-May-2021 3493.50 4216.77 83.02 8.00 341.91 2592.27
   04:07:40.456.28-May-2021 3493.50 4216.77 83.02 8.00 342.11 2592.27
   04:07:40.656.28-May-2021 3493.50 4216.77 83.02 8.00 342.31 2592.27
   04:07:40.856.28-May-2021 3493.50 4216.76 83.02 8.00 342.51 2592.27
   04:07:41.056.28-May-2021 3493.50 4216.77 83.02 8.00 342.71 2592.27
   04:07:41.256.28-May-2021 3493.50 4216.83 83.02 8.00 342.91 2592.27
   04:07:41.456.28-May-2021 3493.50 4216.71 83.02 8.00 343.11 2592.27
   04:07:41.656.28-May-2021 3493.50 4216.71 83.02 8.00 343.31 2592.27
   04:07:41.856.28-May-2021 3493.50 4216.77 83.02 8.00 343.51 2592.27
   04:07:42.056.28-May-2021 3493.50 4216.59 83.02 8.00 343.71 2592.27
   04:07:42.256.28-May-2021 3493.50 4216.96 83.02 8.00 343.91 2592.27
   04:07:42.457.28-May-2021 3493.50 4216.78 83.02 8.00 344.11 2592.27
   04:07:42.657.28-May-2021 3493.50 4216.78 83.02 8.00 344.31 2592.27
   04:07:42.857.28-May-2021 3493.50 4216.75 83.01 8.00 344.51 2592.27
   04:07:43.057.28-May-2021 3493.50 4216.46 83.01 8.00 344.71 2592.27
   04:07:43.257.28-May-2021 3493.50 4217.06 83.01 8.00 344.91 2592.27
