~Version Information
 VERS.                  2.0:   CWLS log ASCII Standard -VERSION 2.0
 WRAP.                   NO:   One line per depth step
~Well Information Block
#MNEM.UNIT     VALUE/NAME     DESCRIPTION
#---------     -----------    ---------------------------
 STRT.S             23:52:35 27-May-21: START TIME 23:52:35 27-May-21
 STOP.S             23:59:20 27-May-21: STOP TIME  23:59:20 27-May-21
 STEP.S                   0.00: STEP TIME
 NULL.                 -999.25: NULL VALUE
 UWI .                     N/A:  UNIQUE WELL IDENTIFIER
 API .                     N/A:  API NUMBER
 UNIT.                     N/A:  LOGGING EQUIPMENT ID
 DCON.         Sperry Drilling:  DIRECTNL CONTR
 DOE .                     N/A:  DOE NUMBER
 MWDS.                    Baku:  MWD SHOP
 SRVC.     Turan Drilling and Engineering:  CONTRACTOR
 CTRY.              Azerbaijan:  COUNTRY NAME
 PROV.                    Baku:  PROVINCE
 STAT.                    Baku:  STATE NAME
 REGN.                   EESSA:  REGION
 BASE.              Azerbaijan:  LOGGING EQUIPMENT BASE LOCATION
 WTYP.                Deviated:  WELL TYPE
 RIG .              East Azeri:  RIG NAME
 WELL.                    D02y:  WELL NAME
 FLD .                     ACG:  FIELD NAME
 COMP.     BP Exploration (Caspian Sea) Ltd.:  COMPANY
 PDAT.          Mean Sea Level:  PERMANENT DATUM
 MDS .        Operator Entered:  MAG DATA SOURCE
 SON .        AZ-XX-0906997291:  JOB NUMBER
 FTOP.          Formation Tops:  FORM TOPS DESC
 ILTD.               Lithology:  INTERP LTH DESC
 SVYD.                  Survey:  SURVEY DESC
 DMOD.             Drill Model:  DRILL MOD DESC
 HPTY.       Minimum Curvature:  HOLE POS TYPE
 NREF.                    Grid:  NORTH REFERENCE
 SPUD.               05-May-21:  SPUD DATE
 DATE.      09.27.28 12-Jun-21:  END TIME
 STIM.      09.27.28 12-May-21:  START TIME
 DMF .             Drill Floor:  DRILL MEAS FROM
 DFST.                        :  DIST FSL TEXT
 DFWT.                        :  DIST FWL TEXT
 CNTY.                        :  COUNTY
 LOC .                        :  LOCATION
 LMF .             Drill Floor:  LOG MEASURED FROM
 DEP .m                2806.40:  DEPTH
 AGAP.m                  43.60:  AIR GAP
 VSNS.m                  -4.42:  VERT SEC N/S
 VSEW.m                  -7.31:  VERT SEC E/W
 APD .m                  43.60:  DEPTH ABOVE PD
 WDMS.m                 151.80:  WD ELEV
 EGL .m                   0.00:  GROUND ELEVATION
 EPD .m                   0.00:  ELEVATION
 AZTC.deg                 6.18:  AZM TOTAL CORR
 GRDC.deg                 0.29:  GRID CORRECTION
 MDEC.deg                 6.47:  MAGNETIC DECL
 MDIP.deg                59.50:  MAGNETIC DIP
 MFLD.nT              50350.00:  MAGNETIC FIELD
 GVFD.g                   1.00:  GRAVITY FIELD
 VSDR.deg               179.08:  VERT SEC DIRECT
 TDD .m                4300.00:  TOTAL DEPTH (DRILLER)
 SDEP.m                2800.00:  START DEPTH
 DFSL.m                   0.00:  DISTANCE FSL
 DFWL.m                   0.00:  DISTANCE FWL
 UTMY.m             4431871.34:  UTM Y
 UTMX.m              538762.90:  UTM X
 WHEW.m                  -7.31:  WELL HEAD E/W
 WHNS.m                  -4.42:  WELL HEAD N/S
 LONG.deg                51.45:  LONGITUDE
 LATI.deg                40.02:  LATITUDE
 TVDS.m                  43.60:  TVDSS CORRECTN
 EKB .m                  43.60:  KB ELEVATION
 EDF .m                  43.60:  DF ELEVATION
 TDL .m                 806.00:  TOTAL DEPTH (LOGGER)
 MAGU.                 1851231:  MAGUTM CHECKSUM
 VSC .                       0:  VS TO CLOSURE
~Parameter Information Block
#MNEM.UNIT       Value        Description
#---------     -----------    ---------------------------
 AV  .mps                 1.60:  Ann Velocity 
 AVMX.mps                 2.00:  Max Ann Veloc 
 AZIF.deg               140.24:  Azm, Final 
 BHAT.        Rotary Steerable:  BHA Type 
 BROT.°/30m               0.50:  Build Rotating 
 BS  .in                  8.50:  Bit Size 
 BTPL.psig              619.00:  Bit Press Loss 
 CABU.                     Yes:  Customer Abuse 
 CGEO.          Ilgar Gurbanov:  Customer Geo 
 COMM.                     t\L:  Run Comments 1 
 TCS .hr                 85.88:  Time Ciculation Ended 
 CV  .mps                 3.30:  Crit Velocity 
 CVMX.mps                 3.50:  Max Crit Veloc 
 DD1 .           Hamid Axmedov:  Direct Drillr 1 
 DD2 .           Teymur Aliyev:  Direct Drillr 2 
 DDSV.               Geo-Pilot:  DD Service 
 DEFF.%                 100.00:  % Det Eff 
 DLRX.°/30m               0.00:  Dogleg Rot Max 
 DLSO.°/30m               1.80:  Dogleg Oriented 
 DLSX.°/30m               3.34:  Dogleg Str Max 
 DRET.      11.50.00 27-May-21:  Drill End Time 
 DRST.      21.13.00 24-May-21:  Drill Start Tim 
 DTIM.hr                 45.11:  Time Drilling 
 EDEP.m                4054.00:  End Depth 
 ENG1.         Almaz Almadatov:  Engineer 1 
 ENG2.           Amrah Tahirov:  Engineer 2 
 ENG3.      Bakhtiyar Jabbarli:  Engineer 3 
 ENG4.          Nazrin Asgarli:  Engineer 4 
 ETIM.      10.00.00 30-May-21:  End Time 
 FLOI.gpm               530.00:  Flow In 
 FLON.gpm               400.00:  Flow In Min 
 FLOS.cptm                0.00:  Fluid Loss 
 FLOX.gpm               560.00:  Flow In Max 
 DFT .        Mineral Oil Base:  Mud Type 
 FTRO.       Formation Presure:  FTWD Run Obj 
 HFLO.                      No:  High Flow 
 HPRE.                      No:  High Pressure 
 HTEM.                      No:  High Temp 
 HYDO.m                   1.80:  Hydro Offset 
 IFIN.deg                73.83:  Inc, Final 
 IMAX.deg                73.83:  Inc Max 
 IMIN.deg                57.86:  Inc Min 
 IMND.m                3259.27:  Inc Min Depth 
 IMXD.m                4045.58:  Inc Max Depth 
 JARR.                     Yes:  Jarring 
 LETM.      11.50.00 27-May-21:  Log End Time 
 LOST.hr                     0:  Lost Rig Time 
 LSTM.      21.13.00 24-May-21:  Log Start Time 
 MDCL.ppm             42500.00:  Mud Chlorides 
 MDES.     Inversion Oil/Synthetic:  Mud Desc 
 DFD .sg                  1.52:  Mud Density 
 MDMN.sg                  1.52:  Dens Mud Min 
 MDMX.sg                  1.52:  Dens Mud Max 
 MOIL.                      70:  Run Mud Oil % 
 MOWR.                   70:30:  Run Mud OWR 
 MSND.                     0.2:  Run Mud Sand % 
 MSOL.                      22:  Run Mud Solids% 
 DFV .spqt               77.00:  Mud Viscosity 
 MWOD.in                  6.75:  MWD Tool OD 
 MWSI.                      No:  Serv Intrp, MWD 
 OTIM.hr                151.01:  Time Operating 
 PCON.          Wear / Scratch:  Pad Condition 
 PMAX.psia            11296.93:  Press Op, Max 
 PV  .cP                 37.00:  Mud PV 
 RUN .                     500:  Run Number 
 ROPA.m/hr               25.00:  ROP Avg 
 ROPN.m/hr                9.00:  ROP Min 
 ROPX.m/hr               28.00:  ROP Max 
 RPMA.rpm               140.00:  RPM Surface Avg 
 RPMN.rpm                90.00:  RPM Surface Min 
 RPMX.rpm               140.00:  RPM Surface Max 
 RRUN.                    0500:  Rig Run Number 
 SAZI.deg               172.17:  Azm, Start 
 SDEP.m                3248.00:  Start Depth 
 SIDD.                      No:  Serv Intrp, DD 
 SINC.deg                57.86:  Inc, Start 
 SPPA.psig             5620.00:  SPP Avg 
 SPPN.psig             5190.00:  SPP Min 
 SPPX.psig             6050.00:  SPP Max 
 STIM.      16.00.00 23-May-21:  Start Time 
 SVCS.                 DD, MWD:  Services 
 SVER.                    9.20:  Sperry Version 
 TDAT.m                 806.00:  Tot Depth Attmp 
 TDDF.                      No:  Trip for DD 
 TDLG.m                 806.00:  Tot Depth Loggd 
 TFF .                      No:  Trip for Fail 
 TQAA.f-kp               12.00:  Torque Abs Avg 
 TQAN.f-kp                8.00:  Torque Abs Min 
 TQAX.f-kp               15.00:  Torque Abs Max 
 TRRT.°/30m               0.30:  Turn Rotating 
 MRT .                  EWR-M5:  Maximum Recorded Temperature 
 TTMX.degC               93.00:  Max Tool Temp 
 VS01.                90649155:  Virtual Str1 SN 
 VS02.                90642264:  Virtual Str2 SN 
 VS03.                90642266:  Virtual Str3 SN 
 VS04.                90642261:  Virtual Str4 SN 
 WBMN.klb                 0.00:  WOB Min 
 WITN.             Anar Khalil:  Customer Rep 
 WITN.           Murad Guliyev:  Customer Rep 2 
 WOBA.klb                13.00:  WOB Avg 
 WOBX.klb                25.00:  WOB Max 
 YP  .lhf2               32.00:  Yield Point 
~Curve Information Block
#MNEM.UNIT                 API CODE     Curve Description
#---------               -----------    ---------------------------
 TIME.HHMMSS            00 000 000 000:  GT Time & Date
 GTDEPTH.m              00 000 000 000:  GT Depth
 GTPQH.psia             00 000 000 000:  GT HR Quartz Pressure
 GTTQ.degC              00 000 000 000:  GT Quartz Temperature
 GTTN.NONE              00 000 000 000:  GT Test Number
 GTET.sec               00 000 000 000:  GT Elapsed Test Time
 GTTVD.m                00 000 000 000:  GT True Vertical Depth
#Other Information
#
#WARRANTY: Halliburton will use its best efforts to furnish customers with 
#accurate information and interpretations that are part of, and incident to, the services 
#provided.  However, Halliburton cannot and does not warrant the accuracy 
#or correctness of such information and interpretations.  Under no circumstances should any 
#such information or interpretation be relied upon as the sole basis for any drilling, 
#completion, production, or financial decision or any procedure involving any risk to the 
#safety of any drilling venture, drilling rig or its crew or any other third party.  The 
#Customer has full responsibility for all drilling, completion and production operation.  
#Halliburton makes no representations or warranties, either expressed or 
#implied, including, but not limited to, the implied warranties of merchantability or fitness 
#for a particular purpose, with respect to the services rendered.  In no event will 
#Halliburton be liable for failure to obtain any particular results or for 
#any damages, including, but not limited to, indirect, special or consequential damages, 
#resulting from the use of any information or interpretation provided by Halliburton.
#
~A           TIME           GTDEPTH  GTPQH  GTTQ  GTTN  GTET   GTTVD  
# ...
   23:57:11.000.27-May-2021 3671.50   57.93 84.35 3.00 276.00 2661.54
   23:57:11.200.27-May-2021 3671.50   57.93 84.35 3.00 276.20 2661.54
   23:57:11.400.27-May-2021 3671.50   57.95 84.35 3.00 276.40 2661.54
   23:57:11.600.27-May-2021 3671.50   58.00 84.35 3.00 276.60 2661.54
   23:57:11.800.27-May-2021 3671.50   58.01 84.35 3.00 276.80 2661.54
   23:57:12.000.27-May-2021 3671.50   58.03 84.35 3.00 277.00 2661.54
   23:57:12.200.27-May-2021 3671.50   58.03 84.35 3.00 277.20 2661.54
   23:57:12.400.27-May-2021 3671.50   58.05 84.35 3.00 277.40 2661.54
   23:57:12.600.27-May-2021 3671.50   58.09 84.35 3.00 277.60 2661.54
   23:57:12.800.27-May-2021 3671.50   58.10 84.35 3.00 277.80 2661.54
   23:57:13.000.27-May-2021 3671.50   58.12 84.35 3.00 278.00 2661.54
   23:57:13.200.27-May-2021 3671.50   58.12 84.35 3.00 278.20 2661.54
   23:57:13.400.27-May-2021 3671.50   58.15 84.35 3.00 278.40 2661.54
   23:57:13.600.27-May-2021 3671.50   58.16 84.35 3.00 278.60 2661.54
   23:57:13.800.27-May-2021 3671.50   58.18 84.35 3.00 278.80 2661.54
   23:57:14.000.27-May-2021 3671.50   58.20 84.35 3.00 279.00 2661.54
   23:57:14.200.27-May-2021 3671.50   58.20 84.35 3.00 279.20 2661.54
   23:57:14.400.27-May-2021 3671.50   58.23 84.35 3.00 279.40 2661.54
   23:57:14.600.27-May-2021 3671.50   58.24 84.35 3.00 279.60 2661.54
   23:57:14.800.27-May-2021 3671.50   58.24 84.35 3.00 279.80 2661.54
   23:57:15.000.27-May-2021 3671.50   58.29 84.35 3.00 280.00 2661.54
   23:57:15.200.27-May-2021 3671.50   58.29 84.35 3.00 280.20 2661.54
   23:57:15.400.27-May-2021 3671.50   58.32 84.35 3.00 280.40 2661.54
   23:57:15.600.27-May-2021 3671.50   58.33 84.35 3.00 280.60 2661.54
   23:57:15.800.27-May-2021 3671.50   58.34 84.35 3.00 280.80 2661.54
   23:57:16.000.27-May-2021 3671.50   58.36 84.35 3.00 281.00 2661.54
   23:57:16.200.27-May-2021 3671.50   58.36 84.35 3.00 281.20 2661.54
   23:57:16.400.27-May-2021 3671.50   58.38 84.35 3.00 281.40 2661.54
   23:57:16.600.27-May-2021 3671.50   58.41 84.34 3.00 281.60 2661.54
   23:57:16.800.27-May-2021 3671.50   58.42 84.34 3.00 281.80 2661.54
   23:57:17.000.27-May-2021 3671.50   58.44 84.34 3.00 282.00 2661.54
   23:57:17.200.27-May-2021 3671.50   58.44 84.34 3.00 282.20 2661.54
   23:57:17.400.27-May-2021 3671.50   58.45 84.34 3.00 282.40 2661.54
   23:57:17.600.27-May-2021 3671.50   58.50 84.34 3.00 282.60 2661.54
   23:57:17.800.27-May-2021 3671.50   58.51 84.34 3.00 282.80 2661.54
   23:57:18.000.27-May-2021 3671.50   58.52 84.34 3.00 283.00 2661.54
   23:57:18.200.27-May-2021 3671.50   58.52 84.34 3.00 283.20 2661.54
   23:57:18.400.27-May-2021 3671.50   58.56 84.34 3.00 283.40 2661.54
   23:57:18.600.27-May-2021 3671.50   58.57 84.34 3.00 283.60 2661.54
   23:57:18.800.27-May-2021 3671.50   58.58 84.34 3.00 283.80 2661.54
   23:57:19.000.27-May-2021 3671.50   58.58 84.34 3.00 284.00 2661.54
   23:57:19.200.27-May-2021 3671.50   58.58 84.34 3.00 284.20 2661.54
   23:57:19.400.27-May-2021 3671.50   58.63 84.34 3.00 284.40 2661.54
   23:57:19.600.27-May-2021 3671.50   58.64 84.34 3.00 284.60 2661.54
   23:57:19.800.27-May-2021 3671.50   58.66 84.34 3.00 284.80 2661.54
   23:57:20.000.27-May-2021 3671.50   58.64 84.34 3.00 285.00 2661.54
   23:57:20.200.27-May-2021 3671.50   58.64 84.34 3.00 285.20 2661.54
   23:57:20.400.27-May-2021 3671.50   58.70 84.34 3.00 285.40 2661.54
   23:57:20.600.27-May-2021 3671.50   58.72 84.34 3.00 285.60 2661.54
   23:57:20.800.27-May-2021 3671.50   58.72 84.34 3.00 285.80 2661.54
   23:57:21.000.27-May-2021 3671.50   58.74 84.34 3.00 286.00 2661.54
   23:57:21.200.27-May-2021 3671.50   58.74 84.34 3.00 286.20 2661.54
   23:57:21.400.27-May-2021 3671.50   58.76 84.34 3.00 286.40 2661.54
   23:57:21.600.27-May-2021 3671.50   58.77 84.34 3.00 286.60 2661.54
   23:57:21.800.27-May-2021 3671.50   58.79 84.34 3.00 286.80 2661.54
   23:57:22.000.27-May-2021 3671.50   58.80 84.34 3.00 287.00 2661.54
   23:57:22.200.27-May-2021 3671.50   58.80 84.34 3.00 287.20 2661.54
   23:57:22.400.27-May-2021 3671.50   58.82 84.34 3.00 287.40 2661.54
   23:57:22.600.27-May-2021 3671.50   58.82 84.34 3.00 287.60 2661.54
   23:57:22.800.27-May-2021 3671.50   58.86 84.34 3.00 287.80 2661.54
   23:57:23.000.27-May-2021 3671.50   58.86 84.34 3.00 288.00 2661.54
   23:57:23.200.27-May-2021 3671.50   58.86 84.34 3.00 288.20 2661.54
   23:57:23.400.27-May-2021 3671.50   58.89 84.34 3.00 288.40 2661.54
   23:57:23.600.27-May-2021 3671.50   58.90 84.34 3.00 288.60 2661.54
   23:57:23.800.27-May-2021 3671.50   58.92 84.34 3.00 288.80 2661.54
   23:57:24.000.27-May-2021 3671.50   58.93 84.34 3.00 289.00 2661.54
   23:57:24.200.27-May-2021 3671.50   58.93 84.34 3.00 289.20 2661.54
   23:57:24.400.27-May-2021 3671.50   58.95 84.34 3.00 289.40 2661.54
   23:57:24.600.27-May-2021 3671.50   58.96 84.34 3.00 289.60 2661.54
   23:57:24.800.27-May-2021 3671.50   58.97 84.34 3.00 289.80 2661.54
   23:57:25.000.27-May-2021 3671.50   58.97 84.34 3.00 290.00 2661.54
   23:57:25.200.27-May-2021 3671.50   58.97 84.34 3.00 290.20 2661.54
   23:57:25.400.27-May-2021 3671.50   59.01 84.34 3.00 290.40 2661.54
   23:57:25.600.27-May-2021 3671.50   59.02 84.34 3.00 290.60 2661.54
   23:57:25.800.27-May-2021 3671.50   59.03 84.34 3.00 290.80 2661.54
   23:57:26.000.27-May-2021 3671.50   59.03 84.34 3.00 291.00 2661.54
   23:57:26.200.27-May-2021 3671.50   59.03 84.34 3.00 291.20 2661.54
   23:57:26.400.27-May-2021 3671.50   59.08 84.34 3.00 291.40 2661.54
   23:57:26.600.27-May-2021 3671.50   59.08 84.34 3.00 291.60 2661.54
   23:57:26.800.27-May-2021 3671.50   59.09 84.34 3.00 291.80 2661.54
   23:57:27.000.27-May-2021 3671.50   59.11 84.34 3.00 292.00 2661.54
   23:57:27.200.27-May-2021 3671.50   59.11 84.34 3.00 292.20 2661.54
   23:57:27.400.27-May-2021 3671.50   59.14 84.34 3.00 292.40 2661.54
   23:57:27.600.27-May-2021 3671.50   59.14 84.34 3.00 292.60 2661.54
   23:57:27.800.27-May-2021 3671.50   59.14 84.34 3.00 292.80 2661.54
   23:57:28.000.27-May-2021 3671.50   59.17 84.34 3.00 293.00 2661.54
   23:57:28.200.27-May-2021 3671.50   59.17 84.34 3.00 293.20 2661.54
   23:57:28.400.27-May-2021 3671.50   59.18 84.34 3.00 293.40 2661.54
   23:57:28.600.27-May-2021 3671.50   59.20 84.34 3.00 293.60 2661.54
   23:57:28.800.27-May-2021 3671.50   59.21 84.34 3.00 293.80 2661.54
   23:57:29.000.27-May-2021 3671.50   59.21 84.34 3.00 294.00 2661.54
   23:57:29.200.27-May-2021 3671.50   59.21 84.34 3.00 294.20 2661.54
   23:57:29.400.27-May-2021 3671.50   59.24 84.34 3.00 294.40 2661.54
   23:57:29.600.27-May-2021 3671.50   59.25 84.34 3.00 294.60 2661.54
   23:57:29.800.27-May-2021 3671.50   59.26 84.34 3.00 294.80 2661.54
   23:57:30.000.27-May-2021 3671.50   59.27 84.34 3.00 295.00 2661.54
   23:57:30.200.27-May-2021 3671.50   59.27 84.34 3.00 295.20 2661.54
   23:57:30.400.27-May-2021 3671.50   59.29 84.34 3.00 295.40 2661.54
   23:57:30.600.27-May-2021 3671.50   59.30 84.34 3.00 295.60 2661.54
   23:57:30.800.27-May-2021 3671.50   59.31 84.34 3.00 295.80 2661.54
   23:57:31.000.27-May-2021 3671.50   59.32 84.34 3.00 296.00 2661.54
   23:57:31.200.27-May-2021 3671.50   59.32 84.34 3.00 296.20 2661.54
   23:57:31.400.27-May-2021 3671.50   59.35 84.34 3.00 296.40 2661.54
   23:57:31.600.27-May-2021 3671.50   59.35 84.34 3.00 296.60 2661.54
   23:57:31.800.27-May-2021 3671.50   59.36 84.34 3.00 296.80 2661.54
   23:57:32.000.27-May-2021 3671.50   59.37 84.34 3.00 297.00 2661.54
   23:57:32.200.27-May-2021 3671.50   59.37 84.34 3.00 297.20 2661.54
   23:57:32.400.27-May-2021 3671.50   59.39 84.34 3.00 297.40 2661.54
   23:57:32.600.27-May-2021 3671.50   59.41 84.34 3.00 297.60 2661.54
   23:57:32.800.27-May-2021 3671.50   59.39 84.34 3.00 297.80 2661.54
   23:57:33.000.27-May-2021 3671.50   59.43 84.34 3.00 298.00 2661.54
   23:57:33.200.27-May-2021 3671.50   59.43 84.34 3.00 298.20 2661.54
   23:57:33.400.27-May-2021 3671.50   59.45 84.34 3.00 298.40 2661.54
   23:57:33.600.27-May-2021 3671.50   59.45 84.34 3.00 298.60 2661.54
   23:57:33.800.27-May-2021 3671.50   59.45 84.34 3.00 298.80 2661.54
