~Version Information
 VERS.                  2.0:   CWLS log ASCII Standard -VERSION 2.0
 WRAP.                   NO:   One line per depth step
~Well Information Block
#MNEM.UNIT     VALUE/NAME     DESCRIPTION
#---------     -----------    ---------------------------
 STRT.S             23:52:35 27-May-21: START TIME 23:52:35 27-May-21
 STOP.S             23:59:20 27-May-21: STOP TIME  23:59:20 27-May-21
 STEP.S                   0.00: STEP TIME
 NULL.                 -999.25: NULL VALUE
 UWI .                     N/A:  UNIQUE WELL IDENTIFIER
 API .                     N/A:  API NUMBER
 UNIT.                     N/A:  LOGGING EQUIPMENT ID
 DCON.         Sperry Drilling:  DIRECTNL CONTR
 DOE .                     N/A:  DOE NUMBER
 MWDS.                    Baku:  MWD SHOP
 SRVC.     Turan Drilling and Engineering:  CONTRACTOR
 CTRY.              Azerbaijan:  COUNTRY NAME
 PROV.                    Baku:  PROVINCE
 STAT.                    Baku:  STATE NAME
 REGN.                   EESSA:  REGION
 BASE.              Azerbaijan:  LOGGING EQUIPMENT BASE LOCATION
 WTYP.                Deviated:  WELL TYPE
 RIG .              East Azeri:  RIG NAME
 WELL.                    D02y:  WELL NAME
 FLD .                     ACG:  FIELD NAME
 COMP.     BP Exploration (Caspian Sea) Ltd.:  COMPANY
 PDAT.          Mean Sea Level:  PERMANENT DATUM
 MDS .        Operator Entered:  MAG DATA SOURCE
 SON .        AZ-XX-0906997291:  JOB NUMBER
 FTOP.          Formation Tops:  FORM TOPS DESC
 ILTD.               Lithology:  INTERP LTH DESC
 SVYD.                  Survey:  SURVEY DESC
 DMOD.             Drill Model:  DRILL MOD DESC
 HPTY.       Minimum Curvature:  HOLE POS TYPE
 NREF.                    Grid:  NORTH REFERENCE
 SPUD.               05-May-21:  SPUD DATE
 DATE.      09.27.28 12-Jun-21:  END TIME
 STIM.      09.27.28 12-May-21:  START TIME
 DMF .             Drill Floor:  DRILL MEAS FROM
 DFST.                        :  DIST FSL TEXT
 DFWT.                        :  DIST FWL TEXT
 CNTY.                        :  COUNTY
 LOC .                        :  LOCATION
 LMF .             Drill Floor:  LOG MEASURED FROM
 DEP .m                2806.40:  DEPTH
 AGAP.m                  43.60:  AIR GAP
 VSNS.m                  -4.42:  VERT SEC N/S
 VSEW.m                  -7.31:  VERT SEC E/W
 APD .m                  43.60:  DEPTH ABOVE PD
 WDMS.m                 151.80:  WD ELEV
 EGL .m                   0.00:  GROUND ELEVATION
 EPD .m                   0.00:  ELEVATION
 AZTC.deg                 6.18:  AZM TOTAL CORR
 GRDC.deg                 0.29:  GRID CORRECTION
 MDEC.deg                 6.47:  MAGNETIC DECL
 MDIP.deg                59.50:  MAGNETIC DIP
 MFLD.nT              50350.00:  MAGNETIC FIELD
 GVFD.g                   1.00:  GRAVITY FIELD
 VSDR.deg               179.08:  VERT SEC DIRECT
 TDD .m                4300.00:  TOTAL DEPTH (DRILLER)
 SDEP.m                2800.00:  START DEPTH
 DFSL.m                   0.00:  DISTANCE FSL
 DFWL.m                   0.00:  DISTANCE FWL
 UTMY.m             4431871.34:  UTM Y
 UTMX.m              538762.90:  UTM X
 WHEW.m                  -7.31:  WELL HEAD E/W
 WHNS.m                  -4.42:  WELL HEAD N/S
 LONG.deg                51.45:  LONGITUDE
 LATI.deg                40.02:  LATITUDE
 TVDS.m                  43.60:  TVDSS CORRECTN
 EKB .m                  43.60:  KB ELEVATION
 EDF .m                  43.60:  DF ELEVATION
 TDL .m                 806.00:  TOTAL DEPTH (LOGGER)
 MAGU.                 1851231:  MAGUTM CHECKSUM
 VSC .                       0:  VS TO CLOSURE
~Parameter Information Block
#MNEM.UNIT       Value        Description
#---------     -----------    ---------------------------
 AV  .mps                 1.60:  Ann Velocity 
 AVMX.mps                 2.00:  Max Ann Veloc 
 AZIF.deg               140.24:  Azm, Final 
 BHAT.        Rotary Steerable:  BHA Type 
 BROT.°/30m               0.50:  Build Rotating 
 BS  .in                  8.50:  Bit Size 
 BTPL.psig              619.00:  Bit Press Loss 
 CABU.                     Yes:  Customer Abuse 
 CGEO.          Ilgar Gurbanov:  Customer Geo 
 COMM.                     t\L:  Run Comments 1 
 TCS .hr                 85.88:  Time Ciculation Ended 
 CV  .mps                 3.30:  Crit Velocity 
 CVMX.mps                 3.50:  Max Crit Veloc 
 DD1 .           Hamid Axmedov:  Direct Drillr 1 
 DD2 .           Teymur Aliyev:  Direct Drillr 2 
 DDSV.               Geo-Pilot:  DD Service 
 DEFF.%                 100.00:  % Det Eff 
 DLRX.°/30m               0.00:  Dogleg Rot Max 
 DLSO.°/30m               1.80:  Dogleg Oriented 
 DLSX.°/30m               3.34:  Dogleg Str Max 
 DRET.      11.50.00 27-May-21:  Drill End Time 
 DRST.      21.13.00 24-May-21:  Drill Start Tim 
 DTIM.hr                 45.11:  Time Drilling 
 EDEP.m                4054.00:  End Depth 
 ENG1.         Almaz Almadatov:  Engineer 1 
 ENG2.           Amrah Tahirov:  Engineer 2 
 ENG3.      Bakhtiyar Jabbarli:  Engineer 3 
 ENG4.          Nazrin Asgarli:  Engineer 4 
 ETIM.      10.00.00 30-May-21:  End Time 
 FLOI.gpm               530.00:  Flow In 
 FLON.gpm               400.00:  Flow In Min 
 FLOS.cptm                0.00:  Fluid Loss 
 FLOX.gpm               560.00:  Flow In Max 
 DFT .        Mineral Oil Base:  Mud Type 
 FTRO.       Formation Presure:  FTWD Run Obj 
 HFLO.                      No:  High Flow 
 HPRE.                      No:  High Pressure 
 HTEM.                      No:  High Temp 
 HYDO.m                   1.80:  Hydro Offset 
 IFIN.deg                73.83:  Inc, Final 
 IMAX.deg                73.83:  Inc Max 
 IMIN.deg                57.86:  Inc Min 
 IMND.m                3259.27:  Inc Min Depth 
 IMXD.m                4045.58:  Inc Max Depth 
 JARR.                     Yes:  Jarring 
 LETM.      11.50.00 27-May-21:  Log End Time 
 LOST.hr                     0:  Lost Rig Time 
 LSTM.      21.13.00 24-May-21:  Log Start Time 
 MDCL.ppm             42500.00:  Mud Chlorides 
 MDES.     Inversion Oil/Synthetic:  Mud Desc 
 DFD .sg                  1.52:  Mud Density 
 MDMN.sg                  1.52:  Dens Mud Min 
 MDMX.sg                  1.52:  Dens Mud Max 
 MOIL.                      70:  Run Mud Oil % 
 MOWR.                   70:30:  Run Mud OWR 
 MSND.                     0.2:  Run Mud Sand % 
 MSOL.                      22:  Run Mud Solids% 
 DFV .spqt               77.00:  Mud Viscosity 
 MWOD.in                  6.75:  MWD Tool OD 
 MWSI.                      No:  Serv Intrp, MWD 
 OTIM.hr                151.01:  Time Operating 
 PCON.          Wear / Scratch:  Pad Condition 
 PMAX.psia            11296.93:  Press Op, Max 
 PV  .cP                 37.00:  Mud PV 
 RUN .                     500:  Run Number 
 ROPA.m/hr               25.00:  ROP Avg 
 ROPN.m/hr                9.00:  ROP Min 
 ROPX.m/hr               28.00:  ROP Max 
 RPMA.rpm               140.00:  RPM Surface Avg 
 RPMN.rpm                90.00:  RPM Surface Min 
 RPMX.rpm               140.00:  RPM Surface Max 
 RRUN.                    0500:  Rig Run Number 
 SAZI.deg               172.17:  Azm, Start 
 SDEP.m                3248.00:  Start Depth 
 SIDD.                      No:  Serv Intrp, DD 
 SINC.deg                57.86:  Inc, Start 
 SPPA.psig             5620.00:  SPP Avg 
 SPPN.psig             5190.00:  SPP Min 
 SPPX.psig             6050.00:  SPP Max 
 STIM.      16.00.00 23-May-21:  Start Time 
 SVCS.                 DD, MWD:  Services 
 SVER.                    9.20:  Sperry Version 
 TDAT.m                 806.00:  Tot Depth Attmp 
 TDDF.                      No:  Trip for DD 
 TDLG.m                 806.00:  Tot Depth Loggd 
 TFF .                      No:  Trip for Fail 
 TQAA.f-kp               12.00:  Torque Abs Avg 
 TQAN.f-kp                8.00:  Torque Abs Min 
 TQAX.f-kp               15.00:  Torque Abs Max 
 TRRT.°/30m               0.30:  Turn Rotating 
 MRT .                  EWR-M5:  Maximum Recorded Temperature 
 TTMX.degC               93.00:  Max Tool Temp 
 VS01.                90649155:  Virtual Str1 SN 
 VS02.                90642264:  Virtual Str2 SN 
 VS03.                90642266:  Virtual Str3 SN 
 VS04.                90642261:  Virtual Str4 SN 
 WBMN.klb                 0.00:  WOB Min 
 WITN.             Anar Khalil:  Customer Rep 
 WITN.           Murad Guliyev:  Customer Rep 2 
 WOBA.klb                13.00:  WOB Avg 
 WOBX.klb                25.00:  WOB Max 
 YP  .lhf2               32.00:  Yield Point 
~Curve Information Block
#MNEM.UNIT                 API CODE     Curve Description
#---------               -----------    ---------------------------
 TIME.HHMMSS            00 000 000 000:  GT Time & Date
 GTDEPTH.m              00 000 000 000:  GT Depth
 GTPQH.psia             00 000 000 000:  GT HR Quartz Pressure
 GTTQ.degC              00 000 000 000:  GT Quartz Temperature
 GTTN.NONE              00 000 000 000:  GT Test Number
 GTET.sec               00 000 000 000:  GT Elapsed Test Time
 GTTVD.m                00 000 000 000:  GT True Vertical Depth
#Other Information
#
#WARRANTY: Halliburton will use its best efforts to furnish customers with 
#accurate information and interpretations that are part of, and incident to, the services 
#provided.  However, Halliburton cannot and does not warrant the accuracy 
#or correctness of such information and interpretations.  Under no circumstances should any 
#such information or interpretation be relied upon as the sole basis for any drilling, 
#completion, production, or financial decision or any procedure involving any risk to the 
#safety of any drilling venture, drilling rig or its crew or any other third party.  The 
#Customer has full responsibility for all drilling, completion and production operation.  
#Halliburton makes no representations or warranties, either expressed or 
#implied, including, but not limited to, the implied warranties of merchantability or fitness 
#for a particular purpose, with respect to the services rendered.  In no event will 
#Halliburton be liable for failure to obtain any particular results or for 
#any damages, including, but not limited to, indirect, special or consequential damages, 
#resulting from the use of any information or interpretation provided by Halliburton.
#
~A           TIME           GTDEPTH  GTPQH  GTTQ  GTTN  GTET   GTTVD  
# ...
   23:58:43.000.27-May-2021 3671.50 6213.37 84.35 3.00 368.00 2661.54
   23:58:43.200.27-May-2021 3671.50 6213.37 84.35 3.00 368.20 2661.54
   23:58:43.400.27-May-2021 3671.50 6220.48 84.36 3.00 368.40 2661.54
   23:58:43.600.27-May-2021 3671.50 6217.77 84.36 3.00 368.60 2661.54
   23:58:43.800.27-May-2021 3671.50 6218.70 84.37 3.00 368.80 2661.54
   23:58:44.000.27-May-2021 3671.50 6220.32 84.37 3.00 369.00 2661.54
   23:58:44.200.27-May-2021 3671.50 6220.32 84.37 3.00 369.20 2661.54
   23:58:44.400.27-May-2021 3671.50 6218.26 84.38 3.00 369.40 2661.54
   23:58:44.600.27-May-2021 3671.50 6221.16 84.39 3.00 369.60 2661.54
   23:58:44.800.27-May-2021 3671.50 6221.47 84.39 3.00 369.80 2661.54
   23:58:45.000.27-May-2021 3671.50 6227.65 84.40 3.00 370.00 2661.54
   23:58:45.200.27-May-2021 3671.50 6227.65 84.40 3.00 370.20 2661.54
   23:58:45.400.27-May-2021 3671.50 6223.32 84.41 3.00 370.40 2661.54
   23:58:45.600.27-May-2021 3671.50 6222.77 84.41 3.00 370.60 2661.54
   23:58:45.800.27-May-2021 3671.50 6224.20 84.42 3.00 370.80 2661.54
   23:58:46.000.27-May-2021 3671.50 6224.02 84.42 3.00 371.00 2661.54
   23:58:46.200.27-May-2021 3671.50 6224.02 84.42 3.00 371.20 2661.54
   23:58:46.400.27-May-2021 3671.50 6221.53 84.43 3.00 371.40 2661.54
   23:58:46.600.27-May-2021 3671.50 6224.62 84.44 3.00 371.60 2661.54
   23:58:46.800.27-May-2021 3671.50 6224.53 84.44 3.00 371.80 2661.54
   23:58:47.000.27-May-2021 3671.50 6225.86 84.44 3.00 372.00 2661.54
   23:58:47.200.27-May-2021 3671.50 6225.86 84.44 3.00 372.20 2661.54
   23:58:47.400.27-May-2021 3671.50 6224.35 84.45 3.00 372.40 2661.54
   23:58:47.600.27-May-2021 3671.50 6224.65 84.46 3.00 372.60 2661.54
   23:58:47.800.27-May-2021 3671.50 6224.82 84.46 3.00 372.80 2661.54
   23:58:48.000.27-May-2021 3671.50 6224.87 84.46 3.00 373.00 2661.54
   23:58:48.200.27-May-2021 3671.50 6224.87 84.46 3.00 373.20 2661.54
   23:58:48.400.27-May-2021 3671.50 6225.23 84.47 3.00 373.40 2661.54
   23:58:48.600.27-May-2021 3671.50 6225.15 84.47 3.00 373.60 2661.54
   23:58:48.800.27-May-2021 3671.50 6229.70 84.47 3.00 373.80 2661.54
   23:58:49.000.27-May-2021 3671.50 6225.92 84.48 3.00 374.00 2661.54
   23:58:49.200.27-May-2021 3671.50 6225.92 84.48 3.00 374.20 2661.54
   23:58:49.400.27-May-2021 3671.50 6226.18 84.48 3.00 374.40 2661.54
   23:58:49.600.27-May-2021 3671.50 6226.05 84.48 3.00 374.60 2661.54
   23:58:49.800.27-May-2021 3671.50 6225.14 84.49 3.00 374.80 2661.54
   23:58:50.000.27-May-2021 3671.50 6225.27 84.49 3.00 375.00 2661.54
   23:58:50.200.27-May-2021 3671.50 6225.27 84.49 3.00 375.20 2661.54
   23:58:50.400.27-May-2021 3671.50 6225.26 84.49 3.00 375.40 2661.54
   23:58:50.600.27-May-2021 3671.50 6225.39 84.49 3.00 375.60 2661.54
   23:58:50.800.27-May-2021 3671.50 6225.66 84.49 3.00 375.80 2661.54
   23:58:51.000.27-May-2021 3671.50 6225.87 84.50 3.00 376.00 2661.54
   23:58:51.200.27-May-2021 3671.50 6225.87 84.50 3.00 376.20 2661.54
   23:58:51.400.27-May-2021 3671.50 6224.69 84.50 3.00 376.40 2661.54
   23:58:51.600.27-May-2021 3671.50 6226.29 84.50 3.00 376.60 2661.54
   23:58:51.800.27-May-2021 3671.50 6225.94 84.50 3.00 376.80 2661.54
   23:58:52.000.27-May-2021 3671.50 6228.67 84.50 3.00 377.00 2661.54
   23:58:52.200.27-May-2021 3671.50 6228.67 84.50 3.00 377.20 2661.54
   23:58:52.400.27-May-2021 3671.50 6225.70 84.50 3.00 377.40 2661.54
   23:58:52.600.27-May-2021 3671.50 6225.55 84.51 3.00 377.60 2661.54
   23:58:52.800.27-May-2021 3671.50 6226.12 84.51 3.00 377.80 2661.54
   23:58:53.000.27-May-2021 3671.50 6231.73 84.51 3.00 378.00 2661.54
   23:58:53.200.27-May-2021 3671.50 6231.73 84.51 3.00 378.20 2661.54
   23:58:53.400.27-May-2021 3671.50 6226.13 84.51 3.00 378.40 2661.54
   23:58:53.600.27-May-2021 3671.50 6225.95 84.51 3.00 378.60 2661.54
   23:58:53.800.27-May-2021 3671.50 6226.31 84.51 3.00 378.80 2661.54
   23:58:54.000.27-May-2021 3671.50 6225.97 84.51 3.00 379.00 2661.54
   23:58:54.200.27-May-2021 3671.50 6225.97 84.51 3.00 379.20 2661.54
   23:58:54.400.27-May-2021 3671.50 6226.11 84.51 3.00 379.40 2661.54
   23:58:54.600.27-May-2021 3671.50 6226.09 84.51 3.00 379.60 2661.54
   23:58:54.800.27-May-2021 3671.50 6226.59 84.51 3.00 379.80 2661.54
   23:58:55.000.27-May-2021 3671.50 6226.92 84.51 3.00 380.00 2661.54
   23:58:55.200.27-May-2021 3671.50 6226.92 84.51 3.00 380.20 2661.54
   23:58:55.400.27-May-2021 3671.50 6225.79 84.51 3.00 380.40 2661.54
   23:58:55.600.27-May-2021 3671.50 6225.51 84.51 3.00 380.60 2661.54
   23:58:55.800.27-May-2021 3671.50 6225.93 84.51 3.00 380.80 2661.54
   23:58:56.000.27-May-2021 3671.50 6225.71 84.51 3.00 381.00 2661.54
   23:58:56.200.27-May-2021 3671.50 6225.71 84.51 3.00 381.20 2661.54
   23:58:56.400.27-May-2021 3671.50 6225.65 84.51 3.00 381.40 2661.54
   23:58:56.600.27-May-2021 3671.50 6225.62 84.51 3.00 381.60 2661.54
   23:58:56.800.27-May-2021 3671.50 6229.71 84.51 3.00 381.80 2661.54
   23:58:57.000.27-May-2021 3671.50 6226.07 84.51 3.00 382.00 2661.54
   23:58:57.200.27-May-2021 3671.50 6226.07 84.51 3.00 382.20 2661.54
   23:58:57.400.27-May-2021 3671.50 6226.39 84.51 3.00 382.40 2661.54
   23:58:57.600.27-May-2021 3671.50 6226.00 84.51 3.00 382.60 2661.54
   23:58:57.800.27-May-2021 3671.50 6225.26 84.51 3.00 382.80 2661.54
   23:58:58.000.27-May-2021 3671.50 6225.38 84.51 3.00 383.00 2661.54
   23:58:58.200.27-May-2021 3671.50 6225.38 84.51 3.00 383.20 2661.54
   23:58:58.400.27-May-2021 3671.50 6225.38 84.51 3.00 383.40 2661.54
   23:58:58.600.27-May-2021 3671.50 6225.46 84.51 3.00 383.60 2661.54
   23:58:58.800.27-May-2021 3671.50 6225.92 84.51 3.00 383.80 2661.54
   23:58:59.000.27-May-2021 3671.50 6225.77 84.51 3.00 384.00 2661.54
   23:58:59.200.27-May-2021 3671.50 6225.77 84.51 3.00 384.20 2661.54
   23:58:59.400.27-May-2021 3671.50 6232.59 84.51 3.00 384.40 2661.54
   23:58:59.600.27-May-2021 3671.50 6223.08 84.51 3.00 384.60 2661.54
   23:58:59.800.27-May-2021 3671.50 6226.04 84.51 3.00 384.80 2661.54
   23:59:00.000.27-May-2021 3671.50 6232.79 84.51 3.00 385.00 2661.54
   23:59:00.200.27-May-2021 3671.50 6232.79 84.51 3.00 385.20 2661.54
   23:59:00.400.27-May-2021 3671.50 6225.75 84.51 3.00 385.40 2661.54
   23:59:00.600.27-May-2021 3671.50 6225.11 84.51 3.00 385.60 2661.54
   23:59:00.800.27-May-2021 3671.50 6225.59 84.51 3.00 385.80 2661.54
   23:59:01.000.27-May-2021 3671.50 6225.13 84.51 3.00 386.00 2661.54
   23:59:01.200.27-May-2021 3671.50 6225.13 84.51 3.00 386.20 2661.54
   23:59:01.400.27-May-2021 3671.50 6225.16 84.51 3.00 386.40 2661.54
   23:59:01.600.27-May-2021 3671.50 6225.15 84.50 3.00 386.60 2661.54
   23:59:01.800.27-May-2021 3671.50 6232.64 84.50 3.00 386.80 2661.54
   23:59:02.000.27-May-2021 3671.50 6223.07 84.50 3.00 387.00 2661.54
   23:59:02.200.27-May-2021 3671.50 6223.07 84.50 3.00 387.20 2661.54
   23:59:02.400.27-May-2021 3671.50 6225.62 84.50 3.00 387.40 2661.54
   23:59:02.600.27-May-2021 3671.50 6226.19 84.50 3.00 387.60 2661.54
   23:59:02.800.27-May-2021 3671.50 6225.88 84.50 3.00 387.80 2661.54
   23:59:03.000.27-May-2021 3671.50 6225.02 84.50 3.00 388.00 2661.54
   23:59:03.200.27-May-2021 3671.50 6225.02 84.50 3.00 388.20 2661.54
   23:59:03.400.27-May-2021 3671.50 6224.81 84.50 3.00 388.40 2661.54
   23:59:03.600.27-May-2021 3671.50 6224.87 84.50 3.00 388.60 2661.54
   23:59:03.800.27-May-2021 3671.50 6225.22 84.50 3.00 388.80 2661.54
   23:59:04.000.27-May-2021 3671.50 6225.37 84.50 3.00 389.00 2661.54
   23:59:04.200.27-May-2021 3671.50 6225.37 84.50 3.00 389.20 2661.54
   23:59:04.400.27-May-2021 3671.50 6232.28 84.50 3.00 389.40 2661.54
   23:59:04.600.27-May-2021 3671.50 6222.59 84.50 3.00 389.60 2661.54
   23:59:04.800.27-May-2021 3671.50 6225.49 84.50 3.00 389.80 2661.54
   23:59:05.000.27-May-2021 3671.50 6225.22 84.50 3.00 390.00 2661.54
   23:59:05.200.27-May-2021 3671.50 6225.22 84.50 3.00 390.20 2661.54
   23:59:05.400.27-May-2021 3671.50 6225.05 84.50 3.00 390.40 2661.54
   23:59:05.600.27-May-2021 3671.50 6224.44 84.50 3.00 390.60 2661.54
   23:59:05.800.27-May-2021 3671.50 6224.47 84.50 3.00 390.80 2661.54
