~Version Information
 VERS.                  2.0:   CWLS log ASCII Standard -VERSION 2.0
 WRAP.                   NO:   One line per depth step
~Well Information Block
#MNEM.UNIT     VALUE/NAME     DESCRIPTION
#---------     -----------    ---------------------------
 STRT.S             22:21:57 27-May-21: START TIME 22:21:57 27-May-21
 STOP.S             22:28:58 27-May-21: STOP TIME  22:28:58 27-May-21
 STEP.S                   0.00: STEP TIME
 NULL.                 -999.25: NULL VALUE
 UWI .                     N/A:  UNIQUE WELL IDENTIFIER
 API .                     N/A:  API NUMBER
 UNIT.                     N/A:  LOGGING EQUIPMENT ID
 DCON.         Sperry Drilling:  DIRECTNL CONTR
 DOE .                     N/A:  DOE NUMBER
 MWDS.                    Baku:  MWD SHOP
 SRVC.     Turan Drilling and Engineering:  CONTRACTOR
 CTRY.              Azerbaijan:  COUNTRY NAME
 PROV.                    Baku:  PROVINCE
 STAT.                    Baku:  STATE NAME
 REGN.                   EESSA:  REGION
 BASE.              Azerbaijan:  LOGGING EQUIPMENT BASE LOCATION
 WTYP.                Deviated:  WELL TYPE
 RIG .              East Azeri:  RIG NAME
 WELL.                    D02y:  WELL NAME
 FLD .                     ACG:  FIELD NAME
 COMP.     BP Exploration (Caspian Sea) Ltd.:  COMPANY
 PDAT.          Mean Sea Level:  PERMANENT DATUM
 MDS .        Operator Entered:  MAG DATA SOURCE
 SON .        AZ-XX-0906997291:  JOB NUMBER
 FTOP.          Formation Tops:  FORM TOPS DESC
 ILTD.               Lithology:  INTERP LTH DESC
 SVYD.                  Survey:  SURVEY DESC
 DMOD.             Drill Model:  DRILL MOD DESC
 HPTY.       Minimum Curvature:  HOLE POS TYPE
 NREF.                    Grid:  NORTH REFERENCE
 SPUD.               05-May-21:  SPUD DATE
 DATE.      09.27.28 12-Jun-21:  END TIME
 STIM.      09.27.28 12-May-21:  START TIME
 DMF .             Drill Floor:  DRILL MEAS FROM
 DFST.                        :  DIST FSL TEXT
 DFWT.                        :  DIST FWL TEXT
 CNTY.                        :  COUNTY
 LOC .                        :  LOCATION
 LMF .             Drill Floor:  LOG MEASURED FROM
 DEP .m                2806.40:  DEPTH
 AGAP.m                  43.60:  AIR GAP
 VSNS.m                  -4.42:  VERT SEC N/S
 VSEW.m                  -7.31:  VERT SEC E/W
 APD .m                  43.60:  DEPTH ABOVE PD
 WDMS.m                 151.80:  WD ELEV
 EGL .m                   0.00:  GROUND ELEVATION
 EPD .m                   0.00:  ELEVATION
 AZTC.deg                 6.18:  AZM TOTAL CORR
 GRDC.deg                 0.29:  GRID CORRECTION
 MDEC.deg                 6.47:  MAGNETIC DECL
 MDIP.deg                59.50:  MAGNETIC DIP
 MFLD.nT              50350.00:  MAGNETIC FIELD
 GVFD.g                   1.00:  GRAVITY FIELD
 VSDR.deg               179.08:  VERT SEC DIRECT
 TDD .m                4300.00:  TOTAL DEPTH (DRILLER)
 SDEP.m                2800.00:  START DEPTH
 DFSL.m                   0.00:  DISTANCE FSL
 DFWL.m                   0.00:  DISTANCE FWL
 UTMY.m             4431871.34:  UTM Y
 UTMX.m              538762.90:  UTM X
 WHEW.m                  -7.31:  WELL HEAD E/W
 WHNS.m                  -4.42:  WELL HEAD N/S
 LONG.deg                51.45:  LONGITUDE
 LATI.deg                40.02:  LATITUDE
 TVDS.m                  43.60:  TVDSS CORRECTN
 EKB .m                  43.60:  KB ELEVATION
 EDF .m                  43.60:  DF ELEVATION
 TDL .m                 806.00:  TOTAL DEPTH (LOGGER)
 MAGU.                 1851231:  MAGUTM CHECKSUM
 VSC .                       0:  VS TO CLOSURE
~Parameter Information Block
#MNEM.UNIT       Value        Description
#---------     -----------    ---------------------------
 AV  .mps                 1.60:  Ann Velocity 
 AVMX.mps                 2.00:  Max Ann Veloc 
 AZIF.deg               140.24:  Azm, Final 
 BHAT.        Rotary Steerable:  BHA Type 
 BROT.°/30m               0.50:  Build Rotating 
 BS  .in                  8.50:  Bit Size 
 BTPL.psig              619.00:  Bit Press Loss 
 CABU.                     Yes:  Customer Abuse 
 CGEO.          Ilgar Gurbanov:  Customer Geo 
 COMM.                     ¼ƒj:  Run Comments 1 
 TCS .hr                 85.88:  Time Ciculation Ended 
 CV  .mps                 3.30:  Crit Velocity 
 CVMX.mps                 3.50:  Max Crit Veloc 
 DD1 .           Hamid Axmedov:  Direct Drillr 1 
 DD2 .           Teymur Aliyev:  Direct Drillr 2 
 DDSV.               Geo-Pilot:  DD Service 
 DEFF.%                 100.00:  % Det Eff 
 DLRX.°/30m               0.00:  Dogleg Rot Max 
 DLSO.°/30m               1.80:  Dogleg Oriented 
 DLSX.°/30m               3.34:  Dogleg Str Max 
 DRET.      11.50.00 27-May-21:  Drill End Time 
 DRST.      21.13.00 24-May-21:  Drill Start Tim 
 DTIM.hr                 45.11:  Time Drilling 
 EDEP.m                4054.00:  End Depth 
 ENG1.         Almaz Almadatov:  Engineer 1 
 ENG2.           Amrah Tahirov:  Engineer 2 
 ENG3.      Bakhtiyar Jabbarli:  Engineer 3 
 ENG4.          Nazrin Asgarli:  Engineer 4 
 ETIM.      10.00.00 30-May-21:  End Time 
 FLOI.gpm               530.00:  Flow In 
 FLON.gpm               400.00:  Flow In Min 
 FLOS.cptm                0.00:  Fluid Loss 
 FLOX.gpm               560.00:  Flow In Max 
 DFT .        Mineral Oil Base:  Mud Type 
 FTRO.       Formation Presure:  FTWD Run Obj 
 HFLO.                      No:  High Flow 
 HPRE.                      No:  High Pressure 
 HTEM.                      No:  High Temp 
 HYDO.m                   1.80:  Hydro Offset 
 IFIN.deg                73.83:  Inc, Final 
 IMAX.deg                73.83:  Inc Max 
 IMIN.deg                57.86:  Inc Min 
 IMND.m                3259.27:  Inc Min Depth 
 IMXD.m                4045.58:  Inc Max Depth 
 JARR.                     Yes:  Jarring 
 LETM.      11.50.00 27-May-21:  Log End Time 
 LOST.hr                     0:  Lost Rig Time 
 LSTM.      21.13.00 24-May-21:  Log Start Time 
 MDCL.ppm             42500.00:  Mud Chlorides 
 MDES.     Inversion Oil/Synthetic:  Mud Desc 
 DFD .sg                  1.52:  Mud Density 
 MDMN.sg                  1.52:  Dens Mud Min 
 MDMX.sg                  1.52:  Dens Mud Max 
 MOIL.                      70:  Run Mud Oil % 
 MOWR.                   70:30:  Run Mud OWR 
 MSND.                     0.2:  Run Mud Sand % 
 MSOL.                      22:  Run Mud Solids% 
 DFV .spqt               77.00:  Mud Viscosity 
 MWOD.in                  6.75:  MWD Tool OD 
 MWSI.                      No:  Serv Intrp, MWD 
 OTIM.hr                151.01:  Time Operating 
 PCON.          Wear / Scratch:  Pad Condition 
 PMAX.psia            11296.93:  Press Op, Max 
 PV  .cP                 37.00:  Mud PV 
 RUN .                     500:  Run Number 
 ROPA.m/hr               25.00:  ROP Avg 
 ROPN.m/hr                9.00:  ROP Min 
 ROPX.m/hr               28.00:  ROP Max 
 RPMA.rpm               140.00:  RPM Surface Avg 
 RPMN.rpm                90.00:  RPM Surface Min 
 RPMX.rpm               140.00:  RPM Surface Max 
 RRUN.                    0500:  Rig Run Number 
 SAZI.deg               172.17:  Azm, Start 
 SDEP.m                3248.00:  Start Depth 
 SIDD.                      No:  Serv Intrp, DD 
 SINC.deg                57.86:  Inc, Start 
 SPPA.psig             5620.00:  SPP Avg 
 SPPN.psig             5190.00:  SPP Min 
 SPPX.psig             6050.00:  SPP Max 
 STIM.      16.00.00 23-May-21:  Start Time 
 SVCS.                 DD, MWD:  Services 
 SVER.                    9.20:  Sperry Version 
 TDAT.m                 806.00:  Tot Depth Attmp 
 TDDF.                      No:  Trip for DD 
 TDLG.m                 806.00:  Tot Depth Loggd 
 TFF .                      No:  Trip for Fail 
 TQAA.f-kp               12.00:  Torque Abs Avg 
 TQAN.f-kp                8.00:  Torque Abs Min 
 TQAX.f-kp               15.00:  Torque Abs Max 
 TRRT.°/30m               0.30:  Turn Rotating 
 MRT .                  EWR-M5:  Maximum Recorded Temperature 
 TTMX.degC               93.00:  Max Tool Temp 
 VS01.                90649155:  Virtual Str1 SN 
 VS02.                90642264:  Virtual Str2 SN 
 VS03.                90642266:  Virtual Str3 SN 
 VS04.                90642261:  Virtual Str4 SN 
 WBMN.klb                 0.00:  WOB Min 
 WITN.             Anar Khalil:  Customer Rep 
 WITN.           Murad Guliyev:  Customer Rep 2 
 WOBA.klb                13.00:  WOB Avg 
 WOBX.klb                25.00:  WOB Max 
 YP  .lhf2               32.00:  Yield Point 
~Curve Information Block
#MNEM.UNIT                 API CODE     Curve Description
#---------               -----------    ---------------------------
 TIME.HHMMSS            00 000 000 000:  GT Time & Date
 GTDEPTH.m              00 000 000 000:  GT Depth
 GTPQH.psia             00 000 000 000:  GT HR Quartz Pressure
 GTTQ.degC              00 000 000 000:  GT Quartz Temperature
 GTTN.NONE              00 000 000 000:  GT Test Number
 GTET.sec               00 000 000 000:  GT Elapsed Test Time
 GTTVD.m                00 000 000 000:  GT True Vertical Depth
#Other Information
#
#WARRANTY: Halliburton will use its best efforts to furnish customers with 
#accurate information and interpretations that are part of, and incident to, the services 
#provided.  However, Halliburton cannot and does not warrant the accuracy 
#or correctness of such information and interpretations.  Under no circumstances should any 
#such information or interpretation be relied upon as the sole basis for any drilling, 
#completion, production, or financial decision or any procedure involving any risk to the 
#safety of any drilling venture, drilling rig or its crew or any other third party.  The 
#Customer has full responsibility for all drilling, completion and production operation.  
#Halliburton makes no representations or warranties, either expressed or 
#implied, including, but not limited to, the implied warranties of merchantability or fitness 
#for a particular purpose, with respect to the services rendered.  In no event will 
#Halliburton be liable for failure to obtain any particular results or for 
#any damages, including, but not limited to, indirect, special or consequential damages, 
#resulting from the use of any information or interpretation provided by Halliburton.
#
~A           TIME           GTDEPTH  GTPQH  GTTQ  GTTN  GTET   GTTVD  
# ...
   22:27:19.757.27-May-2021 3723.00 3141.22 84.32 1.00 322.05 2680.40
   22:27:19.957.27-May-2021 3723.00 3141.22 84.32 1.00 322.25 2680.40
   22:27:20.157.27-May-2021 3723.00 3141.23 84.32 1.00 322.45 2680.40
   22:27:20.357.27-May-2021 3723.00 3141.22 84.32 1.00 322.65 2680.40
   22:27:20.557.27-May-2021 3723.00 3141.23 84.32 1.00 322.85 2680.40
   22:27:20.757.27-May-2021 3723.00 3141.23 84.32 1.00 323.05 2680.40
   22:27:20.957.27-May-2021 3723.00 3141.23 84.32 1.00 323.25 2680.40
   22:27:21.157.27-May-2021 3723.00 3141.22 84.32 1.00 323.45 2680.40
   22:27:21.357.27-May-2021 3723.00 3141.23 84.32 1.00 323.65 2680.40
   22:27:21.557.27-May-2021 3723.00 3141.22 84.32 1.00 323.85 2680.40
   22:27:21.757.27-May-2021 3723.00 3141.23 84.32 1.00 324.05 2680.40
   22:27:21.957.27-May-2021 3723.00 3141.23 84.32 1.00 324.25 2680.40
   22:27:22.157.27-May-2021 3723.00 3141.22 84.32 1.00 324.45 2680.40
   22:27:22.357.27-May-2021 3723.00 3141.23 84.32 1.00 324.65 2680.40
   22:27:22.557.27-May-2021 3723.00 3141.24 84.32 1.00 324.85 2680.40
   22:27:22.757.27-May-2021 3723.00 3141.21 84.32 1.00 325.05 2680.40
   22:27:22.958.27-May-2021 3723.00 3141.21 84.32 1.00 325.25 2680.40
   22:27:23.158.27-May-2021 3723.00 3141.24 84.32 1.00 325.45 2680.40
   22:27:23.358.27-May-2021 3723.00 3141.22 84.32 1.00 325.65 2680.40
   22:27:23.558.27-May-2021 3723.00 3141.22 84.32 1.00 325.85 2680.40
   22:27:23.758.27-May-2021 3723.00 3141.22 84.32 1.00 326.05 2680.40
   22:27:23.958.27-May-2021 3723.00 3141.22 84.32 1.00 326.25 2680.40
   22:27:24.158.27-May-2021 3723.00 3141.23 84.32 1.00 326.45 2680.40
   22:27:24.358.27-May-2021 3723.00 3141.21 84.32 1.00 326.65 2680.40
   22:27:24.558.27-May-2021 3723.00 3141.22 84.32 1.00 326.85 2680.40
   22:27:24.758.27-May-2021 3723.00 3141.23 84.32 1.00 327.05 2680.40
   22:27:24.958.27-May-2021 3723.00 3141.23 84.32 1.00 327.25 2680.40
   22:27:25.158.27-May-2021 3723.00 3141.22 84.32 1.00 327.45 2680.40
   22:27:25.358.27-May-2021 3723.00 3141.22 84.32 1.00 327.65 2680.40
   22:27:25.558.27-May-2021 3723.00 3141.20 84.32 1.00 327.85 2680.40
   22:27:25.758.27-May-2021 3723.00 3141.23 84.32 1.00 328.05 2680.40
   22:27:25.958.27-May-2021 3723.00 3141.23 84.32 1.00 328.25 2680.40
   22:27:26.158.27-May-2021 3723.00 3141.21 84.32 1.00 328.45 2680.40
   22:27:26.358.27-May-2021 3723.00 3141.22 84.32 1.00 328.65 2680.40
   22:27:26.558.27-May-2021 3723.00 3141.23 84.32 1.00 328.85 2680.40
   22:27:26.758.27-May-2021 3723.00 3141.23 84.32 1.00 329.05 2680.40
   22:27:26.958.27-May-2021 3723.00 3141.23 84.32 1.00 329.25 2680.40
   22:27:27.158.27-May-2021 3723.00 3141.22 84.32 1.00 329.45 2680.40
   22:27:27.358.27-May-2021 3723.00 3141.22 84.32 1.00 329.65 2680.40
   22:27:27.558.27-May-2021 3723.00 3141.22 84.32 1.00 329.85 2680.40
   22:27:27.758.27-May-2021 3723.00 3141.07 84.32 1.00 330.05 2680.40
   22:27:27.958.27-May-2021 3723.00 3141.07 84.32 1.00 330.25 2680.40
   22:27:28.158.27-May-2021 3723.00 3141.21 84.32 1.00 330.45 2680.40
   22:27:28.358.27-May-2021 3723.00 3141.22 84.32 1.00 330.65 2680.40
   22:27:28.558.27-May-2021 3723.00 3141.22 84.32 1.00 330.85 2680.40
   22:27:28.758.27-May-2021 3723.00 3141.22 84.32 1.00 331.05 2680.40
   22:27:28.958.27-May-2021 3723.00 3141.22 84.32 1.00 331.25 2680.40
   22:27:29.159.27-May-2021 3723.00 3141.22 84.32 1.00 331.45 2680.40
   22:27:29.359.27-May-2021 3723.00 3141.22 84.32 1.00 331.65 2680.40
   22:27:29.559.27-May-2021 3723.00 3141.22 84.32 1.00 331.85 2680.40
   22:27:29.759.27-May-2021 3723.00 3141.21 84.32 1.00 332.05 2680.40
   22:27:29.959.27-May-2021 3723.00 3141.21 84.32 1.00 332.25 2680.40
   22:27:30.159.27-May-2021 3723.00 3141.21 84.32 1.00 332.45 2680.40
   22:27:30.359.27-May-2021 3723.00 3141.06 84.32 1.00 332.65 2680.40
   22:27:30.559.27-May-2021 3723.00 3141.36 84.32 1.00 332.85 2680.40
   22:27:30.759.27-May-2021 3723.00 3141.20 84.32 1.00 333.05 2680.40
   22:27:30.959.27-May-2021 3723.00 3141.20 84.32 1.00 333.25 2680.40
   22:27:31.159.27-May-2021 3723.00 3141.21 84.32 1.00 333.45 2680.40
   22:27:31.359.27-May-2021 3723.00 3141.20 84.32 1.00 333.65 2680.40
   22:27:31.559.27-May-2021 3723.00 3141.21 84.32 1.00 333.85 2680.40
   22:27:31.759.27-May-2021 3723.00 3141.20 84.32 1.00 334.05 2680.40
   22:27:31.959.27-May-2021 3723.00 3141.20 84.32 1.00 334.25 2680.40
   22:27:32.159.27-May-2021 3723.00 3141.21 84.32 1.00 334.45 2680.40
   22:27:32.359.27-May-2021 3723.00 3141.21 84.32 1.00 334.65 2680.40
   22:27:32.559.27-May-2021 3723.00 3141.20 84.32 1.00 334.85 2680.40
   22:27:32.759.27-May-2021 3723.00 3141.21 84.32 1.00 335.05 2680.40
   22:27:32.959.27-May-2021 3723.00 3141.21 84.32 1.00 335.25 2680.40
   22:27:33.159.27-May-2021 3723.00 3141.36 84.32 1.00 335.45 2680.40
   22:27:33.359.27-May-2021 3723.00 3141.20 84.32 1.00 335.65 2680.40
   22:27:33.559.27-May-2021 3723.00 3141.06 84.32 1.00 335.85 2680.40
   22:27:33.759.27-May-2021 3723.00 3141.35 84.32 1.00 336.05 2680.40
   22:27:33.959.27-May-2021 3723.00 3141.35 84.32 1.00 336.25 2680.40
   22:27:34.159.27-May-2021 3723.00 3141.20 84.32 1.00 336.45 2680.40
   22:27:34.359.27-May-2021 3723.00 3141.21 84.32 1.00 336.65 2680.40
   22:27:34.559.27-May-2021 3723.00 3141.20 84.32 1.00 336.85 2680.40
   22:27:34.759.27-May-2021 3723.00 3141.20 84.32 1.00 337.05 2680.40
   22:27:34.959.27-May-2021 3723.00 3141.20 84.32 1.00 337.25 2680.40
   22:27:35.160.27-May-2021 3723.00 3141.19 84.32 1.00 337.45 2680.40
   22:27:35.360.27-May-2021 3723.00 3141.21 84.32 1.00 337.65 2680.40
   22:27:35.560.27-May-2021 3723.00 3141.22 84.32 1.00 337.85 2680.40
   22:27:35.760.27-May-2021 3723.00 3141.08 84.32 1.00 338.06 2680.40
   22:27:35.960.27-May-2021 3723.00 3141.08 84.32 1.00 338.26 2680.40
   22:27:36.160.27-May-2021 3723.00 3141.21 84.32 1.00 338.46 2680.40
   22:27:36.360.27-May-2021 3723.00 3141.21 84.32 1.00 338.66 2680.40
   22:27:36.560.27-May-2021 3723.00 3141.19 84.32 1.00 338.86 2680.40
   22:27:36.760.27-May-2021 3723.00 3141.21 84.32 1.00 339.06 2680.40
   22:27:36.960.27-May-2021 3723.00 3141.21 84.32 1.00 339.26 2680.40
   22:27:37.160.27-May-2021 3723.00 3141.20 84.32 1.00 339.46 2680.40
   22:27:37.360.27-May-2021 3723.00 3141.21 84.32 1.00 339.66 2680.40
   22:27:37.560.27-May-2021 3723.00 3141.20 84.32 1.00 339.86 2680.40
   22:27:37.760.27-May-2021 3723.00 3141.20 84.32 1.00 340.06 2680.40
   22:27:37.960.27-May-2021 3723.00 3141.20 84.32 1.00 340.26 2680.40
   22:27:38.160.27-May-2021 3723.00 3141.19 84.32 1.00 340.46 2680.40
   22:27:38.360.27-May-2021 3723.00 3141.08 84.32 1.00 340.66 2680.40
   22:27:38.560.27-May-2021 3723.00 3141.34 84.32 1.00 340.86 2680.40
   22:27:38.760.27-May-2021 3723.00 3141.19 84.32 1.00 341.06 2680.40
   22:27:38.960.27-May-2021 3723.00 3141.19 84.32 1.00 341.26 2680.40
   22:27:39.160.27-May-2021 3723.00 3141.19 84.32 1.00 341.46 2680.40
   22:27:39.360.27-May-2021 3723.00 3141.20 84.32 1.00 341.66 2680.40
   22:27:39.560.27-May-2021 3723.00 3141.20 84.32 1.00 341.86 2680.40
   22:27:39.760.27-May-2021 3723.00 3141.20 84.32 1.00 342.06 2680.40
   22:27:39.960.27-May-2021 3723.00 3141.20 84.32 1.00 342.26 2680.40
   22:27:40.160.27-May-2021 3723.00 3141.20 84.32 1.00 342.46 2680.40
   22:27:40.360.27-May-2021 3723.00 3141.20 84.32 1.00 342.66 2680.40
   22:27:40.560.27-May-2021 3723.00 3141.20 84.32 1.00 342.86 2680.40
   22:27:40.760.27-May-2021 3723.00 3141.20 84.32 1.00 343.06 2680.40
   22:27:40.960.27-May-2021 3723.00 3141.20 84.32 1.00 343.26 2680.40
   22:27:41.160.27-May-2021 3723.00 3141.32 84.32 1.00 343.46 2680.40
   22:27:41.361.27-May-2021 3723.00 3141.20 84.32 1.00 343.66 2680.40
   22:27:41.561.27-May-2021 3723.00 3141.07 84.32 1.00 343.86 2680.40
   22:27:41.761.27-May-2021 3723.00 3141.32 84.32 1.00 344.06 2680.40
   22:27:41.961.27-May-2021 3723.00 3141.32 84.32 1.00 344.26 2680.40
   22:27:42.161.27-May-2021 3723.00 3141.20 84.32 1.00 344.46 2680.40
   22:27:42.361.27-May-2021 3723.00 3141.18 84.32 1.00 344.66 2680.40
   22:27:42.561.27-May-2021 3723.00 3141.05 84.32 1.00 344.86 2680.40
