~Version Information
 VERS.                  2.0:   CWLS log ASCII Standard -VERSION 2.0
 WRAP.                   NO:   One line per depth step
~Well Information Block
#MNEM.UNIT     VALUE/NAME     DESCRIPTION
#---------     -----------    ---------------------------
 STRT.S             23:03:24 27-May-21: START TIME 23:03:24 27-May-21
 STOP.S             23:10:28 27-May-21: STOP TIME  23:10:28 27-May-21
 STEP.S                   0.00: STEP TIME
 NULL.                 -999.25: NULL VALUE
 UWI .                     N/A:  UNIQUE WELL IDENTIFIER
 API .                     N/A:  API NUMBER
 UNIT.                     N/A:  LOGGING EQUIPMENT ID
 DCON.         Sperry Drilling:  DIRECTNL CONTR
 DOE .                     N/A:  DOE NUMBER
 MWDS.                    Baku:  MWD SHOP
 SRVC.     Turan Drilling and Engineering:  CONTRACTOR
 CTRY.              Azerbaijan:  COUNTRY NAME
 PROV.                    Baku:  PROVINCE
 STAT.                    Baku:  STATE NAME
 REGN.                   EESSA:  REGION
 BASE.              Azerbaijan:  LOGGING EQUIPMENT BASE LOCATION
 WTYP.                Deviated:  WELL TYPE
 RIG .              East Azeri:  RIG NAME
 WELL.                    D02y:  WELL NAME
 FLD .                     ACG:  FIELD NAME
 COMP.     BP Exploration (Caspian Sea) Ltd.:  COMPANY
 PDAT.          Mean Sea Level:  PERMANENT DATUM
 MDS .        Operator Entered:  MAG DATA SOURCE
 SON .        AZ-XX-0906997291:  JOB NUMBER
 FTOP.          Formation Tops:  FORM TOPS DESC
 ILTD.               Lithology:  INTERP LTH DESC
 SVYD.                  Survey:  SURVEY DESC
 DMOD.             Drill Model:  DRILL MOD DESC
 HPTY.       Minimum Curvature:  HOLE POS TYPE
 NREF.                    Grid:  NORTH REFERENCE
 SPUD.               05-May-21:  SPUD DATE
 DATE.      09.27.28 12-Jun-21:  END TIME
 STIM.      09.27.28 12-May-21:  START TIME
 DMF .             Drill Floor:  DRILL MEAS FROM
 DFST.                        :  DIST FSL TEXT
 DFWT.                        :  DIST FWL TEXT
 CNTY.                        :  COUNTY
 LOC .                        :  LOCATION
 LMF .             Drill Floor:  LOG MEASURED FROM
 DEP .m                2806.40:  DEPTH
 AGAP.m                  43.60:  AIR GAP
 VSNS.m                  -4.42:  VERT SEC N/S
 VSEW.m                  -7.31:  VERT SEC E/W
 APD .m                  43.60:  DEPTH ABOVE PD
 WDMS.m                 151.80:  WD ELEV
 EGL .m                   0.00:  GROUND ELEVATION
 EPD .m                   0.00:  ELEVATION
 AZTC.deg                 6.18:  AZM TOTAL CORR
 GRDC.deg                 0.29:  GRID CORRECTION
 MDEC.deg                 6.47:  MAGNETIC DECL
 MDIP.deg                59.50:  MAGNETIC DIP
 MFLD.nT              50350.00:  MAGNETIC FIELD
 GVFD.g                   1.00:  GRAVITY FIELD
 VSDR.deg               179.08:  VERT SEC DIRECT
 TDD .m                4300.00:  TOTAL DEPTH (DRILLER)
 SDEP.m                2800.00:  START DEPTH
 DFSL.m                   0.00:  DISTANCE FSL
 DFWL.m                   0.00:  DISTANCE FWL
 UTMY.m             4431871.34:  UTM Y
 UTMX.m              538762.90:  UTM X
 WHEW.m                  -7.31:  WELL HEAD E/W
 WHNS.m                  -4.42:  WELL HEAD N/S
 LONG.deg                51.45:  LONGITUDE
 LATI.deg                40.02:  LATITUDE
 TVDS.m                  43.60:  TVDSS CORRECTN
 EKB .m                  43.60:  KB ELEVATION
 EDF .m                  43.60:  DF ELEVATION
 TDL .m                 806.00:  TOTAL DEPTH (LOGGER)
 MAGU.                 1851231:  MAGUTM CHECKSUM
 VSC .                       0:  VS TO CLOSURE
~Parameter Information Block
#MNEM.UNIT       Value        Description
#---------     -----------    ---------------------------
 AV  .mps                 1.60:  Ann Velocity 
 AVMX.mps                 2.00:  Max Ann Veloc 
 AZIF.deg               140.24:  Azm, Final 
 BHAT.        Rotary Steerable:  BHA Type 
 BROT.°/30m               0.50:  Build Rotating 
 BS  .in                  8.50:  Bit Size 
 BTPL.psig              619.00:  Bit Press Loss 
 CABU.                     Yes:  Customer Abuse 
 CGEO.          Ilgar Gurbanov:  Customer Geo 
 COMM.                     |¡U:  Run Comments 1 
 TCS .hr                 85.88:  Time Ciculation Ended 
 CV  .mps                 3.30:  Crit Velocity 
 CVMX.mps                 3.50:  Max Crit Veloc 
 DD1 .           Hamid Axmedov:  Direct Drillr 1 
 DD2 .           Teymur Aliyev:  Direct Drillr 2 
 DDSV.               Geo-Pilot:  DD Service 
 DEFF.%                 100.00:  % Det Eff 
 DLRX.°/30m               0.00:  Dogleg Rot Max 
 DLSO.°/30m               1.80:  Dogleg Oriented 
 DLSX.°/30m               3.34:  Dogleg Str Max 
 DRET.      11.50.00 27-May-21:  Drill End Time 
 DRST.      21.13.00 24-May-21:  Drill Start Tim 
 DTIM.hr                 45.11:  Time Drilling 
 EDEP.m                4054.00:  End Depth 
 ENG1.         Almaz Almadatov:  Engineer 1 
 ENG2.           Amrah Tahirov:  Engineer 2 
 ENG3.      Bakhtiyar Jabbarli:  Engineer 3 
 ENG4.          Nazrin Asgarli:  Engineer 4 
 ETIM.      10.00.00 30-May-21:  End Time 
 FLOI.gpm               530.00:  Flow In 
 FLON.gpm               400.00:  Flow In Min 
 FLOS.cptm                0.00:  Fluid Loss 
 FLOX.gpm               560.00:  Flow In Max 
 DFT .        Mineral Oil Base:  Mud Type 
 FTRO.       Formation Presure:  FTWD Run Obj 
 HFLO.                      No:  High Flow 
 HPRE.                      No:  High Pressure 
 HTEM.                      No:  High Temp 
 HYDO.m                   1.80:  Hydro Offset 
 IFIN.deg                73.83:  Inc, Final 
 IMAX.deg                73.83:  Inc Max 
 IMIN.deg                57.86:  Inc Min 
 IMND.m                3259.27:  Inc Min Depth 
 IMXD.m                4045.58:  Inc Max Depth 
 JARR.                     Yes:  Jarring 
 LETM.      11.50.00 27-May-21:  Log End Time 
 LOST.hr                     0:  Lost Rig Time 
 LSTM.      21.13.00 24-May-21:  Log Start Time 
 MDCL.ppm             42500.00:  Mud Chlorides 
 MDES.     Inversion Oil/Synthetic:  Mud Desc 
 DFD .sg                  1.52:  Mud Density 
 MDMN.sg                  1.52:  Dens Mud Min 
 MDMX.sg                  1.52:  Dens Mud Max 
 MOIL.                      70:  Run Mud Oil % 
 MOWR.                   70:30:  Run Mud OWR 
 MSND.                     0.2:  Run Mud Sand % 
 MSOL.                      22:  Run Mud Solids% 
 DFV .spqt               77.00:  Mud Viscosity 
 MWOD.in                  6.75:  MWD Tool OD 
 MWSI.                      No:  Serv Intrp, MWD 
 OTIM.hr                151.01:  Time Operating 
 PCON.          Wear / Scratch:  Pad Condition 
 PMAX.psia            11296.93:  Press Op, Max 
 PV  .cP                 37.00:  Mud PV 
 RUN .                     500:  Run Number 
 ROPA.m/hr               25.00:  ROP Avg 
 ROPN.m/hr                9.00:  ROP Min 
 ROPX.m/hr               28.00:  ROP Max 
 RPMA.rpm               140.00:  RPM Surface Avg 
 RPMN.rpm                90.00:  RPM Surface Min 
 RPMX.rpm               140.00:  RPM Surface Max 
 RRUN.                    0500:  Rig Run Number 
 SAZI.deg               172.17:  Azm, Start 
 SDEP.m                3248.00:  Start Depth 
 SIDD.                      No:  Serv Intrp, DD 
 SINC.deg                57.86:  Inc, Start 
 SPPA.psig             5620.00:  SPP Avg 
 SPPN.psig             5190.00:  SPP Min 
 SPPX.psig             6050.00:  SPP Max 
 STIM.      16.00.00 23-May-21:  Start Time 
 SVCS.                 DD, MWD:  Services 
 SVER.                    9.20:  Sperry Version 
 TDAT.m                 806.00:  Tot Depth Attmp 
 TDDF.                      No:  Trip for DD 
 TDLG.m                 806.00:  Tot Depth Loggd 
 TFF .                      No:  Trip for Fail 
 TQAA.f-kp               12.00:  Torque Abs Avg 
 TQAN.f-kp                8.00:  Torque Abs Min 
 TQAX.f-kp               15.00:  Torque Abs Max 
 TRRT.°/30m               0.30:  Turn Rotating 
 MRT .                  EWR-M5:  Maximum Recorded Temperature 
 TTMX.degC               93.00:  Max Tool Temp 
 VS01.                90649155:  Virtual Str1 SN 
 VS02.                90642264:  Virtual Str2 SN 
 VS03.                90642266:  Virtual Str3 SN 
 VS04.                90642261:  Virtual Str4 SN 
 WBMN.klb                 0.00:  WOB Min 
 WITN.             Anar Khalil:  Customer Rep 
 WITN.           Murad Guliyev:  Customer Rep 2 
 WOBA.klb                13.00:  WOB Avg 
 WOBX.klb                25.00:  WOB Max 
 YP  .lhf2               32.00:  Yield Point 
~Curve Information Block
#MNEM.UNIT                 API CODE     Curve Description
#---------               -----------    ---------------------------
 TIME.HHMMSS            00 000 000 000:  GT Time & Date
 GTDEPTH.m              00 000 000 000:  GT Depth
 GTPQH.psia             00 000 000 000:  GT HR Quartz Pressure
 GTTQ.degC              00 000 000 000:  GT Quartz Temperature
 GTTN.NONE              00 000 000 000:  GT Test Number
 GTET.sec               00 000 000 000:  GT Elapsed Test Time
 GTTVD.m                00 000 000 000:  GT True Vertical Depth
#Other Information
#
#WARRANTY: Halliburton will use its best efforts to furnish customers with 
#accurate information and interpretations that are part of, and incident to, the services 
#provided.  However, Halliburton cannot and does not warrant the accuracy 
#or correctness of such information and interpretations.  Under no circumstances should any 
#such information or interpretation be relied upon as the sole basis for any drilling, 
#completion, production, or financial decision or any procedure involving any risk to the 
#safety of any drilling venture, drilling rig or its crew or any other third party.  The 
#Customer has full responsibility for all drilling, completion and production operation.  
#Halliburton makes no representations or warranties, either expressed or 
#implied, including, but not limited to, the implied warranties of merchantability or fitness 
#for a particular purpose, with respect to the services rendered.  In no event will 
#Halliburton be liable for failure to obtain any particular results or for 
#any damages, including, but not limited to, indirect, special or consequential damages, 
#resulting from the use of any information or interpretation provided by Halliburton.
#
~A           TIME           GTDEPTH  GTPQH  GTTQ  GTTN  GTET   GTTVD  
# ...
   23:09:55.416.27-May-2021 3710.50 6245.24 84.67 2.00 391.15 2675.83
   23:09:55.617.27-May-2021 3710.50 6246.45 84.67 2.00 391.35 2675.83
   23:09:55.817.27-May-2021 3710.50 6246.45 84.67 2.00 391.55 2675.83
   23:09:56.017.27-May-2021 3710.50 6246.45 84.67 2.00 391.75 2675.83
   23:09:56.217.27-May-2021 3710.50 6246.36 84.67 2.00 391.95 2675.83
   23:09:56.417.27-May-2021 3710.50 6246.66 84.67 2.00 392.15 2675.83
   23:09:56.617.27-May-2021 3710.50 6246.66 84.67 2.00 392.35 2675.83
   23:09:56.817.27-May-2021 3710.50 6246.20 84.67 2.00 392.55 2675.83
   23:09:57.017.27-May-2021 3710.50 6245.99 84.67 2.00 392.75 2675.83
   23:09:57.217.27-May-2021 3710.50 6246.31 84.67 2.00 392.95 2675.83
   23:09:57.417.27-May-2021 3710.50 6245.73 84.67 2.00 393.15 2675.83
   23:09:57.617.27-May-2021 3710.50 6245.73 84.67 2.00 393.35 2675.83
   23:09:57.817.27-May-2021 3710.50 6246.12 84.67 2.00 393.55 2675.83
   23:09:58.018.27-May-2021 3710.50 6246.33 84.67 2.00 393.75 2675.83
   23:09:58.218.27-May-2021 3710.50 6246.35 84.67 2.00 393.95 2675.83
   23:09:58.418.27-May-2021 3710.50 6254.35 84.67 2.00 394.15 2675.83
   23:09:58.618.27-May-2021 3710.50 6254.35 84.67 2.00 394.35 2675.83
   23:09:58.818.27-May-2021 3710.50 6254.35 84.67 2.00 394.55 2675.83
   23:09:59.018.27-May-2021 3710.50 6246.10 84.67 2.00 394.75 2675.83
   23:09:59.218.27-May-2021 3710.50 6246.73 84.67 2.00 394.95 2675.83
   23:09:59.418.27-May-2021 3710.50 6245.62 84.67 2.00 395.15 2675.83
   23:09:59.618.27-May-2021 3710.50 6245.62 84.67 2.00 395.35 2675.83
   23:09:59.818.27-May-2021 3710.50 6245.63 84.67 2.00 395.55 2675.83
   23:10:00.018.27-May-2021 3710.50 6245.20 84.67 2.00 395.75 2675.83
   23:10:00.218.27-May-2021 3710.50 6245.62 84.67 2.00 395.95 2675.83
   23:10:00.418.27-May-2021 3710.50 6245.80 84.66 2.00 396.16 2675.83
   23:10:00.619.27-May-2021 3710.50 6245.80 84.66 2.00 396.36 2675.83
   23:10:00.819.27-May-2021 3710.50 6246.12 84.66 2.00 396.56 2675.83
   23:10:01.019.27-May-2021 3710.50 6249.76 84.66 2.00 396.76 2675.83
   23:10:01.219.27-May-2021 3710.50 6246.87 84.66 2.00 396.96 2675.83
   23:10:01.419.27-May-2021 3710.50 6246.34 84.66 2.00 397.16 2675.83
   23:10:01.619.27-May-2021 3710.50 6246.34 84.66 2.00 397.36 2675.83
   23:10:01.819.27-May-2021 3710.50 6250.27 84.66 2.00 397.56 2675.83
   23:10:02.019.27-May-2021 3710.50 6246.60 84.66 2.00 397.76 2675.83
   23:10:02.219.27-May-2021 3710.50 6245.83 84.66 2.00 397.96 2675.83
   23:10:02.419.27-May-2021 3710.50 6245.99 84.66 2.00 398.16 2675.83
   23:10:02.619.27-May-2021 3710.50 6245.99 84.66 2.00 398.36 2675.83
   23:10:02.819.27-May-2021 3710.50 6245.66 84.66 2.00 398.56 2675.83
   23:10:03.019.27-May-2021 3710.50 6249.50 84.66 2.00 398.76 2675.83
   23:10:03.220.27-May-2021 3710.50 6246.09 84.66 2.00 398.96 2675.83
   23:10:03.420.27-May-2021 3710.50 6245.72 84.66 2.00 399.16 2675.83
   23:10:03.620.27-May-2021 3710.50 6245.72 84.66 2.00 399.36 2675.83
   23:10:03.820.27-May-2021 3710.50 6247.04 84.66 2.00 399.56 2675.83
   23:10:04.020.27-May-2021 3710.50 6252.50 84.66 2.00 399.76 2675.83
   23:10:04.220.27-May-2021 3710.50 6245.26 84.66 2.00 399.96 2675.83
   23:10:04.420.27-May-2021 3710.50 6246.45 84.66 2.00 400.16 2675.83
   23:10:04.620.27-May-2021 3710.50 6246.45 84.66 2.00 400.36 2675.83
   23:10:04.820.27-May-2021 3710.50 6247.22 84.66 2.00 400.56 2675.83
   23:10:05.020.27-May-2021 3710.50 6246.40 84.66 2.00 400.76 2675.83
   23:10:05.220.27-May-2021 3710.50 6246.05 84.66 2.00 400.96 2675.83
   23:10:05.420.27-May-2021 3710.50 6246.00 84.66 2.00 401.16 2675.83
   23:10:05.620.27-May-2021 3710.50 6246.00 84.66 2.00 401.36 2675.83
   23:10:05.821.27-May-2021 3710.50 6246.04 84.66 2.00 401.56 2675.83
   23:10:06.021.27-May-2021 3710.50 6246.23 84.66 2.00 401.76 2675.83
   23:10:06.221.27-May-2021 3710.50 6246.49 84.66 2.00 401.96 2675.83
   23:10:06.421.27-May-2021 3710.50 6246.04 84.66 2.00 402.16 2675.83
   23:10:06.621.27-May-2021 3710.50 6246.04 84.66 2.00 402.36 2675.83
   23:10:06.821.27-May-2021 3710.50 6244.79 84.66 2.00 402.56 2675.83
   23:10:07.021.27-May-2021 3710.50 6246.10 84.66 2.00 402.76 2675.83
   23:10:07.221.27-May-2021 3710.50 6245.96 84.66 2.00 402.96 2675.83
   23:10:07.421.27-May-2021 3710.50 6246.52 84.66 2.00 403.16 2675.83
   23:10:07.621.27-May-2021 3710.50 6246.52 84.66 2.00 403.36 2675.83
   23:10:07.821.27-May-2021 3710.50 6245.33 84.66 2.00 403.56 2675.83
   23:10:08.021.27-May-2021 3710.50 6245.35 84.66 2.00 403.76 2675.83
   23:10:08.222.27-May-2021 3710.50 6245.25 84.66 2.00 403.96 2675.83
   23:10:08.422.27-May-2021 3710.50 6245.57 84.66 2.00 404.16 2675.83
   23:10:08.622.27-May-2021 3710.50 6245.57 84.66 2.00 404.36 2675.83
   23:10:08.822.27-May-2021 3710.50 6246.15 84.66 2.00 404.56 2675.83
   23:10:09.022.27-May-2021 3710.50 6246.13 84.66 2.00 404.76 2675.83
   23:10:09.222.27-May-2021 3710.50 6252.23 84.66 2.00 404.96 2675.83
   23:10:09.422.27-May-2021 3710.50 6244.22 84.66 2.00 405.16 2675.83
   23:10:09.622.27-May-2021 3710.50 6244.22 84.66 2.00 405.36 2675.83
   23:10:09.822.27-May-2021 3710.50 6246.03 84.65 2.00 405.56 2675.83
   23:10:10.022.27-May-2021 3710.50 6254.69 84.65 2.00 405.76 2675.83
   23:10:10.222.27-May-2021 3710.50 6241.87 84.65 2.00 405.96 2675.83
   23:10:10.422.27-May-2021 3710.50 6245.57 84.65 2.00 406.16 2675.83
   23:10:10.622.27-May-2021 3710.50 6245.57 84.65 2.00 406.36 2675.83
   23:10:10.823.27-May-2021 3710.50 6246.09 84.65 2.00 406.56 2675.83
   23:10:11.023.27-May-2021 3710.50 6251.30 84.65 2.00 406.76 2675.83
   23:10:11.223.27-May-2021 3710.50 6242.92 84.65 2.00 406.96 2675.83
   23:10:11.423.27-May-2021 3710.50 6246.07 84.65 2.00 407.16 2675.83
   23:10:11.623.27-May-2021 3710.50 6246.07 84.65 2.00 407.36 2675.83
   23:10:11.823.27-May-2021 3710.50 6246.81 84.65 2.00 407.56 2675.83
   23:10:12.023.27-May-2021 3710.50 6245.43 84.65 2.00 407.76 2675.83
   23:10:12.223.27-May-2021 3710.50 6251.74 84.65 2.00 407.96 2675.83
   23:10:12.423.27-May-2021 3710.50 6243.81 84.65 2.00 408.16 2675.83
   23:10:12.623.27-May-2021 3710.50 6243.81 84.65 2.00 408.36 2675.83
   23:10:12.823.27-May-2021 3710.50 6245.98 84.65 2.00 408.56 2675.83
   23:10:13.023.27-May-2021 3710.50 6247.09 84.65 2.00 408.76 2675.83
   23:10:13.223.27-May-2021 3710.50 6246.17 84.65 2.00 408.96 2675.83
   23:10:13.424.27-May-2021 3710.50 6245.57 84.65 2.00 409.16 2675.83
   23:10:13.624.27-May-2021 3710.50 6245.57 84.65 2.00 409.36 2675.83
   23:10:13.824.27-May-2021 3710.50 6245.48 84.65 2.00 409.56 2675.83
   23:10:14.024.27-May-2021 3710.50 6245.94 84.65 2.00 409.76 2675.83
   23:10:14.224.27-May-2021 3710.50 6245.93 84.65 2.00 409.96 2675.83
   23:10:14.424.27-May-2021 3710.50 6246.01 84.65 2.00 410.16 2675.83
   23:10:14.624.27-May-2021 3710.50 6246.01 84.65 2.00 410.36 2675.83
   23:10:14.824.27-May-2021 3710.50 6251.97 84.65 2.00 410.56 2675.83
   23:10:15.024.27-May-2021 3710.50 6243.76 84.65 2.00 410.76 2675.83
   23:10:15.224.27-May-2021 3710.50 6246.49 84.65 2.00 410.96 2675.83
   23:10:15.424.27-May-2021 3710.50 6246.08 84.65 2.00 411.16 2675.83
   23:10:15.624.27-May-2021 3710.50 6246.08 84.65 2.00 411.36 2675.83
   23:10:15.824.27-May-2021 3710.50 6245.65 84.65 2.00 411.56 2675.83
   23:10:16.025.27-May-2021 3710.50 6245.33 84.65 2.00 411.76 2675.83
   23:10:16.225.27-May-2021 3710.50 6245.81 84.65 2.00 411.96 2675.83
   23:10:16.425.27-May-2021 3710.50 6245.37 84.65 2.00 412.16 2675.83
   23:10:16.625.27-May-2021 3710.50 6245.37 84.65 2.00 412.36 2675.83
   23:10:16.825.27-May-2021 3710.50 6245.66 84.65 2.00 412.56 2675.83
   23:10:17.025.27-May-2021 3710.50 6246.22 84.65 2.00 412.76 2675.83
   23:10:17.225.27-May-2021 3710.50 6245.92 84.65 2.00 412.96 2675.83
   23:10:17.425.27-May-2021 3710.50 6245.80 84.65 2.00 413.16 2675.83
   23:10:17.625.27-May-2021 3710.50 6245.80 84.65 2.00 413.36 2675.83
   23:10:17.825.27-May-2021 3710.50 6246.18 84.65 2.00 413.56 2675.83
   23:10:18.025.27-May-2021 3710.50 6246.00 84.65 2.00 413.76 2675.83
   23:10:18.225.27-May-2021 3710.50 6245.99 84.65 2.00 413.96 2675.83
