~Version Information
 VERS.                  2.0:   CWLS log ASCII Standard -VERSION 2.0
 WRAP.                   NO:   One line per depth step
~Well Information Block
#MNEM.UNIT     VALUE/NAME     DESCRIPTION
#---------     -----------    ---------------------------
 STRT.S             05:31:02 28-May-21: START TIME 05:31:02 28-May-21
 STOP.S             05:38:03 28-May-21: STOP TIME  05:38:03 28-May-21
 STEP.S                   0.00: STEP TIME
 NULL.                 -999.25: NULL VALUE
 UWI .                     N/A:  UNIQUE WELL IDENTIFIER
 API .                     N/A:  API NUMBER
 UNIT.                     N/A:  LOGGING EQUIPMENT ID
 DCON.         Sperry Drilling:  DIRECTNL CONTR
 DOE .                     N/A:  DOE NUMBER
 MWDS.                    Baku:  MWD SHOP
 SRVC.     Turan Drilling and Engineering:  CONTRACTOR
 CTRY.              Azerbaijan:  COUNTRY NAME
 PROV.                    Baku:  PROVINCE
 STAT.                    Baku:  STATE NAME
 REGN.                   EESSA:  REGION
 BASE.              Azerbaijan:  LOGGING EQUIPMENT BASE LOCATION
 WTYP.                Deviated:  WELL TYPE
 RIG .              East Azeri:  RIG NAME
 WELL.                    D02y:  WELL NAME
 FLD .                     ACG:  FIELD NAME
 COMP.     BP Exploration (Caspian Sea) Ltd.:  COMPANY
 PDAT.          Mean Sea Level:  PERMANENT DATUM
 MDS .        Operator Entered:  MAG DATA SOURCE
 SON .        AZ-XX-0906997291:  JOB NUMBER
 FTOP.          Formation Tops:  FORM TOPS DESC
 ILTD.               Lithology:  INTERP LTH DESC
 SVYD.                  Survey:  SURVEY DESC
 DMOD.             Drill Model:  DRILL MOD DESC
 HPTY.       Minimum Curvature:  HOLE POS TYPE
 NREF.                    Grid:  NORTH REFERENCE
 SPUD.               05-May-21:  SPUD DATE
 DATE.      09.27.28 12-Jun-21:  END TIME
 STIM.      09.27.28 12-May-21:  START TIME
 DMF .             Drill Floor:  DRILL MEAS FROM
 DFST.                        :  DIST FSL TEXT
 DFWT.                        :  DIST FWL TEXT
 CNTY.                        :  COUNTY
 LOC .                        :  LOCATION
 LMF .             Drill Floor:  LOG MEASURED FROM
 DEP .m                2806.40:  DEPTH
 AGAP.m                  43.60:  AIR GAP
 VSNS.m                  -4.42:  VERT SEC N/S
 VSEW.m                  -7.31:  VERT SEC E/W
 APD .m                  43.60:  DEPTH ABOVE PD
 WDMS.m                 151.80:  WD ELEV
 EGL .m                   0.00:  GROUND ELEVATION
 EPD .m                   0.00:  ELEVATION
 AZTC.deg                 6.18:  AZM TOTAL CORR
 GRDC.deg                 0.29:  GRID CORRECTION
 MDEC.deg                 6.47:  MAGNETIC DECL
 MDIP.deg                59.50:  MAGNETIC DIP
 MFLD.nT              50350.00:  MAGNETIC FIELD
 GVFD.g                   1.00:  GRAVITY FIELD
 VSDR.deg               179.08:  VERT SEC DIRECT
 TDD .m                4300.00:  TOTAL DEPTH (DRILLER)
 SDEP.m                2800.00:  START DEPTH
 DFSL.m                   0.00:  DISTANCE FSL
 DFWL.m                   0.00:  DISTANCE FWL
 UTMY.m             4431871.34:  UTM Y
 UTMX.m              538762.90:  UTM X
 WHEW.m                  -7.31:  WELL HEAD E/W
 WHNS.m                  -4.42:  WELL HEAD N/S
 LONG.deg                51.45:  LONGITUDE
 LATI.deg                40.02:  LATITUDE
 TVDS.m                  43.60:  TVDSS CORRECTN
 EKB .m                  43.60:  KB ELEVATION
 EDF .m                  43.60:  DF ELEVATION
 TDL .m                 806.00:  TOTAL DEPTH (LOGGER)
 MAGU.                 1851231:  MAGUTM CHECKSUM
 VSC .                       0:  VS TO CLOSURE
~Parameter Information Block
#MNEM.UNIT       Value        Description
#---------     -----------    ---------------------------
 AV  .mps                 1.60:  Ann Velocity 
 AVMX.mps                 2.00:  Max Ann Veloc 
 AZIF.deg               140.24:  Azm, Final 
 BHAT.        Rotary Steerable:  BHA Type 
 BROT.°/30m               0.50:  Build Rotating 
 BS  .in                  8.50:  Bit Size 
 BTPL.psig              619.00:  Bit Press Loss 
 CABU.                     Yes:  Customer Abuse 
 CGEO.          Ilgar Gurbanov:  Customer Geo 
 COMM.                     LMh:  Run Comments 1 
 TCS .hr                 85.88:  Time Ciculation Ended 
 CV  .mps                 3.30:  Crit Velocity 
 CVMX.mps                 3.50:  Max Crit Veloc 
 DD1 .           Hamid Axmedov:  Direct Drillr 1 
 DD2 .           Teymur Aliyev:  Direct Drillr 2 
 DDSV.               Geo-Pilot:  DD Service 
 DEFF.%                 100.00:  % Det Eff 
 DLRX.°/30m               0.00:  Dogleg Rot Max 
 DLSO.°/30m               1.80:  Dogleg Oriented 
 DLSX.°/30m               3.34:  Dogleg Str Max 
 DRET.      11.50.00 27-May-21:  Drill End Time 
 DRST.      21.13.00 24-May-21:  Drill Start Tim 
 DTIM.hr                 45.11:  Time Drilling 
 EDEP.m                4054.00:  End Depth 
 ENG1.         Almaz Almadatov:  Engineer 1 
 ENG2.           Amrah Tahirov:  Engineer 2 
 ENG3.      Bakhtiyar Jabbarli:  Engineer 3 
 ENG4.          Nazrin Asgarli:  Engineer 4 
 ETIM.      10.00.00 30-May-21:  End Time 
 FLOI.gpm               530.00:  Flow In 
 FLON.gpm               400.00:  Flow In Min 
 FLOS.cptm                0.00:  Fluid Loss 
 FLOX.gpm               560.00:  Flow In Max 
 DFT .        Mineral Oil Base:  Mud Type 
 FTRO.       Formation Presure:  FTWD Run Obj 
 HFLO.                      No:  High Flow 
 HPRE.                      No:  High Pressure 
 HTEM.                      No:  High Temp 
 HYDO.m                   1.80:  Hydro Offset 
 IFIN.deg                73.83:  Inc, Final 
 IMAX.deg                73.83:  Inc Max 
 IMIN.deg                57.86:  Inc Min 
 IMND.m                3259.27:  Inc Min Depth 
 IMXD.m                4045.58:  Inc Max Depth 
 JARR.                     Yes:  Jarring 
 LETM.      11.50.00 27-May-21:  Log End Time 
 LOST.hr                     0:  Lost Rig Time 
 LSTM.      21.13.00 24-May-21:  Log Start Time 
 MDCL.ppm             42500.00:  Mud Chlorides 
 MDES.     Inversion Oil/Synthetic:  Mud Desc 
 DFD .sg                  1.52:  Mud Density 
 MDMN.sg                  1.52:  Dens Mud Min 
 MDMX.sg                  1.52:  Dens Mud Max 
 MOIL.                      70:  Run Mud Oil % 
 MOWR.                   70:30:  Run Mud OWR 
 MSND.                     0.2:  Run Mud Sand % 
 MSOL.                      22:  Run Mud Solids% 
 DFV .spqt               77.00:  Mud Viscosity 
 MWOD.in                  6.75:  MWD Tool OD 
 MWSI.                      No:  Serv Intrp, MWD 
 OTIM.hr                151.01:  Time Operating 
 PCON.          Wear / Scratch:  Pad Condition 
 PMAX.psia            11296.93:  Press Op, Max 
 PV  .cP                 37.00:  Mud PV 
 RUN .                     500:  Run Number 
 ROPA.m/hr               25.00:  ROP Avg 
 ROPN.m/hr                9.00:  ROP Min 
 ROPX.m/hr               28.00:  ROP Max 
 RPMA.rpm               140.00:  RPM Surface Avg 
 RPMN.rpm                90.00:  RPM Surface Min 
 RPMX.rpm               140.00:  RPM Surface Max 
 RRUN.                    0500:  Rig Run Number 
 SAZI.deg               172.17:  Azm, Start 
 SDEP.m                3248.00:  Start Depth 
 SIDD.                      No:  Serv Intrp, DD 
 SINC.deg                57.86:  Inc, Start 
 SPPA.psig             5620.00:  SPP Avg 
 SPPN.psig             5190.00:  SPP Min 
 SPPX.psig             6050.00:  SPP Max 
 STIM.      16.00.00 23-May-21:  Start Time 
 SVCS.                 DD, MWD:  Services 
 SVER.                    9.20:  Sperry Version 
 TDAT.m                 806.00:  Tot Depth Attmp 
 TDDF.                      No:  Trip for DD 
 TDLG.m                 806.00:  Tot Depth Loggd 
 TFF .                      No:  Trip for Fail 
 TQAA.f-kp               12.00:  Torque Abs Avg 
 TQAN.f-kp                8.00:  Torque Abs Min 
 TQAX.f-kp               15.00:  Torque Abs Max 
 TRRT.°/30m               0.30:  Turn Rotating 
 MRT .                  EWR-M5:  Maximum Recorded Temperature 
 TTMX.degC               93.00:  Max Tool Temp 
 VS01.                90649155:  Virtual Str1 SN 
 VS02.                90642264:  Virtual Str2 SN 
 VS03.                90642266:  Virtual Str3 SN 
 VS04.                90642261:  Virtual Str4 SN 
 WBMN.klb                 0.00:  WOB Min 
 WITN.             Anar Khalil:  Customer Rep 
 WITN.           Murad Guliyev:  Customer Rep 2 
 WOBA.klb                13.00:  WOB Avg 
 WOBX.klb                25.00:  WOB Max 
 YP  .lhf2               32.00:  Yield Point 
~Curve Information Block
#MNEM.UNIT                 API CODE     Curve Description
#---------               -----------    ---------------------------
 TIME.HHMMSS            00 000 000 000:  GT Time & Date
 GTDEPTH.m              00 000 000 000:  GT Depth
 GTPQH.psia             00 000 000 000:  GT HR Quartz Pressure
 GTTQ.degC              00 000 000 000:  GT Quartz Temperature
 GTTN.NONE              00 000 000 000:  GT Test Number
 GTET.sec               00 000 000 000:  GT Elapsed Test Time
 GTTVD.m                00 000 000 000:  GT True Vertical Depth
#Other Information
#
#WARRANTY: Halliburton will use its best efforts to furnish customers with 
#accurate information and interpretations that are part of, and incident to, the services 
#provided.  However, Halliburton cannot and does not warrant the accuracy 
#or correctness of such information and interpretations.  Under no circumstances should any 
#such information or interpretation be relied upon as the sole basis for any drilling, 
#completion, production, or financial decision or any procedure involving any risk to the 
#safety of any drilling venture, drilling rig or its crew or any other third party.  The 
#Customer has full responsibility for all drilling, completion and production operation.  
#Halliburton makes no representations or warranties, either expressed or 
#implied, including, but not limited to, the implied warranties of merchantability or fitness 
#for a particular purpose, with respect to the services rendered.  In no event will 
#Halliburton be liable for failure to obtain any particular results or for 
#any damages, including, but not limited to, indirect, special or consequential damages, 
#resulting from the use of any information or interpretation provided by Halliburton.
#
~A           TIME           GTDEPTH  GTPQH  GTTQ  GTTN   GTET   GTTVD  
   05:31:02.337.28-May-2021 3456.50 6011.27 83.07 10.00   0.00 2576.46
   05:31:02.537.28-May-2021 3456.50 6011.27 83.07 10.00   0.20 2576.46
   05:31:02.737.28-May-2021 3456.50 6011.73 83.07 10.00   0.40 2576.46
   05:31:02.937.28-May-2021 3456.50 6011.75 83.07 10.00   0.60 2576.46
   05:31:03.137.28-May-2021 3456.50 6011.87 83.07 10.00   0.80 2576.46
   05:31:03.337.28-May-2021 3456.50 6011.77 83.07 10.00   1.00 2576.46
   05:31:03.537.28-May-2021 3456.50 6011.77 83.07 10.00   1.20 2576.46
   05:31:03.738.28-May-2021 3456.50 6018.98 83.07 10.00   1.40 2576.46
   05:31:03.938.28-May-2021 3456.50 6009.83 83.07 10.00   1.60 2576.46
   05:31:04.138.28-May-2021 3456.50 6012.57 83.07 10.00   1.80 2576.46
   05:31:04.338.28-May-2021 3456.50 6012.80 83.07 10.00   2.00 2576.46
   05:31:04.538.28-May-2021 3456.50 6012.80 83.07 10.00   2.20 2576.46
   05:31:04.738.28-May-2021 3456.50 6013.34 83.07 10.00   2.40 2576.46
   05:31:04.938.28-May-2021 3456.50 6014.07 83.07 10.00   2.60 2576.46
   05:31:05.138.28-May-2021 3456.50 6014.12 83.07 10.00   2.80 2576.46
   05:31:05.338.28-May-2021 3456.50 6014.26 83.07 10.00   3.00 2576.46
   05:31:05.538.28-May-2021 3456.50 6014.26 83.07 10.00   3.20 2576.46
   05:31:05.738.28-May-2021 3456.50 6019.42 83.07 10.00   3.40 2576.46
   05:31:05.938.28-May-2021 3456.50 6015.33 83.07 10.00   3.60 2576.46
   05:31:06.139.28-May-2021 3456.50 6020.74 83.07 10.00   3.80 2576.46
   05:31:06.339.28-May-2021 3456.50 6013.71 83.07 10.00   4.00 2576.46
   05:31:06.539.28-May-2021 3456.50 6013.71 83.07 10.00   4.20 2576.46
   05:31:06.739.28-May-2021 3456.50 6015.11 83.07 10.00   4.40 2576.46
   05:31:06.939.28-May-2021 3456.50 6022.53 83.06 10.00   4.60 2576.46
   05:31:07.139.28-May-2021 3456.50 6012.65 83.06 10.00   4.80 2576.46
   05:31:07.339.28-May-2021 3456.50 6016.33 83.06 10.00   5.00 2576.46
   05:31:07.539.28-May-2021 3456.50 6016.33 83.06 10.00   5.20 2576.46
   05:31:07.739.28-May-2021 3456.50 6016.52 83.06 10.00   5.40 2576.46
   05:31:07.939.28-May-2021 3456.50 6016.03 83.06 10.00   5.60 2576.46
   05:31:08.139.28-May-2021 3456.50 6016.85 83.06 10.00   5.80 2576.46
   05:31:08.339.28-May-2021 3456.50 6017.09 83.06 10.00   6.00 2576.46
   05:31:08.540.28-May-2021 3456.50 6017.09 83.06 10.00   6.20 2576.46
   05:31:08.740.28-May-2021 3456.50 6023.78 83.06 10.00   6.40 2576.46
   05:31:08.940.28-May-2021 3456.50 6014.63 83.06 10.00   6.60 2576.46
   05:31:09.140.28-May-2021 3456.50 6017.52 83.06 10.00   6.80 2576.46
   05:31:09.340.28-May-2021 3456.50 6017.20 83.06 10.00   7.00 2576.46
   05:31:09.540.28-May-2021 3456.50 6017.20 83.06 10.00   7.20 2576.46
   05:31:09.740.28-May-2021 3456.50 6017.43 83.06 10.00   7.40 2576.46
   05:31:09.940.28-May-2021 3456.50 6018.39 83.06 10.00   7.60 2576.46
   05:31:10.140.28-May-2021 3456.50 6018.66 83.06 10.00   7.80 2576.46
   05:31:10.340.28-May-2021 3456.50 6019.15 83.06 10.00   8.00 2576.46
   05:31:10.540.28-May-2021 3456.50 6019.15 83.06 10.00   8.20 2576.46
   05:31:10.740.28-May-2021 3456.50 6019.37 83.06 10.00   8.40 2576.46
   05:31:10.941.28-May-2021 3456.50 6019.65 83.06 10.00   8.60 2576.46
   05:31:11.141.28-May-2021 3456.50 6019.57 83.06 10.00   8.80 2576.46
   05:31:11.341.28-May-2021 3456.50 6019.44 83.06 10.00   9.00 2576.46
   05:31:11.541.28-May-2021 3456.50 6019.44 83.06 10.00   9.20 2576.46
   05:31:11.741.28-May-2021 3456.50 6018.18 83.06 10.00   9.40 2576.46
   05:31:11.941.28-May-2021 3456.50 6019.51 83.06 10.00   9.60 2576.46
   05:31:12.141.28-May-2021 3456.50 6019.39 83.06 10.00   9.80 2576.46
   05:31:12.341.28-May-2021 3456.50 6020.07 83.06 10.00  10.00 2576.46
   05:31:12.541.28-May-2021 3456.50 6020.07 83.06 10.00  10.20 2576.46
   05:31:12.741.28-May-2021 3456.50 6020.71 83.06 10.00  10.40 2576.46
   05:31:12.941.28-May-2021 3456.50 6020.69 83.06 10.00  10.60 2576.46
   05:31:13.141.28-May-2021 3456.50 6021.16 83.06 10.00  10.80 2576.46
   05:31:13.342.28-May-2021 3456.50 6021.23 83.06 10.00  11.00 2576.46
   05:31:13.542.28-May-2021 3456.50 6021.23 83.06 10.00  11.20 2576.46
   05:31:13.742.28-May-2021 3456.50 6021.33 83.06 10.00  11.40 2576.46
   05:31:13.942.28-May-2021 3456.50 6021.39 83.06 10.00  11.60 2576.46
   05:31:14.142.28-May-2021 3456.50 6021.46 83.06 10.00  11.80 2576.46
   05:31:14.342.28-May-2021 3456.50 6028.35 83.06 10.00  12.01 2576.46
   05:31:14.542.28-May-2021 3456.50 6028.35 83.06 10.00  12.21 2576.46
   05:31:14.742.28-May-2021 3456.50 6021.69 83.06 10.00  12.41 2576.46
   05:31:14.942.28-May-2021 3456.50 6021.41 83.06 10.00  12.61 2576.46
   05:31:15.142.28-May-2021 3456.50 6022.00 83.06 10.00  12.81 2576.46
   05:31:15.342.28-May-2021 3456.50 6026.56 83.06 10.00  13.01 2576.46
   05:31:15.542.28-May-2021 3456.50 6026.56 83.06 10.00  13.21 2576.46
   05:31:15.743.28-May-2021 3456.50 6026.56 83.06 10.00  13.41 2576.46
   05:31:15.943.28-May-2021 3456.50 6022.99 83.06 10.00  13.61 2576.46
   05:31:16.143.28-May-2021 3456.50 6023.20 83.06 10.00  13.81 2576.46
   05:31:16.343.28-May-2021 3456.50 6026.29 83.06 10.00  14.01 2576.46
   05:31:16.543.28-May-2021 3456.50 6026.29 83.06 10.00  14.21 2576.46
   05:31:16.743.28-May-2021 3456.50 6026.29 83.06 10.00  14.41 2576.46
   05:31:16.943.28-May-2021 3456.50 6023.75 83.06 10.00  14.61 2576.46
   05:31:17.143.28-May-2021 3456.50 6029.04 83.06 10.00  14.81 2576.46
   05:31:17.343.28-May-2021 3456.50 6022.55 83.06 10.00  15.01 2576.46
   05:31:17.543.28-May-2021 3456.50 6022.55 83.06 10.00  15.21 2576.46
   05:31:17.743.28-May-2021 3456.50 6023.76 83.06 10.00  15.41 2576.46
   05:31:17.943.28-May-2021 3456.50 6025.29 83.06 10.00  15.61 2576.46
   05:31:18.144.28-May-2021 3456.50 6024.02 83.06 10.00  15.81 2576.46
   05:31:18.344.28-May-2021 3456.50 6024.54 83.06 10.00  16.01 2576.46
   05:31:18.544.28-May-2021 3456.50 6024.54 83.06 10.00  16.21 2576.46
   05:31:18.744.28-May-2021 3456.50 6024.47 83.06 10.00  16.41 2576.46
   05:31:18.944.28-May-2021 3456.50 6032.00 83.06 10.00  16.61 2576.46
   05:31:19.144.28-May-2021 3456.50 6022.29 83.06 10.00  16.81 2576.46
   05:31:19.344.28-May-2021 3456.50 6025.40 83.06 10.00  17.01 2576.46
   05:31:19.544.28-May-2021 3456.50 6025.40 83.06 10.00  17.21 2576.46
   05:31:19.744.28-May-2021 3456.50 6025.42 83.05 10.00  17.41 2576.46
   05:31:19.944.28-May-2021 3456.50 6024.85 83.05 10.00  17.61 2576.46
   05:31:20.144.28-May-2021 3456.50 6025.57 83.05 10.00  17.81 2576.46
   05:31:20.344.28-May-2021 3456.50 6025.75 83.05 10.00  18.01 2576.46
   05:31:20.545.28-May-2021 3456.50 6025.75 83.05 10.00  18.21 2576.46
   05:31:20.745.28-May-2021 3456.50 6026.29 83.05 10.00  18.41 2576.46
   05:31:20.945.28-May-2021 3456.50 6026.41 83.05 10.00  18.61 2576.46
   05:31:21.145.28-May-2021 3456.50 6026.45 83.05 10.00  18.81 2576.46
   05:31:21.345.28-May-2021 3456.50 6026.56 83.05 10.00  19.01 2576.46
   05:31:21.545.28-May-2021 3456.50 6026.56 83.05 10.00  19.21 2576.46
   05:31:21.745.28-May-2021 3456.50 6031.51 83.05 10.00  19.41 2576.46
   05:31:21.945.28-May-2021 3456.50 6026.79 83.05 10.00  19.61 2576.46
   05:31:22.145.28-May-2021 3456.50 6026.38 83.05 10.00  19.81 2576.46
   05:31:22.345.28-May-2021 3456.50 6026.70 83.05 10.00  20.01 2576.46
   05:31:22.545.28-May-2021 3456.50 6026.70 83.05 10.00  20.21 2576.46
   05:31:22.745.28-May-2021 3456.50 6027.04 83.05 10.00  20.41 2576.46
   05:31:22.946.28-May-2021 3456.50 6027.38 83.05 10.00  20.61 2576.46
   05:31:23.146.28-May-2021 3456.50 6027.81 83.05 10.00  20.81 2576.46
   05:31:23.346.28-May-2021 3456.50 6027.69 83.05 10.00  21.01 2576.46
   05:31:23.546.28-May-2021 3456.50 6027.69 83.05 10.00  21.21 2576.46
   05:31:23.746.28-May-2021 3456.50 6027.76 83.05 10.00  21.41 2576.46
   05:31:23.946.28-May-2021 3456.50 6027.69 83.05 10.00  21.61 2576.46
   05:31:24.146.28-May-2021 3456.50 6027.65 83.05 10.00  21.81 2576.46
   05:31:24.346.28-May-2021 3456.50 6032.68 83.05 10.00  22.01 2576.46
   05:31:24.546.28-May-2021 3456.50 6032.68 83.05 10.00  22.21 2576.46
   05:31:24.746.28-May-2021 3456.50 6028.06 83.05 10.00  22.41 2576.46
