~Version Information
 VERS.                  2.0:   CWLS log ASCII Standard -VERSION 2.0
 WRAP.                   NO:   One line per depth step
~Well Information Block
#MNEM.UNIT     VALUE/NAME     DESCRIPTION
#---------     -----------    ---------------------------
 STRT.S             00:59:34 28-May-21: START TIME 00:59:34 28-May-21
 STOP.S             01:06:40 28-May-21: STOP TIME  01:06:40 28-May-21
 STEP.S                   0.00: STEP TIME
 NULL.                 -999.25: NULL VALUE
 UWI .                     N/A:  UNIQUE WELL IDENTIFIER
 API .                     N/A:  API NUMBER
 UNIT.                     N/A:  LOGGING EQUIPMENT ID
 DCON.         Sperry Drilling:  DIRECTNL CONTR
 DOE .                     N/A:  DOE NUMBER
 MWDS.                    Baku:  MWD SHOP
 SRVC.     Turan Drilling and Engineering:  CONTRACTOR
 CTRY.              Azerbaijan:  COUNTRY NAME
 PROV.                    Baku:  PROVINCE
 STAT.                    Baku:  STATE NAME
 REGN.                   EESSA:  REGION
 BASE.              Azerbaijan:  LOGGING EQUIPMENT BASE LOCATION
 WTYP.                Deviated:  WELL TYPE
 RIG .              East Azeri:  RIG NAME
 WELL.                    D02y:  WELL NAME
 FLD .                     ACG:  FIELD NAME
 COMP.     BP Exploration (Caspian Sea) Ltd.:  COMPANY
 PDAT.          Mean Sea Level:  PERMANENT DATUM
 MDS .        Operator Entered:  MAG DATA SOURCE
 SON .        AZ-XX-0906997291:  JOB NUMBER
 FTOP.          Formation Tops:  FORM TOPS DESC
 ILTD.               Lithology:  INTERP LTH DESC
 SVYD.                  Survey:  SURVEY DESC
 DMOD.             Drill Model:  DRILL MOD DESC
 HPTY.       Minimum Curvature:  HOLE POS TYPE
 NREF.                    Grid:  NORTH REFERENCE
 SPUD.               05-May-21:  SPUD DATE
 DATE.      09.27.28 12-Jun-21:  END TIME
 STIM.      09.27.28 12-May-21:  START TIME
 DMF .             Drill Floor:  DRILL MEAS FROM
 DFST.                        :  DIST FSL TEXT
 DFWT.                        :  DIST FWL TEXT
 CNTY.                        :  COUNTY
 LOC .                        :  LOCATION
 LMF .             Drill Floor:  LOG MEASURED FROM
 DEP .m                2806.40:  DEPTH
 AGAP.m                  43.60:  AIR GAP
 VSNS.m                  -4.42:  VERT SEC N/S
 VSEW.m                  -7.31:  VERT SEC E/W
 APD .m                  43.60:  DEPTH ABOVE PD
 WDMS.m                 151.80:  WD ELEV
 EGL .m                   0.00:  GROUND ELEVATION
 EPD .m                   0.00:  ELEVATION
 AZTC.deg                 6.18:  AZM TOTAL CORR
 GRDC.deg                 0.29:  GRID CORRECTION
 MDEC.deg                 6.47:  MAGNETIC DECL
 MDIP.deg                59.50:  MAGNETIC DIP
 MFLD.nT              50350.00:  MAGNETIC FIELD
 GVFD.g                   1.00:  GRAVITY FIELD
 VSDR.deg               179.08:  VERT SEC DIRECT
 TDD .m                4300.00:  TOTAL DEPTH (DRILLER)
 SDEP.m                2800.00:  START DEPTH
 DFSL.m                   0.00:  DISTANCE FSL
 DFWL.m                   0.00:  DISTANCE FWL
 UTMY.m             4431871.34:  UTM Y
 UTMX.m              538762.90:  UTM X
 WHEW.m                  -7.31:  WELL HEAD E/W
 WHNS.m                  -4.42:  WELL HEAD N/S
 LONG.deg                51.45:  LONGITUDE
 LATI.deg                40.02:  LATITUDE
 TVDS.m                  43.60:  TVDSS CORRECTN
 EKB .m                  43.60:  KB ELEVATION
 EDF .m                  43.60:  DF ELEVATION
 TDL .m                 806.00:  TOTAL DEPTH (LOGGER)
 MAGU.                 1851231:  MAGUTM CHECKSUM
 VSC .                       0:  VS TO CLOSURE
~Parameter Information Block
#MNEM.UNIT       Value        Description
#---------     -----------    ---------------------------
 AV  .mps                 1.60:  Ann Velocity 
 AVMX.mps                 2.00:  Max Ann Veloc 
 AZIF.deg               140.24:  Azm, Final 
 BHAT.        Rotary Steerable:  BHA Type 
 BROT.°/30m               0.50:  Build Rotating 
 BS  .in                  8.50:  Bit Size 
 BTPL.psig              619.00:  Bit Press Loss 
 CABU.                     Yes:  Customer Abuse 
 CGEO.          Ilgar Gurbanov:  Customer Geo 
 COMM.                     ô:r:  Run Comments 1 
 TCS .hr                 85.88:  Time Ciculation Ended 
 CV  .mps                 3.30:  Crit Velocity 
 CVMX.mps                 3.50:  Max Crit Veloc 
 DD1 .           Hamid Axmedov:  Direct Drillr 1 
 DD2 .           Teymur Aliyev:  Direct Drillr 2 
 DDSV.               Geo-Pilot:  DD Service 
 DEFF.%                 100.00:  % Det Eff 
 DLRX.°/30m               0.00:  Dogleg Rot Max 
 DLSO.°/30m               1.80:  Dogleg Oriented 
 DLSX.°/30m               3.34:  Dogleg Str Max 
 DRET.      11.50.00 27-May-21:  Drill End Time 
 DRST.      21.13.00 24-May-21:  Drill Start Tim 
 DTIM.hr                 45.11:  Time Drilling 
 EDEP.m                4054.00:  End Depth 
 ENG1.         Almaz Almadatov:  Engineer 1 
 ENG2.           Amrah Tahirov:  Engineer 2 
 ENG3.      Bakhtiyar Jabbarli:  Engineer 3 
 ENG4.          Nazrin Asgarli:  Engineer 4 
 ETIM.      10.00.00 30-May-21:  End Time 
 FLOI.gpm               530.00:  Flow In 
 FLON.gpm               400.00:  Flow In Min 
 FLOS.cptm                0.00:  Fluid Loss 
 FLOX.gpm               560.00:  Flow In Max 
 DFT .        Mineral Oil Base:  Mud Type 
 FTRO.       Formation Presure:  FTWD Run Obj 
 HFLO.                      No:  High Flow 
 HPRE.                      No:  High Pressure 
 HTEM.                      No:  High Temp 
 HYDO.m                   1.80:  Hydro Offset 
 IFIN.deg                73.83:  Inc, Final 
 IMAX.deg                73.83:  Inc Max 
 IMIN.deg                57.86:  Inc Min 
 IMND.m                3259.27:  Inc Min Depth 
 IMXD.m                4045.58:  Inc Max Depth 
 JARR.                     Yes:  Jarring 
 LETM.      11.50.00 27-May-21:  Log End Time 
 LOST.hr                     0:  Lost Rig Time 
 LSTM.      21.13.00 24-May-21:  Log Start Time 
 MDCL.ppm             42500.00:  Mud Chlorides 
 MDES.     Inversion Oil/Synthetic:  Mud Desc 
 DFD .sg                  1.52:  Mud Density 
 MDMN.sg                  1.52:  Dens Mud Min 
 MDMX.sg                  1.52:  Dens Mud Max 
 MOIL.                      70:  Run Mud Oil % 
 MOWR.                   70:30:  Run Mud OWR 
 MSND.                     0.2:  Run Mud Sand % 
 MSOL.                      22:  Run Mud Solids% 
 DFV .spqt               77.00:  Mud Viscosity 
 MWOD.in                  6.75:  MWD Tool OD 
 MWSI.                      No:  Serv Intrp, MWD 
 OTIM.hr                151.01:  Time Operating 
 PCON.          Wear / Scratch:  Pad Condition 
 PMAX.psia            11296.93:  Press Op, Max 
 PV  .cP                 37.00:  Mud PV 
 RUN .                     500:  Run Number 
 ROPA.m/hr               25.00:  ROP Avg 
 ROPN.m/hr                9.00:  ROP Min 
 ROPX.m/hr               28.00:  ROP Max 
 RPMA.rpm               140.00:  RPM Surface Avg 
 RPMN.rpm                90.00:  RPM Surface Min 
 RPMX.rpm               140.00:  RPM Surface Max 
 RRUN.                    0500:  Rig Run Number 
 SAZI.deg               172.17:  Azm, Start 
 SDEP.m                3248.00:  Start Depth 
 SIDD.                      No:  Serv Intrp, DD 
 SINC.deg                57.86:  Inc, Start 
 SPPA.psig             5620.00:  SPP Avg 
 SPPN.psig             5190.00:  SPP Min 
 SPPX.psig             6050.00:  SPP Max 
 STIM.      16.00.00 23-May-21:  Start Time 
 SVCS.                 DD, MWD:  Services 
 SVER.                    9.20:  Sperry Version 
 TDAT.m                 806.00:  Tot Depth Attmp 
 TDDF.                      No:  Trip for DD 
 TDLG.m                 806.00:  Tot Depth Loggd 
 TFF .                      No:  Trip for Fail 
 TQAA.f-kp               12.00:  Torque Abs Avg 
 TQAN.f-kp                8.00:  Torque Abs Min 
 TQAX.f-kp               15.00:  Torque Abs Max 
 TRRT.°/30m               0.30:  Turn Rotating 
 MRT .                  EWR-M5:  Maximum Recorded Temperature 
 TTMX.degC               93.00:  Max Tool Temp 
 VS01.                90649155:  Virtual Str1 SN 
 VS02.                90642264:  Virtual Str2 SN 
 VS03.                90642266:  Virtual Str3 SN 
 VS04.                90642261:  Virtual Str4 SN 
 WBMN.klb                 0.00:  WOB Min 
 WITN.             Anar Khalil:  Customer Rep 
 WITN.           Murad Guliyev:  Customer Rep 2 
 WOBA.klb                13.00:  WOB Avg 
 WOBX.klb                25.00:  WOB Max 
 YP  .lhf2               32.00:  Yield Point 
~Curve Information Block
#MNEM.UNIT                 API CODE     Curve Description
#---------               -----------    ---------------------------
 TIME.HHMMSS            00 000 000 000:  GT Time & Date
 GTDEPTH.m              00 000 000 000:  GT Depth
 GTPQH.psia             00 000 000 000:  GT HR Quartz Pressure
 GTTQ.degC              00 000 000 000:  GT Quartz Temperature
 GTTN.NONE              00 000 000 000:  GT Test Number
 GTET.sec               00 000 000 000:  GT Elapsed Test Time
 GTTVD.m                00 000 000 000:  GT True Vertical Depth
#Other Information
#
#WARRANTY: Halliburton will use its best efforts to furnish customers with 
#accurate information and interpretations that are part of, and incident to, the services 
#provided.  However, Halliburton cannot and does not warrant the accuracy 
#or correctness of such information and interpretations.  Under no circumstances should any 
#such information or interpretation be relied upon as the sole basis for any drilling, 
#completion, production, or financial decision or any procedure involving any risk to the 
#safety of any drilling venture, drilling rig or its crew or any other third party.  The 
#Customer has full responsibility for all drilling, completion and production operation.  
#Halliburton makes no representations or warranties, either expressed or 
#implied, including, but not limited to, the implied warranties of merchantability or fitness 
#for a particular purpose, with respect to the services rendered.  In no event will 
#Halliburton be liable for failure to obtain any particular results or for 
#any damages, including, but not limited to, indirect, special or consequential damages, 
#resulting from the use of any information or interpretation provided by Halliburton.
#
~A           TIME           GTDEPTH  GTPQH  GTTQ  GTTN  GTET   GTTVD  
# ...
   01:04:57.287.28-May-2021 3649.00 3165.39 84.92 5.00 322.34 2653.32
   01:04:57.487.28-May-2021 3649.00 3165.39 84.92 5.00 322.54 2653.32
   01:04:57.687.28-May-2021 3649.00 3165.38 84.92 5.00 322.74 2653.32
   01:04:57.887.28-May-2021 3649.00 3165.37 84.92 5.00 322.94 2653.32
   01:04:58.087.28-May-2021 3649.00 3165.40 84.92 5.00 323.14 2653.32
   01:04:58.288.28-May-2021 3649.00 3165.39 84.92 5.00 323.34 2653.32
   01:04:58.488.28-May-2021 3649.00 3165.39 84.92 5.00 323.54 2653.32
   01:04:58.688.28-May-2021 3649.00 3165.39 84.92 5.00 323.74 2653.32
   01:04:58.888.28-May-2021 3649.00 3165.38 84.92 5.00 323.94 2653.32
   01:04:59.089.28-May-2021 3649.00 3165.39 84.92 5.00 324.14 2653.32
   01:04:59.289.28-May-2021 3649.00 3165.38 84.92 5.00 324.34 2653.32
   01:04:59.489.28-May-2021 3649.00 3165.38 84.92 5.00 324.54 2653.32
   01:04:59.689.28-May-2021 3649.00 3165.39 84.92 5.00 324.74 2653.32
   01:04:59.889.28-May-2021 3649.00 3165.39 84.92 5.00 324.94 2653.32
   01:05:00.090.28-May-2021 3649.00 3165.38 84.92 5.00 325.14 2653.32
   01:05:00.290.28-May-2021 3649.00 3165.38 84.92 5.00 325.34 2653.32
   01:05:00.490.28-May-2021 3649.00 3165.38 84.92 5.00 325.54 2653.32
   01:05:00.690.28-May-2021 3649.00 3165.39 84.92 5.00 325.74 2653.32
   01:05:00.890.28-May-2021 3649.00 3165.38 84.92 5.00 325.94 2653.32
   01:05:01.091.28-May-2021 3649.00 3165.39 84.92 5.00 326.14 2653.32
   01:05:01.291.28-May-2021 3649.00 3165.39 84.92 5.00 326.34 2653.32
   01:05:01.491.28-May-2021 3649.00 3165.39 84.92 5.00 326.54 2653.32
   01:05:01.691.28-May-2021 3649.00 3165.40 84.92 5.00 326.74 2653.32
   01:05:01.891.28-May-2021 3649.00 3165.38 84.92 5.00 326.94 2653.32
   01:05:02.092.28-May-2021 3649.00 3165.38 84.92 5.00 327.14 2653.32
   01:05:02.292.28-May-2021 3649.00 3165.39 84.92 5.00 327.34 2653.32
   01:05:02.492.28-May-2021 3649.00 3165.39 84.92 5.00 327.54 2653.32
   01:05:02.692.28-May-2021 3649.00 3165.38 84.92 5.00 327.74 2653.32
   01:05:02.892.28-May-2021 3649.00 3165.39 84.92 5.00 327.94 2653.32
   01:05:03.093.28-May-2021 3649.00 3165.38 84.92 5.00 328.14 2653.32
   01:05:03.293.28-May-2021 3649.00 3165.38 84.92 5.00 328.34 2653.32
   01:05:03.493.28-May-2021 3649.00 3165.38 84.92 5.00 328.54 2653.32
   01:05:03.693.28-May-2021 3649.00 3165.39 84.92 5.00 328.74 2653.32
   01:05:03.894.28-May-2021 3649.00 3165.38 84.92 5.00 328.94 2653.32
   01:05:04.094.28-May-2021 3649.00 3165.39 84.92 5.00 329.14 2653.32
   01:05:04.294.28-May-2021 3649.00 3165.38 84.92 5.00 329.34 2653.32
   01:05:04.494.28-May-2021 3649.00 3165.38 84.92 5.00 329.54 2653.32
   01:05:04.694.28-May-2021 3649.00 3165.38 84.92 5.00 329.74 2653.32
   01:05:04.895.28-May-2021 3649.00 3165.37 84.92 5.00 329.94 2653.32
   01:05:05.095.28-May-2021 3649.00 3165.39 84.92 5.00 330.14 2653.32
   01:05:05.295.28-May-2021 3649.00 3165.38 84.92 5.00 330.34 2653.32
   01:05:05.495.28-May-2021 3649.00 3165.38 84.92 5.00 330.54 2653.32
   01:05:05.695.28-May-2021 3649.00 3165.38 84.92 5.00 330.74 2653.32
   01:05:05.896.28-May-2021 3649.00 3165.38 84.92 5.00 330.94 2653.32
   01:05:06.096.28-May-2021 3649.00 3165.37 84.92 5.00 331.14 2653.32
   01:05:06.296.28-May-2021 3649.00 3165.39 84.92 5.00 331.34 2653.32
   01:05:06.496.28-May-2021 3649.00 3165.39 84.92 5.00 331.54 2653.32
   01:05:06.696.28-May-2021 3649.00 3165.38 84.92 5.00 331.75 2653.32
   01:05:06.897.28-May-2021 3649.00 3165.39 84.92 5.00 331.95 2653.32
   01:05:07.097.28-May-2021 3649.00 3165.38 84.92 5.00 332.15 2653.32
   01:05:07.297.28-May-2021 3649.00 3165.39 84.92 5.00 332.35 2653.32
   01:05:07.497.28-May-2021 3649.00 3165.39 84.92 5.00 332.55 2653.32
   01:05:07.697.28-May-2021 3649.00 3165.38 84.92 5.00 332.75 2653.32
   01:05:07.898.28-May-2021 3649.00 3165.38 84.92 5.00 332.95 2653.32
   01:05:08.098.28-May-2021 3649.00 3165.38 84.92 5.00 333.15 2653.32
   01:05:08.298.28-May-2021 3649.00 3165.38 84.92 5.00 333.35 2653.32
   01:05:08.498.28-May-2021 3649.00 3165.38 84.92 5.00 333.55 2653.32
   01:05:08.699.28-May-2021 3649.00 3165.38 84.92 5.00 333.75 2653.32
   01:05:08.899.28-May-2021 3649.00 3165.39 84.92 5.00 333.95 2653.32
   01:05:09.099.28-May-2021 3649.00 3165.38 84.92 5.00 334.15 2653.32
   01:05:09.299.28-May-2021 3649.00 3165.38 84.92 5.00 334.35 2653.32
   01:05:09.499.28-May-2021 3649.00 3165.38 84.92 5.00 334.55 2653.32
   01:05:09.700.28-May-2021 3649.00 3165.39 84.92 5.00 334.75 2653.32
   01:05:09.900.28-May-2021 3649.00 3165.38 84.92 5.00 334.95 2653.32
   01:05:10.100.28-May-2021 3649.00 3165.38 84.92 5.00 335.15 2653.32
   01:05:10.300.28-May-2021 3649.00 3165.38 84.92 5.00 335.35 2653.32
   01:05:10.500.28-May-2021 3649.00 3165.38 84.92 5.00 335.55 2653.32
   01:05:10.701.28-May-2021 3649.00 3165.38 84.92 5.00 335.75 2653.32
   01:05:10.901.28-May-2021 3649.00 3165.38 84.92 5.00 335.95 2653.32
   01:05:11.101.28-May-2021 3649.00 3165.38 84.92 5.00 336.15 2653.32
   01:05:11.301.28-May-2021 3649.00 3165.38 84.92 5.00 336.35 2653.32
   01:05:11.501.28-May-2021 3649.00 3165.38 84.92 5.00 336.55 2653.32
   01:05:11.702.28-May-2021 3649.00 3165.38 84.92 5.00 336.75 2653.32
   01:05:11.902.28-May-2021 3649.00 3165.37 84.92 5.00 336.95 2653.32
   01:05:12.102.28-May-2021 3649.00 3165.39 84.92 5.00 337.15 2653.32
   01:05:12.302.28-May-2021 3649.00 3165.37 84.92 5.00 337.35 2653.32
   01:05:12.502.28-May-2021 3649.00 3165.37 84.92 5.00 337.55 2653.32
   01:05:12.703.28-May-2021 3649.00 3165.37 84.92 5.00 337.75 2653.32
   01:05:12.903.28-May-2021 3649.00 3165.38 84.92 5.00 337.95 2653.32
   01:05:13.103.28-May-2021 3649.00 3165.37 84.92 5.00 338.15 2653.32
   01:05:13.303.28-May-2021 3649.00 3165.40 84.92 5.00 338.35 2653.32
   01:05:13.504.28-May-2021 3649.00 3165.40 84.92 5.00 338.55 2653.32
   01:05:13.704.28-May-2021 3649.00 3165.38 84.92 5.00 338.75 2653.32
   01:05:13.904.28-May-2021 3649.00 3165.37 84.92 5.00 338.95 2653.32
   01:05:14.104.28-May-2021 3649.00 3165.38 84.92 5.00 339.15 2653.32
   01:05:14.304.28-May-2021 3649.00 3165.37 84.92 5.00 339.35 2653.32
   01:05:14.505.28-May-2021 3649.00 3165.37 84.92 5.00 339.55 2653.32
   01:05:14.705.28-May-2021 3649.00 3165.37 84.92 5.00 339.75 2653.32
   01:05:14.905.28-May-2021 3649.00 3165.38 84.92 5.00 339.95 2653.32
   01:05:15.105.28-May-2021 3649.00 3165.37 84.92 5.00 340.15 2653.32
   01:05:15.305.28-May-2021 3649.00 3165.38 84.92 5.00 340.35 2653.32
   01:05:15.506.28-May-2021 3649.00 3165.38 84.92 5.00 340.55 2653.32
   01:05:15.706.28-May-2021 3649.00 3165.38 84.92 5.00 340.75 2653.32
   01:05:15.906.28-May-2021 3649.00 3165.38 84.92 5.00 340.95 2653.32
   01:05:16.106.28-May-2021 3649.00 3165.38 84.92 5.00 341.15 2653.32
   01:05:16.306.28-May-2021 3649.00 3165.38 84.92 5.00 341.36 2653.32
   01:05:16.507.28-May-2021 3649.00 3165.38 84.92 5.00 341.56 2653.32
   01:05:16.707.28-May-2021 3649.00 3165.38 84.92 5.00 341.76 2653.32
   01:05:16.907.28-May-2021 3649.00 3165.38 84.92 5.00 341.96 2653.32
   01:05:17.107.28-May-2021 3649.00 3165.37 84.92 5.00 342.16 2653.32
   01:05:17.307.28-May-2021 3649.00 3165.38 84.92 5.00 342.36 2653.32
   01:05:17.508.28-May-2021 3649.00 3165.38 84.92 5.00 342.56 2653.32
   01:05:17.708.28-May-2021 3649.00 3165.38 84.92 5.00 342.76 2653.32
   01:05:17.908.28-May-2021 3649.00 3165.38 84.92 5.00 342.96 2653.32
   01:05:18.108.28-May-2021 3649.00 3165.38 84.92 5.00 343.16 2653.32
   01:05:18.309.28-May-2021 3649.00 3165.36 84.92 5.00 343.36 2653.32
   01:05:18.509.28-May-2021 3649.00 3165.36 84.92 5.00 343.56 2653.32
   01:05:18.709.28-May-2021 3649.00 3165.37 84.92 5.00 343.76 2653.32
   01:05:18.909.28-May-2021 3649.00 3165.38 84.92 5.00 343.96 2653.32
   01:05:19.109.28-May-2021 3649.00 3165.37 84.92 5.00 344.16 2653.32
   01:05:19.310.28-May-2021 3649.00 3165.38 84.92 5.00 344.36 2653.32
   01:05:19.510.28-May-2021 3649.00 3165.38 84.92 5.00 344.56 2653.32
   01:05:19.710.28-May-2021 3649.00 3165.37 84.92 5.00 344.76 2653.32
   01:05:19.910.28-May-2021 3649.00 3165.38 84.92 5.00 344.96 2653.32
   01:05:20.110.28-May-2021 3649.00 3165.38 84.92 5.00 345.16 2653.32
