~Version Information
 VERS.                  2.0:   CWLS log ASCII Standard -VERSION 2.0
 WRAP.                   NO:   One line per depth step
~Well Information Block
#MNEM.UNIT     VALUE/NAME     DESCRIPTION
#---------     -----------    ---------------------------
 STRT.S             03:01:37 28-May-21: START TIME 03:01:37 28-May-21
 STOP.S             03:08:42 28-May-21: STOP TIME  03:08:42 28-May-21
 STEP.S                   0.00: STEP TIME
 NULL.                 -999.25: NULL VALUE
 UWI .                     N/A:  UNIQUE WELL IDENTIFIER
 API .                     N/A:  API NUMBER
 UNIT.                     N/A:  LOGGING EQUIPMENT ID
 DCON.         Sperry Drilling:  DIRECTNL CONTR
 DOE .                     N/A:  DOE NUMBER
 MWDS.                    Baku:  MWD SHOP
 SRVC.     Turan Drilling and Engineering:  CONTRACTOR
 CTRY.              Azerbaijan:  COUNTRY NAME
 PROV.                    Baku:  PROVINCE
 STAT.                    Baku:  STATE NAME
 REGN.                   EESSA:  REGION
 BASE.              Azerbaijan:  LOGGING EQUIPMENT BASE LOCATION
 WTYP.                Deviated:  WELL TYPE
 RIG .              East Azeri:  RIG NAME
 WELL.                    D02y:  WELL NAME
 FLD .                     ACG:  FIELD NAME
 COMP.     BP Exploration (Caspian Sea) Ltd.:  COMPANY
 PDAT.          Mean Sea Level:  PERMANENT DATUM
 MDS .        Operator Entered:  MAG DATA SOURCE
 SON .        AZ-XX-0906997291:  JOB NUMBER
 FTOP.          Formation Tops:  FORM TOPS DESC
 ILTD.               Lithology:  INTERP LTH DESC
 SVYD.                  Survey:  SURVEY DESC
 DMOD.             Drill Model:  DRILL MOD DESC
 HPTY.       Minimum Curvature:  HOLE POS TYPE
 NREF.                    Grid:  NORTH REFERENCE
 SPUD.               05-May-21:  SPUD DATE
 DATE.      09.27.28 12-Jun-21:  END TIME
 STIM.      09.27.28 12-May-21:  START TIME
 DMF .             Drill Floor:  DRILL MEAS FROM
 DFST.                        :  DIST FSL TEXT
 DFWT.                        :  DIST FWL TEXT
 CNTY.                        :  COUNTY
 LOC .                        :  LOCATION
 LMF .             Drill Floor:  LOG MEASURED FROM
 DEP .m                2806.40:  DEPTH
 AGAP.m                  43.60:  AIR GAP
 VSNS.m                  -4.42:  VERT SEC N/S
 VSEW.m                  -7.31:  VERT SEC E/W
 APD .m                  43.60:  DEPTH ABOVE PD
 WDMS.m                 151.80:  WD ELEV
 EGL .m                   0.00:  GROUND ELEVATION
 EPD .m                   0.00:  ELEVATION
 AZTC.deg                 6.18:  AZM TOTAL CORR
 GRDC.deg                 0.29:  GRID CORRECTION
 MDEC.deg                 6.47:  MAGNETIC DECL
 MDIP.deg                59.50:  MAGNETIC DIP
 MFLD.nT              50350.00:  MAGNETIC FIELD
 GVFD.g                   1.00:  GRAVITY FIELD
 VSDR.deg               179.08:  VERT SEC DIRECT
 TDD .m                4300.00:  TOTAL DEPTH (DRILLER)
 SDEP.m                2800.00:  START DEPTH
 DFSL.m                   0.00:  DISTANCE FSL
 DFWL.m                   0.00:  DISTANCE FWL
 UTMY.m             4431871.34:  UTM Y
 UTMX.m              538762.90:  UTM X
 WHEW.m                  -7.31:  WELL HEAD E/W
 WHNS.m                  -4.42:  WELL HEAD N/S
 LONG.deg                51.45:  LONGITUDE
 LATI.deg                40.02:  LATITUDE
 TVDS.m                  43.60:  TVDSS CORRECTN
 EKB .m                  43.60:  KB ELEVATION
 EDF .m                  43.60:  DF ELEVATION
 TDL .m                 806.00:  TOTAL DEPTH (LOGGER)
 MAGU.                 1851231:  MAGUTM CHECKSUM
 VSC .                       0:  VS TO CLOSURE
~Parameter Information Block
#MNEM.UNIT       Value        Description
#---------     -----------    ---------------------------
 AV  .mps                 1.60:  Ann Velocity 
 AVMX.mps                 2.00:  Max Ann Veloc 
 AZIF.deg               140.24:  Azm, Final 
 BHAT.        Rotary Steerable:  BHA Type 
 BROT.°/30m               0.50:  Build Rotating 
 BS  .in                  8.50:  Bit Size 
 BTPL.psig              619.00:  Bit Press Loss 
 CABU.                     Yes:  Customer Abuse 
 CGEO.          Ilgar Gurbanov:  Customer Geo 
 COMM.                     dr:  Run Comments 1 
 TCS .hr                 85.88:  Time Ciculation Ended 
 CV  .mps                 3.30:  Crit Velocity 
 CVMX.mps                 3.50:  Max Crit Veloc 
 DD1 .           Hamid Axmedov:  Direct Drillr 1 
 DD2 .           Teymur Aliyev:  Direct Drillr 2 
 DDSV.               Geo-Pilot:  DD Service 
 DEFF.%                 100.00:  % Det Eff 
 DLRX.°/30m               0.00:  Dogleg Rot Max 
 DLSO.°/30m               1.80:  Dogleg Oriented 
 DLSX.°/30m               3.34:  Dogleg Str Max 
 DRET.      11.50.00 27-May-21:  Drill End Time 
 DRST.      21.13.00 24-May-21:  Drill Start Tim 
 DTIM.hr                 45.11:  Time Drilling 
 EDEP.m                4054.00:  End Depth 
 ENG1.         Almaz Almadatov:  Engineer 1 
 ENG2.           Amrah Tahirov:  Engineer 2 
 ENG3.      Bakhtiyar Jabbarli:  Engineer 3 
 ENG4.          Nazrin Asgarli:  Engineer 4 
 ETIM.      10.00.00 30-May-21:  End Time 
 FLOI.gpm               530.00:  Flow In 
 FLON.gpm               400.00:  Flow In Min 
 FLOS.cptm                0.00:  Fluid Loss 
 FLOX.gpm               560.00:  Flow In Max 
 DFT .        Mineral Oil Base:  Mud Type 
 FTRO.       Formation Presure:  FTWD Run Obj 
 HFLO.                      No:  High Flow 
 HPRE.                      No:  High Pressure 
 HTEM.                      No:  High Temp 
 HYDO.m                   1.80:  Hydro Offset 
 IFIN.deg                73.83:  Inc, Final 
 IMAX.deg                73.83:  Inc Max 
 IMIN.deg                57.86:  Inc Min 
 IMND.m                3259.27:  Inc Min Depth 
 IMXD.m                4045.58:  Inc Max Depth 
 JARR.                     Yes:  Jarring 
 LETM.      11.50.00 27-May-21:  Log End Time 
 LOST.hr                     0:  Lost Rig Time 
 LSTM.      21.13.00 24-May-21:  Log Start Time 
 MDCL.ppm             42500.00:  Mud Chlorides 
 MDES.     Inversion Oil/Synthetic:  Mud Desc 
 DFD .sg                  1.52:  Mud Density 
 MDMN.sg                  1.52:  Dens Mud Min 
 MDMX.sg                  1.52:  Dens Mud Max 
 MOIL.                      70:  Run Mud Oil % 
 MOWR.                   70:30:  Run Mud OWR 
 MSND.                     0.2:  Run Mud Sand % 
 MSOL.                      22:  Run Mud Solids% 
 DFV .spqt               77.00:  Mud Viscosity 
 MWOD.in                  6.75:  MWD Tool OD 
 MWSI.                      No:  Serv Intrp, MWD 
 OTIM.hr                151.01:  Time Operating 
 PCON.          Wear / Scratch:  Pad Condition 
 PMAX.psia            11296.93:  Press Op, Max 
 PV  .cP                 37.00:  Mud PV 
 RUN .                     500:  Run Number 
 ROPA.m/hr               25.00:  ROP Avg 
 ROPN.m/hr                9.00:  ROP Min 
 ROPX.m/hr               28.00:  ROP Max 
 RPMA.rpm               140.00:  RPM Surface Avg 
 RPMN.rpm                90.00:  RPM Surface Min 
 RPMX.rpm               140.00:  RPM Surface Max 
 RRUN.                    0500:  Rig Run Number 
 SAZI.deg               172.17:  Azm, Start 
 SDEP.m                3248.00:  Start Depth 
 SIDD.                      No:  Serv Intrp, DD 
 SINC.deg                57.86:  Inc, Start 
 SPPA.psig             5620.00:  SPP Avg 
 SPPN.psig             5190.00:  SPP Min 
 SPPX.psig             6050.00:  SPP Max 
 STIM.      16.00.00 23-May-21:  Start Time 
 SVCS.                 DD, MWD:  Services 
 SVER.                    9.20:  Sperry Version 
 TDAT.m                 806.00:  Tot Depth Attmp 
 TDDF.                      No:  Trip for DD 
 TDLG.m                 806.00:  Tot Depth Loggd 
 TFF .                      No:  Trip for Fail 
 TQAA.f-kp               12.00:  Torque Abs Avg 
 TQAN.f-kp                8.00:  Torque Abs Min 
 TQAX.f-kp               15.00:  Torque Abs Max 
 TRRT.°/30m               0.30:  Turn Rotating 
 MRT .                  EWR-M5:  Maximum Recorded Temperature 
 TTMX.degC               93.00:  Max Tool Temp 
 VS01.                90649155:  Virtual Str1 SN 
 VS02.                90642264:  Virtual Str2 SN 
 VS03.                90642266:  Virtual Str3 SN 
 VS04.                90642261:  Virtual Str4 SN 
 WBMN.klb                 0.00:  WOB Min 
 WITN.             Anar Khalil:  Customer Rep 
 WITN.           Murad Guliyev:  Customer Rep 2 
 WOBA.klb                13.00:  WOB Avg 
 WOBX.klb                25.00:  WOB Max 
 YP  .lhf2               32.00:  Yield Point 
~Curve Information Block
#MNEM.UNIT                 API CODE     Curve Description
#---------               -----------    ---------------------------
 TIME.HHMMSS            00 000 000 000:  GT Time & Date
 GTDEPTH.m              00 000 000 000:  GT Depth
 GTPQH.psia             00 000 000 000:  GT HR Quartz Pressure
 GTTQ.degC              00 000 000 000:  GT Quartz Temperature
 GTTN.NONE              00 000 000 000:  GT Test Number
 GTET.sec               00 000 000 000:  GT Elapsed Test Time
 GTTVD.m                00 000 000 000:  GT True Vertical Depth
#Other Information
#
#WARRANTY: Halliburton will use its best efforts to furnish customers with 
#accurate information and interpretations that are part of, and incident to, the services 
#provided.  However, Halliburton cannot and does not warrant the accuracy 
#or correctness of such information and interpretations.  Under no circumstances should any 
#such information or interpretation be relied upon as the sole basis for any drilling, 
#completion, production, or financial decision or any procedure involving any risk to the 
#safety of any drilling venture, drilling rig or its crew or any other third party.  The 
#Customer has full responsibility for all drilling, completion and production operation.  
#Halliburton makes no representations or warranties, either expressed or 
#implied, including, but not limited to, the implied warranties of merchantability or fitness 
#for a particular purpose, with respect to the services rendered.  In no event will 
#Halliburton be liable for failure to obtain any particular results or for 
#any damages, including, but not limited to, indirect, special or consequential damages, 
#resulting from the use of any information or interpretation provided by Halliburton.
#
~A           TIME           GTDEPTH  GTPQH  GTTQ  GTTN  GTET   GTTVD  
# ...
   03:08:31.000.28-May-2021 3537.00 6128.44 83.75 7.00 414.00 2609.82
   03:08:31.200.28-May-2021 3537.00 6128.44 83.75 7.00 414.20 2609.82
   03:08:31.400.28-May-2021 3537.00 6122.95 83.75 7.00 414.40 2609.82
   03:08:31.600.28-May-2021 3537.00 6123.00 83.75 7.00 414.60 2609.82
   03:08:31.800.28-May-2021 3537.00 6122.03 83.75 7.00 414.80 2609.82
   03:08:32.000.28-May-2021 3537.00 6127.23 83.75 7.00 415.00 2609.82
   03:08:32.200.28-May-2021 3537.00 6127.23 83.75 7.00 415.20 2609.82
   03:08:32.400.28-May-2021 3537.00 6122.41 83.75 7.00 415.40 2609.82
   03:08:32.600.28-May-2021 3537.00 6123.08 83.75 7.00 415.60 2609.82
   03:08:32.800.28-May-2021 3537.00 6122.32 83.75 7.00 415.80 2609.82
   03:08:33.000.28-May-2021 3537.00 6122.47 83.75 7.00 416.00 2609.82
   03:08:33.200.28-May-2021 3537.00 6122.47 83.75 7.00 416.20 2609.82
   03:08:33.400.28-May-2021 3537.00 6121.73 83.75 7.00 416.40 2609.82
   03:08:33.600.28-May-2021 3537.00 6123.18 83.75 7.00 416.60 2609.82
   03:08:33.800.28-May-2021 3537.00 6123.19 83.75 7.00 416.80 2609.82
   03:08:34.000.28-May-2021 3537.00 6122.48 83.75 7.00 417.00 2609.82
   03:08:34.200.28-May-2021 3537.00 6122.48 83.75 7.00 417.20 2609.82
   03:08:34.400.28-May-2021 3537.00 6122.57 83.74 7.00 417.40 2609.82
   03:08:34.600.28-May-2021 3537.00 6122.11 83.74 7.00 417.60 2609.82
   03:08:34.800.28-May-2021 3537.00 6122.50 83.74 7.00 417.80 2609.82
   03:08:35.000.28-May-2021 3537.00 6122.30 83.74 7.00 418.00 2609.82
   03:08:35.200.28-May-2021 3537.00 6122.30 83.74 7.00 418.20 2609.82
   03:08:35.400.28-May-2021 3537.00 6122.16 83.74 7.00 418.40 2609.82
   03:08:35.600.28-May-2021 3537.00 6124.10 83.74 7.00 418.60 2609.82
   03:08:35.800.28-May-2021 3537.00 6124.47 83.74 7.00 418.80 2609.82
   03:08:36.000.28-May-2021 3537.00 6122.41 83.74 7.00 419.00 2609.82
   03:08:36.200.28-May-2021 3537.00 6122.41 83.74 7.00 419.20 2609.82
   03:08:36.400.28-May-2021 3537.00 6122.75 83.74 7.00 419.40 2609.82
   03:08:36.600.28-May-2021 3537.00 6122.47 83.74 7.00 419.60 2609.82
   03:08:36.800.28-May-2021 3537.00 6122.59 83.74 7.00 419.80 2609.82
   03:08:37.000.28-May-2021 3537.00 6122.57 83.74 7.00 420.00 2609.82
   03:08:37.200.28-May-2021 3537.00 6122.57 83.74 7.00 420.20 2609.82
   03:08:37.400.28-May-2021 3537.00 6122.73 83.74 7.00 420.40 2609.82
   03:08:37.600.28-May-2021 3537.00 6122.51 83.74 7.00 420.60 2609.82
   03:08:37.800.28-May-2021 3537.00 6122.72 83.74 7.00 420.80 2609.82
   03:08:38.000.28-May-2021 3537.00 6122.67 83.74 7.00 421.00 2609.82
   03:08:38.200.28-May-2021 3537.00 6122.67 83.74 7.00 421.20 2609.82
   03:08:38.400.28-May-2021 3537.00 6124.58 83.74 7.00 421.40 2609.82
   03:08:38.600.28-May-2021 3537.00 6124.87 83.74 7.00 421.60 2609.82
   03:08:38.800.28-May-2021 3537.00 6122.49 83.74 7.00 421.80 2609.82
   03:08:39.000.28-May-2021 3537.00 6122.62 83.74 7.00 422.00 2609.82
   03:08:39.200.28-May-2021 3537.00 6122.62 83.74 7.00 422.20 2609.82
   03:08:39.400.28-May-2021 3537.00 6122.46 83.74 7.00 422.40 2609.82
   03:08:39.600.28-May-2021 3537.00 6124.25 83.74 7.00 422.60 2609.82
   03:08:39.800.28-May-2021 3537.00 6124.44 83.74 7.00 422.80 2609.82
   03:08:40.000.28-May-2021 3537.00 6122.25 83.74 7.00 423.00 2609.82
   03:08:40.200.28-May-2021 3537.00 6122.25 83.74 7.00 423.20 2609.82
   03:08:40.400.28-May-2021 3537.00 6122.47 83.74 7.00 423.40 2609.82
   03:08:40.600.28-May-2021 3537.00 6129.33 83.74 7.00 423.60 2609.82
   03:08:40.800.28-May-2021 3537.00 6118.82 83.74 7.00 423.80 2609.82
   03:08:41.000.28-May-2021 3537.00 6122.86 83.74 7.00 424.00 2609.82
   03:08:41.200.28-May-2021 3537.00 6122.86 83.74 7.00 424.20 2609.82
   03:08:41.400.28-May-2021 3537.00 6122.33 83.74 7.00 424.40 2609.82
   03:08:41.600.28-May-2021 3537.00 6122.35 83.74 7.00 424.60 2609.82
   03:08:41.800.28-May-2021 3537.00 6126.49 83.74 7.00 424.80 2609.82
   03:08:42.000.28-May-2021 3537.00 6121.55 83.74 7.00 425.00 2609.82
   03:08:42.200.28-May-2021 3537.00 6121.55 83.74 7.00 425.20 2609.82
   03:08:42.400.28-May-2021 3537.00 6123.18 83.74 7.00 425.40 2609.82
   03:08:42.600.28-May-2021 3537.00 6122.22 83.74 7.00 425.60 2609.82
   03:08:42.800.28-May-2021 3537.00 6122.63 83.74 7.00 425.80 2609.82
