~Version Information
 VERS.                  2.0:   CWLS log ASCII Standard -VERSION 2.0
 WRAP.                   NO:   One line per depth step
~Well Information Block
#MNEM.UNIT     VALUE/NAME     DESCRIPTION
#---------     -----------    ---------------------------
 STRT.S             09:05:41 28-May-21: START TIME 09:05:41 28-May-21
 STOP.S             09:12:44 28-May-21: STOP TIME  09:12:44 28-May-21
 STEP.S                   0.00: STEP TIME
 NULL.                 -999.25: NULL VALUE
 UWI .                     N/A:  UNIQUE WELL IDENTIFIER
 API .                     N/A:  API NUMBER
 UNIT.                     N/A:  LOGGING EQUIPMENT ID
 DCON.         Sperry Drilling:  DIRECTNL CONTR
 DOE .                     N/A:  DOE NUMBER
 MWDS.                    Baku:  MWD SHOP
 SRVC.     Turan Drilling and Engineering:  CONTRACTOR
 CTRY.              Azerbaijan:  COUNTRY NAME
 PROV.                    Baku:  PROVINCE
 STAT.                    Baku:  STATE NAME
 REGN.                   EESSA:  REGION
 BASE.              Azerbaijan:  LOGGING EQUIPMENT BASE LOCATION
 WTYP.                Deviated:  WELL TYPE
 RIG .              East Azeri:  RIG NAME
 WELL.                    D02y:  WELL NAME
 FLD .                     ACG:  FIELD NAME
 COMP.     BP Exploration (Caspian Sea) Ltd.:  COMPANY
 PDAT.          Mean Sea Level:  PERMANENT DATUM
 MDS .        Operator Entered:  MAG DATA SOURCE
 SON .        AZ-XX-0906997291:  JOB NUMBER
 FTOP.          Formation Tops:  FORM TOPS DESC
 ILTD.               Lithology:  INTERP LTH DESC
 SVYD.                  Survey:  SURVEY DESC
 DMOD.             Drill Model:  DRILL MOD DESC
 HPTY.       Minimum Curvature:  HOLE POS TYPE
 NREF.                    Grid:  NORTH REFERENCE
 SPUD.               05-May-21:  SPUD DATE
 DATE.      09.27.28 12-Jun-21:  END TIME
 STIM.      09.27.28 12-May-21:  START TIME
 DMF .             Drill Floor:  DRILL MEAS FROM
 DFST.                        :  DIST FSL TEXT
 DFWT.                        :  DIST FWL TEXT
 CNTY.                        :  COUNTY
 LOC .                        :  LOCATION
 LMF .             Drill Floor:  LOG MEASURED FROM
 DEP .m                2806.40:  DEPTH
 AGAP.m                  43.60:  AIR GAP
 VSNS.m                  -4.42:  VERT SEC N/S
 VSEW.m                  -7.31:  VERT SEC E/W
 APD .m                  43.60:  DEPTH ABOVE PD
 WDMS.m                 151.80:  WD ELEV
 EGL .m                   0.00:  GROUND ELEVATION
 EPD .m                   0.00:  ELEVATION
 AZTC.deg                 6.18:  AZM TOTAL CORR
 GRDC.deg                 0.29:  GRID CORRECTION
 MDEC.deg                 6.47:  MAGNETIC DECL
 MDIP.deg                59.50:  MAGNETIC DIP
 MFLD.nT              50350.00:  MAGNETIC FIELD
 GVFD.g                   1.00:  GRAVITY FIELD
 VSDR.deg               179.08:  VERT SEC DIRECT
 TDD .m                4300.00:  TOTAL DEPTH (DRILLER)
 SDEP.m                2800.00:  START DEPTH
 DFSL.m                   0.00:  DISTANCE FSL
 DFWL.m                   0.00:  DISTANCE FWL
 UTMY.m             4431871.34:  UTM Y
 UTMX.m              538762.90:  UTM X
 WHEW.m                  -7.31:  WELL HEAD E/W
 WHNS.m                  -4.42:  WELL HEAD N/S
 LONG.deg                51.45:  LONGITUDE
 LATI.deg                40.02:  LATITUDE
 TVDS.m                  43.60:  TVDSS CORRECTN
 EKB .m                  43.60:  KB ELEVATION
 EDF .m                  43.60:  DF ELEVATION
 TDL .m                 806.00:  TOTAL DEPTH (LOGGER)
 MAGU.                 1851231:  MAGUTM CHECKSUM
 VSC .                       0:  VS TO CLOSURE
~Parameter Information Block
#MNEM.UNIT       Value        Description
#---------     -----------    ---------------------------
 AV  .mps                 1.60:  Ann Velocity 
 AVMX.mps                 2.00:  Max Ann Veloc 
 AZIF.deg               140.24:  Azm, Final 
 BHAT.        Rotary Steerable:  BHA Type 
 BROT.°/30m               0.50:  Build Rotating 
 BS  .in                  8.50:  Bit Size 
 BTPL.psig              619.00:  Bit Press Loss 
 CABU.                     Yes:  Customer Abuse 
 CGEO.          Ilgar Gurbanov:  Customer Geo 
 COMM.                     ÜøQ:  Run Comments 1 
 TCS .hr                 85.88:  Time Ciculation Ended 
 CV  .mps                 3.30:  Crit Velocity 
 CVMX.mps                 3.50:  Max Crit Veloc 
 DD1 .           Hamid Axmedov:  Direct Drillr 1 
 DD2 .           Teymur Aliyev:  Direct Drillr 2 
 DDSV.               Geo-Pilot:  DD Service 
 DEFF.%                 100.00:  % Det Eff 
 DLRX.°/30m               0.00:  Dogleg Rot Max 
 DLSO.°/30m               1.80:  Dogleg Oriented 
 DLSX.°/30m               3.34:  Dogleg Str Max 
 DRET.      11.50.00 27-May-21:  Drill End Time 
 DRST.      21.13.00 24-May-21:  Drill Start Tim 
 DTIM.hr                 45.11:  Time Drilling 
 EDEP.m                4054.00:  End Depth 
 ENG1.         Almaz Almadatov:  Engineer 1 
 ENG2.           Amrah Tahirov:  Engineer 2 
 ENG3.      Bakhtiyar Jabbarli:  Engineer 3 
 ENG4.          Nazrin Asgarli:  Engineer 4 
 ETIM.      10.00.00 30-May-21:  End Time 
 FLOI.gpm               530.00:  Flow In 
 FLON.gpm               400.00:  Flow In Min 
 FLOS.cptm                0.00:  Fluid Loss 
 FLOX.gpm               560.00:  Flow In Max 
 DFT .        Mineral Oil Base:  Mud Type 
 FTRO.       Formation Presure:  FTWD Run Obj 
 HFLO.                      No:  High Flow 
 HPRE.                      No:  High Pressure 
 HTEM.                      No:  High Temp 
 HYDO.m                   1.80:  Hydro Offset 
 IFIN.deg                73.83:  Inc, Final 
 IMAX.deg                73.83:  Inc Max 
 IMIN.deg                57.86:  Inc Min 
 IMND.m                3259.27:  Inc Min Depth 
 IMXD.m                4045.58:  Inc Max Depth 
 JARR.                     Yes:  Jarring 
 LETM.      11.50.00 27-May-21:  Log End Time 
 LOST.hr                     0:  Lost Rig Time 
 LSTM.      21.13.00 24-May-21:  Log Start Time 
 MDCL.ppm             42500.00:  Mud Chlorides 
 MDES.     Inversion Oil/Synthetic:  Mud Desc 
 DFD .sg                  1.52:  Mud Density 
 MDMN.sg                  1.52:  Dens Mud Min 
 MDMX.sg                  1.52:  Dens Mud Max 
 MOIL.                      70:  Run Mud Oil % 
 MOWR.                   70:30:  Run Mud OWR 
 MSND.                     0.2:  Run Mud Sand % 
 MSOL.                      22:  Run Mud Solids% 
 DFV .spqt               77.00:  Mud Viscosity 
 MWOD.in                  6.75:  MWD Tool OD 
 MWSI.                      No:  Serv Intrp, MWD 
 OTIM.hr                151.01:  Time Operating 
 PCON.          Wear / Scratch:  Pad Condition 
 PMAX.psia            11296.93:  Press Op, Max 
 PV  .cP                 37.00:  Mud PV 
 RUN .                     500:  Run Number 
 ROPA.m/hr               25.00:  ROP Avg 
 ROPN.m/hr                9.00:  ROP Min 
 ROPX.m/hr               28.00:  ROP Max 
 RPMA.rpm               140.00:  RPM Surface Avg 
 RPMN.rpm                90.00:  RPM Surface Min 
 RPMX.rpm               140.00:  RPM Surface Max 
 RRUN.                    0500:  Rig Run Number 
 SAZI.deg               172.17:  Azm, Start 
 SDEP.m                3248.00:  Start Depth 
 SIDD.                      No:  Serv Intrp, DD 
 SINC.deg                57.86:  Inc, Start 
 SPPA.psig             5620.00:  SPP Avg 
 SPPN.psig             5190.00:  SPP Min 
 SPPX.psig             6050.00:  SPP Max 
 STIM.      16.00.00 23-May-21:  Start Time 
 SVCS.                 DD, MWD:  Services 
 SVER.                    9.20:  Sperry Version 
 TDAT.m                 806.00:  Tot Depth Attmp 
 TDDF.                      No:  Trip for DD 
 TDLG.m                 806.00:  Tot Depth Loggd 
 TFF .                      No:  Trip for Fail 
 TQAA.f-kp               12.00:  Torque Abs Avg 
 TQAN.f-kp                8.00:  Torque Abs Min 
 TQAX.f-kp               15.00:  Torque Abs Max 
 TRRT.°/30m               0.30:  Turn Rotating 
 MRT .                  EWR-M5:  Maximum Recorded Temperature 
 TTMX.degC               93.00:  Max Tool Temp 
 VS01.                90649155:  Virtual Str1 SN 
 VS02.                90642264:  Virtual Str2 SN 
 VS03.                90642266:  Virtual Str3 SN 
 VS04.                90642261:  Virtual Str4 SN 
 WBMN.klb                 0.00:  WOB Min 
 WITN.             Anar Khalil:  Customer Rep 
 WITN.           Murad Guliyev:  Customer Rep 2 
 WOBA.klb                13.00:  WOB Avg 
 WOBX.klb                25.00:  WOB Max 
 YP  .lhf2               32.00:  Yield Point 
~Curve Information Block
#MNEM.UNIT                 API CODE     Curve Description
#---------               -----------    ---------------------------
 TIME.HHMMSS            00 000 000 000:  GT Time & Date
 GTDEPTH.m              00 000 000 000:  GT Depth
 GTPQH.psia             00 000 000 000:  GT HR Quartz Pressure
 GTTQ.degC              00 000 000 000:  GT Quartz Temperature
 GTTN.NONE              00 000 000 000:  GT Test Number
 GTET.sec               00 000 000 000:  GT Elapsed Test Time
 GTTVD.m                00 000 000 000:  GT True Vertical Depth
#Other Information
#
#WARRANTY: Halliburton will use its best efforts to furnish customers with 
#accurate information and interpretations that are part of, and incident to, the services 
#provided.  However, Halliburton cannot and does not warrant the accuracy 
#or correctness of such information and interpretations.  Under no circumstances should any 
#such information or interpretation be relied upon as the sole basis for any drilling, 
#completion, production, or financial decision or any procedure involving any risk to the 
#safety of any drilling venture, drilling rig or its crew or any other third party.  The 
#Customer has full responsibility for all drilling, completion and production operation.  
#Halliburton makes no representations or warranties, either expressed or 
#implied, including, but not limited to, the implied warranties of merchantability or fitness 
#for a particular purpose, with respect to the services rendered.  In no event will 
#Halliburton be liable for failure to obtain any particular results or for 
#any damages, including, but not limited to, indirect, special or consequential damages, 
#resulting from the use of any information or interpretation provided by Halliburton.
#
~A           TIME           GTDEPTH  GTPQH  GTTQ  GTTN   GTET   GTTVD  
# ...
   09:09:49.754.28-May-2021 3286.00 4018.15 82.15 15.00 248.63 2493.81
   09:09:49.954.28-May-2021 3286.00 4017.91 82.15 15.00 248.83 2493.81
   09:09:50.154.28-May-2021 3286.00 4017.83 82.15 15.00 249.03 2493.81
   09:09:50.354.28-May-2021 3286.00 4017.83 82.15 15.00 249.23 2493.81
   09:09:50.554.28-May-2021 3286.00 4017.79 82.15 15.00 249.43 2493.81
   09:09:50.754.28-May-2021 3286.00 4017.78 82.15 15.00 249.63 2493.81
   09:09:50.954.28-May-2021 3286.00 4017.78 82.15 15.00 249.83 2493.81
   09:09:51.154.28-May-2021 3286.00 4017.78 82.14 15.00 250.03 2493.81
   09:09:51.354.28-May-2021 3286.00 4017.78 82.14 15.00 250.23 2493.81
   09:09:51.554.28-May-2021 3286.00 4017.77 82.14 15.00 250.43 2493.81
   09:09:51.754.28-May-2021 3286.00 4017.76 82.14 15.00 250.63 2493.81
   09:09:51.954.28-May-2021 3286.00 4017.75 82.14 15.00 250.83 2493.81
   09:09:52.154.28-May-2021 3286.00 4017.43 82.14 15.00 251.03 2493.81
   09:09:52.354.28-May-2021 3286.00 4017.43 82.14 15.00 251.23 2493.81
   09:09:52.554.28-May-2021 3286.00 4017.93 82.14 15.00 251.43 2493.81
   09:09:52.754.28-May-2021 3286.00 4017.82 82.14 15.00 251.63 2493.81
   09:09:52.954.28-May-2021 3286.00 4017.84 82.14 15.00 251.83 2493.81
   09:09:53.154.28-May-2021 3286.00 4017.79 82.14 15.00 252.03 2493.81
   09:09:53.354.28-May-2021 3286.00 4017.79 82.14 15.00 252.23 2493.81
   09:09:53.554.28-May-2021 3286.00 4017.78 82.14 15.00 252.43 2493.81
   09:09:53.754.28-May-2021 3286.00 4017.77 82.14 15.00 252.63 2493.81
   09:09:53.954.28-May-2021 3286.00 4017.75 82.14 15.00 252.83 2493.81
   09:09:54.154.28-May-2021 3286.00 4017.76 82.14 15.00 253.03 2493.81
   09:09:54.354.28-May-2021 3286.00 4017.76 82.14 15.00 253.23 2493.81
   09:09:54.554.28-May-2021 3286.00 4017.75 82.14 15.00 253.43 2493.81
   09:09:54.754.28-May-2021 3286.00 4017.74 82.14 15.00 253.63 2493.81
   09:09:54.954.28-May-2021 3286.00 4017.23 82.14 15.00 253.83 2493.81
   09:09:55.154.28-May-2021 3286.00 4017.98 82.14 15.00 254.03 2493.81
   09:09:55.354.28-May-2021 3286.00 4017.98 82.14 15.00 254.23 2493.81
   09:09:55.554.28-May-2021 3286.00 4017.98 82.14 15.00 254.43 2493.81
   09:09:55.754.28-May-2021 3286.00 4017.77 82.14 15.00 254.63 2493.81
   09:09:55.954.28-May-2021 3286.00 4016.82 82.14 15.00 254.83 2493.81
   09:09:56.154.28-May-2021 3286.00 4018.37 82.14 15.00 255.03 2493.81
   09:09:56.354.28-May-2021 3286.00 4018.37 82.14 15.00 255.23 2493.81
   09:09:56.554.28-May-2021 3286.00 4017.85 82.14 15.00 255.43 2493.81
   09:09:56.754.28-May-2021 3286.00 4016.82 82.14 15.00 255.63 2493.81
   09:09:56.955.28-May-2021 3286.00 4018.36 82.14 15.00 255.83 2493.81
   09:09:57.155.28-May-2021 3286.00 4017.88 82.14 15.00 256.03 2493.81
   09:09:57.355.28-May-2021 3286.00 4017.88 82.14 15.00 256.23 2493.81
   09:09:57.555.28-May-2021 3286.00 4017.79 82.14 15.00 256.43 2493.81
   09:09:57.755.28-May-2021 3286.00 4016.81 82.14 15.00 256.63 2493.81
   09:09:57.955.28-May-2021 3286.00 4018.38 82.14 15.00 256.83 2493.81
   09:09:58.155.28-May-2021 3286.00 4017.89 82.14 15.00 257.03 2493.81
   09:09:58.355.28-May-2021 3286.00 4017.89 82.14 15.00 257.23 2493.81
   09:09:58.555.28-May-2021 3286.00 4017.79 82.14 15.00 257.43 2493.81
   09:09:58.755.28-May-2021 3286.00 4017.79 82.14 15.00 257.63 2493.81
   09:09:58.955.28-May-2021 3286.00 4017.77 82.14 15.00 257.83 2493.81
   09:09:59.155.28-May-2021 3286.00 4017.77 82.14 15.00 258.03 2493.81
   09:09:59.355.28-May-2021 3286.00 4017.77 82.14 15.00 258.23 2493.81
   09:09:59.555.28-May-2021 3286.00 4017.77 82.14 15.00 258.43 2493.81
   09:09:59.755.28-May-2021 3286.00 4017.75 82.14 15.00 258.63 2493.81
   09:09:59.955.28-May-2021 3286.00 4017.75 82.14 15.00 258.83 2493.81
   09:10:00.155.28-May-2021 3286.00 4017.75 82.14 15.00 259.03 2493.81
   09:10:00.355.28-May-2021 3286.00 4017.75 82.14 15.00 259.23 2493.81
   09:10:00.555.28-May-2021 3286.00 4018.14 82.14 15.00 259.44 2493.81
   09:10:00.755.28-May-2021 3286.00 4017.88 82.14 15.00 259.64 2493.81
   09:10:00.955.28-May-2021 3286.00 4017.84 82.14 15.00 259.84 2493.81
   09:10:01.155.28-May-2021 3286.00 4017.79 82.14 15.00 260.04 2493.81
   09:10:01.355.28-May-2021 3286.00 4017.79 82.14 15.00 260.24 2493.81
   09:10:01.555.28-May-2021 3286.00 3970.56 82.14 15.00 260.44 2493.81
   09:10:01.755.28-May-2021 3286.00 3568.14 82.14 15.00 260.64 2493.81
   09:10:01.955.28-May-2021 3286.00 3524.85 82.14 15.00 260.84 2493.81
   09:10:02.155.28-May-2021 3286.00 3517.72 82.14 15.00 261.04 2493.81
   09:10:02.355.28-May-2021 3286.00 3517.72 82.14 15.00 261.24 2493.81
   09:10:02.555.28-May-2021 3286.00 3512.40 82.14 15.00 261.44 2493.81
   09:10:02.755.28-May-2021 3286.00 3509.86 82.14 15.00 261.64 2493.81
   09:10:02.955.28-May-2021 3286.00 3507.84 82.14 15.00 261.84 2493.81
   09:10:03.155.28-May-2021 3286.00 3503.04 82.14 15.00 262.04 2493.81
   09:10:03.355.28-May-2021 3286.00 3503.04 82.14 15.00 262.24 2493.81
   09:10:03.555.28-May-2021 3286.00 3509.09 82.13 15.00 262.44 2493.81
   09:10:03.755.28-May-2021 3286.00 3508.31 82.13 15.00 262.64 2493.81
   09:10:03.955.28-May-2021 3286.00 3506.33 82.13 15.00 262.84 2493.81
   09:10:04.155.28-May-2021 3286.00 3506.80 82.13 15.00 263.04 2493.81
   09:10:04.356.28-May-2021 3286.00 3506.80 82.13 15.00 263.24 2493.81
   09:10:04.556.28-May-2021 3286.00 3508.12 82.13 15.00 263.44 2493.81
   09:10:04.756.28-May-2021 3286.00 3512.49 82.13 15.00 263.64 2493.81
   09:10:04.956.28-May-2021 3286.00 3513.94 82.13 15.00 263.84 2493.81
   09:10:05.156.28-May-2021 3286.00 3509.72 82.13 15.00 264.04 2493.81
   09:10:05.356.28-May-2021 3286.00 3509.72 82.13 15.00 264.24 2493.81
   09:10:05.556.28-May-2021 3286.00 3513.56 82.13 15.00 264.44 2493.81
   09:10:05.756.28-May-2021 3286.00 3512.67 82.13 15.00 264.64 2493.81
   09:10:05.956.28-May-2021 3286.00 3511.35 82.13 15.00 264.84 2493.81
   09:10:06.156.28-May-2021 3286.00 3506.30 82.13 15.00 265.04 2493.81
   09:10:06.356.28-May-2021 3286.00 3506.30 82.13 15.00 265.24 2493.81
   09:10:06.556.28-May-2021 3286.00 3515.12 82.13 15.00 265.44 2493.81
   09:10:06.756.28-May-2021 3286.00 3510.04 82.13 15.00 265.64 2493.81
   09:10:06.956.28-May-2021 3286.00 3510.05 82.13 15.00 265.84 2493.81
   09:10:07.156.28-May-2021 3286.00 3515.40 82.13 15.00 266.04 2493.81
   09:10:07.356.28-May-2021 3286.00 3515.40 82.13 15.00 266.24 2493.81
   09:10:07.556.28-May-2021 3286.00 3513.43 82.12 15.00 266.44 2493.81
   09:10:07.756.28-May-2021 3286.00 3515.71 82.12 15.00 266.64 2493.81
   09:10:07.956.28-May-2021 3286.00 3514.68 82.12 15.00 266.84 2493.81
   09:10:08.156.28-May-2021 3286.00 3514.55 82.12 15.00 267.04 2493.81
   09:10:08.356.28-May-2021 3286.00 3514.55 82.12 15.00 267.24 2493.81
   09:10:08.556.28-May-2021 3286.00 3514.89 82.12 15.00 267.44 2493.81
   09:10:08.756.28-May-2021 3286.00 3511.01 82.12 15.00 267.64 2493.81
   09:10:08.956.28-May-2021 3286.00 3515.68 82.12 15.00 267.84 2493.81
   09:10:09.156.28-May-2021 3286.00 3516.00 82.12 15.00 268.04 2493.81
   09:10:09.356.28-May-2021 3286.00 3516.00 82.12 15.00 268.24 2493.81
   09:10:09.556.28-May-2021 3286.00 3514.63 82.12 15.00 268.44 2493.81
   09:10:09.756.28-May-2021 3286.00 3516.07 82.12 15.00 268.64 2493.81
   09:10:09.956.28-May-2021 3286.00 3510.30 82.12 15.00 268.84 2493.81
   09:10:10.156.28-May-2021 3286.00 3510.94 82.12 15.00 269.04 2493.81
   09:10:10.356.28-May-2021 3286.00 3510.94 82.12 15.00 269.24 2493.81
   09:10:10.556.28-May-2021 3286.00 3515.55 82.12 15.00 269.44 2493.81
   09:10:10.756.28-May-2021 3286.00 3518.46 82.12 15.00 269.64 2493.81
   09:10:10.956.28-May-2021 3286.00 3516.47 82.12 15.00 269.84 2493.81
   09:10:11.156.28-May-2021 3286.00 3516.81 82.12 15.00 270.04 2493.81
   09:10:11.356.28-May-2021 3286.00 3516.81 82.12 15.00 270.24 2493.81
   09:10:11.556.28-May-2021 3286.00 3516.76 82.12 15.00 270.44 2493.81
   09:10:11.757.28-May-2021 3286.00 3857.11 82.12 15.00 270.64 2493.81
   09:10:11.957.28-May-2021 3286.00 3954.40 82.12 15.00 270.84 2493.81
   09:10:12.157.28-May-2021 3286.00 3993.79 82.12 15.00 271.04 2493.81
