~Version Information
 VERS.                  2.0:   CWLS log ASCII Standard -VERSION 2.0
 WRAP.                   NO:   One line per depth step
~Well Information Block
#MNEM.UNIT     VALUE/NAME     DESCRIPTION
#---------     -----------    ---------------------------
 STRT.S             23:03:24 27-May-21: START TIME 23:03:24 27-May-21
 STOP.S             23:10:28 27-May-21: STOP TIME  23:10:28 27-May-21
 STEP.S                   0.00: STEP TIME
 NULL.                 -999.25: NULL VALUE
 UWI .                     N/A:  UNIQUE WELL IDENTIFIER
 API .                     N/A:  API NUMBER
 UNIT.                     N/A:  LOGGING EQUIPMENT ID
 DCON.         Sperry Drilling:  DIRECTNL CONTR
 DOE .                     N/A:  DOE NUMBER
 MWDS.                    Baku:  MWD SHOP
 SRVC.     Turan Drilling and Engineering:  CONTRACTOR
 CTRY.              Azerbaijan:  COUNTRY NAME
 PROV.                    Baku:  PROVINCE
 STAT.                    Baku:  STATE NAME
 REGN.                   EESSA:  REGION
 BASE.              Azerbaijan:  LOGGING EQUIPMENT BASE LOCATION
 WTYP.                Deviated:  WELL TYPE
 RIG .              East Azeri:  RIG NAME
 WELL.                    D02y:  WELL NAME
 FLD .                     ACG:  FIELD NAME
 COMP.     BP Exploration (Caspian Sea) Ltd.:  COMPANY
 PDAT.          Mean Sea Level:  PERMANENT DATUM
 MDS .        Operator Entered:  MAG DATA SOURCE
 SON .        AZ-XX-0906997291:  JOB NUMBER
 FTOP.          Formation Tops:  FORM TOPS DESC
 ILTD.               Lithology:  INTERP LTH DESC
 SVYD.                  Survey:  SURVEY DESC
 DMOD.             Drill Model:  DRILL MOD DESC
 HPTY.       Minimum Curvature:  HOLE POS TYPE
 NREF.                    Grid:  NORTH REFERENCE
 SPUD.               05-May-21:  SPUD DATE
 DATE.      09.27.28 12-Jun-21:  END TIME
 STIM.      09.27.28 12-May-21:  START TIME
 DMF .             Drill Floor:  DRILL MEAS FROM
 DFST.                        :  DIST FSL TEXT
 DFWT.                        :  DIST FWL TEXT
 CNTY.                        :  COUNTY
 LOC .                        :  LOCATION
 LMF .             Drill Floor:  LOG MEASURED FROM
 DEP .m                2806.40:  DEPTH
 AGAP.m                  43.60:  AIR GAP
 VSNS.m                  -4.42:  VERT SEC N/S
 VSEW.m                  -7.31:  VERT SEC E/W
 APD .m                  43.60:  DEPTH ABOVE PD
 WDMS.m                 151.80:  WD ELEV
 EGL .m                   0.00:  GROUND ELEVATION
 EPD .m                   0.00:  ELEVATION
 AZTC.deg                 6.18:  AZM TOTAL CORR
 GRDC.deg                 0.29:  GRID CORRECTION
 MDEC.deg                 6.47:  MAGNETIC DECL
 MDIP.deg                59.50:  MAGNETIC DIP
 MFLD.nT              50350.00:  MAGNETIC FIELD
 GVFD.g                   1.00:  GRAVITY FIELD
 VSDR.deg               179.08:  VERT SEC DIRECT
 TDD .m                4300.00:  TOTAL DEPTH (DRILLER)
 SDEP.m                2800.00:  START DEPTH
 DFSL.m                   0.00:  DISTANCE FSL
 DFWL.m                   0.00:  DISTANCE FWL
 UTMY.m             4431871.34:  UTM Y
 UTMX.m              538762.90:  UTM X
 WHEW.m                  -7.31:  WELL HEAD E/W
 WHNS.m                  -4.42:  WELL HEAD N/S
 LONG.deg                51.45:  LONGITUDE
 LATI.deg                40.02:  LATITUDE
 TVDS.m                  43.60:  TVDSS CORRECTN
 EKB .m                  43.60:  KB ELEVATION
 EDF .m                  43.60:  DF ELEVATION
 TDL .m                 806.00:  TOTAL DEPTH (LOGGER)
 MAGU.                 1851231:  MAGUTM CHECKSUM
 VSC .                       0:  VS TO CLOSURE
~Parameter Information Block
#MNEM.UNIT       Value        Description
#---------     -----------    ---------------------------
 AV  .mps                 1.60:  Ann Velocity 
 AVMX.mps                 2.00:  Max Ann Veloc 
 AZIF.deg               140.24:  Azm, Final 
 BHAT.        Rotary Steerable:  BHA Type 
 BROT.°/30m               0.50:  Build Rotating 
 BS  .in                  8.50:  Bit Size 
 BTPL.psig              619.00:  Bit Press Loss 
 CABU.                     Yes:  Customer Abuse 
 CGEO.          Ilgar Gurbanov:  Customer Geo 
 COMM.                     |¡U:  Run Comments 1 
 TCS .hr                 85.88:  Time Ciculation Ended 
 CV  .mps                 3.30:  Crit Velocity 
 CVMX.mps                 3.50:  Max Crit Veloc 
 DD1 .           Hamid Axmedov:  Direct Drillr 1 
 DD2 .           Teymur Aliyev:  Direct Drillr 2 
 DDSV.               Geo-Pilot:  DD Service 
 DEFF.%                 100.00:  % Det Eff 
 DLRX.°/30m               0.00:  Dogleg Rot Max 
 DLSO.°/30m               1.80:  Dogleg Oriented 
 DLSX.°/30m               3.34:  Dogleg Str Max 
 DRET.      11.50.00 27-May-21:  Drill End Time 
 DRST.      21.13.00 24-May-21:  Drill Start Tim 
 DTIM.hr                 45.11:  Time Drilling 
 EDEP.m                4054.00:  End Depth 
 ENG1.         Almaz Almadatov:  Engineer 1 
 ENG2.           Amrah Tahirov:  Engineer 2 
 ENG3.      Bakhtiyar Jabbarli:  Engineer 3 
 ENG4.          Nazrin Asgarli:  Engineer 4 
 ETIM.      10.00.00 30-May-21:  End Time 
 FLOI.gpm               530.00:  Flow In 
 FLON.gpm               400.00:  Flow In Min 
 FLOS.cptm                0.00:  Fluid Loss 
 FLOX.gpm               560.00:  Flow In Max 
 DFT .        Mineral Oil Base:  Mud Type 
 FTRO.       Formation Presure:  FTWD Run Obj 
 HFLO.                      No:  High Flow 
 HPRE.                      No:  High Pressure 
 HTEM.                      No:  High Temp 
 HYDO.m                   1.80:  Hydro Offset 
 IFIN.deg                73.83:  Inc, Final 
 IMAX.deg                73.83:  Inc Max 
 IMIN.deg                57.86:  Inc Min 
 IMND.m                3259.27:  Inc Min Depth 
 IMXD.m                4045.58:  Inc Max Depth 
 JARR.                     Yes:  Jarring 
 LETM.      11.50.00 27-May-21:  Log End Time 
 LOST.hr                     0:  Lost Rig Time 
 LSTM.      21.13.00 24-May-21:  Log Start Time 
 MDCL.ppm             42500.00:  Mud Chlorides 
 MDES.     Inversion Oil/Synthetic:  Mud Desc 
 DFD .sg                  1.52:  Mud Density 
 MDMN.sg                  1.52:  Dens Mud Min 
 MDMX.sg                  1.52:  Dens Mud Max 
 MOIL.                      70:  Run Mud Oil % 
 MOWR.                   70:30:  Run Mud OWR 
 MSND.                     0.2:  Run Mud Sand % 
 MSOL.                      22:  Run Mud Solids% 
 DFV .spqt               77.00:  Mud Viscosity 
 MWOD.in                  6.75:  MWD Tool OD 
 MWSI.                      No:  Serv Intrp, MWD 
 OTIM.hr                151.01:  Time Operating 
 PCON.          Wear / Scratch:  Pad Condition 
 PMAX.psia            11296.93:  Press Op, Max 
 PV  .cP                 37.00:  Mud PV 
 RUN .                     500:  Run Number 
 ROPA.m/hr               25.00:  ROP Avg 
 ROPN.m/hr                9.00:  ROP Min 
 ROPX.m/hr               28.00:  ROP Max 
 RPMA.rpm               140.00:  RPM Surface Avg 
 RPMN.rpm                90.00:  RPM Surface Min 
 RPMX.rpm               140.00:  RPM Surface Max 
 RRUN.                    0500:  Rig Run Number 
 SAZI.deg               172.17:  Azm, Start 
 SDEP.m                3248.00:  Start Depth 
 SIDD.                      No:  Serv Intrp, DD 
 SINC.deg                57.86:  Inc, Start 
 SPPA.psig             5620.00:  SPP Avg 
 SPPN.psig             5190.00:  SPP Min 
 SPPX.psig             6050.00:  SPP Max 
 STIM.      16.00.00 23-May-21:  Start Time 
 SVCS.                 DD, MWD:  Services 
 SVER.                    9.20:  Sperry Version 
 TDAT.m                 806.00:  Tot Depth Attmp 
 TDDF.                      No:  Trip for DD 
 TDLG.m                 806.00:  Tot Depth Loggd 
 TFF .                      No:  Trip for Fail 
 TQAA.f-kp               12.00:  Torque Abs Avg 
 TQAN.f-kp                8.00:  Torque Abs Min 
 TQAX.f-kp               15.00:  Torque Abs Max 
 TRRT.°/30m               0.30:  Turn Rotating 
 MRT .                  EWR-M5:  Maximum Recorded Temperature 
 TTMX.degC               93.00:  Max Tool Temp 
 VS01.                90649155:  Virtual Str1 SN 
 VS02.                90642264:  Virtual Str2 SN 
 VS03.                90642266:  Virtual Str3 SN 
 VS04.                90642261:  Virtual Str4 SN 
 WBMN.klb                 0.00:  WOB Min 
 WITN.             Anar Khalil:  Customer Rep 
 WITN.           Murad Guliyev:  Customer Rep 2 
 WOBA.klb                13.00:  WOB Avg 
 WOBX.klb                25.00:  WOB Max 
 YP  .lhf2               32.00:  Yield Point 
~Curve Information Block
#MNEM.UNIT                 API CODE     Curve Description
#---------               -----------    ---------------------------
 TIME.HHMMSS            00 000 000 000:  GT Time & Date
 GTDEPTH.m              00 000 000 000:  GT Depth
 GTPQH.psia             00 000 000 000:  GT HR Quartz Pressure
 GTTQ.degC              00 000 000 000:  GT Quartz Temperature
 GTTN.NONE              00 000 000 000:  GT Test Number
 GTET.sec               00 000 000 000:  GT Elapsed Test Time
 GTTVD.m                00 000 000 000:  GT True Vertical Depth
#Other Information
#
#WARRANTY: Halliburton will use its best efforts to furnish customers with 
#accurate information and interpretations that are part of, and incident to, the services 
#provided.  However, Halliburton cannot and does not warrant the accuracy 
#or correctness of such information and interpretations.  Under no circumstances should any 
#such information or interpretation be relied upon as the sole basis for any drilling, 
#completion, production, or financial decision or any procedure involving any risk to the 
#safety of any drilling venture, drilling rig or its crew or any other third party.  The 
#Customer has full responsibility for all drilling, completion and production operation.  
#Halliburton makes no representations or warranties, either expressed or 
#implied, including, but not limited to, the implied warranties of merchantability or fitness 
#for a particular purpose, with respect to the services rendered.  In no event will 
#Halliburton be liable for failure to obtain any particular results or for 
#any damages, including, but not limited to, indirect, special or consequential damages, 
#resulting from the use of any information or interpretation provided by Halliburton.
#
~A           TIME           GTDEPTH  GTPQH  GTTQ  GTTN  GTET   GTTVD  
# ...
   23:04:33.290.27-May-2021 3710.50 3139.19 84.59 2.00  69.03 2675.83
   23:04:33.490.27-May-2021 3710.50 3139.19 84.59 2.00  69.23 2675.83
   23:04:33.691.27-May-2021 3710.50 3139.06 84.59 2.00  69.43 2675.83
   23:04:33.891.27-May-2021 3710.50 3139.14 84.59 2.00  69.63 2675.83
   23:04:34.091.27-May-2021 3710.50 3139.09 84.59 2.00  69.83 2675.83
   23:04:34.291.27-May-2021 3710.50 3139.13 84.59 2.00  70.03 2675.83
   23:04:34.491.27-May-2021 3710.50 3139.13 84.59 2.00  70.23 2675.83
   23:04:34.691.27-May-2021 3710.50 3139.19 84.59 2.00  70.43 2675.83
   23:04:34.891.27-May-2021 3710.50 3139.21 84.59 2.00  70.63 2675.83
   23:04:35.091.27-May-2021 3710.50 3139.23 84.59 2.00  70.83 2675.83
   23:04:35.291.27-May-2021 3710.50 3139.25 84.59 2.00  71.03 2675.83
   23:04:35.491.27-May-2021 3710.50 3139.25 84.59 2.00  71.23 2675.83
   23:04:35.691.27-May-2021 3710.50 3139.28 84.59 2.00  71.43 2675.83
   23:04:35.891.27-May-2021 3710.50 3139.29 84.59 2.00  71.63 2675.83
   23:04:36.092.27-May-2021 3710.50 3139.30 84.59 2.00  71.83 2675.83
   23:04:36.292.27-May-2021 3710.50 3139.15 84.59 2.00  72.03 2675.83
   23:04:36.492.27-May-2021 3710.50 3139.15 84.59 2.00  72.23 2675.83
   23:04:36.692.27-May-2021 3710.50 3139.17 84.59 2.00  72.43 2675.83
   23:04:36.892.27-May-2021 3710.50 3139.07 84.59 2.00  72.63 2675.83
   23:04:37.092.27-May-2021 3710.50 3139.29 84.59 2.00  72.83 2675.83
   23:04:37.292.27-May-2021 3710.50 3139.16 84.59 2.00  73.03 2675.83
   23:04:37.492.27-May-2021 3710.50 3139.16 84.59 2.00  73.23 2675.83
   23:04:37.692.27-May-2021 3710.50 3139.25 84.59 2.00  73.43 2675.83
   23:04:37.892.27-May-2021 3710.50 3139.15 84.59 2.00  73.63 2675.83
   23:04:38.092.27-May-2021 3710.50 3139.25 84.59 2.00  73.83 2675.83
   23:04:38.292.27-May-2021 3710.50 3139.22 84.59 2.00  74.03 2675.83
   23:04:38.492.27-May-2021 3710.50 3139.22 84.59 2.00  74.23 2675.83
   23:04:38.693.27-May-2021 3710.50 3139.22 84.59 2.00  74.43 2675.83
   23:04:38.893.27-May-2021 3710.50 3139.32 84.59 2.00  74.63 2675.83
   23:04:39.093.27-May-2021 3710.50 3139.20 84.59 2.00  74.83 2675.83
   23:04:39.293.27-May-2021 3710.50 3139.30 84.59 2.00  75.03 2675.83
   23:04:39.493.27-May-2021 3710.50 3139.30 84.59 2.00  75.23 2675.83
   23:04:39.693.27-May-2021 3710.50 3139.30 84.59 2.00  75.43 2675.83
   23:04:39.893.27-May-2021 3710.50 3139.32 84.59 2.00  75.63 2675.83
   23:04:40.093.27-May-2021 3710.50 3139.36 84.59 2.00  75.83 2675.83
   23:04:40.293.27-May-2021 3710.50 3139.37 84.59 2.00  76.03 2675.83
   23:04:40.493.27-May-2021 3710.50 3139.37 84.59 2.00  76.23 2675.83
   23:04:40.693.27-May-2021 3710.50 3139.41 84.59 2.00  76.43 2675.83
   23:04:40.893.27-May-2021 3710.50 3139.43 84.59 2.00  76.63 2675.83
   23:04:41.093.27-May-2021 3710.50 3139.44 84.59 2.00  76.83 2675.83
   23:04:41.294.27-May-2021 3710.50 3139.45 84.59 2.00  77.03 2675.83
   23:04:41.494.27-May-2021 3710.50 3139.45 84.59 2.00  77.23 2675.83
   23:04:41.694.27-May-2021 3710.50 3139.32 84.59 2.00  77.43 2675.83
   23:04:41.894.27-May-2021 3710.50 3139.38 84.59 2.00  77.63 2675.83
   23:04:42.094.27-May-2021 3710.50 3139.33 84.59 2.00  77.83 2675.83
   23:04:42.294.27-May-2021 3710.50 3139.37 84.59 2.00  78.03 2675.83
   23:04:42.494.27-May-2021 3710.50 3139.37 84.59 2.00  78.23 2675.83
   23:04:42.694.27-May-2021 3710.50 3139.41 84.59 2.00  78.43 2675.83
   23:04:42.894.27-May-2021 3710.50 3139.45 84.59 2.00  78.63 2675.83
   23:04:43.094.27-May-2021 3710.50 3139.47 84.59 2.00  78.83 2675.83
   23:04:43.294.27-May-2021 3710.50 3139.48 84.59 2.00  79.03 2675.83
   23:04:43.494.27-May-2021 3710.50 3139.48 84.59 2.00  79.23 2675.83
   23:04:43.694.27-May-2021 3710.50 3139.51 84.59 2.00  79.43 2675.83
   23:04:43.895.27-May-2021 3710.50 3139.51 84.59 2.00  79.63 2675.83
   23:04:44.095.27-May-2021 3710.50 3139.54 84.59 2.00  79.83 2675.83
   23:04:44.295.27-May-2021 3710.50 3139.38 84.59 2.00  80.03 2675.83
   23:04:44.495.27-May-2021 3710.50 3139.38 84.59 2.00  80.23 2675.83
   23:04:44.695.27-May-2021 3710.50 3139.39 84.59 2.00  80.43 2675.83
   23:04:44.895.27-May-2021 3710.50 3139.31 84.59 2.00  80.63 2675.83
   23:04:45.095.27-May-2021 3710.50 3139.45 84.59 2.00  80.83 2675.83
   23:04:45.295.27-May-2021 3710.50 3139.38 84.59 2.00  81.03 2675.83
   23:04:45.495.27-May-2021 3710.50 3139.38 84.59 2.00  81.23 2675.83
   23:04:45.695.27-May-2021 3710.50 3139.44 84.59 2.00  81.43 2675.83
   23:04:45.895.27-May-2021 3710.50 3139.35 84.59 2.00  81.63 2675.83
   23:04:46.095.27-May-2021 3710.50 3139.45 84.59 2.00  81.83 2675.83
   23:04:46.296.27-May-2021 3710.50 3139.41 84.59 2.00  82.03 2675.83
   23:04:46.496.27-May-2021 3710.50 3139.41 84.59 2.00  82.23 2675.83
   23:04:46.696.27-May-2021 3710.50 3139.45 84.59 2.00  82.43 2675.83
   23:04:46.896.27-May-2021 3710.50 3139.45 84.59 2.00  82.63 2675.83
   23:04:47.096.27-May-2021 3710.50 3139.44 84.59 2.00  82.83 2675.83
   23:04:47.296.27-May-2021 3710.50 3139.42 84.59 2.00  83.03 2675.83
   23:04:47.496.27-May-2021 3710.50 3139.42 84.59 2.00  83.23 2675.83
   23:04:47.696.27-May-2021 3710.50 3139.48 84.60 2.00  83.43 2675.83
   23:04:47.896.27-May-2021 3710.50 3139.49 84.60 2.00  83.63 2675.83
   23:04:48.096.27-May-2021 3710.50 3139.51 84.60 2.00  83.83 2675.83
   23:04:48.296.27-May-2021 3710.50 3139.54 84.60 2.00  84.03 2675.83
   23:04:48.496.27-May-2021 3710.50 3139.54 84.60 2.00  84.23 2675.83
   23:04:48.696.27-May-2021 3710.50 3139.57 84.60 2.00  84.43 2675.83
   23:04:48.897.27-May-2021 3710.50 3139.59 84.60 2.00  84.63 2675.83
   23:04:49.097.27-May-2021 3710.50 3139.59 84.60 2.00  84.83 2675.83
   23:04:49.297.27-May-2021 3710.50 3139.61 84.60 2.00  85.03 2675.83
   23:04:49.497.27-May-2021 3710.50 3139.61 84.60 2.00  85.23 2675.83
   23:04:49.697.27-May-2021 3710.50 3139.50 84.60 2.00  85.43 2675.83
   23:04:49.897.27-May-2021 3710.50 3139.49 84.60 2.00  85.63 2675.83
   23:04:50.097.27-May-2021 3710.50 3139.50 84.60 2.00  85.83 2675.83
   23:04:50.297.27-May-2021 3710.50 3139.53 84.60 2.00  86.03 2675.83
   23:04:50.497.27-May-2021 3710.50 3139.53 84.60 2.00  86.23 2675.83
   23:04:50.697.27-May-2021 3710.50 3139.56 84.60 2.00  86.43 2675.83
   23:04:50.897.27-May-2021 3710.50 3139.58 84.60 2.00  86.63 2675.83
   23:04:51.097.27-May-2021 3710.50 3139.60 84.60 2.00  86.83 2675.83
   23:04:51.297.27-May-2021 3710.50 3139.61 84.60 2.00  87.03 2675.83
   23:04:51.498.27-May-2021 3710.50 3139.61 84.60 2.00  87.23 2675.83
   23:04:51.698.27-May-2021 3710.50 3139.64 84.60 2.00  87.43 2675.83
   23:04:51.898.27-May-2021 3710.50 3139.65 84.60 2.00  87.63 2675.83
   23:04:52.098.27-May-2021 3710.50 3139.62 84.60 2.00  87.83 2675.83
   23:04:52.298.27-May-2021 3710.50 3139.55 84.60 2.00  88.03 2675.83
   23:04:52.498.27-May-2021 3710.50 3139.55 84.60 2.00  88.23 2675.83
   23:04:52.698.27-May-2021 3710.50 3139.52 84.60 2.00  88.43 2675.83
   23:04:52.898.27-May-2021 3710.50 3139.56 84.60 2.00  88.63 2675.83
   23:04:53.098.27-May-2021 3710.50 3139.46 84.60 2.00  88.83 2675.83
   23:04:53.298.27-May-2021 3710.50 3139.51 84.60 2.00  89.03 2675.83
   23:04:53.498.27-May-2021 3710.50 3139.51 84.60 2.00  89.23 2675.83
   23:04:53.698.27-May-2021 3710.50 3139.52 84.60 2.00  89.44 2675.83
   23:04:53.898.27-May-2021 3710.50 3139.54 84.60 2.00  89.64 2675.83
   23:04:54.099.27-May-2021 3710.50 3139.53 84.60 2.00  89.84 2675.83
   23:04:54.299.27-May-2021 3710.50 3139.53 84.60 2.00  90.04 2675.83
   23:04:54.499.27-May-2021 3710.50 3139.53 84.60 2.00  90.24 2675.83
   23:04:54.699.27-May-2021 3710.50 3139.57 84.60 2.00  90.44 2675.83
   23:04:54.899.27-May-2021 3710.50 3139.47 84.60 2.00  90.64 2675.83
   23:04:55.099.27-May-2021 3710.50 3139.63 84.60 2.00  90.84 2675.83
   23:04:55.299.27-May-2021 3710.50 3139.53 84.60 2.00  91.04 2675.83
   23:04:55.499.27-May-2021 3710.50 3139.53 84.60 2.00  91.24 2675.83
   23:04:55.699.27-May-2021 3710.50 3139.57 84.60 2.00  91.44 2675.83
   23:04:55.899.27-May-2021 3710.50 3139.60 84.60 2.00  91.64 2675.83
   23:04:56.099.27-May-2021 3710.50 3139.60 84.60 2.00  91.84 2675.83
