~Version Information
 VERS.                  2.0:   CWLS log ASCII Standard -VERSION 2.0
 WRAP.                   NO:   One line per depth step
~Well Information Block
#MNEM.UNIT     VALUE/NAME     DESCRIPTION
#---------     -----------    ---------------------------
 STRT.S             05:31:02 28-May-21: START TIME 05:31:02 28-May-21
 STOP.S             05:38:03 28-May-21: STOP TIME  05:38:03 28-May-21
 STEP.S                   0.00: STEP TIME
 NULL.                 -999.25: NULL VALUE
 UWI .                     N/A:  UNIQUE WELL IDENTIFIER
 API .                     N/A:  API NUMBER
 UNIT.                     N/A:  LOGGING EQUIPMENT ID
 DCON.         Sperry Drilling:  DIRECTNL CONTR
 DOE .                     N/A:  DOE NUMBER
 MWDS.                    Baku:  MWD SHOP
 SRVC.     Turan Drilling and Engineering:  CONTRACTOR
 CTRY.              Azerbaijan:  COUNTRY NAME
 PROV.                    Baku:  PROVINCE
 STAT.                    Baku:  STATE NAME
 REGN.                   EESSA:  REGION
 BASE.              Azerbaijan:  LOGGING EQUIPMENT BASE LOCATION
 WTYP.                Deviated:  WELL TYPE
 RIG .              East Azeri:  RIG NAME
 WELL.                    D02y:  WELL NAME
 FLD .                     ACG:  FIELD NAME
 COMP.     BP Exploration (Caspian Sea) Ltd.:  COMPANY
 PDAT.          Mean Sea Level:  PERMANENT DATUM
 MDS .        Operator Entered:  MAG DATA SOURCE
 SON .        AZ-XX-0906997291:  JOB NUMBER
 FTOP.          Formation Tops:  FORM TOPS DESC
 ILTD.               Lithology:  INTERP LTH DESC
 SVYD.                  Survey:  SURVEY DESC
 DMOD.             Drill Model:  DRILL MOD DESC
 HPTY.       Minimum Curvature:  HOLE POS TYPE
 NREF.                    Grid:  NORTH REFERENCE
 SPUD.               05-May-21:  SPUD DATE
 DATE.      09.27.28 12-Jun-21:  END TIME
 STIM.      09.27.28 12-May-21:  START TIME
 DMF .             Drill Floor:  DRILL MEAS FROM
 DFST.                        :  DIST FSL TEXT
 DFWT.                        :  DIST FWL TEXT
 CNTY.                        :  COUNTY
 LOC .                        :  LOCATION
 LMF .             Drill Floor:  LOG MEASURED FROM
 DEP .m                2806.40:  DEPTH
 AGAP.m                  43.60:  AIR GAP
 VSNS.m                  -4.42:  VERT SEC N/S
 VSEW.m                  -7.31:  VERT SEC E/W
 APD .m                  43.60:  DEPTH ABOVE PD
 WDMS.m                 151.80:  WD ELEV
 EGL .m                   0.00:  GROUND ELEVATION
 EPD .m                   0.00:  ELEVATION
 AZTC.deg                 6.18:  AZM TOTAL CORR
 GRDC.deg                 0.29:  GRID CORRECTION
 MDEC.deg                 6.47:  MAGNETIC DECL
 MDIP.deg                59.50:  MAGNETIC DIP
 MFLD.nT              50350.00:  MAGNETIC FIELD
 GVFD.g                   1.00:  GRAVITY FIELD
 VSDR.deg               179.08:  VERT SEC DIRECT
 TDD .m                4300.00:  TOTAL DEPTH (DRILLER)
 SDEP.m                2800.00:  START DEPTH
 DFSL.m                   0.00:  DISTANCE FSL
 DFWL.m                   0.00:  DISTANCE FWL
 UTMY.m             4431871.34:  UTM Y
 UTMX.m              538762.90:  UTM X
 WHEW.m                  -7.31:  WELL HEAD E/W
 WHNS.m                  -4.42:  WELL HEAD N/S
 LONG.deg                51.45:  LONGITUDE
 LATI.deg                40.02:  LATITUDE
 TVDS.m                  43.60:  TVDSS CORRECTN
 EKB .m                  43.60:  KB ELEVATION
 EDF .m                  43.60:  DF ELEVATION
 TDL .m                 806.00:  TOTAL DEPTH (LOGGER)
 MAGU.                 1851231:  MAGUTM CHECKSUM
 VSC .                       0:  VS TO CLOSURE
~Parameter Information Block
#MNEM.UNIT       Value        Description
#---------     -----------    ---------------------------
 AV  .mps                 1.60:  Ann Velocity 
 AVMX.mps                 2.00:  Max Ann Veloc 
 AZIF.deg               140.24:  Azm, Final 
 BHAT.        Rotary Steerable:  BHA Type 
 BROT.°/30m               0.50:  Build Rotating 
 BS  .in                  8.50:  Bit Size 
 BTPL.psig              619.00:  Bit Press Loss 
 CABU.                     Yes:  Customer Abuse 
 CGEO.          Ilgar Gurbanov:  Customer Geo 
 COMM.                     LMh:  Run Comments 1 
 TCS .hr                 85.88:  Time Ciculation Ended 
 CV  .mps                 3.30:  Crit Velocity 
 CVMX.mps                 3.50:  Max Crit Veloc 
 DD1 .           Hamid Axmedov:  Direct Drillr 1 
 DD2 .           Teymur Aliyev:  Direct Drillr 2 
 DDSV.               Geo-Pilot:  DD Service 
 DEFF.%                 100.00:  % Det Eff 
 DLRX.°/30m               0.00:  Dogleg Rot Max 
 DLSO.°/30m               1.80:  Dogleg Oriented 
 DLSX.°/30m               3.34:  Dogleg Str Max 
 DRET.      11.50.00 27-May-21:  Drill End Time 
 DRST.      21.13.00 24-May-21:  Drill Start Tim 
 DTIM.hr                 45.11:  Time Drilling 
 EDEP.m                4054.00:  End Depth 
 ENG1.         Almaz Almadatov:  Engineer 1 
 ENG2.           Amrah Tahirov:  Engineer 2 
 ENG3.      Bakhtiyar Jabbarli:  Engineer 3 
 ENG4.          Nazrin Asgarli:  Engineer 4 
 ETIM.      10.00.00 30-May-21:  End Time 
 FLOI.gpm               530.00:  Flow In 
 FLON.gpm               400.00:  Flow In Min 
 FLOS.cptm                0.00:  Fluid Loss 
 FLOX.gpm               560.00:  Flow In Max 
 DFT .        Mineral Oil Base:  Mud Type 
 FTRO.       Formation Presure:  FTWD Run Obj 
 HFLO.                      No:  High Flow 
 HPRE.                      No:  High Pressure 
 HTEM.                      No:  High Temp 
 HYDO.m                   1.80:  Hydro Offset 
 IFIN.deg                73.83:  Inc, Final 
 IMAX.deg                73.83:  Inc Max 
 IMIN.deg                57.86:  Inc Min 
 IMND.m                3259.27:  Inc Min Depth 
 IMXD.m                4045.58:  Inc Max Depth 
 JARR.                     Yes:  Jarring 
 LETM.      11.50.00 27-May-21:  Log End Time 
 LOST.hr                     0:  Lost Rig Time 
 LSTM.      21.13.00 24-May-21:  Log Start Time 
 MDCL.ppm             42500.00:  Mud Chlorides 
 MDES.     Inversion Oil/Synthetic:  Mud Desc 
 DFD .sg                  1.52:  Mud Density 
 MDMN.sg                  1.52:  Dens Mud Min 
 MDMX.sg                  1.52:  Dens Mud Max 
 MOIL.                      70:  Run Mud Oil % 
 MOWR.                   70:30:  Run Mud OWR 
 MSND.                     0.2:  Run Mud Sand % 
 MSOL.                      22:  Run Mud Solids% 
 DFV .spqt               77.00:  Mud Viscosity 
 MWOD.in                  6.75:  MWD Tool OD 
 MWSI.                      No:  Serv Intrp, MWD 
 OTIM.hr                151.01:  Time Operating 
 PCON.          Wear / Scratch:  Pad Condition 
 PMAX.psia            11296.93:  Press Op, Max 
 PV  .cP                 37.00:  Mud PV 
 RUN .                     500:  Run Number 
 ROPA.m/hr               25.00:  ROP Avg 
 ROPN.m/hr                9.00:  ROP Min 
 ROPX.m/hr               28.00:  ROP Max 
 RPMA.rpm               140.00:  RPM Surface Avg 
 RPMN.rpm                90.00:  RPM Surface Min 
 RPMX.rpm               140.00:  RPM Surface Max 
 RRUN.                    0500:  Rig Run Number 
 SAZI.deg               172.17:  Azm, Start 
 SDEP.m                3248.00:  Start Depth 
 SIDD.                      No:  Serv Intrp, DD 
 SINC.deg                57.86:  Inc, Start 
 SPPA.psig             5620.00:  SPP Avg 
 SPPN.psig             5190.00:  SPP Min 
 SPPX.psig             6050.00:  SPP Max 
 STIM.      16.00.00 23-May-21:  Start Time 
 SVCS.                 DD, MWD:  Services 
 SVER.                    9.20:  Sperry Version 
 TDAT.m                 806.00:  Tot Depth Attmp 
 TDDF.                      No:  Trip for DD 
 TDLG.m                 806.00:  Tot Depth Loggd 
 TFF .                      No:  Trip for Fail 
 TQAA.f-kp               12.00:  Torque Abs Avg 
 TQAN.f-kp                8.00:  Torque Abs Min 
 TQAX.f-kp               15.00:  Torque Abs Max 
 TRRT.°/30m               0.30:  Turn Rotating 
 MRT .                  EWR-M5:  Maximum Recorded Temperature 
 TTMX.degC               93.00:  Max Tool Temp 
 VS01.                90649155:  Virtual Str1 SN 
 VS02.                90642264:  Virtual Str2 SN 
 VS03.                90642266:  Virtual Str3 SN 
 VS04.                90642261:  Virtual Str4 SN 
 WBMN.klb                 0.00:  WOB Min 
 WITN.             Anar Khalil:  Customer Rep 
 WITN.           Murad Guliyev:  Customer Rep 2 
 WOBA.klb                13.00:  WOB Avg 
 WOBX.klb                25.00:  WOB Max 
 YP  .lhf2               32.00:  Yield Point 
~Curve Information Block
#MNEM.UNIT                 API CODE     Curve Description
#---------               -----------    ---------------------------
 TIME.HHMMSS            00 000 000 000:  GT Time & Date
 GTDEPTH.m              00 000 000 000:  GT Depth
 GTPQH.psia             00 000 000 000:  GT HR Quartz Pressure
 GTTQ.degC              00 000 000 000:  GT Quartz Temperature
 GTTN.NONE              00 000 000 000:  GT Test Number
 GTET.sec               00 000 000 000:  GT Elapsed Test Time
 GTTVD.m                00 000 000 000:  GT True Vertical Depth
#Other Information
#
#WARRANTY: Halliburton will use its best efforts to furnish customers with 
#accurate information and interpretations that are part of, and incident to, the services 
#provided.  However, Halliburton cannot and does not warrant the accuracy 
#or correctness of such information and interpretations.  Under no circumstances should any 
#such information or interpretation be relied upon as the sole basis for any drilling, 
#completion, production, or financial decision or any procedure involving any risk to the 
#safety of any drilling venture, drilling rig or its crew or any other third party.  The 
#Customer has full responsibility for all drilling, completion and production operation.  
#Halliburton makes no representations or warranties, either expressed or 
#implied, including, but not limited to, the implied warranties of merchantability or fitness 
#for a particular purpose, with respect to the services rendered.  In no event will 
#Halliburton be liable for failure to obtain any particular results or for 
#any damages, including, but not limited to, indirect, special or consequential damages, 
#resulting from the use of any information or interpretation provided by Halliburton.
#
~A           TIME           GTDEPTH  GTPQH  GTTQ  GTTN   GTET   GTTVD  
# ...
   05:32:55.384.28-May-2021 3456.50 4231.07 82.97 10.00 113.05 2576.46
   05:32:55.584.28-May-2021 3456.50 4231.07 82.97 10.00 113.25 2576.46
   05:32:55.784.28-May-2021 3456.50 4231.09 82.97 10.00 113.45 2576.46
   05:32:55.984.28-May-2021 3456.50 4231.02 82.97 10.00 113.65 2576.46
   05:32:56.185.28-May-2021 3456.50 4231.13 82.97 10.00 113.85 2576.46
   05:32:56.385.28-May-2021 3456.50 4231.07 82.97 10.00 114.05 2576.46
   05:32:56.585.28-May-2021 3456.50 4231.07 82.97 10.00 114.25 2576.46
   05:32:56.785.28-May-2021 3456.50 4231.08 82.97 10.00 114.45 2576.46
   05:32:56.985.28-May-2021 3456.50 4231.07 82.97 10.00 114.65 2576.46
   05:32:57.185.28-May-2021 3456.50 4231.09 82.97 10.00 114.85 2576.46
   05:32:57.385.28-May-2021 3456.50 4231.09 82.97 10.00 115.05 2576.46
   05:32:57.585.28-May-2021 3456.50 4231.09 82.97 10.00 115.25 2576.46
   05:32:57.785.28-May-2021 3456.50 4231.09 82.97 10.00 115.45 2576.46
   05:32:57.985.28-May-2021 3456.50 4231.10 82.97 10.00 115.65 2576.46
   05:32:58.185.28-May-2021 3456.50 4231.10 82.97 10.00 115.85 2576.46
   05:32:58.385.28-May-2021 3456.50 4231.03 82.97 10.00 116.05 2576.46
   05:32:58.586.28-May-2021 3456.50 4231.03 82.97 10.00 116.25 2576.46
   05:32:58.786.28-May-2021 3456.50 4231.08 82.97 10.00 116.45 2576.46
   05:32:58.986.28-May-2021 3456.50 4231.07 82.97 10.00 116.65 2576.46
   05:32:59.186.28-May-2021 3456.50 4231.10 82.97 10.00 116.85 2576.46
   05:32:59.386.28-May-2021 3456.50 4231.08 82.97 10.00 117.05 2576.46
   05:32:59.586.28-May-2021 3456.50 4231.08 82.97 10.00 117.25 2576.46
   05:32:59.786.28-May-2021 3456.50 4231.10 82.97 10.00 117.45 2576.46
   05:32:59.986.28-May-2021 3456.50 4231.09 82.97 10.00 117.65 2576.46
   05:33:00.186.28-May-2021 3456.50 4231.10 82.97 10.00 117.85 2576.46
   05:33:00.386.28-May-2021 3456.50 4231.10 82.97 10.00 118.05 2576.46
   05:33:00.586.28-May-2021 3456.50 4231.10 82.97 10.00 118.25 2576.46
   05:33:00.786.28-May-2021 3456.50 4231.11 82.97 10.00 118.45 2576.46
   05:33:00.987.28-May-2021 3456.50 4231.11 82.97 10.00 118.65 2576.46
   05:33:01.187.28-May-2021 3456.50 4231.04 82.97 10.00 118.85 2576.46
   05:33:01.387.28-May-2021 3456.50 4231.15 82.97 10.00 119.05 2576.46
   05:33:01.587.28-May-2021 3456.50 4231.15 82.97 10.00 119.25 2576.46
   05:33:01.787.28-May-2021 3456.50 4231.09 82.97 10.00 119.45 2576.46
   05:33:01.987.28-May-2021 3456.50 4231.08 82.97 10.00 119.65 2576.46
   05:33:02.187.28-May-2021 3456.50 4231.18 82.97 10.00 119.85 2576.46
   05:33:02.387.28-May-2021 3456.50 4230.98 82.97 10.00 120.05 2576.46
   05:33:02.587.28-May-2021 3456.50 4230.98 82.97 10.00 120.25 2576.46
   05:33:02.787.28-May-2021 3456.50 4230.87 82.97 10.00 120.45 2576.46
   05:33:02.987.28-May-2021 3456.50 4231.30 82.97 10.00 120.65 2576.46
   05:33:03.187.28-May-2021 3456.50 4231.08 82.97 10.00 120.85 2576.46
   05:33:03.388.28-May-2021 3456.50 4231.08 82.97 10.00 121.05 2576.46
   05:33:03.588.28-May-2021 3456.50 4231.08 82.97 10.00 121.25 2576.46
   05:33:03.788.28-May-2021 3456.50 4231.01 82.97 10.00 121.45 2576.46
   05:33:03.988.28-May-2021 3456.50 4231.16 82.97 10.00 121.65 2576.46
   05:33:04.188.28-May-2021 3456.50 4231.07 82.97 10.00 121.85 2576.46
   05:33:04.388.28-May-2021 3456.50 4231.07 82.97 10.00 122.05 2576.46
   05:33:04.588.28-May-2021 3456.50 4231.07 82.97 10.00 122.25 2576.46
   05:33:04.788.28-May-2021 3456.50 4231.07 82.97 10.00 122.45 2576.46
   05:33:04.988.28-May-2021 3456.50 4231.09 82.97 10.00 122.65 2576.46
   05:33:05.188.28-May-2021 3456.50 4231.08 82.97 10.00 122.85 2576.46
   05:33:05.388.28-May-2021 3456.50 4231.08 82.97 10.00 123.05 2576.46
   05:33:05.588.28-May-2021 3456.50 4231.08 82.97 10.00 123.25 2576.46
   05:33:05.789.28-May-2021 3456.50 4231.09 82.97 10.00 123.45 2576.46
   05:33:05.989.28-May-2021 3456.50 4231.09 82.97 10.00 123.65 2576.46
   05:33:06.189.28-May-2021 3456.50 4231.10 82.97 10.00 123.85 2576.46
   05:33:06.389.28-May-2021 3456.50 4230.98 82.97 10.00 124.05 2576.46
   05:33:06.589.28-May-2021 3456.50 4230.98 82.97 10.00 124.25 2576.46
   05:33:06.789.28-May-2021 3456.50 4231.09 82.97 10.00 124.45 2576.46
   05:33:06.989.28-May-2021 3456.50 4231.09 82.97 10.00 124.65 2576.46
   05:33:07.189.28-May-2021 3456.50 4231.07 82.97 10.00 124.85 2576.46
   05:33:07.389.28-May-2021 3456.50 4231.08 82.97 10.00 125.05 2576.46
   05:33:07.589.28-May-2021 3456.50 4231.08 82.97 10.00 125.25 2576.46
   05:33:07.789.28-May-2021 3456.50 4231.08 82.97 10.00 125.45 2576.46
   05:33:07.989.28-May-2021 3456.50 4231.09 82.97 10.00 125.65 2576.46
   05:33:08.190.28-May-2021 3456.50 4231.09 82.97 10.00 125.85 2576.46
   05:33:08.390.28-May-2021 3456.50 4231.10 82.97 10.00 126.05 2576.46
   05:33:08.590.28-May-2021 3456.50 4231.10 82.97 10.00 126.25 2576.46
   05:33:08.790.28-May-2021 3456.50 4231.10 82.97 10.00 126.45 2576.46
   05:33:08.990.28-May-2021 3456.50 4231.03 82.97 10.00 126.65 2576.46
   05:33:09.190.28-May-2021 3456.50 4231.16 82.97 10.00 126.85 2576.46
   05:33:09.390.28-May-2021 3456.50 4231.07 82.97 10.00 127.05 2576.46
   05:33:09.590.28-May-2021 3456.50 4231.07 82.97 10.00 127.25 2576.46
   05:33:09.790.28-May-2021 3456.50 4231.09 82.97 10.00 127.45 2576.46
   05:33:09.990.28-May-2021 3456.50 4230.85 82.97 10.00 127.65 2576.46
   05:33:10.190.28-May-2021 3456.50 4231.31 82.97 10.00 127.85 2576.46
   05:33:10.390.28-May-2021 3456.50 4231.07 82.97 10.00 128.05 2576.46
   05:33:10.591.28-May-2021 3456.50 4231.07 82.97 10.00 128.25 2576.46
   05:33:10.791.28-May-2021 3456.50 4231.02 82.97 10.00 128.45 2576.46
   05:33:10.991.28-May-2021 3456.50 4231.14 82.97 10.00 128.65 2576.46
   05:33:11.191.28-May-2021 3456.50 4231.06 82.97 10.00 128.85 2576.46
   05:33:11.391.28-May-2021 3456.50 4231.07 82.97 10.00 129.05 2576.46
   05:33:11.591.28-May-2021 3456.50 4231.07 82.97 10.00 129.25 2576.46
   05:33:11.791.28-May-2021 3456.50 4230.93 82.97 10.00 129.45 2576.46
   05:33:11.991.28-May-2021 3456.50 4231.23 82.97 10.00 129.65 2576.46
   05:33:12.191.28-May-2021 3456.50 4231.07 82.97 10.00 129.85 2576.46
   05:33:12.391.28-May-2021 3456.50 4231.07 82.97 10.00 130.05 2576.46
   05:33:12.591.28-May-2021 3456.50 4231.07 82.97 10.00 130.25 2576.46
   05:33:12.791.28-May-2021 3456.50 4231.07 82.97 10.00 130.45 2576.46
   05:33:12.992.28-May-2021 3456.50 4231.06 82.97 10.00 130.65 2576.46
   05:33:13.192.28-May-2021 3456.50 4231.08 82.97 10.00 130.85 2576.46
   05:33:13.392.28-May-2021 3456.50 4231.07 82.97 10.00 131.05 2576.46
   05:33:13.592.28-May-2021 3456.50 4231.07 82.97 10.00 131.25 2576.46
   05:33:13.792.28-May-2021 3456.50 4231.08 82.97 10.00 131.45 2576.46
   05:33:13.992.28-May-2021 3456.50 4231.09 82.97 10.00 131.66 2576.46
   05:33:14.192.28-May-2021 3456.50 4231.07 82.97 10.00 131.86 2576.46
   05:33:14.392.28-May-2021 3456.50 4231.19 82.97 10.00 132.06 2576.46
   05:33:14.592.28-May-2021 3456.50 4231.19 82.97 10.00 132.26 2576.46
   05:33:14.792.28-May-2021 3456.50 4231.06 82.97 10.00 132.46 2576.46
   05:33:14.992.28-May-2021 3456.50 4231.08 82.97 10.00 132.66 2576.46
   05:33:15.192.28-May-2021 3456.50 4231.07 82.97 10.00 132.86 2576.46
   05:33:15.393.28-May-2021 3456.50 4231.08 82.97 10.00 133.06 2576.46
   05:33:15.593.28-May-2021 3456.50 4231.08 82.97 10.00 133.26 2576.46
   05:33:15.793.28-May-2021 3456.50 4231.08 82.97 10.00 133.46 2576.46
   05:33:15.993.28-May-2021 3456.50 4231.07 82.97 10.00 133.66 2576.46
   05:33:16.193.28-May-2021 3456.50 4231.09 82.97 10.00 133.86 2576.46
   05:33:16.393.28-May-2021 3456.50 4231.08 82.97 10.00 134.06 2576.46
   05:33:16.593.28-May-2021 3456.50 4231.08 82.97 10.00 134.26 2576.46
   05:33:16.793.28-May-2021 3456.50 4231.08 82.97 10.00 134.46 2576.46
   05:33:16.993.28-May-2021 3456.50 4230.95 82.97 10.00 134.66 2576.46
   05:33:17.193.28-May-2021 3456.50 4231.24 82.97 10.00 134.86 2576.46
   05:33:17.393.28-May-2021 3456.50 4231.08 82.97 10.00 135.06 2576.46
   05:33:17.593.28-May-2021 3456.50 4231.08 82.97 10.00 135.26 2576.46
   05:33:17.794.28-May-2021 3456.50 4231.06 82.97 10.00 135.46 2576.46
