~Version Information
 VERS.                  2.0:   CWLS log ASCII Standard -VERSION 2.0
 WRAP.                   NO:   One line per depth step
~Well Information Block
#MNEM.UNIT     VALUE/NAME     DESCRIPTION
#---------     -----------    ---------------------------
 STRT.S             04:01:58 28-May-21: START TIME 04:01:58 28-May-21
 STOP.S             04:09:02 28-May-21: STOP TIME  04:09:02 28-May-21
 STEP.S                   0.00: STEP TIME
 NULL.                 -999.25: NULL VALUE
 UWI .                     N/A:  UNIQUE WELL IDENTIFIER
 API .                     N/A:  API NUMBER
 UNIT.                     N/A:  LOGGING EQUIPMENT ID
 DCON.         Sperry Drilling:  DIRECTNL CONTR
 DOE .                     N/A:  DOE NUMBER
 MWDS.                    Baku:  MWD SHOP
 SRVC.     Turan Drilling and Engineering:  CONTRACTOR
 CTRY.              Azerbaijan:  COUNTRY NAME
 PROV.                    Baku:  PROVINCE
 STAT.                    Baku:  STATE NAME
 REGN.                   EESSA:  REGION
 BASE.              Azerbaijan:  LOGGING EQUIPMENT BASE LOCATION
 WTYP.                Deviated:  WELL TYPE
 RIG .              East Azeri:  RIG NAME
 WELL.                    D02y:  WELL NAME
 FLD .                     ACG:  FIELD NAME
 COMP.     BP Exploration (Caspian Sea) Ltd.:  COMPANY
 PDAT.          Mean Sea Level:  PERMANENT DATUM
 MDS .        Operator Entered:  MAG DATA SOURCE
 SON .        AZ-XX-0906997291:  JOB NUMBER
 FTOP.          Formation Tops:  FORM TOPS DESC
 ILTD.               Lithology:  INTERP LTH DESC
 SVYD.                  Survey:  SURVEY DESC
 DMOD.             Drill Model:  DRILL MOD DESC
 HPTY.       Minimum Curvature:  HOLE POS TYPE
 NREF.                    Grid:  NORTH REFERENCE
 SPUD.               05-May-21:  SPUD DATE
 DATE.      09.27.28 12-Jun-21:  END TIME
 STIM.      09.27.28 12-May-21:  START TIME
 DMF .             Drill Floor:  DRILL MEAS FROM
 DFST.                        :  DIST FSL TEXT
 DFWT.                        :  DIST FWL TEXT
 CNTY.                        :  COUNTY
 LOC .                        :  LOCATION
 LMF .             Drill Floor:  LOG MEASURED FROM
 DEP .m                2806.40:  DEPTH
 AGAP.m                  43.60:  AIR GAP
 VSNS.m                  -4.42:  VERT SEC N/S
 VSEW.m                  -7.31:  VERT SEC E/W
 APD .m                  43.60:  DEPTH ABOVE PD
 WDMS.m                 151.80:  WD ELEV
 EGL .m                   0.00:  GROUND ELEVATION
 EPD .m                   0.00:  ELEVATION
 AZTC.deg                 6.18:  AZM TOTAL CORR
 GRDC.deg                 0.29:  GRID CORRECTION
 MDEC.deg                 6.47:  MAGNETIC DECL
 MDIP.deg                59.50:  MAGNETIC DIP
 MFLD.nT              50350.00:  MAGNETIC FIELD
 GVFD.g                   1.00:  GRAVITY FIELD
 VSDR.deg               179.08:  VERT SEC DIRECT
 TDD .m                4300.00:  TOTAL DEPTH (DRILLER)
 SDEP.m                2800.00:  START DEPTH
 DFSL.m                   0.00:  DISTANCE FSL
 DFWL.m                   0.00:  DISTANCE FWL
 UTMY.m             4431871.34:  UTM Y
 UTMX.m              538762.90:  UTM X
 WHEW.m                  -7.31:  WELL HEAD E/W
 WHNS.m                  -4.42:  WELL HEAD N/S
 LONG.deg                51.45:  LONGITUDE
 LATI.deg                40.02:  LATITUDE
 TVDS.m                  43.60:  TVDSS CORRECTN
 EKB .m                  43.60:  KB ELEVATION
 EDF .m                  43.60:  DF ELEVATION
 TDL .m                 806.00:  TOTAL DEPTH (LOGGER)
 MAGU.                 1851231:  MAGUTM CHECKSUM
 VSC .                       0:  VS TO CLOSURE
~Parameter Information Block
#MNEM.UNIT       Value        Description
#---------     -----------    ---------------------------
 AV  .mps                 1.60:  Ann Velocity 
 AVMX.mps                 2.00:  Max Ann Veloc 
 AZIF.deg               140.24:  Azm, Final 
 BHAT.        Rotary Steerable:  BHA Type 
 BROT.°/30m               0.50:  Build Rotating 
 BS  .in                  8.50:  Bit Size 
 BTPL.psig              619.00:  Bit Press Loss 
 CABU.                     Yes:  Customer Abuse 
 CGEO.          Ilgar Gurbanov:  Customer Geo 
 COMM.                     4`:  Run Comments 1 
 TCS .hr                 85.88:  Time Ciculation Ended 
 CV  .mps                 3.30:  Crit Velocity 
 CVMX.mps                 3.50:  Max Crit Veloc 
 DD1 .           Hamid Axmedov:  Direct Drillr 1 
 DD2 .           Teymur Aliyev:  Direct Drillr 2 
 DDSV.               Geo-Pilot:  DD Service 
 DEFF.%                 100.00:  % Det Eff 
 DLRX.°/30m               0.00:  Dogleg Rot Max 
 DLSO.°/30m               1.80:  Dogleg Oriented 
 DLSX.°/30m               3.34:  Dogleg Str Max 
 DRET.      11.50.00 27-May-21:  Drill End Time 
 DRST.      21.13.00 24-May-21:  Drill Start Tim 
 DTIM.hr                 45.11:  Time Drilling 
 EDEP.m                4054.00:  End Depth 
 ENG1.         Almaz Almadatov:  Engineer 1 
 ENG2.           Amrah Tahirov:  Engineer 2 
 ENG3.      Bakhtiyar Jabbarli:  Engineer 3 
 ENG4.          Nazrin Asgarli:  Engineer 4 
 ETIM.      10.00.00 30-May-21:  End Time 
 FLOI.gpm               530.00:  Flow In 
 FLON.gpm               400.00:  Flow In Min 
 FLOS.cptm                0.00:  Fluid Loss 
 FLOX.gpm               560.00:  Flow In Max 
 DFT .        Mineral Oil Base:  Mud Type 
 FTRO.       Formation Presure:  FTWD Run Obj 
 HFLO.                      No:  High Flow 
 HPRE.                      No:  High Pressure 
 HTEM.                      No:  High Temp 
 HYDO.m                   1.80:  Hydro Offset 
 IFIN.deg                73.83:  Inc, Final 
 IMAX.deg                73.83:  Inc Max 
 IMIN.deg                57.86:  Inc Min 
 IMND.m                3259.27:  Inc Min Depth 
 IMXD.m                4045.58:  Inc Max Depth 
 JARR.                     Yes:  Jarring 
 LETM.      11.50.00 27-May-21:  Log End Time 
 LOST.hr                     0:  Lost Rig Time 
 LSTM.      21.13.00 24-May-21:  Log Start Time 
 MDCL.ppm             42500.00:  Mud Chlorides 
 MDES.     Inversion Oil/Synthetic:  Mud Desc 
 DFD .sg                  1.52:  Mud Density 
 MDMN.sg                  1.52:  Dens Mud Min 
 MDMX.sg                  1.52:  Dens Mud Max 
 MOIL.                      70:  Run Mud Oil % 
 MOWR.                   70:30:  Run Mud OWR 
 MSND.                     0.2:  Run Mud Sand % 
 MSOL.                      22:  Run Mud Solids% 
 DFV .spqt               77.00:  Mud Viscosity 
 MWOD.in                  6.75:  MWD Tool OD 
 MWSI.                      No:  Serv Intrp, MWD 
 OTIM.hr                151.01:  Time Operating 
 PCON.          Wear / Scratch:  Pad Condition 
 PMAX.psia            11296.93:  Press Op, Max 
 PV  .cP                 37.00:  Mud PV 
 RUN .                     500:  Run Number 
 ROPA.m/hr               25.00:  ROP Avg 
 ROPN.m/hr                9.00:  ROP Min 
 ROPX.m/hr               28.00:  ROP Max 
 RPMA.rpm               140.00:  RPM Surface Avg 
 RPMN.rpm                90.00:  RPM Surface Min 
 RPMX.rpm               140.00:  RPM Surface Max 
 RRUN.                    0500:  Rig Run Number 
 SAZI.deg               172.17:  Azm, Start 
 SDEP.m                3248.00:  Start Depth 
 SIDD.                      No:  Serv Intrp, DD 
 SINC.deg                57.86:  Inc, Start 
 SPPA.psig             5620.00:  SPP Avg 
 SPPN.psig             5190.00:  SPP Min 
 SPPX.psig             6050.00:  SPP Max 
 STIM.      16.00.00 23-May-21:  Start Time 
 SVCS.                 DD, MWD:  Services 
 SVER.                    9.20:  Sperry Version 
 TDAT.m                 806.00:  Tot Depth Attmp 
 TDDF.                      No:  Trip for DD 
 TDLG.m                 806.00:  Tot Depth Loggd 
 TFF .                      No:  Trip for Fail 
 TQAA.f-kp               12.00:  Torque Abs Avg 
 TQAN.f-kp                8.00:  Torque Abs Min 
 TQAX.f-kp               15.00:  Torque Abs Max 
 TRRT.°/30m               0.30:  Turn Rotating 
 MRT .                  EWR-M5:  Maximum Recorded Temperature 
 TTMX.degC               93.00:  Max Tool Temp 
 VS01.                90649155:  Virtual Str1 SN 
 VS02.                90642264:  Virtual Str2 SN 
 VS03.                90642266:  Virtual Str3 SN 
 VS04.                90642261:  Virtual Str4 SN 
 WBMN.klb                 0.00:  WOB Min 
 WITN.             Anar Khalil:  Customer Rep 
 WITN.           Murad Guliyev:  Customer Rep 2 
 WOBA.klb                13.00:  WOB Avg 
 WOBX.klb                25.00:  WOB Max 
 YP  .lhf2               32.00:  Yield Point 
~Curve Information Block
#MNEM.UNIT                 API CODE     Curve Description
#---------               -----------    ---------------------------
 TIME.HHMMSS            00 000 000 000:  GT Time & Date
 GTDEPTH.m              00 000 000 000:  GT Depth
 GTPQH.psia             00 000 000 000:  GT HR Quartz Pressure
 GTTQ.degC              00 000 000 000:  GT Quartz Temperature
 GTTN.NONE              00 000 000 000:  GT Test Number
 GTET.sec               00 000 000 000:  GT Elapsed Test Time
 GTTVD.m                00 000 000 000:  GT True Vertical Depth
#Other Information
#
#WARRANTY: Halliburton will use its best efforts to furnish customers with 
#accurate information and interpretations that are part of, and incident to, the services 
#provided.  However, Halliburton cannot and does not warrant the accuracy 
#or correctness of such information and interpretations.  Under no circumstances should any 
#such information or interpretation be relied upon as the sole basis for any drilling, 
#completion, production, or financial decision or any procedure involving any risk to the 
#safety of any drilling venture, drilling rig or its crew or any other third party.  The 
#Customer has full responsibility for all drilling, completion and production operation.  
#Halliburton makes no representations or warranties, either expressed or 
#implied, including, but not limited to, the implied warranties of merchantability or fitness 
#for a particular purpose, with respect to the services rendered.  In no event will 
#Halliburton be liable for failure to obtain any particular results or for 
#any damages, including, but not limited to, indirect, special or consequential damages, 
#resulting from the use of any information or interpretation provided by Halliburton.
#
~A           TIME           GTDEPTH  GTPQH  GTTQ  GTTN  GTET   GTTVD  
# ...
   04:02:44.361.28-May-2021 3493.50 6038.20 83.28 8.00  46.01 2592.27
   04:02:44.561.28-May-2021 3493.50 6038.20 83.28 8.00  46.21 2592.27
   04:02:44.761.28-May-2021 3493.50 5353.08 83.28 8.00  46.41 2592.27
   04:02:44.961.28-May-2021 3493.50 4727.44 83.28 8.00  46.62 2592.27
   04:02:45.161.28-May-2021 3493.50 4233.14 83.28 8.00  46.82 2592.27
   04:02:45.361.28-May-2021 3493.50 4126.33 83.28 8.00  47.02 2592.27
   04:02:45.561.28-May-2021 3493.50 4126.33 83.28 8.00  47.22 2592.27
   04:02:45.761.28-May-2021 3493.50 4120.60 83.28 8.00  47.42 2592.27
   04:02:45.961.28-May-2021 3493.50 4118.17 83.27 8.00  47.62 2592.27
   04:02:46.161.28-May-2021 3493.50 4114.79 83.27 8.00  47.82 2592.27
   04:02:46.361.28-May-2021 3493.50 4120.43 83.27 8.00  48.02 2592.27
   04:02:46.561.28-May-2021 3493.50 4120.43 83.27 8.00  48.22 2592.27
   04:02:46.761.28-May-2021 3493.50 4117.88 83.27 8.00  48.42 2592.27
   04:02:46.961.28-May-2021 3493.50 4117.44 83.27 8.00  48.62 2592.27
   04:02:47.161.28-May-2021 3493.50 4116.15 83.27 8.00  48.82 2592.27
   04:02:47.361.28-May-2021 3493.50 4113.91 83.26 8.00  49.02 2592.27
   04:02:47.562.28-May-2021 3493.50 4113.91 83.26 8.00  49.22 2592.27
   04:02:47.762.28-May-2021 3493.50 4120.27 83.26 8.00  49.42 2592.27
   04:02:47.962.28-May-2021 3493.50 4120.61 83.26 8.00  49.62 2592.27
   04:02:48.162.28-May-2021 3493.50 4119.62 83.26 8.00  49.82 2592.27
   04:02:48.362.28-May-2021 3493.50 4118.30 83.25 8.00  50.02 2592.27
   04:02:48.562.28-May-2021 3493.50 4118.30 83.25 8.00  50.22 2592.27
   04:02:48.762.28-May-2021 3493.50 4118.01 83.25 8.00  50.42 2592.27
   04:02:48.962.28-May-2021 3493.50 4117.80 83.25 8.00  50.62 2592.27
   04:02:49.162.28-May-2021 3493.50 4120.97 83.25 8.00  50.82 2592.27
   04:02:49.362.28-May-2021 3493.50 4120.77 83.25 8.00  51.02 2592.27
   04:02:49.562.28-May-2021 3493.50 4120.77 83.25 8.00  51.22 2592.27
   04:02:49.762.28-May-2021 3493.50 4118.36 83.24 8.00  51.42 2592.27
   04:02:49.962.28-May-2021 3493.50 4116.85 83.24 8.00  51.62 2592.27
   04:02:50.162.28-May-2021 3493.50 4116.57 83.24 8.00  51.82 2592.27
   04:02:50.362.28-May-2021 3493.50 4116.41 83.24 8.00  52.02 2592.27
   04:02:50.563.28-May-2021 3493.50 4116.41 83.24 8.00  52.22 2592.27
   04:02:50.763.28-May-2021 3493.50 4119.46 83.24 8.00  52.42 2592.27
   04:02:50.963.28-May-2021 3493.50 4118.93 83.23 8.00  52.62 2592.27
   04:02:51.163.28-May-2021 3493.50 4121.33 83.23 8.00  52.82 2592.27
   04:02:51.363.28-May-2021 3493.50 4121.20 83.23 8.00  53.02 2592.27
   04:02:51.563.28-May-2021 3493.50 4121.20 83.23 8.00  53.22 2592.27
   04:02:51.763.28-May-2021 3493.50 4121.35 83.23 8.00  53.42 2592.27
   04:02:51.963.28-May-2021 3493.50 4120.52 83.23 8.00  53.62 2592.27
   04:02:52.163.28-May-2021 3493.50 4123.23 83.23 8.00  53.82 2592.27
   04:02:52.363.28-May-2021 3493.50 4121.58 83.23 8.00  54.02 2592.27
   04:02:52.563.28-May-2021 3493.50 4121.58 83.23 8.00  54.22 2592.27
   04:02:52.763.28-May-2021 3493.50 4121.58 83.22 8.00  54.42 2592.27
   04:02:52.963.28-May-2021 3493.50 4120.00 83.22 8.00  54.62 2592.27
   04:02:53.163.28-May-2021 3493.50 4121.59 83.22 8.00  54.82 2592.27
   04:02:53.363.28-May-2021 3493.50 4122.76 83.22 8.00  55.02 2592.27
   04:02:53.563.28-May-2021 3493.50 4122.76 83.22 8.00  55.22 2592.27
   04:02:53.764.28-May-2021 3493.50 4122.59 83.22 8.00  55.42 2592.27
   04:02:53.964.28-May-2021 3493.50 4120.75 83.22 8.00  55.62 2592.27
   04:02:54.164.28-May-2021 3493.50 4122.22 83.22 8.00  55.82 2592.27
   04:02:54.364.28-May-2021 3493.50 4205.17 83.22 8.00  56.02 2592.27
   04:02:54.564.28-May-2021 3493.50 4205.17 83.22 8.00  56.22 2592.27
   04:02:54.764.28-May-2021 3493.50 4215.85 83.22 8.00  56.42 2592.27
   04:02:54.964.28-May-2021 3493.50 4215.89 83.22 8.00  56.62 2592.27
   04:02:55.164.28-May-2021 3493.50 4215.97 83.21 8.00  56.82 2592.27
   04:02:55.364.28-May-2021 3493.50 4216.09 83.21 8.00  57.02 2592.27
   04:02:55.564.28-May-2021 3493.50 4216.09 83.21 8.00  57.22 2592.27
   04:02:55.764.28-May-2021 3493.50 4216.45 83.21 8.00  57.42 2592.27
   04:02:55.964.28-May-2021 3493.50 4216.50 83.21 8.00  57.62 2592.27
   04:02:56.164.28-May-2021 3493.50 4216.43 83.21 8.00  57.82 2592.27
   04:02:56.364.28-May-2021 3493.50 4216.45 83.21 8.00  58.02 2592.27
   04:02:56.564.28-May-2021 3493.50 4216.45 83.21 8.00  58.22 2592.27
   04:02:56.765.28-May-2021 3493.50 4216.50 83.21 8.00  58.42 2592.27
   04:02:56.965.28-May-2021 3493.50 4216.55 83.21 8.00  58.62 2592.27
   04:02:57.165.28-May-2021 3493.50 4216.58 83.21 8.00  58.82 2592.27
   04:02:57.365.28-May-2021 3493.50 4216.62 83.21 8.00  59.02 2592.27
   04:02:57.565.28-May-2021 3493.50 4216.62 83.21 8.00  59.22 2592.27
   04:02:57.765.28-May-2021 3493.50 4216.64 83.21 8.00  59.42 2592.27
   04:02:57.965.28-May-2021 3493.50 4216.67 83.21 8.00  59.62 2592.27
   04:02:58.165.28-May-2021 3493.50 4216.70 83.21 8.00  59.82 2592.27
   04:02:58.365.28-May-2021 3493.50 4216.60 83.21 8.00  60.02 2592.27
   04:02:58.565.28-May-2021 3493.50 4216.60 83.21 8.00  60.22 2592.27
   04:02:58.765.28-May-2021 3493.50 4216.55 83.21 8.00  60.42 2592.27
   04:02:58.965.28-May-2021 3493.50 4216.40 83.21 8.00  60.62 2592.27
   04:02:59.165.28-May-2021 3493.50 4216.64 83.21 8.00  60.82 2592.27
   04:02:59.365.28-May-2021 3493.50 4216.56 83.21 8.00  61.02 2592.27
   04:02:59.565.28-May-2021 3493.50 4216.56 83.21 8.00  61.22 2592.27
   04:02:59.765.28-May-2021 3493.50 4216.33 83.21 8.00  61.42 2592.27
   04:02:59.966.28-May-2021 3493.50 4216.78 83.21 8.00  61.62 2592.27
   04:03:00.166.28-May-2021 3493.50 4216.60 83.21 8.00  61.82 2592.27
   04:03:00.366.28-May-2021 3493.50 4216.66 83.21 8.00  62.02 2592.27
   04:03:00.566.28-May-2021 3493.50 4216.66 83.21 8.00  62.22 2592.27
   04:03:00.766.28-May-2021 3493.50 4216.62 83.21 8.00  62.42 2592.27
   04:03:00.966.28-May-2021 3493.50 4216.62 83.21 8.00  62.62 2592.27
   04:03:01.166.28-May-2021 3493.50 4216.66 83.21 8.00  62.82 2592.27
   04:03:01.366.28-May-2021 3493.50 4216.70 83.21 8.00  63.02 2592.27
   04:03:01.566.28-May-2021 3493.50 4216.70 83.21 8.00  63.22 2592.27
   04:03:01.766.28-May-2021 3493.50 4216.74 83.21 8.00  63.42 2592.27
   04:03:01.966.28-May-2021 3493.50 4216.75 83.20 8.00  63.62 2592.27
   04:03:02.166.28-May-2021 3493.50 4216.77 83.20 8.00  63.82 2592.27
   04:03:02.366.28-May-2021 3493.50 4216.79 83.20 8.00  64.02 2592.27
   04:03:02.566.28-May-2021 3493.50 4216.79 83.20 8.00  64.22 2592.27
   04:03:02.766.28-May-2021 3493.50 4216.81 83.20 8.00  64.42 2592.27
   04:03:02.967.28-May-2021 3493.50 4216.44 83.20 8.00  64.62 2592.27
   04:03:03.167.28-May-2021 3493.50 4216.98 83.20 8.00  64.82 2592.27
   04:03:03.367.28-May-2021 3493.50 4216.68 83.20 8.00  65.02 2592.27
   04:03:03.567.28-May-2021 3493.50 4216.68 83.20 8.00  65.22 2592.27
   04:03:03.767.28-May-2021 3493.50 4216.73 83.20 8.00  65.42 2592.27
   04:03:03.967.28-May-2021 3493.50 4216.76 83.20 8.00  65.62 2592.27
   04:03:04.167.28-May-2021 3493.50 4216.79 83.20 8.00  65.82 2592.27
   04:03:04.367.28-May-2021 3493.50 4216.81 83.20 8.00  66.02 2592.27
   04:03:04.567.28-May-2021 3493.50 4216.81 83.20 8.00  66.22 2592.27
   04:03:04.767.28-May-2021 3493.50 4216.83 83.20 8.00  66.42 2592.27
   04:03:04.967.28-May-2021 3493.50 4216.87 83.20 8.00  66.62 2592.27
   04:03:05.167.28-May-2021 3493.50 4216.89 83.20 8.00  66.82 2592.27
   04:03:05.367.28-May-2021 3493.50 4216.88 83.20 8.00  67.02 2592.27
   04:03:05.567.28-May-2021 3493.50 4216.88 83.20 8.00  67.22 2592.27
   04:03:05.767.28-May-2021 3493.50 4216.81 83.20 8.00  67.42 2592.27
   04:03:05.967.28-May-2021 3493.50 4216.60 83.20 8.00  67.62 2592.27
   04:03:06.168.28-May-2021 3493.50 4216.75 83.20 8.00  67.82 2592.27
   04:03:06.368.28-May-2021 3493.50 4216.78 83.20 8.00  68.02 2592.27
   04:03:06.568.28-May-2021 3493.50 4216.78 83.20 8.00  68.22 2592.27
   04:03:06.768.28-May-2021 3493.50 4216.82 83.20 8.00  68.42 2592.27
   04:03:06.968.28-May-2021 3493.50 4216.76 83.20 8.00  68.62 2592.27
   04:03:07.168.28-May-2021 3493.50 4216.80 83.20 8.00  68.82 2592.27
