~Version Information
 VERS.                  2.0:   CWLS log ASCII Standard -VERSION 2.0
 WRAP.                   NO:   One line per depth step
~Well Information Block
#MNEM.UNIT     VALUE/NAME     DESCRIPTION
#---------     -----------    ---------------------------
 STRT.S             04:01:58 28-May-21: START TIME 04:01:58 28-May-21
 STOP.S             04:09:02 28-May-21: STOP TIME  04:09:02 28-May-21
 STEP.S                   0.00: STEP TIME
 NULL.                 -999.25: NULL VALUE
 UWI .                     N/A:  UNIQUE WELL IDENTIFIER
 API .                     N/A:  API NUMBER
 UNIT.                     N/A:  LOGGING EQUIPMENT ID
 DCON.         Sperry Drilling:  DIRECTNL CONTR
 DOE .                     N/A:  DOE NUMBER
 MWDS.                    Baku:  MWD SHOP
 SRVC.     Turan Drilling and Engineering:  CONTRACTOR
 CTRY.              Azerbaijan:  COUNTRY NAME
 PROV.                    Baku:  PROVINCE
 STAT.                    Baku:  STATE NAME
 REGN.                   EESSA:  REGION
 BASE.              Azerbaijan:  LOGGING EQUIPMENT BASE LOCATION
 WTYP.                Deviated:  WELL TYPE
 RIG .              East Azeri:  RIG NAME
 WELL.                    D02y:  WELL NAME
 FLD .                     ACG:  FIELD NAME
 COMP.     BP Exploration (Caspian Sea) Ltd.:  COMPANY
 PDAT.          Mean Sea Level:  PERMANENT DATUM
 MDS .        Operator Entered:  MAG DATA SOURCE
 SON .        AZ-XX-0906997291:  JOB NUMBER
 FTOP.          Formation Tops:  FORM TOPS DESC
 ILTD.               Lithology:  INTERP LTH DESC
 SVYD.                  Survey:  SURVEY DESC
 DMOD.             Drill Model:  DRILL MOD DESC
 HPTY.       Minimum Curvature:  HOLE POS TYPE
 NREF.                    Grid:  NORTH REFERENCE
 SPUD.               05-May-21:  SPUD DATE
 DATE.      09.27.28 12-Jun-21:  END TIME
 STIM.      09.27.28 12-May-21:  START TIME
 DMF .             Drill Floor:  DRILL MEAS FROM
 DFST.                        :  DIST FSL TEXT
 DFWT.                        :  DIST FWL TEXT
 CNTY.                        :  COUNTY
 LOC .                        :  LOCATION
 LMF .             Drill Floor:  LOG MEASURED FROM
 DEP .m                2806.40:  DEPTH
 AGAP.m                  43.60:  AIR GAP
 VSNS.m                  -4.42:  VERT SEC N/S
 VSEW.m                  -7.31:  VERT SEC E/W
 APD .m                  43.60:  DEPTH ABOVE PD
 WDMS.m                 151.80:  WD ELEV
 EGL .m                   0.00:  GROUND ELEVATION
 EPD .m                   0.00:  ELEVATION
 AZTC.deg                 6.18:  AZM TOTAL CORR
 GRDC.deg                 0.29:  GRID CORRECTION
 MDEC.deg                 6.47:  MAGNETIC DECL
 MDIP.deg                59.50:  MAGNETIC DIP
 MFLD.nT              50350.00:  MAGNETIC FIELD
 GVFD.g                   1.00:  GRAVITY FIELD
 VSDR.deg               179.08:  VERT SEC DIRECT
 TDD .m                4300.00:  TOTAL DEPTH (DRILLER)
 SDEP.m                2800.00:  START DEPTH
 DFSL.m                   0.00:  DISTANCE FSL
 DFWL.m                   0.00:  DISTANCE FWL
 UTMY.m             4431871.34:  UTM Y
 UTMX.m              538762.90:  UTM X
 WHEW.m                  -7.31:  WELL HEAD E/W
 WHNS.m                  -4.42:  WELL HEAD N/S
 LONG.deg                51.45:  LONGITUDE
 LATI.deg                40.02:  LATITUDE
 TVDS.m                  43.60:  TVDSS CORRECTN
 EKB .m                  43.60:  KB ELEVATION
 EDF .m                  43.60:  DF ELEVATION
 TDL .m                 806.00:  TOTAL DEPTH (LOGGER)
 MAGU.                 1851231:  MAGUTM CHECKSUM
 VSC .                       0:  VS TO CLOSURE
~Parameter Information Block
#MNEM.UNIT       Value        Description
#---------     -----------    ---------------------------
 AV  .mps                 1.60:  Ann Velocity 
 AVMX.mps                 2.00:  Max Ann Veloc 
 AZIF.deg               140.24:  Azm, Final 
 BHAT.        Rotary Steerable:  BHA Type 
 BROT.°/30m               0.50:  Build Rotating 
 BS  .in                  8.50:  Bit Size 
 BTPL.psig              619.00:  Bit Press Loss 
 CABU.                     Yes:  Customer Abuse 
 CGEO.          Ilgar Gurbanov:  Customer Geo 
 COMM.                     4`:  Run Comments 1 
 TCS .hr                 85.88:  Time Ciculation Ended 
 CV  .mps                 3.30:  Crit Velocity 
 CVMX.mps                 3.50:  Max Crit Veloc 
 DD1 .           Hamid Axmedov:  Direct Drillr 1 
 DD2 .           Teymur Aliyev:  Direct Drillr 2 
 DDSV.               Geo-Pilot:  DD Service 
 DEFF.%                 100.00:  % Det Eff 
 DLRX.°/30m               0.00:  Dogleg Rot Max 
 DLSO.°/30m               1.80:  Dogleg Oriented 
 DLSX.°/30m               3.34:  Dogleg Str Max 
 DRET.      11.50.00 27-May-21:  Drill End Time 
 DRST.      21.13.00 24-May-21:  Drill Start Tim 
 DTIM.hr                 45.11:  Time Drilling 
 EDEP.m                4054.00:  End Depth 
 ENG1.         Almaz Almadatov:  Engineer 1 
 ENG2.           Amrah Tahirov:  Engineer 2 
 ENG3.      Bakhtiyar Jabbarli:  Engineer 3 
 ENG4.          Nazrin Asgarli:  Engineer 4 
 ETIM.      10.00.00 30-May-21:  End Time 
 FLOI.gpm               530.00:  Flow In 
 FLON.gpm               400.00:  Flow In Min 
 FLOS.cptm                0.00:  Fluid Loss 
 FLOX.gpm               560.00:  Flow In Max 
 DFT .        Mineral Oil Base:  Mud Type 
 FTRO.       Formation Presure:  FTWD Run Obj 
 HFLO.                      No:  High Flow 
 HPRE.                      No:  High Pressure 
 HTEM.                      No:  High Temp 
 HYDO.m                   1.80:  Hydro Offset 
 IFIN.deg                73.83:  Inc, Final 
 IMAX.deg                73.83:  Inc Max 
 IMIN.deg                57.86:  Inc Min 
 IMND.m                3259.27:  Inc Min Depth 
 IMXD.m                4045.58:  Inc Max Depth 
 JARR.                     Yes:  Jarring 
 LETM.      11.50.00 27-May-21:  Log End Time 
 LOST.hr                     0:  Lost Rig Time 
 LSTM.      21.13.00 24-May-21:  Log Start Time 
 MDCL.ppm             42500.00:  Mud Chlorides 
 MDES.     Inversion Oil/Synthetic:  Mud Desc 
 DFD .sg                  1.52:  Mud Density 
 MDMN.sg                  1.52:  Dens Mud Min 
 MDMX.sg                  1.52:  Dens Mud Max 
 MOIL.                      70:  Run Mud Oil % 
 MOWR.                   70:30:  Run Mud OWR 
 MSND.                     0.2:  Run Mud Sand % 
 MSOL.                      22:  Run Mud Solids% 
 DFV .spqt               77.00:  Mud Viscosity 
 MWOD.in                  6.75:  MWD Tool OD 
 MWSI.                      No:  Serv Intrp, MWD 
 OTIM.hr                151.01:  Time Operating 
 PCON.          Wear / Scratch:  Pad Condition 
 PMAX.psia            11296.93:  Press Op, Max 
 PV  .cP                 37.00:  Mud PV 
 RUN .                     500:  Run Number 
 ROPA.m/hr               25.00:  ROP Avg 
 ROPN.m/hr                9.00:  ROP Min 
 ROPX.m/hr               28.00:  ROP Max 
 RPMA.rpm               140.00:  RPM Surface Avg 
 RPMN.rpm                90.00:  RPM Surface Min 
 RPMX.rpm               140.00:  RPM Surface Max 
 RRUN.                    0500:  Rig Run Number 
 SAZI.deg               172.17:  Azm, Start 
 SDEP.m                3248.00:  Start Depth 
 SIDD.                      No:  Serv Intrp, DD 
 SINC.deg                57.86:  Inc, Start 
 SPPA.psig             5620.00:  SPP Avg 
 SPPN.psig             5190.00:  SPP Min 
 SPPX.psig             6050.00:  SPP Max 
 STIM.      16.00.00 23-May-21:  Start Time 
 SVCS.                 DD, MWD:  Services 
 SVER.                    9.20:  Sperry Version 
 TDAT.m                 806.00:  Tot Depth Attmp 
 TDDF.                      No:  Trip for DD 
 TDLG.m                 806.00:  Tot Depth Loggd 
 TFF .                      No:  Trip for Fail 
 TQAA.f-kp               12.00:  Torque Abs Avg 
 TQAN.f-kp                8.00:  Torque Abs Min 
 TQAX.f-kp               15.00:  Torque Abs Max 
 TRRT.°/30m               0.30:  Turn Rotating 
 MRT .                  EWR-M5:  Maximum Recorded Temperature 
 TTMX.degC               93.00:  Max Tool Temp 
 VS01.                90649155:  Virtual Str1 SN 
 VS02.                90642264:  Virtual Str2 SN 
 VS03.                90642266:  Virtual Str3 SN 
 VS04.                90642261:  Virtual Str4 SN 
 WBMN.klb                 0.00:  WOB Min 
 WITN.             Anar Khalil:  Customer Rep 
 WITN.           Murad Guliyev:  Customer Rep 2 
 WOBA.klb                13.00:  WOB Avg 
 WOBX.klb                25.00:  WOB Max 
 YP  .lhf2               32.00:  Yield Point 
~Curve Information Block
#MNEM.UNIT                 API CODE     Curve Description
#---------               -----------    ---------------------------
 TIME.HHMMSS            00 000 000 000:  GT Time & Date
 GTDEPTH.m              00 000 000 000:  GT Depth
 GTPQH.psia             00 000 000 000:  GT HR Quartz Pressure
 GTTQ.degC              00 000 000 000:  GT Quartz Temperature
 GTTN.NONE              00 000 000 000:  GT Test Number
 GTET.sec               00 000 000 000:  GT Elapsed Test Time
 GTTVD.m                00 000 000 000:  GT True Vertical Depth
#Other Information
#
#WARRANTY: Halliburton will use its best efforts to furnish customers with 
#accurate information and interpretations that are part of, and incident to, the services 
#provided.  However, Halliburton cannot and does not warrant the accuracy 
#or correctness of such information and interpretations.  Under no circumstances should any 
#such information or interpretation be relied upon as the sole basis for any drilling, 
#completion, production, or financial decision or any procedure involving any risk to the 
#safety of any drilling venture, drilling rig or its crew or any other third party.  The 
#Customer has full responsibility for all drilling, completion and production operation.  
#Halliburton makes no representations or warranties, either expressed or 
#implied, including, but not limited to, the implied warranties of merchantability or fitness 
#for a particular purpose, with respect to the services rendered.  In no event will 
#Halliburton be liable for failure to obtain any particular results or for 
#any damages, including, but not limited to, indirect, special or consequential damages, 
#resulting from the use of any information or interpretation provided by Halliburton.
#
~A           TIME           GTDEPTH  GTPQH  GTTQ  GTTN  GTET   GTTVD  
# ...
   04:08:06.464.28-May-2021 3493.50 6067.88 83.01 8.00 368.12 2592.27
   04:08:06.664.28-May-2021 3493.50 6067.88 83.01 8.00 368.32 2592.27
   04:08:06.864.28-May-2021 3493.50 6065.68 83.01 8.00 368.52 2592.27
   04:08:07.064.28-May-2021 3493.50 6065.39 83.01 8.00 368.72 2592.27
   04:08:07.264.28-May-2021 3493.50 6066.22 83.01 8.00 368.92 2592.27
   04:08:07.465.28-May-2021 3493.50 6066.67 83.01 8.00 369.12 2592.27
   04:08:07.665.28-May-2021 3493.50 6066.67 83.01 8.00 369.32 2592.27
   04:08:07.865.28-May-2021 3493.50 6066.63 83.01 8.00 369.52 2592.27
   04:08:08.065.28-May-2021 3493.50 6067.99 83.01 8.00 369.72 2592.27
   04:08:08.265.28-May-2021 3493.50 6068.20 83.01 8.00 369.92 2592.27
   04:08:08.465.28-May-2021 3493.50 6067.96 83.02 8.00 370.12 2592.27
   04:08:08.665.28-May-2021 3493.50 6067.96 83.02 8.00 370.32 2592.27
   04:08:08.865.28-May-2021 3493.50 6065.89 83.02 8.00 370.52 2592.27
   04:08:09.065.28-May-2021 3493.50 6068.93 83.02 8.00 370.72 2592.27
   04:08:09.265.28-May-2021 3493.50 6069.39 83.02 8.00 370.92 2592.27
   04:08:09.465.28-May-2021 3493.50 6068.98 83.02 8.00 371.12 2592.27
   04:08:09.665.28-May-2021 3493.50 6068.98 83.02 8.00 371.32 2592.27
   04:08:09.865.28-May-2021 3493.50 6069.15 83.03 8.00 371.52 2592.27
   04:08:10.065.28-May-2021 3493.50 6068.86 83.03 8.00 371.72 2592.27
   04:08:10.265.28-May-2021 3493.50 6069.41 83.03 8.00 371.92 2592.27
   04:08:10.466.28-May-2021 3493.50 6069.20 83.03 8.00 372.12 2592.27
   04:08:10.666.28-May-2021 3493.50 6069.20 83.03 8.00 372.32 2592.27
   04:08:10.866.28-May-2021 3493.50 6068.92 83.03 8.00 372.52 2592.27
   04:08:11.066.28-May-2021 3493.50 6068.95 83.03 8.00 372.72 2592.27
   04:08:11.266.28-May-2021 3493.50 6073.21 83.03 8.00 372.92 2592.27
   04:08:11.466.28-May-2021 3493.50 6069.98 83.03 8.00 373.12 2592.27
   04:08:11.666.28-May-2021 3493.50 6069.98 83.03 8.00 373.32 2592.27
   04:08:11.866.28-May-2021 3493.50 6069.38 83.04 8.00 373.52 2592.27
   04:08:12.066.28-May-2021 3493.50 6069.51 83.04 8.00 373.72 2592.27
   04:08:12.266.28-May-2021 3493.50 6069.09 83.04 8.00 373.92 2592.27
   04:08:12.466.28-May-2021 3493.50 6069.78 83.04 8.00 374.12 2592.27
   04:08:12.666.28-May-2021 3493.50 6069.78 83.04 8.00 374.32 2592.27
   04:08:12.866.28-May-2021 3493.50 6069.78 83.04 8.00 374.52 2592.27
   04:08:13.066.28-May-2021 3493.50 6069.93 83.04 8.00 374.72 2592.27
   04:08:13.266.28-May-2021 3493.50 6069.93 83.04 8.00 374.92 2592.27
   04:08:13.466.28-May-2021 3493.50 6069.74 83.04 8.00 375.12 2592.27
   04:08:13.667.28-May-2021 3493.50 6069.74 83.04 8.00 375.32 2592.27
   04:08:13.867.28-May-2021 3493.50 6077.25 83.04 8.00 375.52 2592.27
   04:08:14.067.28-May-2021 3493.50 6066.71 83.04 8.00 375.72 2592.27
   04:08:14.267.28-May-2021 3493.50 6069.81 83.04 8.00 375.92 2592.27
   04:08:14.467.28-May-2021 3493.50 6069.68 83.05 8.00 376.12 2592.27
   04:08:14.667.28-May-2021 3493.50 6069.68 83.05 8.00 376.32 2592.27
   04:08:14.867.28-May-2021 3493.50 6067.45 83.05 8.00 376.52 2592.27
   04:08:15.067.28-May-2021 3493.50 6070.28 83.05 8.00 376.72 2592.27
   04:08:15.267.28-May-2021 3493.50 6069.60 83.05 8.00 376.92 2592.27
   04:08:15.467.28-May-2021 3493.50 6070.10 83.05 8.00 377.12 2592.27
   04:08:15.667.28-May-2021 3493.50 6070.10 83.05 8.00 377.32 2592.27
   04:08:15.867.28-May-2021 3493.50 6073.95 83.05 8.00 377.52 2592.27
   04:08:16.067.28-May-2021 3493.50 6070.61 83.05 8.00 377.72 2592.27
   04:08:16.267.28-May-2021 3493.50 6070.53 83.05 8.00 377.92 2592.27
   04:08:16.467.28-May-2021 3493.50 6070.14 83.05 8.00 378.12 2592.27
   04:08:16.668.28-May-2021 3493.50 6070.14 83.05 8.00 378.32 2592.27
   04:08:16.868.28-May-2021 3493.50 6070.10 83.05 8.00 378.52 2592.27
   04:08:17.068.28-May-2021 3493.50 6069.46 83.05 8.00 378.72 2592.27
   04:08:17.268.28-May-2021 3493.50 6070.33 83.05 8.00 378.92 2592.27
   04:08:17.468.28-May-2021 3493.50 6070.57 83.05 8.00 379.12 2592.27
   04:08:17.668.28-May-2021 3493.50 6070.57 83.05 8.00 379.32 2592.27
   04:08:17.868.28-May-2021 3493.50 6070.05 83.05 8.00 379.52 2592.27
   04:08:18.068.28-May-2021 3493.50 6070.51 83.05 8.00 379.72 2592.27
   04:08:18.268.28-May-2021 3493.50 6070.27 83.05 8.00 379.92 2592.27
   04:08:18.468.28-May-2021 3493.50 6070.83 83.05 8.00 380.12 2592.27
   04:08:18.668.28-May-2021 3493.50 6070.83 83.05 8.00 380.32 2592.27
   04:08:18.868.28-May-2021 3493.50 6070.35 83.05 8.00 380.52 2592.27
   04:08:19.068.28-May-2021 3493.50 6070.22 83.05 8.00 380.72 2592.27
   04:08:19.268.28-May-2021 3493.50 6070.13 83.05 8.00 380.92 2592.27
   04:08:19.468.28-May-2021 3493.50 6074.13 83.05 8.00 381.12 2592.27
   04:08:19.668.28-May-2021 3493.50 6074.13 83.05 8.00 381.32 2592.27
   04:08:19.869.28-May-2021 3493.50 6070.45 83.05 8.00 381.52 2592.27
   04:08:20.069.28-May-2021 3493.50 6070.31 83.05 8.00 381.72 2592.27
   04:08:20.269.28-May-2021 3493.50 6070.31 83.05 8.00 381.92 2592.27
   04:08:20.469.28-May-2021 3493.50 6069.88 83.05 8.00 382.12 2592.27
   04:08:20.669.28-May-2021 3493.50 6069.88 83.05 8.00 382.32 2592.27
   04:08:20.869.28-May-2021 3493.50 6070.35 83.05 8.00 382.52 2592.27
   04:08:21.069.28-May-2021 3493.50 6070.74 83.05 8.00 382.72 2592.27
   04:08:21.269.28-May-2021 3493.50 6070.50 83.05 8.00 382.92 2592.27
   04:08:21.469.28-May-2021 3493.50 6070.51 83.05 8.00 383.12 2592.27
   04:08:21.669.28-May-2021 3493.50 6070.51 83.05 8.00 383.32 2592.27
   04:08:21.869.28-May-2021 3493.50 6070.09 83.05 8.00 383.52 2592.27
   04:08:22.069.28-May-2021 3493.50 6070.08 83.05 8.00 383.72 2592.27
   04:08:22.269.28-May-2021 3493.50 6073.80 83.05 8.00 383.92 2592.27
   04:08:22.469.28-May-2021 3493.50 6070.52 83.05 8.00 384.12 2592.27
   04:08:22.669.28-May-2021 3493.50 6070.52 83.05 8.00 384.32 2592.27
   04:08:22.870.28-May-2021 3493.50 6069.81 83.05 8.00 384.52 2592.27
   04:08:23.070.28-May-2021 3493.50 6069.96 83.05 8.00 384.72 2592.27
   04:08:23.270.28-May-2021 3493.50 6077.11 83.05 8.00 384.92 2592.27
   04:08:23.470.28-May-2021 3493.50 6067.03 83.05 8.00 385.12 2592.27
   04:08:23.670.28-May-2021 3493.50 6067.03 83.05 8.00 385.32 2592.27
   04:08:23.870.28-May-2021 3493.50 6070.69 83.05 8.00 385.52 2592.27
   04:08:24.070.28-May-2021 3493.50 6073.79 83.05 8.00 385.72 2592.27
   04:08:24.270.28-May-2021 3493.50 6070.79 83.05 8.00 385.92 2592.27
   04:08:24.470.28-May-2021 3493.50 6070.92 83.05 8.00 386.12 2592.27
   04:08:24.670.28-May-2021 3493.50 6070.92 83.05 8.00 386.32 2592.27
   04:08:24.870.28-May-2021 3493.50 6070.50 83.05 8.00 386.52 2592.27
   04:08:25.070.28-May-2021 3493.50 6070.32 83.05 8.00 386.72 2592.27
   04:08:25.270.28-May-2021 3493.50 6076.10 83.05 8.00 386.92 2592.27
   04:08:25.470.28-May-2021 3493.50 6068.10 83.05 8.00 387.12 2592.27
   04:08:25.670.28-May-2021 3493.50 6068.10 83.05 8.00 387.32 2592.27
   04:08:25.870.28-May-2021 3493.50 6070.86 83.05 8.00 387.52 2592.27
   04:08:26.071.28-May-2021 3493.50 6070.60 83.05 8.00 387.72 2592.27
   04:08:26.271.28-May-2021 3493.50 6070.43 83.04 8.00 387.92 2592.27
   04:08:26.471.28-May-2021 3493.50 6070.21 83.04 8.00 388.12 2592.27
   04:08:26.671.28-May-2021 3493.50 6070.21 83.04 8.00 388.33 2592.27
   04:08:26.871.28-May-2021 3493.50 6070.40 83.04 8.00 388.53 2592.27
   04:08:27.071.28-May-2021 3493.50 6070.24 83.04 8.00 388.73 2592.27
   04:08:27.271.28-May-2021 3493.50 6070.06 83.04 8.00 388.93 2592.27
   04:08:27.471.28-May-2021 3493.50 6069.99 83.04 8.00 389.13 2592.27
   04:08:27.671.28-May-2021 3493.50 6069.99 83.04 8.00 389.33 2592.27
   04:08:27.871.28-May-2021 3493.50 6077.76 83.04 8.00 389.53 2592.27
   04:08:28.071.28-May-2021 3493.50 6067.23 83.04 8.00 389.73 2592.27
   04:08:28.271.28-May-2021 3493.50 6070.71 83.04 8.00 389.93 2592.27
   04:08:28.471.28-May-2021 3493.50 6070.64 83.04 8.00 390.13 2592.27
   04:08:28.671.28-May-2021 3493.50 6070.64 83.04 8.00 390.33 2592.27
   04:08:28.871.28-May-2021 3493.50 6070.13 83.04 8.00 390.53 2592.27
   04:08:29.072.28-May-2021 3493.50 6070.36 83.04 8.00 390.73 2592.27
   04:08:29.272.28-May-2021 3493.50 6070.10 83.04 8.00 390.93 2592.27
