~Version Information
 VERS.                  2.0:   CWLS log ASCII Standard -VERSION 2.0
 WRAP.                   NO:   One line per depth step
~Well Information Block
#MNEM.UNIT     VALUE/NAME     DESCRIPTION
#---------     -----------    ---------------------------
 STRT.S             05:31:02 28-May-21: START TIME 05:31:02 28-May-21
 STOP.S             05:38:03 28-May-21: STOP TIME  05:38:03 28-May-21
 STEP.S                   0.00: STEP TIME
 NULL.                 -999.25: NULL VALUE
 UWI .                     N/A:  UNIQUE WELL IDENTIFIER
 API .                     N/A:  API NUMBER
 UNIT.                     N/A:  LOGGING EQUIPMENT ID
 DCON.         Sperry Drilling:  DIRECTNL CONTR
 DOE .                     N/A:  DOE NUMBER
 MWDS.                    Baku:  MWD SHOP
 SRVC.     Turan Drilling and Engineering:  CONTRACTOR
 CTRY.              Azerbaijan:  COUNTRY NAME
 PROV.                    Baku:  PROVINCE
 STAT.                    Baku:  STATE NAME
 REGN.                   EESSA:  REGION
 BASE.              Azerbaijan:  LOGGING EQUIPMENT BASE LOCATION
 WTYP.                Deviated:  WELL TYPE
 RIG .              East Azeri:  RIG NAME
 WELL.                    D02y:  WELL NAME
 FLD .                     ACG:  FIELD NAME
 COMP.     BP Exploration (Caspian Sea) Ltd.:  COMPANY
 PDAT.          Mean Sea Level:  PERMANENT DATUM
 MDS .        Operator Entered:  MAG DATA SOURCE
 SON .        AZ-XX-0906997291:  JOB NUMBER
 FTOP.          Formation Tops:  FORM TOPS DESC
 ILTD.               Lithology:  INTERP LTH DESC
 SVYD.                  Survey:  SURVEY DESC
 DMOD.             Drill Model:  DRILL MOD DESC
 HPTY.       Minimum Curvature:  HOLE POS TYPE
 NREF.                    Grid:  NORTH REFERENCE
 SPUD.               05-May-21:  SPUD DATE
 DATE.      09.27.28 12-Jun-21:  END TIME
 STIM.      09.27.28 12-May-21:  START TIME
 DMF .             Drill Floor:  DRILL MEAS FROM
 DFST.                        :  DIST FSL TEXT
 DFWT.                        :  DIST FWL TEXT
 CNTY.                        :  COUNTY
 LOC .                        :  LOCATION
 LMF .             Drill Floor:  LOG MEASURED FROM
 DEP .m                2806.40:  DEPTH
 AGAP.m                  43.60:  AIR GAP
 VSNS.m                  -4.42:  VERT SEC N/S
 VSEW.m                  -7.31:  VERT SEC E/W
 APD .m                  43.60:  DEPTH ABOVE PD
 WDMS.m                 151.80:  WD ELEV
 EGL .m                   0.00:  GROUND ELEVATION
 EPD .m                   0.00:  ELEVATION
 AZTC.deg                 6.18:  AZM TOTAL CORR
 GRDC.deg                 0.29:  GRID CORRECTION
 MDEC.deg                 6.47:  MAGNETIC DECL
 MDIP.deg                59.50:  MAGNETIC DIP
 MFLD.nT              50350.00:  MAGNETIC FIELD
 GVFD.g                   1.00:  GRAVITY FIELD
 VSDR.deg               179.08:  VERT SEC DIRECT
 TDD .m                4300.00:  TOTAL DEPTH (DRILLER)
 SDEP.m                2800.00:  START DEPTH
 DFSL.m                   0.00:  DISTANCE FSL
 DFWL.m                   0.00:  DISTANCE FWL
 UTMY.m             4431871.34:  UTM Y
 UTMX.m              538762.90:  UTM X
 WHEW.m                  -7.31:  WELL HEAD E/W
 WHNS.m                  -4.42:  WELL HEAD N/S
 LONG.deg                51.45:  LONGITUDE
 LATI.deg                40.02:  LATITUDE
 TVDS.m                  43.60:  TVDSS CORRECTN
 EKB .m                  43.60:  KB ELEVATION
 EDF .m                  43.60:  DF ELEVATION
 TDL .m                 806.00:  TOTAL DEPTH (LOGGER)
 MAGU.                 1851231:  MAGUTM CHECKSUM
 VSC .                       0:  VS TO CLOSURE
~Parameter Information Block
#MNEM.UNIT       Value        Description
#---------     -----------    ---------------------------
 AV  .mps                 1.60:  Ann Velocity 
 AVMX.mps                 2.00:  Max Ann Veloc 
 AZIF.deg               140.24:  Azm, Final 
 BHAT.        Rotary Steerable:  BHA Type 
 BROT.°/30m               0.50:  Build Rotating 
 BS  .in                  8.50:  Bit Size 
 BTPL.psig              619.00:  Bit Press Loss 
 CABU.                     Yes:  Customer Abuse 
 CGEO.          Ilgar Gurbanov:  Customer Geo 
 COMM.                     LMh:  Run Comments 1 
 TCS .hr                 85.88:  Time Ciculation Ended 
 CV  .mps                 3.30:  Crit Velocity 
 CVMX.mps                 3.50:  Max Crit Veloc 
 DD1 .           Hamid Axmedov:  Direct Drillr 1 
 DD2 .           Teymur Aliyev:  Direct Drillr 2 
 DDSV.               Geo-Pilot:  DD Service 
 DEFF.%                 100.00:  % Det Eff 
 DLRX.°/30m               0.00:  Dogleg Rot Max 
 DLSO.°/30m               1.80:  Dogleg Oriented 
 DLSX.°/30m               3.34:  Dogleg Str Max 
 DRET.      11.50.00 27-May-21:  Drill End Time 
 DRST.      21.13.00 24-May-21:  Drill Start Tim 
 DTIM.hr                 45.11:  Time Drilling 
 EDEP.m                4054.00:  End Depth 
 ENG1.         Almaz Almadatov:  Engineer 1 
 ENG2.           Amrah Tahirov:  Engineer 2 
 ENG3.      Bakhtiyar Jabbarli:  Engineer 3 
 ENG4.          Nazrin Asgarli:  Engineer 4 
 ETIM.      10.00.00 30-May-21:  End Time 
 FLOI.gpm               530.00:  Flow In 
 FLON.gpm               400.00:  Flow In Min 
 FLOS.cptm                0.00:  Fluid Loss 
 FLOX.gpm               560.00:  Flow In Max 
 DFT .        Mineral Oil Base:  Mud Type 
 FTRO.       Formation Presure:  FTWD Run Obj 
 HFLO.                      No:  High Flow 
 HPRE.                      No:  High Pressure 
 HTEM.                      No:  High Temp 
 HYDO.m                   1.80:  Hydro Offset 
 IFIN.deg                73.83:  Inc, Final 
 IMAX.deg                73.83:  Inc Max 
 IMIN.deg                57.86:  Inc Min 
 IMND.m                3259.27:  Inc Min Depth 
 IMXD.m                4045.58:  Inc Max Depth 
 JARR.                     Yes:  Jarring 
 LETM.      11.50.00 27-May-21:  Log End Time 
 LOST.hr                     0:  Lost Rig Time 
 LSTM.      21.13.00 24-May-21:  Log Start Time 
 MDCL.ppm             42500.00:  Mud Chlorides 
 MDES.     Inversion Oil/Synthetic:  Mud Desc 
 DFD .sg                  1.52:  Mud Density 
 MDMN.sg                  1.52:  Dens Mud Min 
 MDMX.sg                  1.52:  Dens Mud Max 
 MOIL.                      70:  Run Mud Oil % 
 MOWR.                   70:30:  Run Mud OWR 
 MSND.                     0.2:  Run Mud Sand % 
 MSOL.                      22:  Run Mud Solids% 
 DFV .spqt               77.00:  Mud Viscosity 
 MWOD.in                  6.75:  MWD Tool OD 
 MWSI.                      No:  Serv Intrp, MWD 
 OTIM.hr                151.01:  Time Operating 
 PCON.          Wear / Scratch:  Pad Condition 
 PMAX.psia            11296.93:  Press Op, Max 
 PV  .cP                 37.00:  Mud PV 
 RUN .                     500:  Run Number 
 ROPA.m/hr               25.00:  ROP Avg 
 ROPN.m/hr                9.00:  ROP Min 
 ROPX.m/hr               28.00:  ROP Max 
 RPMA.rpm               140.00:  RPM Surface Avg 
 RPMN.rpm                90.00:  RPM Surface Min 
 RPMX.rpm               140.00:  RPM Surface Max 
 RRUN.                    0500:  Rig Run Number 
 SAZI.deg               172.17:  Azm, Start 
 SDEP.m                3248.00:  Start Depth 
 SIDD.                      No:  Serv Intrp, DD 
 SINC.deg                57.86:  Inc, Start 
 SPPA.psig             5620.00:  SPP Avg 
 SPPN.psig             5190.00:  SPP Min 
 SPPX.psig             6050.00:  SPP Max 
 STIM.      16.00.00 23-May-21:  Start Time 
 SVCS.                 DD, MWD:  Services 
 SVER.                    9.20:  Sperry Version 
 TDAT.m                 806.00:  Tot Depth Attmp 
 TDDF.                      No:  Trip for DD 
 TDLG.m                 806.00:  Tot Depth Loggd 
 TFF .                      No:  Trip for Fail 
 TQAA.f-kp               12.00:  Torque Abs Avg 
 TQAN.f-kp                8.00:  Torque Abs Min 
 TQAX.f-kp               15.00:  Torque Abs Max 
 TRRT.°/30m               0.30:  Turn Rotating 
 MRT .                  EWR-M5:  Maximum Recorded Temperature 
 TTMX.degC               93.00:  Max Tool Temp 
 VS01.                90649155:  Virtual Str1 SN 
 VS02.                90642264:  Virtual Str2 SN 
 VS03.                90642266:  Virtual Str3 SN 
 VS04.                90642261:  Virtual Str4 SN 
 WBMN.klb                 0.00:  WOB Min 
 WITN.             Anar Khalil:  Customer Rep 
 WITN.           Murad Guliyev:  Customer Rep 2 
 WOBA.klb                13.00:  WOB Avg 
 WOBX.klb                25.00:  WOB Max 
 YP  .lhf2               32.00:  Yield Point 
~Curve Information Block
#MNEM.UNIT                 API CODE     Curve Description
#---------               -----------    ---------------------------
 TIME.HHMMSS            00 000 000 000:  GT Time & Date
 GTDEPTH.m              00 000 000 000:  GT Depth
 GTPQH.psia             00 000 000 000:  GT HR Quartz Pressure
 GTTQ.degC              00 000 000 000:  GT Quartz Temperature
 GTTN.NONE              00 000 000 000:  GT Test Number
 GTET.sec               00 000 000 000:  GT Elapsed Test Time
 GTTVD.m                00 000 000 000:  GT True Vertical Depth
#Other Information
#
#WARRANTY: Halliburton will use its best efforts to furnish customers with 
#accurate information and interpretations that are part of, and incident to, the services 
#provided.  However, Halliburton cannot and does not warrant the accuracy 
#or correctness of such information and interpretations.  Under no circumstances should any 
#such information or interpretation be relied upon as the sole basis for any drilling, 
#completion, production, or financial decision or any procedure involving any risk to the 
#safety of any drilling venture, drilling rig or its crew or any other third party.  The 
#Customer has full responsibility for all drilling, completion and production operation.  
#Halliburton makes no representations or warranties, either expressed or 
#implied, including, but not limited to, the implied warranties of merchantability or fitness 
#for a particular purpose, with respect to the services rendered.  In no event will 
#Halliburton be liable for failure to obtain any particular results or for 
#any damages, including, but not limited to, indirect, special or consequential damages, 
#resulting from the use of any information or interpretation provided by Halliburton.
#
~A           TIME           GTDEPTH  GTPQH  GTTQ  GTTN   GTET   GTTVD  
# ...
   05:37:26.698.28-May-2021 3456.50 6037.21 82.97 10.00 384.36 2576.46
   05:37:26.898.28-May-2021 3456.50 6036.83 82.97 10.00 384.56 2576.46
   05:37:27.098.28-May-2021 3456.50 6040.49 82.97 10.00 384.76 2576.46
   05:37:27.298.28-May-2021 3456.50 6037.10 82.97 10.00 384.96 2576.46
   05:37:27.498.28-May-2021 3456.50 6036.72 82.97 10.00 385.16 2576.46
   05:37:27.698.28-May-2021 3456.50 6036.72 82.97 10.00 385.36 2576.46
   05:37:27.898.28-May-2021 3456.50 6042.60 82.97 10.00 385.56 2576.46
   05:37:28.098.28-May-2021 3456.50 6035.50 82.97 10.00 385.76 2576.46
   05:37:28.298.28-May-2021 3456.50 6036.78 82.97 10.00 385.96 2576.46
   05:37:28.498.28-May-2021 3456.50 6036.93 82.97 10.00 386.16 2576.46
   05:37:28.698.28-May-2021 3456.50 6036.93 82.97 10.00 386.36 2576.46
   05:37:28.898.28-May-2021 3456.50 6040.48 82.97 10.00 386.56 2576.46
   05:37:29.099.28-May-2021 3456.50 6037.89 82.97 10.00 386.76 2576.46
   05:37:29.299.28-May-2021 3456.50 6037.20 82.97 10.00 386.96 2576.46
   05:37:29.499.28-May-2021 3456.50 6037.50 82.97 10.00 387.16 2576.46
   05:37:29.699.28-May-2021 3456.50 6037.50 82.97 10.00 387.36 2576.46
   05:37:29.899.28-May-2021 3456.50 6037.21 82.97 10.00 387.56 2576.46
   05:37:30.099.28-May-2021 3456.50 6040.76 82.96 10.00 387.76 2576.46
   05:37:30.299.28-May-2021 3456.50 6037.69 82.96 10.00 387.96 2576.46
   05:37:30.499.28-May-2021 3456.50 6037.46 82.96 10.00 388.16 2576.46
   05:37:30.699.28-May-2021 3456.50 6037.46 82.96 10.00 388.36 2576.46
   05:37:30.899.28-May-2021 3456.50 6037.14 82.96 10.00 388.56 2576.46
   05:37:31.099.28-May-2021 3456.50 6037.33 82.96 10.00 388.76 2576.46
   05:37:31.299.28-May-2021 3456.50 6037.08 82.96 10.00 388.96 2576.46
   05:37:31.500.28-May-2021 3456.50 6037.22 82.96 10.00 389.16 2576.46
   05:37:31.700.28-May-2021 3456.50 6037.22 82.96 10.00 389.36 2576.46
   05:37:31.900.28-May-2021 3456.50 6036.81 82.96 10.00 389.56 2576.46
   05:37:32.100.28-May-2021 3456.50 6036.87 82.96 10.00 389.76 2576.46
   05:37:32.300.28-May-2021 3456.50 6036.85 82.96 10.00 389.96 2576.46
   05:37:32.500.28-May-2021 3456.50 6040.14 82.96 10.00 390.16 2576.46
   05:37:32.700.28-May-2021 3456.50 6040.14 82.96 10.00 390.36 2576.46
   05:37:32.900.28-May-2021 3456.50 6037.38 82.96 10.00 390.56 2576.46
   05:37:33.100.28-May-2021 3456.50 6037.10 82.96 10.00 390.76 2576.46
   05:37:33.300.28-May-2021 3456.50 6037.56 82.96 10.00 390.96 2576.46
   05:37:33.500.28-May-2021 3456.50 6036.82 82.96 10.00 391.16 2576.46
   05:37:33.700.28-May-2021 3456.50 6036.82 82.96 10.00 391.36 2576.46
   05:37:33.901.28-May-2021 3456.50 6037.00 82.96 10.00 391.56 2576.46
   05:37:34.101.28-May-2021 3456.50 6037.30 82.96 10.00 391.76 2576.46
   05:37:34.301.28-May-2021 3456.50 6037.12 82.96 10.00 391.96 2576.46
   05:37:34.501.28-May-2021 3456.50 6037.01 82.96 10.00 392.16 2576.46
   05:37:34.701.28-May-2021 3456.50 6037.01 82.96 10.00 392.36 2576.46
   05:37:34.901.28-May-2021 3456.50 6036.85 82.96 10.00 392.56 2576.46
   05:37:35.101.28-May-2021 3456.50 6036.75 82.96 10.00 392.76 2576.46
   05:37:35.301.28-May-2021 3456.50 6039.94 82.96 10.00 392.96 2576.46
   05:37:35.501.28-May-2021 3456.50 6037.30 82.96 10.00 393.16 2576.46
   05:37:35.701.28-May-2021 3456.50 6037.30 82.96 10.00 393.36 2576.46
   05:37:35.901.28-May-2021 3456.50 6036.60 82.96 10.00 393.56 2576.46
   05:37:36.101.28-May-2021 3456.50 6037.05 82.96 10.00 393.76 2576.46
   05:37:36.302.28-May-2021 3456.50 6043.46 82.96 10.00 393.96 2576.46
   05:37:36.502.28-May-2021 3456.50 6034.10 82.96 10.00 394.16 2576.46
   05:37:36.702.28-May-2021 3456.50 6034.10 82.96 10.00 394.36 2576.46
   05:37:36.902.28-May-2021 3456.50 6034.10 82.96 10.00 394.56 2576.46
   05:37:37.102.28-May-2021 3456.50 6040.36 82.96 10.00 394.76 2576.46
   05:37:37.302.28-May-2021 3456.50 6037.34 82.96 10.00 394.97 2576.46
   05:37:37.502.28-May-2021 3456.50 6037.24 82.96 10.00 395.17 2576.46
   05:37:37.702.28-May-2021 3456.50 6037.24 82.96 10.00 395.37 2576.46
   05:37:37.902.28-May-2021 3456.50 6037.90 82.96 10.00 395.57 2576.46
   05:37:38.102.28-May-2021 3456.50 6036.55 82.96 10.00 395.77 2576.46
   05:37:38.302.28-May-2021 3456.50 6040.58 82.96 10.00 395.97 2576.46
   05:37:38.502.28-May-2021 3456.50 6037.70 82.96 10.00 396.17 2576.46
   05:37:38.703.28-May-2021 3456.50 6037.70 82.96 10.00 396.37 2576.46
   05:37:38.903.28-May-2021 3456.50 6037.07 82.96 10.00 396.57 2576.46
   05:37:39.103.28-May-2021 3456.50 6037.60 82.96 10.00 396.77 2576.46
   05:37:39.303.28-May-2021 3456.50 6036.84 82.96 10.00 396.97 2576.46
   05:37:39.503.28-May-2021 3456.50 6037.49 82.96 10.00 397.17 2576.46
   05:37:39.703.28-May-2021 3456.50 6037.49 82.96 10.00 397.37 2576.46
   05:37:39.903.28-May-2021 3456.50 6037.26 82.96 10.00 397.57 2576.46
   05:37:40.103.28-May-2021 3456.50 6036.83 82.96 10.00 397.77 2576.46
   05:37:40.303.28-May-2021 3456.50 6036.76 82.96 10.00 397.97 2576.46
   05:37:40.503.28-May-2021 3456.50 6036.77 82.96 10.00 398.17 2576.46
   05:37:40.703.28-May-2021 3456.50 6036.77 82.96 10.00 398.37 2576.46
   05:37:40.904.28-May-2021 3456.50 6042.54 82.96 10.00 398.57 2576.46
   05:37:41.104.28-May-2021 3456.50 6035.37 82.96 10.00 398.77 2576.46
   05:37:41.304.28-May-2021 3456.50 6036.74 82.96 10.00 398.97 2576.46
   05:37:41.504.28-May-2021 3456.50 6036.72 82.96 10.00 399.17 2576.46
   05:37:41.704.28-May-2021 3456.50 6036.72 82.96 10.00 399.37 2576.46
   05:37:41.904.28-May-2021 3456.50 6036.33 82.96 10.00 399.57 2576.46
   05:37:42.104.28-May-2021 3456.50 6037.16 82.96 10.00 399.77 2576.46
   05:37:42.304.28-May-2021 3456.50 6036.77 82.96 10.00 399.97 2576.46
   05:37:42.504.28-May-2021 3456.50 6037.18 82.96 10.00 400.17 2576.46
   05:37:42.704.28-May-2021 3456.50 6037.18 82.96 10.00 400.37 2576.46
   05:37:42.904.28-May-2021 3456.50 6036.90 82.96 10.00 400.57 2576.46
   05:37:43.104.28-May-2021 3456.50 6036.86 82.96 10.00 400.77 2576.46
   05:37:43.305.28-May-2021 3456.50 6036.86 82.96 10.00 400.97 2576.46
   05:37:43.505.28-May-2021 3456.50 6036.81 82.96 10.00 401.17 2576.46
   05:37:43.705.28-May-2021 3456.50 6036.81 82.96 10.00 401.37 2576.46
   05:37:43.905.28-May-2021 3456.50 6035.07 82.96 10.00 401.57 2576.46
   05:37:44.105.28-May-2021 3456.50 6036.44 82.96 10.00 401.77 2576.46
   05:37:44.305.28-May-2021 3456.50 6036.29 82.96 10.00 401.97 2576.46
   05:37:44.505.28-May-2021 3456.50 6036.92 82.96 10.00 402.17 2576.46
   05:37:44.705.28-May-2021 3456.50 6036.92 82.96 10.00 402.37 2576.46
   05:37:44.905.28-May-2021 3456.50 6036.07 82.96 10.00 402.57 2576.46
   05:37:45.105.28-May-2021 3456.50 6036.86 82.96 10.00 402.77 2576.46
   05:37:45.305.28-May-2021 3456.50 6036.76 82.96 10.00 402.97 2576.46
   05:37:45.505.28-May-2021 3456.50 6044.12 82.96 10.00 403.17 2576.46
   05:37:45.706.28-May-2021 3456.50 6044.12 82.96 10.00 403.37 2576.46
   05:37:45.906.28-May-2021 3456.50 6036.97 82.96 10.00 403.57 2576.46
   05:37:46.106.28-May-2021 3456.50 6036.67 82.96 10.00 403.77 2576.46
   05:37:46.306.28-May-2021 3456.50 6037.25 82.96 10.00 403.97 2576.46
   05:37:46.506.28-May-2021 3456.50 6036.50 82.95 10.00 404.17 2576.46
   05:37:46.706.28-May-2021 3456.50 6036.50 82.95 10.00 404.37 2576.46
   05:37:46.906.28-May-2021 3456.50 6037.43 82.95 10.00 404.57 2576.46
   05:37:47.106.28-May-2021 3456.50 6037.22 82.95 10.00 404.77 2576.46
   05:37:47.306.28-May-2021 3456.50 6037.19 82.95 10.00 404.97 2576.46
   05:37:47.506.28-May-2021 3456.50 6036.91 82.95 10.00 405.17 2576.46
   05:37:47.706.28-May-2021 3456.50 6036.91 82.95 10.00 405.37 2576.46
   05:37:47.906.28-May-2021 3456.50 6036.81 82.95 10.00 405.57 2576.46
   05:37:48.107.28-May-2021 3456.50 6037.15 82.95 10.00 405.77 2576.46
   05:37:48.307.28-May-2021 3456.50 6036.94 82.95 10.00 405.97 2576.46
   05:37:48.507.28-May-2021 3456.50 6036.59 82.95 10.00 406.17 2576.46
   05:37:48.707.28-May-2021 3456.50 6036.59 82.95 10.00 406.37 2576.46
   05:37:48.907.28-May-2021 3456.50 6036.33 82.95 10.00 406.57 2576.46
   05:37:49.107.28-May-2021 3456.50 6039.59 82.95 10.00 406.77 2576.46
