~Version Information
 VERS.                  2.0:   CWLS log ASCII Standard -VERSION 2.0
 WRAP.                   NO:   One line per depth step
~Well Information Block
#MNEM.UNIT     VALUE/NAME     DESCRIPTION
#---------     -----------    ---------------------------
 STRT.S             08:05:02 28-May-21: START TIME 08:05:02 28-May-21
 STOP.S             08:12:05 28-May-21: STOP TIME  08:12:05 28-May-21
 STEP.S                   0.00: STEP TIME
 NULL.                 -999.25: NULL VALUE
 UWI .                     N/A:  UNIQUE WELL IDENTIFIER
 API .                     N/A:  API NUMBER
 UNIT.                     N/A:  LOGGING EQUIPMENT ID
 DCON.         Sperry Drilling:  DIRECTNL CONTR
 DOE .                     N/A:  DOE NUMBER
 MWDS.                    Baku:  MWD SHOP
 SRVC.     Turan Drilling and Engineering:  CONTRACTOR
 CTRY.              Azerbaijan:  COUNTRY NAME
 PROV.                    Baku:  PROVINCE
 STAT.                    Baku:  STATE NAME
 REGN.                   EESSA:  REGION
 BASE.              Azerbaijan:  LOGGING EQUIPMENT BASE LOCATION
 WTYP.                Deviated:  WELL TYPE
 RIG .              East Azeri:  RIG NAME
 WELL.                    D02y:  WELL NAME
 FLD .                     ACG:  FIELD NAME
 COMP.     BP Exploration (Caspian Sea) Ltd.:  COMPANY
 PDAT.          Mean Sea Level:  PERMANENT DATUM
 MDS .        Operator Entered:  MAG DATA SOURCE
 SON .        AZ-XX-0906997291:  JOB NUMBER
 FTOP.          Formation Tops:  FORM TOPS DESC
 ILTD.               Lithology:  INTERP LTH DESC
 SVYD.                  Survey:  SURVEY DESC
 DMOD.             Drill Model:  DRILL MOD DESC
 HPTY.       Minimum Curvature:  HOLE POS TYPE
 NREF.                    Grid:  NORTH REFERENCE
 SPUD.               05-May-21:  SPUD DATE
 DATE.      09.27.28 12-Jun-21:  END TIME
 STIM.      09.27.28 12-May-21:  START TIME
 DMF .             Drill Floor:  DRILL MEAS FROM
 DFST.                        :  DIST FSL TEXT
 DFWT.                        :  DIST FWL TEXT
 CNTY.                        :  COUNTY
 LOC .                        :  LOCATION
 LMF .             Drill Floor:  LOG MEASURED FROM
 DEP .m                2806.40:  DEPTH
 AGAP.m                  43.60:  AIR GAP
 VSNS.m                  -4.42:  VERT SEC N/S
 VSEW.m                  -7.31:  VERT SEC E/W
 APD .m                  43.60:  DEPTH ABOVE PD
 WDMS.m                 151.80:  WD ELEV
 EGL .m                   0.00:  GROUND ELEVATION
 EPD .m                   0.00:  ELEVATION
 AZTC.deg                 6.18:  AZM TOTAL CORR
 GRDC.deg                 0.29:  GRID CORRECTION
 MDEC.deg                 6.47:  MAGNETIC DECL
 MDIP.deg                59.50:  MAGNETIC DIP
 MFLD.nT              50350.00:  MAGNETIC FIELD
 GVFD.g                   1.00:  GRAVITY FIELD
 VSDR.deg               179.08:  VERT SEC DIRECT
 TDD .m                4300.00:  TOTAL DEPTH (DRILLER)
 SDEP.m                2800.00:  START DEPTH
 DFSL.m                   0.00:  DISTANCE FSL
 DFWL.m                   0.00:  DISTANCE FWL
 UTMY.m             4431871.34:  UTM Y
 UTMX.m              538762.90:  UTM X
 WHEW.m                  -7.31:  WELL HEAD E/W
 WHNS.m                  -4.42:  WELL HEAD N/S
 LONG.deg                51.45:  LONGITUDE
 LATI.deg                40.02:  LATITUDE
 TVDS.m                  43.60:  TVDSS CORRECTN
 EKB .m                  43.60:  KB ELEVATION
 EDF .m                  43.60:  DF ELEVATION
 TDL .m                 806.00:  TOTAL DEPTH (LOGGER)
 MAGU.                 1851231:  MAGUTM CHECKSUM
 VSC .                       0:  VS TO CLOSURE
~Parameter Information Block
#MNEM.UNIT       Value        Description
#---------     -----------    ---------------------------
 AV  .mps                 1.60:  Ann Velocity 
 AVMX.mps                 2.00:  Max Ann Veloc 
 AZIF.deg               140.24:  Azm, Final 
 BHAT.        Rotary Steerable:  BHA Type 
 BROT.°/30m               0.50:  Build Rotating 
 BS  .in                  8.50:  Bit Size 
 BTPL.psig              619.00:  Bit Press Loss 
 CABU.                     Yes:  Customer Abuse 
 CGEO.          Ilgar Gurbanov:  Customer Geo 
 TCS .hr                 85.88:  Time Ciculation Ended 
 CV  .mps                 3.30:  Crit Velocity 
 CVMX.mps                 3.50:  Max Crit Veloc 
 DD1 .           Hamid Axmedov:  Direct Drillr 1 
 DD2 .           Teymur Aliyev:  Direct Drillr 2 
 DDSV.               Geo-Pilot:  DD Service 
 DEFF.%                 100.00:  % Det Eff 
 DLRX.°/30m               0.00:  Dogleg Rot Max 
 DLSO.°/30m               1.80:  Dogleg Oriented 
 DLSX.°/30m               3.34:  Dogleg Str Max 
 DRET.      11.50.00 27-May-21:  Drill End Time 
 DRST.      21.13.00 24-May-21:  Drill Start Tim 
 DTIM.hr                 45.11:  Time Drilling 
 EDEP.m                4054.00:  End Depth 
 ENG1.         Almaz Almadatov:  Engineer 1 
 ENG2.           Amrah Tahirov:  Engineer 2 
 ENG3.      Bakhtiyar Jabbarli:  Engineer 3 
 ENG4.          Nazrin Asgarli:  Engineer 4 
 ETIM.      10.00.00 30-May-21:  End Time 
 FLOI.gpm               530.00:  Flow In 
 FLON.gpm               400.00:  Flow In Min 
 FLOS.cptm                0.00:  Fluid Loss 
 FLOX.gpm               560.00:  Flow In Max 
 DFT .        Mineral Oil Base:  Mud Type 
 FTRO.       Formation Presure:  FTWD Run Obj 
 HFLO.                      No:  High Flow 
 HPRE.                      No:  High Pressure 
 HTEM.                      No:  High Temp 
 HYDO.m                   1.80:  Hydro Offset 
 IFIN.deg                73.83:  Inc, Final 
 IMAX.deg                73.83:  Inc Max 
 IMIN.deg                57.86:  Inc Min 
 IMND.m                3259.27:  Inc Min Depth 
 IMXD.m                4045.58:  Inc Max Depth 
 JARR.                     Yes:  Jarring 
 LETM.      11.50.00 27-May-21:  Log End Time 
 LOST.hr                     0:  Lost Rig Time 
 LSTM.      21.13.00 24-May-21:  Log Start Time 
 MDCL.ppm             42500.00:  Mud Chlorides 
 MDES.     Inversion Oil/Synthetic:  Mud Desc 
 DFD .sg                  1.52:  Mud Density 
 MDMN.sg                  1.52:  Dens Mud Min 
 MDMX.sg                  1.52:  Dens Mud Max 
 MOIL.                      70:  Run Mud Oil % 
 MOWR.                   70:30:  Run Mud OWR 
 MSND.                     0.2:  Run Mud Sand % 
 MSOL.                      22:  Run Mud Solids% 
 DFV .spqt               77.00:  Mud Viscosity 
 MWOD.in                  6.75:  MWD Tool OD 
 MWSI.                      No:  Serv Intrp, MWD 
 OTIM.hr                151.01:  Time Operating 
 PCON.          Wear / Scratch:  Pad Condition 
 PMAX.psia            11296.93:  Press Op, Max 
 PV  .cP                 37.00:  Mud PV 
 RUN .                     500:  Run Number 
 ROPA.m/hr               25.00:  ROP Avg 
 ROPN.m/hr                9.00:  ROP Min 
 ROPX.m/hr               28.00:  ROP Max 
 RPMA.rpm               140.00:  RPM Surface Avg 
 RPMN.rpm                90.00:  RPM Surface Min 
 RPMX.rpm               140.00:  RPM Surface Max 
 RRUN.                    0500:  Rig Run Number 
 SAZI.deg               172.17:  Azm, Start 
 SDEP.m                3248.00:  Start Depth 
 SIDD.                      No:  Serv Intrp, DD 
 SINC.deg                57.86:  Inc, Start 
 SPPA.psig             5620.00:  SPP Avg 
 SPPN.psig             5190.00:  SPP Min 
 SPPX.psig             6050.00:  SPP Max 
 STIM.      16.00.00 23-May-21:  Start Time 
 SVCS.                 DD, MWD:  Services 
 SVER.                    9.20:  Sperry Version 
 TDAT.m                 806.00:  Tot Depth Attmp 
 TDDF.                      No:  Trip for DD 
 TDLG.m                 806.00:  Tot Depth Loggd 
 TFF .                      No:  Trip for Fail 
 TQAA.f-kp               12.00:  Torque Abs Avg 
 TQAN.f-kp                8.00:  Torque Abs Min 
 TQAX.f-kp               15.00:  Torque Abs Max 
 TRRT.°/30m               0.30:  Turn Rotating 
 MRT .                  EWR-M5:  Maximum Recorded Temperature 
 TTMX.degC               93.00:  Max Tool Temp 
 VS01.                90649155:  Virtual Str1 SN 
 VS02.                90642264:  Virtual Str2 SN 
 VS03.                90642266:  Virtual Str3 SN 
 VS04.                90642261:  Virtual Str4 SN 
 WBMN.klb                 0.00:  WOB Min 
 WITN.             Anar Khalil:  Customer Rep 
 WITN.           Murad Guliyev:  Customer Rep 2 
 WOBA.klb                13.00:  WOB Avg 
 WOBX.klb                25.00:  WOB Max 
 YP  .lhf2               32.00:  Yield Point 
~Curve Information Block
#MNEM.UNIT                 API CODE     Curve Description
#---------               -----------    ---------------------------
 TIME.HHMMSS            00 000 000 000:  GT Time & Date
 GTDEPTH.m              00 000 000 000:  GT Depth
 GTPQH.psia             00 000 000 000:  GT HR Quartz Pressure
 GTTQ.degC              00 000 000 000:  GT Quartz Temperature
 GTTN.NONE              00 000 000 000:  GT Test Number
 GTET.sec               00 000 000 000:  GT Elapsed Test Time
 GTTVD.m                00 000 000 000:  GT True Vertical Depth
#Other Information
#
#WARRANTY: Halliburton will use its best efforts to furnish customers with 
#accurate information and interpretations that are part of, and incident to, the services 
#provided.  However, Halliburton cannot and does not warrant the accuracy 
#or correctness of such information and interpretations.  Under no circumstances should any 
#such information or interpretation be relied upon as the sole basis for any drilling, 
#completion, production, or financial decision or any procedure involving any risk to the 
#safety of any drilling venture, drilling rig or its crew or any other third party.  The 
#Customer has full responsibility for all drilling, completion and production operation.  
#Halliburton makes no representations or warranties, either expressed or 
#implied, including, but not limited to, the implied warranties of merchantability or fitness 
#for a particular purpose, with respect to the services rendered.  In no event will 
#Halliburton be liable for failure to obtain any particular results or for 
#any damages, including, but not limited to, indirect, special or consequential damages, 
#resulting from the use of any information or interpretation provided by Halliburton.
#
~A           TIME           GTDEPTH  GTPQH  GTTQ  GTTN   GTET   GTTVD  
# ...
   08:11:26.200.28-May-2021 3306.50 5846.52 82.29 14.00 384.20 2504.31
   08:11:26.400.28-May-2021 3306.50 5846.17 82.29 14.00 384.40 2504.31
   08:11:26.600.28-May-2021 3306.50 5846.21 82.29 14.00 384.60 2504.31
   08:11:26.800.28-May-2021 3306.50 5853.92 82.29 14.00 384.80 2504.31
   08:11:27.000.28-May-2021 3306.50 5842.23 82.29 14.00 385.00 2504.31
   08:11:27.200.28-May-2021 3306.50 5842.23 82.29 14.00 385.20 2504.31
   08:11:27.400.28-May-2021 3306.50 5846.41 82.29 14.00 385.40 2504.31
   08:11:27.600.28-May-2021 3306.50 5847.40 82.29 14.00 385.60 2504.31
   08:11:27.800.28-May-2021 3306.50 5846.75 82.29 14.00 385.80 2504.31
   08:11:28.000.28-May-2021 3306.50 5847.25 82.29 14.00 386.00 2504.31
   08:11:28.200.28-May-2021 3306.50 5847.25 82.29 14.00 386.20 2504.31
   08:11:28.400.28-May-2021 3306.50 5847.06 82.29 14.00 386.40 2504.31
   08:11:28.600.28-May-2021 3306.50 5846.78 82.29 14.00 386.60 2504.31
   08:11:28.800.28-May-2021 3306.50 5846.58 82.29 14.00 386.80 2504.31
   08:11:29.000.28-May-2021 3306.50 5846.47 82.29 14.00 387.00 2504.31
   08:11:29.200.28-May-2021 3306.50 5846.47 82.29 14.00 387.20 2504.31
   08:11:29.400.28-May-2021 3306.50 5846.49 82.29 14.00 387.40 2504.31
   08:11:29.600.28-May-2021 3306.50 5852.77 82.29 14.00 387.60 2504.31
   08:11:29.800.28-May-2021 3306.50 5843.82 82.29 14.00 387.80 2504.31
   08:11:30.000.28-May-2021 3306.50 5847.64 82.29 14.00 388.00 2504.31
   08:11:30.200.28-May-2021 3306.50 5847.64 82.29 14.00 388.20 2504.31
   08:11:30.400.28-May-2021 3306.50 5847.15 82.29 14.00 388.40 2504.31
   08:11:30.600.28-May-2021 3306.50 5851.17 82.29 14.00 388.60 2504.31
   08:11:30.800.28-May-2021 3306.50 5846.52 82.29 14.00 388.80 2504.31
   08:11:31.000.28-May-2021 3306.50 5847.09 82.29 14.00 389.00 2504.31
   08:11:31.200.28-May-2021 3306.50 5847.09 82.29 14.00 389.20 2504.31
   08:11:31.400.28-May-2021 3306.50 5846.44 82.29 14.00 389.40 2504.31
   08:11:31.600.28-May-2021 3306.50 5849.38 82.29 14.00 389.60 2504.31
   08:11:31.800.28-May-2021 3306.50 5847.71 82.29 14.00 389.80 2504.31
   08:11:32.000.28-May-2021 3306.50 5846.94 82.29 14.00 390.00 2504.31
   08:11:32.200.28-May-2021 3306.50 5846.94 82.29 14.00 390.20 2504.31
   08:11:32.400.28-May-2021 3306.50 5848.44 82.29 14.00 390.40 2504.31
   08:11:32.600.28-May-2021 3306.50 5846.81 82.29 14.00 390.60 2504.31
   08:11:32.800.28-May-2021 3306.50 5847.20 82.29 14.00 390.80 2504.31
   08:11:33.000.28-May-2021 3306.50 5847.43 82.29 14.00 391.00 2504.31
   08:11:33.200.28-May-2021 3306.50 5847.43 82.29 14.00 391.20 2504.31
   08:11:33.400.28-May-2021 3306.50 5847.49 82.29 14.00 391.40 2504.31
   08:11:33.600.28-May-2021 3306.50 5847.24 82.29 14.00 391.60 2504.31
   08:11:33.800.28-May-2021 3306.50 5846.97 82.29 14.00 391.80 2504.31
   08:11:34.000.28-May-2021 3306.50 5846.56 82.29 14.00 392.00 2504.31
   08:11:34.200.28-May-2021 3306.50 5846.56 82.29 14.00 392.20 2504.31
   08:11:34.400.28-May-2021 3306.50 5845.95 82.29 14.00 392.40 2504.31
   08:11:34.600.28-May-2021 3306.50 5845.97 82.29 14.00 392.60 2504.31
   08:11:34.800.28-May-2021 3306.50 5851.92 82.29 14.00 392.80 2504.31
   08:11:35.000.28-May-2021 3306.50 5843.71 82.29 14.00 393.00 2504.31
   08:11:35.200.28-May-2021 3306.50 5843.71 82.29 14.00 393.20 2504.31
   08:11:35.400.28-May-2021 3306.50 5846.06 82.29 14.00 393.40 2504.31
   08:11:35.600.28-May-2021 3306.50 5846.98 82.29 14.00 393.60 2504.31
   08:11:35.800.28-May-2021 3306.50 5845.85 82.29 14.00 393.80 2504.31
   08:11:36.000.28-May-2021 3306.50 5846.63 82.29 14.00 394.00 2504.31
   08:11:36.200.28-May-2021 3306.50 5846.63 82.29 14.00 394.20 2504.31
   08:11:36.400.28-May-2021 3306.50 5846.63 82.29 14.00 394.40 2504.31
   08:11:36.600.28-May-2021 3306.50 5846.23 82.29 14.00 394.60 2504.31
   08:11:36.800.28-May-2021 3306.50 5845.97 82.29 14.00 394.80 2504.31
   08:11:37.000.28-May-2021 3306.50 5845.83 82.29 14.00 395.00 2504.31
   08:11:37.200.28-May-2021 3306.50 5845.83 82.29 14.00 395.20 2504.31
   08:11:37.400.28-May-2021 3306.50 5845.55 82.29 14.00 395.40 2504.31
   08:11:37.600.28-May-2021 3306.50 5853.28 82.28 14.00 395.60 2504.31
   08:11:37.800.28-May-2021 3306.50 5841.53 82.28 14.00 395.80 2504.31
   08:11:38.000.28-May-2021 3306.50 5846.81 82.29 14.00 396.00 2504.31
   08:11:38.200.28-May-2021 3306.50 5846.81 82.29 14.00 396.20 2504.31
   08:11:38.400.28-May-2021 3306.50 5846.48 82.28 14.00 396.40 2504.31
   08:11:38.600.28-May-2021 3306.50 5852.25 82.28 14.00 396.60 2504.31
   08:11:38.800.28-May-2021 3306.50 5843.53 82.28 14.00 396.80 2504.31
   08:11:39.000.28-May-2021 3306.50 5846.48 82.28 14.00 397.00 2504.31
   08:11:39.200.28-May-2021 3306.50 5846.48 82.28 14.00 397.20 2504.31
   08:11:39.400.28-May-2021 3306.50 5846.03 82.28 14.00 397.40 2504.31
   08:11:39.600.28-May-2021 3306.50 5845.92 82.28 14.00 397.60 2504.31
   08:11:39.800.28-May-2021 3306.50 5850.20 82.28 14.00 397.80 2504.31
   08:11:40.000.28-May-2021 3306.50 5845.46 82.28 14.00 398.00 2504.31
   08:11:40.200.28-May-2021 3306.50 5845.46 82.28 14.00 398.20 2504.31
   08:11:40.400.28-May-2021 3306.50 5850.51 82.28 14.00 398.40 2504.31
   08:11:40.600.28-May-2021 3306.50 5845.40 82.28 14.00 398.60 2504.31
   08:11:40.800.28-May-2021 3306.50 5847.12 82.28 14.00 398.80 2504.31
   08:11:41.000.28-May-2021 3306.50 5847.97 82.28 14.00 399.00 2504.31
   08:11:41.200.28-May-2021 3306.50 5847.97 82.28 14.00 399.20 2504.31
   08:11:41.400.28-May-2021 3306.50 5847.54 82.28 14.00 399.40 2504.31
   08:11:41.600.28-May-2021 3306.50 5847.44 82.28 14.00 399.60 2504.31
   08:11:41.800.28-May-2021 3306.50 5847.12 82.28 14.00 399.80 2504.31
   08:11:42.000.28-May-2021 3306.50 5846.79 82.28 14.00 400.00 2504.31
   08:11:42.200.28-May-2021 3306.50 5846.79 82.28 14.00 400.20 2504.31
   08:11:42.400.28-May-2021 3306.50 5846.63 82.28 14.00 400.40 2504.31
   08:11:42.600.28-May-2021 3306.50 5846.61 82.28 14.00 400.60 2504.31
   08:11:42.800.28-May-2021 3306.50 5849.50 82.28 14.00 400.80 2504.31
   08:11:43.000.28-May-2021 3306.50 5848.03 82.28 14.00 401.00 2504.31
   08:11:43.200.28-May-2021 3306.50 5848.03 82.28 14.00 401.20 2504.31
   08:11:43.400.28-May-2021 3306.50 5847.05 82.28 14.00 401.40 2504.31
   08:11:43.600.28-May-2021 3306.50 5847.75 82.28 14.00 401.60 2504.31
   08:11:43.800.28-May-2021 3306.50 5846.90 82.28 14.00 401.80 2504.31
   08:11:44.000.28-May-2021 3306.50 5847.80 82.28 14.00 402.00 2504.31
   08:11:44.200.28-May-2021 3306.50 5847.80 82.28 14.00 402.20 2504.31
   08:11:44.400.28-May-2021 3306.50 5847.50 82.28 14.00 402.40 2504.31
   08:11:44.600.28-May-2021 3306.50 5847.22 82.28 14.00 402.60 2504.31
   08:11:44.800.28-May-2021 3306.50 5846.93 82.28 14.00 402.80 2504.31
   08:11:45.000.28-May-2021 3306.50 5846.76 82.28 14.00 403.00 2504.31
   08:11:45.200.28-May-2021 3306.50 5846.76 82.28 14.00 403.20 2504.31
   08:11:45.400.28-May-2021 3306.50 5846.64 82.28 14.00 403.40 2504.31
   08:11:45.600.28-May-2021 3306.50 5852.44 82.28 14.00 403.60 2504.31
   08:11:45.800.28-May-2021 3306.50 5844.32 82.28 14.00 403.80 2504.31
   08:11:46.000.28-May-2021 3306.50 5847.60 82.28 14.00 404.00 2504.31
   08:11:46.200.28-May-2021 3306.50 5847.60 82.28 14.00 404.20 2504.31
   08:11:46.400.28-May-2021 3306.50 5847.78 82.28 14.00 404.40 2504.31
   08:11:46.600.28-May-2021 3306.50 5854.17 82.28 14.00 404.60 2504.31
   08:11:46.800.28-May-2021 3306.50 5843.15 82.28 14.00 404.80 2504.31
   08:11:47.000.28-May-2021 3306.50 5847.56 82.28 14.00 405.00 2504.31
   08:11:47.200.28-May-2021 3306.50 5847.56 82.28 14.00 405.20 2504.31
   08:11:47.400.28-May-2021 3306.50 5847.44 82.28 14.00 405.40 2504.31
   08:11:47.600.28-May-2021 3306.50 5846.38 82.28 14.00 405.60 2504.31
   08:11:47.800.28-May-2021 3306.50 5853.09 82.28 14.00 405.80 2504.31
   08:11:48.000.28-May-2021 3306.50 5843.97 82.28 14.00 406.00 2504.31
   08:11:48.200.28-May-2021 3306.50 5843.97 82.28 14.00 406.20 2504.31
   08:11:48.400.28-May-2021 3306.50 5852.82 82.28 14.00 406.40 2504.31
   08:11:48.600.28-May-2021 3306.50 5844.67 82.28 14.00 406.60 2504.31
