~Version Information
 VERS.                  2.0:   CWLS log ASCII Standard -VERSION 2.0
 WRAP.                   NO:   One line per depth step
~Well Information Block
#MNEM.UNIT     VALUE/NAME     DESCRIPTION
#---------     -----------    ---------------------------
 STRT.S             04:01:58 28-May-21: START TIME 04:01:58 28-May-21
 STOP.S             04:09:02 28-May-21: STOP TIME  04:09:02 28-May-21
 STEP.S                   0.00: STEP TIME
 NULL.                 -999.25: NULL VALUE
 UWI .                     N/A:  UNIQUE WELL IDENTIFIER
 API .                     N/A:  API NUMBER
 UNIT.                     N/A:  LOGGING EQUIPMENT ID
 DCON.         Sperry Drilling:  DIRECTNL CONTR
 DOE .                     N/A:  DOE NUMBER
 MWDS.                    Baku:  MWD SHOP
 SRVC.     Turan Drilling and Engineering:  CONTRACTOR
 CTRY.              Azerbaijan:  COUNTRY NAME
 PROV.                    Baku:  PROVINCE
 STAT.                    Baku:  STATE NAME
 REGN.                   EESSA:  REGION
 BASE.              Azerbaijan:  LOGGING EQUIPMENT BASE LOCATION
 WTYP.                Deviated:  WELL TYPE
 RIG .              East Azeri:  RIG NAME
 WELL.                    D02y:  WELL NAME
 FLD .                     ACG:  FIELD NAME
 COMP.     BP Exploration (Caspian Sea) Ltd.:  COMPANY
 PDAT.          Mean Sea Level:  PERMANENT DATUM
 MDS .        Operator Entered:  MAG DATA SOURCE
 SON .        AZ-XX-0906997291:  JOB NUMBER
 FTOP.          Formation Tops:  FORM TOPS DESC
 ILTD.               Lithology:  INTERP LTH DESC
 SVYD.                  Survey:  SURVEY DESC
 DMOD.             Drill Model:  DRILL MOD DESC
 HPTY.       Minimum Curvature:  HOLE POS TYPE
 NREF.                    Grid:  NORTH REFERENCE
 SPUD.               05-May-21:  SPUD DATE
 DATE.      09.27.28 12-Jun-21:  END TIME
 STIM.      09.27.28 12-May-21:  START TIME
 DMF .             Drill Floor:  DRILL MEAS FROM
 DFST.                        :  DIST FSL TEXT
 DFWT.                        :  DIST FWL TEXT
 CNTY.                        :  COUNTY
 LOC .                        :  LOCATION
 LMF .             Drill Floor:  LOG MEASURED FROM
 DEP .m                2806.40:  DEPTH
 AGAP.m                  43.60:  AIR GAP
 VSNS.m                  -4.42:  VERT SEC N/S
 VSEW.m                  -7.31:  VERT SEC E/W
 APD .m                  43.60:  DEPTH ABOVE PD
 WDMS.m                 151.80:  WD ELEV
 EGL .m                   0.00:  GROUND ELEVATION
 EPD .m                   0.00:  ELEVATION
 AZTC.deg                 6.18:  AZM TOTAL CORR
 GRDC.deg                 0.29:  GRID CORRECTION
 MDEC.deg                 6.47:  MAGNETIC DECL
 MDIP.deg                59.50:  MAGNETIC DIP
 MFLD.nT              50350.00:  MAGNETIC FIELD
 GVFD.g                   1.00:  GRAVITY FIELD
 VSDR.deg               179.08:  VERT SEC DIRECT
 TDD .m                4300.00:  TOTAL DEPTH (DRILLER)
 SDEP.m                2800.00:  START DEPTH
 DFSL.m                   0.00:  DISTANCE FSL
 DFWL.m                   0.00:  DISTANCE FWL
 UTMY.m             4431871.34:  UTM Y
 UTMX.m              538762.90:  UTM X
 WHEW.m                  -7.31:  WELL HEAD E/W
 WHNS.m                  -4.42:  WELL HEAD N/S
 LONG.deg                51.45:  LONGITUDE
 LATI.deg                40.02:  LATITUDE
 TVDS.m                  43.60:  TVDSS CORRECTN
 EKB .m                  43.60:  KB ELEVATION
 EDF .m                  43.60:  DF ELEVATION
 TDL .m                 806.00:  TOTAL DEPTH (LOGGER)
 MAGU.                 1851231:  MAGUTM CHECKSUM
 VSC .                       0:  VS TO CLOSURE
~Parameter Information Block
#MNEM.UNIT       Value        Description
#---------     -----------    ---------------------------
 AV  .mps                 1.60:  Ann Velocity 
 AVMX.mps                 2.00:  Max Ann Veloc 
 AZIF.deg               140.24:  Azm, Final 
 BHAT.        Rotary Steerable:  BHA Type 
 BROT.°/30m               0.50:  Build Rotating 
 BS  .in                  8.50:  Bit Size 
 BTPL.psig              619.00:  Bit Press Loss 
 CABU.                     Yes:  Customer Abuse 
 CGEO.          Ilgar Gurbanov:  Customer Geo 
 COMM.                     4`:  Run Comments 1 
 TCS .hr                 85.88:  Time Ciculation Ended 
 CV  .mps                 3.30:  Crit Velocity 
 CVMX.mps                 3.50:  Max Crit Veloc 
 DD1 .           Hamid Axmedov:  Direct Drillr 1 
 DD2 .           Teymur Aliyev:  Direct Drillr 2 
 DDSV.               Geo-Pilot:  DD Service 
 DEFF.%                 100.00:  % Det Eff 
 DLRX.°/30m               0.00:  Dogleg Rot Max 
 DLSO.°/30m               1.80:  Dogleg Oriented 
 DLSX.°/30m               3.34:  Dogleg Str Max 
 DRET.      11.50.00 27-May-21:  Drill End Time 
 DRST.      21.13.00 24-May-21:  Drill Start Tim 
 DTIM.hr                 45.11:  Time Drilling 
 EDEP.m                4054.00:  End Depth 
 ENG1.         Almaz Almadatov:  Engineer 1 
 ENG2.           Amrah Tahirov:  Engineer 2 
 ENG3.      Bakhtiyar Jabbarli:  Engineer 3 
 ENG4.          Nazrin Asgarli:  Engineer 4 
 ETIM.      10.00.00 30-May-21:  End Time 
 FLOI.gpm               530.00:  Flow In 
 FLON.gpm               400.00:  Flow In Min 
 FLOS.cptm                0.00:  Fluid Loss 
 FLOX.gpm               560.00:  Flow In Max 
 DFT .        Mineral Oil Base:  Mud Type 
 FTRO.       Formation Presure:  FTWD Run Obj 
 HFLO.                      No:  High Flow 
 HPRE.                      No:  High Pressure 
 HTEM.                      No:  High Temp 
 HYDO.m                   1.80:  Hydro Offset 
 IFIN.deg                73.83:  Inc, Final 
 IMAX.deg                73.83:  Inc Max 
 IMIN.deg                57.86:  Inc Min 
 IMND.m                3259.27:  Inc Min Depth 
 IMXD.m                4045.58:  Inc Max Depth 
 JARR.                     Yes:  Jarring 
 LETM.      11.50.00 27-May-21:  Log End Time 
 LOST.hr                     0:  Lost Rig Time 
 LSTM.      21.13.00 24-May-21:  Log Start Time 
 MDCL.ppm             42500.00:  Mud Chlorides 
 MDES.     Inversion Oil/Synthetic:  Mud Desc 
 DFD .sg                  1.52:  Mud Density 
 MDMN.sg                  1.52:  Dens Mud Min 
 MDMX.sg                  1.52:  Dens Mud Max 
 MOIL.                      70:  Run Mud Oil % 
 MOWR.                   70:30:  Run Mud OWR 
 MSND.                     0.2:  Run Mud Sand % 
 MSOL.                      22:  Run Mud Solids% 
 DFV .spqt               77.00:  Mud Viscosity 
 MWOD.in                  6.75:  MWD Tool OD 
 MWSI.                      No:  Serv Intrp, MWD 
 OTIM.hr                151.01:  Time Operating 
 PCON.          Wear / Scratch:  Pad Condition 
 PMAX.psia            11296.93:  Press Op, Max 
 PV  .cP                 37.00:  Mud PV 
 RUN .                     500:  Run Number 
 ROPA.m/hr               25.00:  ROP Avg 
 ROPN.m/hr                9.00:  ROP Min 
 ROPX.m/hr               28.00:  ROP Max 
 RPMA.rpm               140.00:  RPM Surface Avg 
 RPMN.rpm                90.00:  RPM Surface Min 
 RPMX.rpm               140.00:  RPM Surface Max 
 RRUN.                    0500:  Rig Run Number 
 SAZI.deg               172.17:  Azm, Start 
 SDEP.m                3248.00:  Start Depth 
 SIDD.                      No:  Serv Intrp, DD 
 SINC.deg                57.86:  Inc, Start 
 SPPA.psig             5620.00:  SPP Avg 
 SPPN.psig             5190.00:  SPP Min 
 SPPX.psig             6050.00:  SPP Max 
 STIM.      16.00.00 23-May-21:  Start Time 
 SVCS.                 DD, MWD:  Services 
 SVER.                    9.20:  Sperry Version 
 TDAT.m                 806.00:  Tot Depth Attmp 
 TDDF.                      No:  Trip for DD 
 TDLG.m                 806.00:  Tot Depth Loggd 
 TFF .                      No:  Trip for Fail 
 TQAA.f-kp               12.00:  Torque Abs Avg 
 TQAN.f-kp                8.00:  Torque Abs Min 
 TQAX.f-kp               15.00:  Torque Abs Max 
 TRRT.°/30m               0.30:  Turn Rotating 
 MRT .                  EWR-M5:  Maximum Recorded Temperature 
 TTMX.degC               93.00:  Max Tool Temp 
 VS01.                90649155:  Virtual Str1 SN 
 VS02.                90642264:  Virtual Str2 SN 
 VS03.                90642266:  Virtual Str3 SN 
 VS04.                90642261:  Virtual Str4 SN 
 WBMN.klb                 0.00:  WOB Min 
 WITN.             Anar Khalil:  Customer Rep 
 WITN.           Murad Guliyev:  Customer Rep 2 
 WOBA.klb                13.00:  WOB Avg 
 WOBX.klb                25.00:  WOB Max 
 YP  .lhf2               32.00:  Yield Point 
~Curve Information Block
#MNEM.UNIT                 API CODE     Curve Description
#---------               -----------    ---------------------------
 TIME.HHMMSS            00 000 000 000:  GT Time & Date
 GTDEPTH.m              00 000 000 000:  GT Depth
 GTPQH.psia             00 000 000 000:  GT HR Quartz Pressure
 GTTQ.degC              00 000 000 000:  GT Quartz Temperature
 GTTN.NONE              00 000 000 000:  GT Test Number
 GTET.sec               00 000 000 000:  GT Elapsed Test Time
 GTTVD.m                00 000 000 000:  GT True Vertical Depth
#Other Information
#
#WARRANTY: Halliburton will use its best efforts to furnish customers with 
#accurate information and interpretations that are part of, and incident to, the services 
#provided.  However, Halliburton cannot and does not warrant the accuracy 
#or correctness of such information and interpretations.  Under no circumstances should any 
#such information or interpretation be relied upon as the sole basis for any drilling, 
#completion, production, or financial decision or any procedure involving any risk to the 
#safety of any drilling venture, drilling rig or its crew or any other third party.  The 
#Customer has full responsibility for all drilling, completion and production operation.  
#Halliburton makes no representations or warranties, either expressed or 
#implied, including, but not limited to, the implied warranties of merchantability or fitness 
#for a particular purpose, with respect to the services rendered.  In no event will 
#Halliburton be liable for failure to obtain any particular results or for 
#any damages, including, but not limited to, indirect, special or consequential damages, 
#resulting from the use of any information or interpretation provided by Halliburton.
#
~A           TIME           GTDEPTH  GTPQH  GTTQ  GTTN  GTET   GTTVD  
# ...
   04:07:43.457.28-May-2021 3493.50 4216.78 83.01 8.00 345.11 2592.27
   04:07:43.657.28-May-2021 3493.50 4216.78 83.01 8.00 345.31 2592.27
   04:07:43.857.28-May-2021 3493.50 4216.79 83.01 8.00 345.51 2592.27
   04:07:44.057.28-May-2021 3493.50 4216.71 83.01 8.00 345.71 2592.27
   04:07:44.257.28-May-2021 3493.50 4216.83 83.01 8.00 345.91 2592.27
   04:07:44.457.28-May-2021 3493.50 4216.78 83.01 8.00 346.11 2592.27
   04:07:44.657.28-May-2021 3493.50 4216.78 83.01 8.00 346.31 2592.27
   04:07:44.857.28-May-2021 3493.50 4216.76 83.01 8.00 346.51 2592.27
   04:07:45.057.28-May-2021 3493.50 4216.78 83.01 8.00 346.71 2592.27
   04:07:45.257.28-May-2021 3493.50 4216.76 83.01 8.00 346.91 2592.27
   04:07:45.457.28-May-2021 3493.50 4216.77 83.01 8.00 347.11 2592.27
   04:07:45.658.28-May-2021 3493.50 4216.77 83.01 8.00 347.31 2592.27
   04:07:45.858.28-May-2021 3493.50 4216.77 83.01 8.00 347.51 2592.27
   04:07:46.058.28-May-2021 3493.50 4216.75 83.01 8.00 347.71 2592.27
   04:07:46.258.28-May-2021 3493.50 4216.77 83.01 8.00 347.91 2592.27
   04:07:46.458.28-May-2021 3493.50 4216.75 83.01 8.00 348.11 2592.27
   04:07:46.658.28-May-2021 3493.50 4216.75 83.01 8.00 348.31 2592.27
   04:07:46.858.28-May-2021 3493.50 4217.01 83.01 8.00 348.51 2592.27
   04:07:47.058.28-May-2021 3493.50 4216.77 83.01 8.00 348.71 2592.27
   04:07:47.258.28-May-2021 3493.50 4216.79 83.01 8.00 348.91 2592.27
   04:07:47.458.28-May-2021 3493.50 4216.75 83.01 8.00 349.11 2592.27
   04:07:47.658.28-May-2021 3493.50 4216.75 83.01 8.00 349.31 2592.27
   04:07:47.858.28-May-2021 3493.50 4216.76 83.01 8.00 349.51 2592.27
   04:07:48.058.28-May-2021 3493.50 4216.76 83.01 8.00 349.71 2592.27
   04:07:48.258.28-May-2021 3493.50 4216.77 83.01 8.00 349.91 2592.27
   04:07:48.458.28-May-2021 3493.50 4216.75 83.01 8.00 350.11 2592.27
   04:07:48.659.28-May-2021 3493.50 4216.75 83.01 8.00 350.31 2592.27
   04:07:48.859.28-May-2021 3493.50 4216.75 83.01 8.00 350.51 2592.27
   04:07:49.059.28-May-2021 3493.50 4216.75 83.01 8.00 350.71 2592.27
   04:07:49.259.28-May-2021 3493.50 4216.69 83.01 8.00 350.91 2592.27
   04:07:49.459.28-May-2021 3493.50 4216.82 83.01 8.00 351.11 2592.27
   04:07:49.659.28-May-2021 3493.50 4216.82 83.01 8.00 351.31 2592.27
   04:07:49.859.28-May-2021 3493.50 4216.74 83.01 8.00 351.51 2592.27
   04:07:50.059.28-May-2021 3493.50 4216.78 83.01 8.00 351.71 2592.27
   04:07:50.259.28-May-2021 3493.50 4216.83 83.01 8.00 351.91 2592.27
   04:07:50.459.28-May-2021 3493.50 4216.69 83.01 8.00 352.11 2592.27
   04:07:50.659.28-May-2021 3493.50 4216.69 83.01 8.00 352.31 2592.27
   04:07:50.859.28-May-2021 3493.50 4216.77 83.01 8.00 352.51 2592.27
   04:07:51.059.28-May-2021 3493.50 4216.76 83.01 8.00 352.71 2592.27
   04:07:51.259.28-May-2021 3493.50 4216.51 83.01 8.00 352.91 2592.27
   04:07:51.459.28-May-2021 3493.50 4217.03 83.01 8.00 353.11 2592.27
   04:07:51.659.28-May-2021 3493.50 4217.03 83.01 8.00 353.31 2592.27
   04:07:51.860.28-May-2021 3493.50 4216.79 83.01 8.00 353.51 2592.27
   04:07:52.060.28-May-2021 3493.50 4216.74 83.01 8.00 353.71 2592.27
   04:07:52.260.28-May-2021 3493.50 4216.45 83.01 8.00 353.91 2592.27
   04:07:52.460.28-May-2021 3493.50 4217.06 83.01 8.00 354.11 2592.27
   04:07:52.660.28-May-2021 3493.50 4217.06 83.01 8.00 354.31 2592.27
   04:07:52.860.28-May-2021 3493.50 4216.78 83.01 8.00 354.51 2592.27
   04:07:53.060.28-May-2021 3493.50 4216.76 83.01 8.00 354.71 2592.27
   04:07:53.260.28-May-2021 3493.50 4216.77 83.01 8.00 354.91 2592.27
   04:07:53.460.28-May-2021 3493.50 4216.76 83.01 8.00 355.11 2592.27
   04:07:53.660.28-May-2021 3493.50 4216.76 83.01 8.00 355.31 2592.27
   04:07:53.860.28-May-2021 3493.50 4216.76 83.01 8.00 355.51 2592.27
   04:07:54.060.28-May-2021 3493.50 4216.76 83.01 8.00 355.71 2592.27
   04:07:54.260.28-May-2021 3493.50 4216.75 83.01 8.00 355.91 2592.27
   04:07:54.460.28-May-2021 3493.50 4216.75 83.01 8.00 356.11 2592.27
   04:07:54.660.28-May-2021 3493.50 4216.75 83.01 8.00 356.31 2592.27
   04:07:54.860.28-May-2021 3493.50 4216.58 83.01 8.00 356.51 2592.27
   04:07:55.061.28-May-2021 3493.50 4216.95 83.01 8.00 356.71 2592.27
   04:07:55.261.28-May-2021 3493.50 4216.76 83.01 8.00 356.91 2592.27
   04:07:55.461.28-May-2021 3493.50 4216.79 83.01 8.00 357.11 2592.27
   04:07:55.661.28-May-2021 3493.50 4216.79 83.01 8.00 357.32 2592.27
   04:07:55.861.28-May-2021 3493.50 4216.75 83.01 8.00 357.52 2592.27
   04:07:56.061.28-May-2021 3493.50 4216.77 83.01 8.00 357.72 2592.27
   04:07:56.261.28-May-2021 3493.50 4216.75 83.01 8.00 357.92 2592.27
   04:07:56.461.28-May-2021 3493.50 4216.75 83.01 8.00 358.12 2592.27
   04:07:56.661.28-May-2021 3493.50 4216.75 83.01 8.00 358.32 2592.27
   04:07:56.861.28-May-2021 3493.50 4216.75 83.01 8.00 358.52 2592.27
   04:07:57.061.28-May-2021 3493.50 4216.74 83.01 8.00 358.72 2592.27
   04:07:57.261.28-May-2021 3493.50 4216.75 83.01 8.00 358.92 2592.27
   04:07:57.461.28-May-2021 3493.50 4216.45 83.01 8.00 359.12 2592.27
   04:07:57.661.28-May-2021 3493.50 4216.45 83.01 8.00 359.32 2592.27
   04:07:57.861.28-May-2021 3493.50 4216.76 83.01 8.00 359.52 2592.27
   04:07:58.062.28-May-2021 3493.50 4216.76 83.01 8.00 359.72 2592.27
   04:07:58.262.28-May-2021 3493.50 4216.70 83.01 8.00 359.92 2592.27
   04:07:58.462.28-May-2021 3493.50 4216.81 83.01 8.00 360.12 2592.27
   04:07:58.662.28-May-2021 3493.50 4216.81 83.01 8.00 360.32 2592.27
   04:07:58.862.28-May-2021 3493.50 4216.73 83.01 8.00 360.52 2592.27
   04:07:59.062.28-May-2021 3493.50 4216.77 83.01 8.00 360.72 2592.27
   04:07:59.262.28-May-2021 3493.50 4216.77 83.01 8.00 360.92 2592.27
   04:07:59.462.28-May-2021 3493.50 4216.57 83.01 8.00 361.12 2592.27
   04:07:59.662.28-May-2021 3493.50 4216.57 83.01 8.00 361.32 2592.27
   04:07:59.862.28-May-2021 3493.50 4216.76 83.01 8.00 361.52 2592.27
   04:08:00.062.28-May-2021 3493.50 4216.79 83.01 8.00 361.72 2592.27
   04:08:00.262.28-May-2021 3493.50 4216.75 83.01 8.00 361.92 2592.27
   04:08:00.462.28-May-2021 3493.50 4216.51 83.01 8.00 362.12 2592.27
   04:08:00.662.28-May-2021 3493.50 4216.51 83.01 8.00 362.32 2592.27
   04:08:00.862.28-May-2021 3493.50 4217.01 83.01 8.00 362.52 2592.27
   04:08:01.062.28-May-2021 3493.50 4216.79 83.01 8.00 362.72 2592.27
   04:08:01.263.28-May-2021 3493.50 4216.75 83.01 8.00 362.92 2592.27
   04:08:01.463.28-May-2021 3493.50 4216.77 83.01 8.00 363.12 2592.27
   04:08:01.663.28-May-2021 3493.50 4216.77 83.01 8.00 363.32 2592.27
   04:08:01.863.28-May-2021 3493.50 4216.76 83.01 8.00 363.52 2592.27
   04:08:02.063.28-May-2021 3493.50 4216.76 83.01 8.00 363.72 2592.27
   04:08:02.263.28-May-2021 3493.50 4216.76 83.01 8.00 363.92 2592.27
   04:08:02.463.28-May-2021 3493.50 4216.75 83.01 8.00 364.12 2592.27
   04:08:02.663.28-May-2021 3493.50 4216.75 83.01 8.00 364.32 2592.27
   04:08:02.863.28-May-2021 3493.50 4216.75 83.01 8.00 364.52 2592.27
   04:08:03.063.28-May-2021 3493.50 4216.81 83.01 8.00 364.72 2592.27
   04:08:03.263.28-May-2021 3493.50 4216.70 83.01 8.00 364.92 2592.27
   04:08:03.463.28-May-2021 3493.50 4216.75 83.01 8.00 365.12 2592.27
   04:08:03.663.28-May-2021 3493.50 4216.75 83.01 8.00 365.32 2592.27
   04:08:03.863.28-May-2021 3493.50 4216.75 83.01 8.00 365.52 2592.27
   04:08:04.063.28-May-2021 3493.50 4216.76 83.01 8.00 365.72 2592.27
   04:08:04.264.28-May-2021 3493.50 4216.75 83.01 8.00 365.92 2592.27
   04:08:04.464.28-May-2021 3493.50 4216.75 83.01 8.00 366.12 2592.27
   04:08:04.664.28-May-2021 3493.50 4216.75 83.01 8.00 366.32 2592.27
   04:08:04.864.28-May-2021 3493.50 4216.76 83.01 8.00 366.52 2592.27
   04:08:05.064.28-May-2021 3493.50 4216.75 83.01 8.00 366.72 2592.27
   04:08:05.264.28-May-2021 3493.50 4216.83 83.01 8.00 366.92 2592.27
   04:08:05.464.28-May-2021 3493.50 4225.09 83.01 8.00 367.12 2592.27
   04:08:05.664.28-May-2021 3493.50 4225.09 83.01 8.00 367.32 2592.27
   04:08:05.864.28-May-2021 3493.50 5209.82 83.00 8.00 367.52 2592.27
   04:08:06.064.28-May-2021 3493.50 6065.87 83.01 8.00 367.72 2592.27
   04:08:06.264.28-May-2021 3493.50 6064.53 83.01 8.00 367.92 2592.27
