~Version Information
 VERS.                  2.0:   CWLS log ASCII Standard -VERSION 2.0
 WRAP.                   NO:   One line per depth step
~Well Information Block
#MNEM.UNIT     VALUE/NAME     DESCRIPTION
#---------     -----------    ---------------------------
 STRT.S             05:48:37 28-May-21: START TIME 05:48:37 28-May-21
 STOP.S             05:55:44 28-May-21: STOP TIME  05:55:44 28-May-21
 STEP.S                   0.00: STEP TIME
 NULL.                 -999.25: NULL VALUE
 UWI .                     N/A:  UNIQUE WELL IDENTIFIER
 API .                     N/A:  API NUMBER
 UNIT.                     N/A:  LOGGING EQUIPMENT ID
 DCON.         Sperry Drilling:  DIRECTNL CONTR
 DOE .                     N/A:  DOE NUMBER
 MWDS.                    Baku:  MWD SHOP
 SRVC.     Turan Drilling and Engineering:  CONTRACTOR
 CTRY.              Azerbaijan:  COUNTRY NAME
 PROV.                    Baku:  PROVINCE
 STAT.                    Baku:  STATE NAME
 REGN.                   EESSA:  REGION
 BASE.              Azerbaijan:  LOGGING EQUIPMENT BASE LOCATION
 WTYP.                Deviated:  WELL TYPE
 RIG .              East Azeri:  RIG NAME
 WELL.                    D02y:  WELL NAME
 FLD .                     ACG:  FIELD NAME
 COMP.     BP Exploration (Caspian Sea) Ltd.:  COMPANY
 PDAT.          Mean Sea Level:  PERMANENT DATUM
 MDS .        Operator Entered:  MAG DATA SOURCE
 SON .        AZ-XX-0906997291:  JOB NUMBER
 FTOP.          Formation Tops:  FORM TOPS DESC
 ILTD.               Lithology:  INTERP LTH DESC
 SVYD.                  Survey:  SURVEY DESC
 DMOD.             Drill Model:  DRILL MOD DESC
 HPTY.       Minimum Curvature:  HOLE POS TYPE
 NREF.                    Grid:  NORTH REFERENCE
 SPUD.               05-May-21:  SPUD DATE
 DATE.      09.27.28 12-Jun-21:  END TIME
 STIM.      09.27.28 12-May-21:  START TIME
 DMF .             Drill Floor:  DRILL MEAS FROM
 DFST.                        :  DIST FSL TEXT
 DFWT.                        :  DIST FWL TEXT
 CNTY.                        :  COUNTY
 LOC .                        :  LOCATION
 LMF .             Drill Floor:  LOG MEASURED FROM
 DEP .m                2806.40:  DEPTH
 AGAP.m                  43.60:  AIR GAP
 VSNS.m                  -4.42:  VERT SEC N/S
 VSEW.m                  -7.31:  VERT SEC E/W
 APD .m                  43.60:  DEPTH ABOVE PD
 WDMS.m                 151.80:  WD ELEV
 EGL .m                   0.00:  GROUND ELEVATION
 EPD .m                   0.00:  ELEVATION
 AZTC.deg                 6.18:  AZM TOTAL CORR
 GRDC.deg                 0.29:  GRID CORRECTION
 MDEC.deg                 6.47:  MAGNETIC DECL
 MDIP.deg                59.50:  MAGNETIC DIP
 MFLD.nT              50350.00:  MAGNETIC FIELD
 GVFD.g                   1.00:  GRAVITY FIELD
 VSDR.deg               179.08:  VERT SEC DIRECT
 TDD .m                4300.00:  TOTAL DEPTH (DRILLER)
 SDEP.m                2800.00:  START DEPTH
 DFSL.m                   0.00:  DISTANCE FSL
 DFWL.m                   0.00:  DISTANCE FWL
 UTMY.m             4431871.34:  UTM Y
 UTMX.m              538762.90:  UTM X
 WHEW.m                  -7.31:  WELL HEAD E/W
 WHNS.m                  -4.42:  WELL HEAD N/S
 LONG.deg                51.45:  LONGITUDE
 LATI.deg                40.02:  LATITUDE
 TVDS.m                  43.60:  TVDSS CORRECTN
 EKB .m                  43.60:  KB ELEVATION
 EDF .m                  43.60:  DF ELEVATION
 TDL .m                 806.00:  TOTAL DEPTH (LOGGER)
 MAGU.                 1851231:  MAGUTM CHECKSUM
 VSC .                       0:  VS TO CLOSURE
~Parameter Information Block
#MNEM.UNIT       Value        Description
#---------     -----------    ---------------------------
 AV  .mps                 1.60:  Ann Velocity 
 AVMX.mps                 2.00:  Max Ann Veloc 
 AZIF.deg               140.24:  Azm, Final 
 BHAT.        Rotary Steerable:  BHA Type 
 BROT.°/30m               0.50:  Build Rotating 
 BS  .in                  8.50:  Bit Size 
 BTPL.psig              619.00:  Bit Press Loss 
 CABU.                     Yes:  Customer Abuse 
 CGEO.          Ilgar Gurbanov:  Customer Geo 
 COMM.                     dAY:  Run Comments 1 
 TCS .hr                 85.88:  Time Ciculation Ended 
 CV  .mps                 3.30:  Crit Velocity 
 CVMX.mps                 3.50:  Max Crit Veloc 
 DD1 .           Hamid Axmedov:  Direct Drillr 1 
 DD2 .           Teymur Aliyev:  Direct Drillr 2 
 DDSV.               Geo-Pilot:  DD Service 
 DEFF.%                 100.00:  % Det Eff 
 DLRX.°/30m               0.00:  Dogleg Rot Max 
 DLSO.°/30m               1.80:  Dogleg Oriented 
 DLSX.°/30m               3.34:  Dogleg Str Max 
 DRET.      11.50.00 27-May-21:  Drill End Time 
 DRST.      21.13.00 24-May-21:  Drill Start Tim 
 DTIM.hr                 45.11:  Time Drilling 
 EDEP.m                4054.00:  End Depth 
 ENG1.         Almaz Almadatov:  Engineer 1 
 ENG2.           Amrah Tahirov:  Engineer 2 
 ENG3.      Bakhtiyar Jabbarli:  Engineer 3 
 ENG4.          Nazrin Asgarli:  Engineer 4 
 ETIM.      10.00.00 30-May-21:  End Time 
 FLOI.gpm               530.00:  Flow In 
 FLON.gpm               400.00:  Flow In Min 
 FLOS.cptm                0.00:  Fluid Loss 
 FLOX.gpm               560.00:  Flow In Max 
 DFT .        Mineral Oil Base:  Mud Type 
 FTRO.       Formation Presure:  FTWD Run Obj 
 HFLO.                      No:  High Flow 
 HPRE.                      No:  High Pressure 
 HTEM.                      No:  High Temp 
 HYDO.m                   1.80:  Hydro Offset 
 IFIN.deg                73.83:  Inc, Final 
 IMAX.deg                73.83:  Inc Max 
 IMIN.deg                57.86:  Inc Min 
 IMND.m                3259.27:  Inc Min Depth 
 IMXD.m                4045.58:  Inc Max Depth 
 JARR.                     Yes:  Jarring 
 LETM.      11.50.00 27-May-21:  Log End Time 
 LOST.hr                     0:  Lost Rig Time 
 LSTM.      21.13.00 24-May-21:  Log Start Time 
 MDCL.ppm             42500.00:  Mud Chlorides 
 MDES.     Inversion Oil/Synthetic:  Mud Desc 
 DFD .sg                  1.52:  Mud Density 
 MDMN.sg                  1.52:  Dens Mud Min 
 MDMX.sg                  1.52:  Dens Mud Max 
 MOIL.                      70:  Run Mud Oil % 
 MOWR.                   70:30:  Run Mud OWR 
 MSND.                     0.2:  Run Mud Sand % 
 MSOL.                      22:  Run Mud Solids% 
 DFV .spqt               77.00:  Mud Viscosity 
 MWOD.in                  6.75:  MWD Tool OD 
 MWSI.                      No:  Serv Intrp, MWD 
 OTIM.hr                151.01:  Time Operating 
 PCON.          Wear / Scratch:  Pad Condition 
 PMAX.psia            11296.93:  Press Op, Max 
 PV  .cP                 37.00:  Mud PV 
 RUN .                     500:  Run Number 
 ROPA.m/hr               25.00:  ROP Avg 
 ROPN.m/hr                9.00:  ROP Min 
 ROPX.m/hr               28.00:  ROP Max 
 RPMA.rpm               140.00:  RPM Surface Avg 
 RPMN.rpm                90.00:  RPM Surface Min 
 RPMX.rpm               140.00:  RPM Surface Max 
 RRUN.                    0500:  Rig Run Number 
 SAZI.deg               172.17:  Azm, Start 
 SDEP.m                3248.00:  Start Depth 
 SIDD.                      No:  Serv Intrp, DD 
 SINC.deg                57.86:  Inc, Start 
 SPPA.psig             5620.00:  SPP Avg 
 SPPN.psig             5190.00:  SPP Min 
 SPPX.psig             6050.00:  SPP Max 
 STIM.      16.00.00 23-May-21:  Start Time 
 SVCS.                 DD, MWD:  Services 
 SVER.                    9.20:  Sperry Version 
 TDAT.m                 806.00:  Tot Depth Attmp 
 TDDF.                      No:  Trip for DD 
 TDLG.m                 806.00:  Tot Depth Loggd 
 TFF .                      No:  Trip for Fail 
 TQAA.f-kp               12.00:  Torque Abs Avg 
 TQAN.f-kp                8.00:  Torque Abs Min 
 TQAX.f-kp               15.00:  Torque Abs Max 
 TRRT.°/30m               0.30:  Turn Rotating 
 MRT .                  EWR-M5:  Maximum Recorded Temperature 
 TTMX.degC               93.00:  Max Tool Temp 
 VS01.                90649155:  Virtual Str1 SN 
 VS02.                90642264:  Virtual Str2 SN 
 VS03.                90642266:  Virtual Str3 SN 
 VS04.                90642261:  Virtual Str4 SN 
 WBMN.klb                 0.00:  WOB Min 
 WITN.             Anar Khalil:  Customer Rep 
 WITN.           Murad Guliyev:  Customer Rep 2 
 WOBA.klb                13.00:  WOB Avg 
 WOBX.klb                25.00:  WOB Max 
 YP  .lhf2               32.00:  Yield Point 
~Curve Information Block
#MNEM.UNIT                 API CODE     Curve Description
#---------               -----------    ---------------------------
 TIME.HHMMSS            00 000 000 000:  GT Time & Date
 GTDEPTH.m              00 000 000 000:  GT Depth
 GTPQH.psia             00 000 000 000:  GT HR Quartz Pressure
 GTTQ.degC              00 000 000 000:  GT Quartz Temperature
 GTTN.NONE              00 000 000 000:  GT Test Number
 GTET.sec               00 000 000 000:  GT Elapsed Test Time
 GTTVD.m                00 000 000 000:  GT True Vertical Depth
#Other Information
#
#WARRANTY: Halliburton will use its best efforts to furnish customers with 
#accurate information and interpretations that are part of, and incident to, the services 
#provided.  However, Halliburton cannot and does not warrant the accuracy 
#or correctness of such information and interpretations.  Under no circumstances should any 
#such information or interpretation be relied upon as the sole basis for any drilling, 
#completion, production, or financial decision or any procedure involving any risk to the 
#safety of any drilling venture, drilling rig or its crew or any other third party.  The 
#Customer has full responsibility for all drilling, completion and production operation.  
#Halliburton makes no representations or warranties, either expressed or 
#implied, including, but not limited to, the implied warranties of merchantability or fitness 
#for a particular purpose, with respect to the services rendered.  In no event will 
#Halliburton be liable for failure to obtain any particular results or for 
#any damages, including, but not limited to, indirect, special or consequential damages, 
#resulting from the use of any information or interpretation provided by Halliburton.
#
~A           TIME           GTDEPTH  GTPQH  GTTQ  GTTN   GTET   GTTVD  
# ...
   05:52:46.482.28-May-2021 3439.00 4159.32 82.95 11.00 248.70 2568.67
   05:52:46.682.28-May-2021 3439.00 4159.38 82.95 11.00 248.90 2568.67
   05:52:46.882.28-May-2021 3439.00 4158.69 82.95 11.00 249.10 2568.67
   05:52:47.082.28-May-2021 3439.00 4158.69 82.95 11.00 249.30 2568.67
   05:52:47.282.28-May-2021 3439.00 4159.49 82.95 11.00 249.50 2568.67
   05:52:47.482.28-May-2021 3439.00 4159.47 82.95 11.00 249.70 2568.67
   05:52:47.682.28-May-2021 3439.00 4159.71 82.95 11.00 249.90 2568.67
   05:52:47.883.28-May-2021 3439.00 4157.92 82.95 11.00 250.10 2568.67
   05:52:48.083.28-May-2021 3439.00 4157.92 82.95 11.00 250.30 2568.67
   05:52:48.283.28-May-2021 3439.00 4159.68 82.95 11.00 250.50 2568.67
   05:52:48.483.28-May-2021 3439.00 4159.86 82.95 11.00 250.70 2568.67
   05:52:48.683.28-May-2021 3439.00 4158.11 82.95 11.00 250.90 2568.67
   05:52:48.883.28-May-2021 3439.00 4159.89 82.95 11.00 251.10 2568.67
   05:52:49.083.28-May-2021 3439.00 4159.89 82.95 11.00 251.31 2568.67
   05:52:49.283.28-May-2021 3439.00 4160.04 82.95 11.00 251.51 2568.67
   05:52:49.483.28-May-2021 3439.00 4160.00 82.95 11.00 251.71 2568.67
   05:52:49.683.28-May-2021 3439.00 4158.75 82.95 11.00 251.91 2568.67
   05:52:49.883.28-May-2021 3439.00 4159.79 82.95 11.00 252.11 2568.67
   05:52:50.083.28-May-2021 3439.00 4159.79 82.95 11.00 252.31 2568.67
   05:52:50.284.28-May-2021 3439.00 4160.22 82.95 11.00 252.51 2568.67
   05:52:50.484.28-May-2021 3439.00 4160.33 82.95 11.00 252.71 2568.67
   05:52:50.684.28-May-2021 3439.00 4160.33 82.95 11.00 252.91 2568.67
   05:52:50.884.28-May-2021 3439.00 4160.42 82.95 11.00 253.11 2568.67
   05:52:51.084.28-May-2021 3439.00 4160.42 82.95 11.00 253.31 2568.67
   05:52:51.284.28-May-2021 3439.00 4160.51 82.95 11.00 253.51 2568.67
   05:52:51.484.28-May-2021 3439.00 4160.57 82.95 11.00 253.71 2568.67
   05:52:51.684.28-May-2021 3439.00 4160.61 82.95 11.00 253.91 2568.67
   05:52:51.884.28-May-2021 3439.00 4160.64 82.95 11.00 254.11 2568.67
   05:52:52.084.28-May-2021 3439.00 4160.64 82.95 11.00 254.31 2568.67
   05:52:52.284.28-May-2021 3439.00 4159.06 82.95 11.00 254.51 2568.67
   05:52:52.484.28-May-2021 3439.00 4160.84 82.95 11.00 254.71 2568.67
   05:52:52.685.28-May-2021 3439.00 4160.80 82.95 11.00 254.91 2568.67
   05:52:52.885.28-May-2021 3439.00 4160.98 82.95 11.00 255.11 2568.67
   05:52:53.085.28-May-2021 3439.00 4160.98 82.95 11.00 255.31 2568.67
   05:52:53.285.28-May-2021 3439.00 4161.02 82.95 11.00 255.51 2568.67
   05:52:53.485.28-May-2021 3439.00 4161.07 82.95 11.00 255.71 2568.67
   05:52:53.685.28-May-2021 3439.00 4161.14 82.95 11.00 255.91 2568.67
   05:52:53.885.28-May-2021 3439.00 4161.19 82.95 11.00 256.11 2568.67
   05:52:54.085.28-May-2021 3439.00 4161.19 82.95 11.00 256.31 2568.67
   05:52:54.285.28-May-2021 3439.00 4161.26 82.95 11.00 256.51 2568.67
   05:52:54.485.28-May-2021 3439.00 4161.34 82.95 11.00 256.71 2568.67
   05:52:54.685.28-May-2021 3439.00 4161.36 82.95 11.00 256.91 2568.67
   05:52:54.885.28-May-2021 3439.00 4160.09 82.95 11.00 257.11 2568.67
   05:52:55.086.28-May-2021 3439.00 4160.09 82.95 11.00 257.31 2568.67
   05:52:55.286.28-May-2021 3439.00 4161.48 82.95 11.00 257.51 2568.67
   05:52:55.486.28-May-2021 3439.00 4161.53 82.95 11.00 257.71 2568.67
   05:52:55.686.28-May-2021 3439.00 4160.93 82.95 11.00 257.91 2568.67
   05:52:55.886.28-May-2021 3439.00 4160.68 82.95 11.00 258.11 2568.67
   05:52:56.086.28-May-2021 3439.00 4160.68 82.95 11.00 258.31 2568.67
   05:52:56.286.28-May-2021 3439.00 4161.66 82.95 11.00 258.51 2568.67
   05:52:56.486.28-May-2021 3439.00 4161.88 82.95 11.00 258.71 2568.67
   05:52:56.686.28-May-2021 3439.00 4160.12 82.95 11.00 258.91 2568.67
   05:52:56.886.28-May-2021 3439.00 4161.90 82.95 11.00 259.11 2568.67
   05:52:57.086.28-May-2021 3439.00 4161.90 82.95 11.00 259.31 2568.67
   05:52:57.286.28-May-2021 3439.00 4162.07 82.95 11.00 259.51 2568.67
   05:52:57.487.28-May-2021 3439.00 4162.02 82.95 11.00 259.71 2568.67
   05:52:57.687.28-May-2021 3439.00 4161.37 82.95 11.00 259.91 2568.67
   05:52:57.887.28-May-2021 3439.00 4161.18 82.95 11.00 260.11 2568.67
   05:52:58.087.28-May-2021 3439.00 4161.18 82.95 11.00 260.31 2568.67
   05:52:58.287.28-May-2021 3439.00 4162.13 82.95 11.00 260.51 2568.67
   05:52:58.487.28-May-2021 3439.00 4162.35 82.95 11.00 260.71 2568.67
   05:52:58.687.28-May-2021 3439.00 4162.32 82.95 11.00 260.91 2568.67
   05:52:58.887.28-May-2021 3439.00 4162.42 82.95 11.00 261.11 2568.67
   05:52:59.087.28-May-2021 3439.00 4162.42 82.95 11.00 261.31 2568.67
   05:52:59.287.28-May-2021 3439.00 4162.51 82.95 11.00 261.51 2568.67
   05:52:59.487.28-May-2021 3439.00 4162.54 82.95 11.00 261.71 2568.67
   05:52:59.688.28-May-2021 3439.00 4162.59 82.95 11.00 261.91 2568.67
   05:52:59.888.28-May-2021 3439.00 4162.64 82.95 11.00 262.11 2568.67
   05:53:00.088.28-May-2021 3439.00 4162.64 82.95 11.00 262.31 2568.67
   05:53:00.288.28-May-2021 3439.00 4170.67 82.95 11.00 262.51 2568.67
   05:53:00.488.28-May-2021 3439.00 4174.88 82.95 11.00 262.71 2568.67
   05:53:00.688.28-May-2021 3439.00 4174.62 82.95 11.00 262.91 2568.67
   05:53:00.888.28-May-2021 3439.00 4174.72 82.95 11.00 263.11 2568.67
   05:53:01.088.28-May-2021 3439.00 4174.72 82.95 11.00 263.31 2568.67
   05:53:01.288.28-May-2021 3439.00 4174.70 82.95 11.00 263.51 2568.67
   05:53:01.488.28-May-2021 3439.00 4174.78 82.95 11.00 263.71 2568.67
   05:53:01.688.28-May-2021 3439.00 4174.84 82.95 11.00 263.91 2568.67
   05:53:01.888.28-May-2021 3439.00 4174.77 82.95 11.00 264.11 2568.67
   05:53:02.089.28-May-2021 3439.00 4174.77 82.95 11.00 264.31 2568.67
   05:53:02.289.28-May-2021 3439.00 3378.58 82.95 11.00 264.51 2568.67
   05:53:02.489.28-May-2021 3439.00 3468.24 82.95 11.00 264.71 2568.67
   05:53:02.689.28-May-2021 3439.00 4020.07 82.95 11.00 264.91 2568.67
   05:53:02.889.28-May-2021 3439.00 3691.60 82.95 11.00 265.11 2568.67
   05:53:03.089.28-May-2021 3439.00 3691.60 82.95 11.00 265.31 2568.67
   05:53:03.289.28-May-2021 3439.00 4657.27 82.95 11.00 265.51 2568.67
   05:53:03.489.28-May-2021 3439.00 4161.07 82.95 11.00 265.71 2568.67
   05:53:03.689.28-May-2021 3439.00 3562.72 82.95 11.00 265.91 2568.67
   05:53:03.889.28-May-2021 3439.00 3952.39 82.95 11.00 266.11 2568.67
   05:53:04.089.28-May-2021 3439.00 3952.39 82.95 11.00 266.31 2568.67
   05:53:04.289.28-May-2021 3439.00 4551.14 82.95 11.00 266.51 2568.67
   05:53:04.490.28-May-2021 3439.00 4144.86 82.95 11.00 266.71 2568.67
   05:53:04.690.28-May-2021 3439.00 3895.74 82.95 11.00 266.91 2568.67
   05:53:04.890.28-May-2021 3439.00 3572.31 82.95 11.00 267.11 2568.67
   05:53:05.090.28-May-2021 3439.00 3572.31 82.95 11.00 267.31 2568.67
   05:53:05.290.28-May-2021 3439.00 3447.17 82.95 11.00 267.51 2568.67
   05:53:05.490.28-May-2021 3439.00 4165.90 82.95 11.00 267.71 2568.67
   05:53:05.690.28-May-2021 3439.00 3605.79 82.95 11.00 267.91 2568.67
   05:53:05.890.28-May-2021 3439.00 3964.63 82.95 11.00 268.11 2568.67
   05:53:06.090.28-May-2021 3439.00 3964.63 82.95 11.00 268.31 2568.67
   05:53:06.290.28-May-2021 3439.00 3967.45 82.95 11.00 268.51 2568.67
   05:53:06.490.28-May-2021 3439.00 4090.92 82.95 11.00 268.71 2568.67
   05:53:06.690.28-May-2021 3439.00 4255.90 82.95 11.00 268.91 2568.67
   05:53:06.891.28-May-2021 3439.00 3855.16 82.95 11.00 269.11 2568.67
   05:53:07.091.28-May-2021 3439.00 3855.16 82.95 11.00 269.31 2568.67
   05:53:07.291.28-May-2021 3439.00 2898.70 82.95 11.00 269.51 2568.67
   05:53:07.491.28-May-2021 3439.00 3154.93 82.95 11.00 269.71 2568.67
   05:53:07.691.28-May-2021 3439.00 4832.52 82.95 11.00 269.91 2568.67
   05:53:07.891.28-May-2021 3439.00 4567.65 82.95 11.00 270.11 2568.67
   05:53:08.091.28-May-2021 3439.00 4567.65 82.95 11.00 270.31 2568.67
   05:53:08.291.28-May-2021 3439.00 3694.30 82.95 11.00 270.51 2568.67
   05:53:08.491.28-May-2021 3439.00 3592.05 82.95 11.00 270.71 2568.67
   05:53:08.691.28-May-2021 3439.00 4269.87 82.95 11.00 270.91 2568.67
   05:53:08.891.28-May-2021 3439.00 3912.30 82.95 11.00 271.11 2568.67
