~Version Information
 VERS.                  2.0:   CWLS log ASCII Standard -VERSION 2.0
 WRAP.                   NO:   One line per depth step
~Well Information Block
#MNEM.UNIT     VALUE/NAME     DESCRIPTION
#---------     -----------    ---------------------------
 STRT.S             08:05:02 28-May-21: START TIME 08:05:02 28-May-21
 STOP.S             08:12:05 28-May-21: STOP TIME  08:12:05 28-May-21
 STEP.S                   0.00: STEP TIME
 NULL.                 -999.25: NULL VALUE
 UWI .                     N/A:  UNIQUE WELL IDENTIFIER
 API .                     N/A:  API NUMBER
 UNIT.                     N/A:  LOGGING EQUIPMENT ID
 DCON.         Sperry Drilling:  DIRECTNL CONTR
 DOE .                     N/A:  DOE NUMBER
 MWDS.                    Baku:  MWD SHOP
 SRVC.     Turan Drilling and Engineering:  CONTRACTOR
 CTRY.              Azerbaijan:  COUNTRY NAME
 PROV.                    Baku:  PROVINCE
 STAT.                    Baku:  STATE NAME
 REGN.                   EESSA:  REGION
 BASE.              Azerbaijan:  LOGGING EQUIPMENT BASE LOCATION
 WTYP.                Deviated:  WELL TYPE
 RIG .              East Azeri:  RIG NAME
 WELL.                    D02y:  WELL NAME
 FLD .                     ACG:  FIELD NAME
 COMP.     BP Exploration (Caspian Sea) Ltd.:  COMPANY
 PDAT.          Mean Sea Level:  PERMANENT DATUM
 MDS .        Operator Entered:  MAG DATA SOURCE
 SON .        AZ-XX-0906997291:  JOB NUMBER
 FTOP.          Formation Tops:  FORM TOPS DESC
 ILTD.               Lithology:  INTERP LTH DESC
 SVYD.                  Survey:  SURVEY DESC
 DMOD.             Drill Model:  DRILL MOD DESC
 HPTY.       Minimum Curvature:  HOLE POS TYPE
 NREF.                    Grid:  NORTH REFERENCE
 SPUD.               05-May-21:  SPUD DATE
 DATE.      09.27.28 12-Jun-21:  END TIME
 STIM.      09.27.28 12-May-21:  START TIME
 DMF .             Drill Floor:  DRILL MEAS FROM
 DFST.                        :  DIST FSL TEXT
 DFWT.                        :  DIST FWL TEXT
 CNTY.                        :  COUNTY
 LOC .                        :  LOCATION
 LMF .             Drill Floor:  LOG MEASURED FROM
 DEP .m                2806.40:  DEPTH
 AGAP.m                  43.60:  AIR GAP
 VSNS.m                  -4.42:  VERT SEC N/S
 VSEW.m                  -7.31:  VERT SEC E/W
 APD .m                  43.60:  DEPTH ABOVE PD
 WDMS.m                 151.80:  WD ELEV
 EGL .m                   0.00:  GROUND ELEVATION
 EPD .m                   0.00:  ELEVATION
 AZTC.deg                 6.18:  AZM TOTAL CORR
 GRDC.deg                 0.29:  GRID CORRECTION
 MDEC.deg                 6.47:  MAGNETIC DECL
 MDIP.deg                59.50:  MAGNETIC DIP
 MFLD.nT              50350.00:  MAGNETIC FIELD
 GVFD.g                   1.00:  GRAVITY FIELD
 VSDR.deg               179.08:  VERT SEC DIRECT
 TDD .m                4300.00:  TOTAL DEPTH (DRILLER)
 SDEP.m                2800.00:  START DEPTH
 DFSL.m                   0.00:  DISTANCE FSL
 DFWL.m                   0.00:  DISTANCE FWL
 UTMY.m             4431871.34:  UTM Y
 UTMX.m              538762.90:  UTM X
 WHEW.m                  -7.31:  WELL HEAD E/W
 WHNS.m                  -4.42:  WELL HEAD N/S
 LONG.deg                51.45:  LONGITUDE
 LATI.deg                40.02:  LATITUDE
 TVDS.m                  43.60:  TVDSS CORRECTN
 EKB .m                  43.60:  KB ELEVATION
 EDF .m                  43.60:  DF ELEVATION
 TDL .m                 806.00:  TOTAL DEPTH (LOGGER)
 MAGU.                 1851231:  MAGUTM CHECKSUM
 VSC .                       0:  VS TO CLOSURE
~Parameter Information Block
#MNEM.UNIT       Value        Description
#---------     -----------    ---------------------------
 AV  .mps                 1.60:  Ann Velocity 
 AVMX.mps                 2.00:  Max Ann Veloc 
 AZIF.deg               140.24:  Azm, Final 
 BHAT.        Rotary Steerable:  BHA Type 
 BROT.°/30m               0.50:  Build Rotating 
 BS  .in                  8.50:  Bit Size 
 BTPL.psig              619.00:  Bit Press Loss 
 CABU.                     Yes:  Customer Abuse 
 CGEO.          Ilgar Gurbanov:  Customer Geo 
 TCS .hr                 85.88:  Time Ciculation Ended 
 CV  .mps                 3.30:  Crit Velocity 
 CVMX.mps                 3.50:  Max Crit Veloc 
 DD1 .           Hamid Axmedov:  Direct Drillr 1 
 DD2 .           Teymur Aliyev:  Direct Drillr 2 
 DDSV.               Geo-Pilot:  DD Service 
 DEFF.%                 100.00:  % Det Eff 
 DLRX.°/30m               0.00:  Dogleg Rot Max 
 DLSO.°/30m               1.80:  Dogleg Oriented 
 DLSX.°/30m               3.34:  Dogleg Str Max 
 DRET.      11.50.00 27-May-21:  Drill End Time 
 DRST.      21.13.00 24-May-21:  Drill Start Tim 
 DTIM.hr                 45.11:  Time Drilling 
 EDEP.m                4054.00:  End Depth 
 ENG1.         Almaz Almadatov:  Engineer 1 
 ENG2.           Amrah Tahirov:  Engineer 2 
 ENG3.      Bakhtiyar Jabbarli:  Engineer 3 
 ENG4.          Nazrin Asgarli:  Engineer 4 
 ETIM.      10.00.00 30-May-21:  End Time 
 FLOI.gpm               530.00:  Flow In 
 FLON.gpm               400.00:  Flow In Min 
 FLOS.cptm                0.00:  Fluid Loss 
 FLOX.gpm               560.00:  Flow In Max 
 DFT .        Mineral Oil Base:  Mud Type 
 FTRO.       Formation Presure:  FTWD Run Obj 
 HFLO.                      No:  High Flow 
 HPRE.                      No:  High Pressure 
 HTEM.                      No:  High Temp 
 HYDO.m                   1.80:  Hydro Offset 
 IFIN.deg                73.83:  Inc, Final 
 IMAX.deg                73.83:  Inc Max 
 IMIN.deg                57.86:  Inc Min 
 IMND.m                3259.27:  Inc Min Depth 
 IMXD.m                4045.58:  Inc Max Depth 
 JARR.                     Yes:  Jarring 
 LETM.      11.50.00 27-May-21:  Log End Time 
 LOST.hr                     0:  Lost Rig Time 
 LSTM.      21.13.00 24-May-21:  Log Start Time 
 MDCL.ppm             42500.00:  Mud Chlorides 
 MDES.     Inversion Oil/Synthetic:  Mud Desc 
 DFD .sg                  1.52:  Mud Density 
 MDMN.sg                  1.52:  Dens Mud Min 
 MDMX.sg                  1.52:  Dens Mud Max 
 MOIL.                      70:  Run Mud Oil % 
 MOWR.                   70:30:  Run Mud OWR 
 MSND.                     0.2:  Run Mud Sand % 
 MSOL.                      22:  Run Mud Solids% 
 DFV .spqt               77.00:  Mud Viscosity 
 MWOD.in                  6.75:  MWD Tool OD 
 MWSI.                      No:  Serv Intrp, MWD 
 OTIM.hr                151.01:  Time Operating 
 PCON.          Wear / Scratch:  Pad Condition 
 PMAX.psia            11296.93:  Press Op, Max 
 PV  .cP                 37.00:  Mud PV 
 RUN .                     500:  Run Number 
 ROPA.m/hr               25.00:  ROP Avg 
 ROPN.m/hr                9.00:  ROP Min 
 ROPX.m/hr               28.00:  ROP Max 
 RPMA.rpm               140.00:  RPM Surface Avg 
 RPMN.rpm                90.00:  RPM Surface Min 
 RPMX.rpm               140.00:  RPM Surface Max 
 RRUN.                    0500:  Rig Run Number 
 SAZI.deg               172.17:  Azm, Start 
 SDEP.m                3248.00:  Start Depth 
 SIDD.                      No:  Serv Intrp, DD 
 SINC.deg                57.86:  Inc, Start 
 SPPA.psig             5620.00:  SPP Avg 
 SPPN.psig             5190.00:  SPP Min 
 SPPX.psig             6050.00:  SPP Max 
 STIM.      16.00.00 23-May-21:  Start Time 
 SVCS.                 DD, MWD:  Services 
 SVER.                    9.20:  Sperry Version 
 TDAT.m                 806.00:  Tot Depth Attmp 
 TDDF.                      No:  Trip for DD 
 TDLG.m                 806.00:  Tot Depth Loggd 
 TFF .                      No:  Trip for Fail 
 TQAA.f-kp               12.00:  Torque Abs Avg 
 TQAN.f-kp                8.00:  Torque Abs Min 
 TQAX.f-kp               15.00:  Torque Abs Max 
 TRRT.°/30m               0.30:  Turn Rotating 
 MRT .                  EWR-M5:  Maximum Recorded Temperature 
 TTMX.degC               93.00:  Max Tool Temp 
 VS01.                90649155:  Virtual Str1 SN 
 VS02.                90642264:  Virtual Str2 SN 
 VS03.                90642266:  Virtual Str3 SN 
 VS04.                90642261:  Virtual Str4 SN 
 WBMN.klb                 0.00:  WOB Min 
 WITN.             Anar Khalil:  Customer Rep 
 WITN.           Murad Guliyev:  Customer Rep 2 
 WOBA.klb                13.00:  WOB Avg 
 WOBX.klb                25.00:  WOB Max 
 YP  .lhf2               32.00:  Yield Point 
~Curve Information Block
#MNEM.UNIT                 API CODE     Curve Description
#---------               -----------    ---------------------------
 TIME.HHMMSS            00 000 000 000:  GT Time & Date
 GTDEPTH.m              00 000 000 000:  GT Depth
 GTPQH.psia             00 000 000 000:  GT HR Quartz Pressure
 GTTQ.degC              00 000 000 000:  GT Quartz Temperature
 GTTN.NONE              00 000 000 000:  GT Test Number
 GTET.sec               00 000 000 000:  GT Elapsed Test Time
 GTTVD.m                00 000 000 000:  GT True Vertical Depth
#Other Information
#
#WARRANTY: Halliburton will use its best efforts to furnish customers with 
#accurate information and interpretations that are part of, and incident to, the services 
#provided.  However, Halliburton cannot and does not warrant the accuracy 
#or correctness of such information and interpretations.  Under no circumstances should any 
#such information or interpretation be relied upon as the sole basis for any drilling, 
#completion, production, or financial decision or any procedure involving any risk to the 
#safety of any drilling venture, drilling rig or its crew or any other third party.  The 
#Customer has full responsibility for all drilling, completion and production operation.  
#Halliburton makes no representations or warranties, either expressed or 
#implied, including, but not limited to, the implied warranties of merchantability or fitness 
#for a particular purpose, with respect to the services rendered.  In no event will 
#Halliburton be liable for failure to obtain any particular results or for 
#any damages, including, but not limited to, indirect, special or consequential damages, 
#resulting from the use of any information or interpretation provided by Halliburton.
#
~A           TIME           GTDEPTH  GTPQH  GTTQ  GTTN   GTET   GTTVD  
# ...
   08:08:48.000.28-May-2021 3306.50 3710.55 82.15 14.00 226.00 2504.31
   08:08:48.200.28-May-2021 3306.50 3710.55 82.15 14.00 226.20 2504.31
   08:08:48.400.28-May-2021 3306.50 3710.60 82.15 14.00 226.40 2504.31
   08:08:48.600.28-May-2021 3306.50 3710.59 82.15 14.00 226.60 2504.31
   08:08:48.800.28-May-2021 3306.50 3710.64 82.15 14.00 226.80 2504.31
   08:08:49.000.28-May-2021 3306.50 3710.69 82.15 14.00 227.00 2504.31
   08:08:49.200.28-May-2021 3306.50 3710.69 82.15 14.00 227.20 2504.31
   08:08:49.400.28-May-2021 3306.50 3710.73 82.15 14.00 227.40 2504.31
   08:08:49.600.28-May-2021 3306.50 3710.78 82.15 14.00 227.60 2504.31
   08:08:49.800.28-May-2021 3306.50 3710.32 82.15 14.00 227.80 2504.31
   08:08:50.000.28-May-2021 3306.50 3710.06 82.15 14.00 228.00 2504.31
   08:08:50.200.28-May-2021 3306.50 3710.06 82.15 14.00 228.20 2504.31
   08:08:50.400.28-May-2021 3306.50 3710.80 82.15 14.00 228.40 2504.31
   08:08:50.600.28-May-2021 3306.50 3710.94 82.15 14.00 228.60 2504.31
   08:08:50.800.28-May-2021 3306.50 3709.75 82.15 14.00 228.80 2504.31
   08:08:51.000.28-May-2021 3306.50 3710.89 82.15 14.00 229.00 2504.31
   08:08:51.200.28-May-2021 3306.50 3710.89 82.15 14.00 229.20 2504.31
   08:08:51.400.28-May-2021 3306.50 3711.07 82.15 14.00 229.40 2504.31
   08:08:51.600.28-May-2021 3306.50 3711.02 82.15 14.00 229.60 2504.31
   08:08:51.800.28-May-2021 3306.50 3711.08 82.15 14.00 229.80 2504.31
   08:08:52.000.28-May-2021 3306.50 3709.93 82.15 14.00 230.00 2504.31
   08:08:52.200.28-May-2021 3306.50 3709.93 82.15 14.00 230.20 2504.31
   08:08:52.400.28-May-2021 3306.50 3711.08 82.15 14.00 230.40 2504.31
   08:08:52.600.28-May-2021 3306.50 3711.24 82.15 14.00 230.60 2504.31
   08:08:52.800.28-May-2021 3306.50 3711.20 82.15 14.00 230.80 2504.31
   08:08:53.000.28-May-2021 3306.50 3710.34 82.15 14.00 231.00 2504.31
   08:08:53.200.28-May-2021 3306.50 3710.34 82.15 14.00 231.20 2504.31
   08:08:53.400.28-May-2021 3306.50 3711.26 82.15 14.00 231.40 2504.31
   08:08:53.600.28-May-2021 3306.50 3711.35 82.15 14.00 231.60 2504.31
   08:08:53.800.28-May-2021 3306.50 3711.43 82.15 14.00 231.80 2504.31
   08:08:54.000.28-May-2021 3306.50 3711.40 82.15 14.00 232.00 2504.31
   08:08:54.200.28-May-2021 3306.50 3711.40 82.15 14.00 232.20 2504.31
   08:08:54.400.28-May-2021 3306.50 3711.50 82.15 14.00 232.40 2504.31
   08:08:54.600.28-May-2021 3306.50 3711.50 82.15 14.00 232.60 2504.31
   08:08:54.800.28-May-2021 3306.50 3711.57 82.15 14.00 232.80 2504.31
   08:08:55.000.28-May-2021 3306.50 3711.60 82.15 14.00 233.00 2504.31
   08:08:55.200.28-May-2021 3306.50 3711.60 82.15 14.00 233.20 2504.31
   08:08:55.400.28-May-2021 3306.50 3711.67 82.15 14.00 233.40 2504.31
   08:08:55.600.28-May-2021 3306.50 3711.24 82.15 14.00 233.60 2504.31
   08:08:55.800.28-May-2021 3306.50 3710.96 82.15 14.00 233.80 2504.31
   08:08:56.000.28-May-2021 3306.50 3711.74 82.15 14.00 234.00 2504.31
   08:08:56.200.28-May-2021 3306.50 3711.74 82.15 14.00 234.20 2504.31
   08:08:56.400.28-May-2021 3306.50 3711.74 82.15 14.00 234.40 2504.31
   08:08:56.600.28-May-2021 3306.50 3711.87 82.15 14.00 234.60 2504.31
   08:08:56.800.28-May-2021 3306.50 3711.89 82.15 14.00 234.80 2504.31
   08:08:57.000.28-May-2021 3306.50 3711.90 82.15 14.00 235.00 2504.31
   08:08:57.200.28-May-2021 3306.50 3711.90 82.15 14.00 235.20 2504.31
   08:08:57.400.28-May-2021 3306.50 3711.98 82.15 14.00 235.40 2504.31
   08:08:57.600.28-May-2021 3306.50 3712.01 82.15 14.00 235.60 2504.31
   08:08:57.800.28-May-2021 3306.50 3712.07 82.15 14.00 235.80 2504.31
   08:08:58.000.28-May-2021 3306.50 3712.07 82.15 14.00 236.00 2504.31
   08:08:58.200.28-May-2021 3306.50 3712.07 82.15 14.00 236.20 2504.31
   08:08:58.400.28-May-2021 3306.50 3711.41 82.15 14.00 236.40 2504.31
   08:08:58.600.28-May-2021 3306.50 3712.13 82.15 14.00 236.60 2504.31
   08:08:58.800.28-May-2021 3306.50 3712.14 82.15 14.00 236.80 2504.31
   08:08:59.000.28-May-2021 3306.50 3712.30 82.15 14.00 237.00 2504.31
   08:08:59.200.28-May-2021 3306.50 3712.30 82.15 14.00 237.20 2504.31
   08:08:59.400.28-May-2021 3306.50 3712.30 82.15 14.00 237.40 2504.31
   08:08:59.600.28-May-2021 3306.50 3712.31 82.15 14.00 237.60 2504.31
   08:08:59.800.28-May-2021 3306.50 3712.36 82.15 14.00 237.80 2504.31
   08:09:00.000.28-May-2021 3306.50 3712.36 82.16 14.00 238.00 2504.31
   08:09:00.200.28-May-2021 3306.50 3712.36 82.16 14.00 238.20 2504.31
   08:09:00.400.28-May-2021 3306.50 3711.22 82.16 14.00 238.40 2504.31
   08:09:00.600.28-May-2021 3306.50 3712.41 82.16 14.00 238.60 2504.31
   08:09:00.800.28-May-2021 3306.50 3712.45 82.16 14.00 238.80 2504.31
   08:09:01.000.28-May-2021 3306.50 3712.53 82.16 14.00 239.00 2504.31
   08:09:01.200.28-May-2021 3306.50 3712.53 82.16 14.00 239.20 2504.31
   08:09:01.400.28-May-2021 3306.50 3711.37 82.16 14.00 239.40 2504.31
   08:09:01.600.28-May-2021 3306.50 3712.59 82.16 14.00 239.60 2504.31
   08:09:01.800.28-May-2021 3306.50 3712.61 82.16 14.00 239.80 2504.31
   08:09:02.000.28-May-2021 3306.50 3712.73 82.16 14.00 240.00 2504.31
   08:09:02.200.28-May-2021 3306.50 3712.73 82.16 14.00 240.20 2504.31
   08:09:02.400.28-May-2021 3306.50 3712.76 82.16 14.00 240.40 2504.31
   08:09:02.600.28-May-2021 3306.50 3712.80 82.16 14.00 240.60 2504.31
   08:09:02.800.28-May-2021 3306.50 3712.80 82.16 14.00 240.80 2504.31
   08:09:03.000.28-May-2021 3306.50 3712.88 82.16 14.00 241.00 2504.31
   08:09:03.200.28-May-2021 3306.50 3712.88 82.16 14.00 241.20 2504.31
   08:09:03.400.28-May-2021 3306.50 3712.91 82.16 14.00 241.40 2504.31
   08:09:03.600.28-May-2021 3306.50 3712.97 82.16 14.00 241.60 2504.31
   08:09:03.800.28-May-2021 3306.50 3713.00 82.16 14.00 241.80 2504.31
   08:09:04.000.28-May-2021 3306.50 3711.66 82.16 14.00 242.00 2504.31
   08:09:04.200.28-May-2021 3306.50 3711.66 82.16 14.00 242.20 2504.31
   08:09:04.400.28-May-2021 3306.50 3713.09 82.16 14.00 242.40 2504.31
   08:09:04.600.28-May-2021 3306.50 3713.14 82.16 14.00 242.60 2504.31
   08:09:04.800.28-May-2021 3306.50 3713.18 82.16 14.00 242.80 2504.31
   08:09:05.000.28-May-2021 3306.50 3713.21 82.16 14.00 243.00 2504.31
   08:09:05.200.28-May-2021 3306.50 3713.21 82.16 14.00 243.20 2504.31
   08:09:05.400.28-May-2021 3306.50 3713.29 82.16 14.00 243.40 2504.31
   08:09:05.600.28-May-2021 3306.50 3713.31 82.16 14.00 243.60 2504.31
   08:09:05.800.28-May-2021 3306.50 3713.31 82.16 14.00 243.80 2504.31
   08:09:06.000.28-May-2021 3306.50 3713.40 82.16 14.00 244.00 2504.31
   08:09:06.200.28-May-2021 3306.50 3713.40 82.16 14.00 244.20 2504.31
   08:09:06.400.28-May-2021 3306.50 3713.42 82.16 14.00 244.40 2504.31
   08:09:06.600.28-May-2021 3306.50 3712.11 82.16 14.00 244.60 2504.31
   08:09:06.800.28-May-2021 3306.50 3713.62 82.16 14.00 244.80 2504.31
   08:09:07.000.28-May-2021 3306.50 3713.50 82.16 14.00 245.00 2504.31
   08:09:07.200.28-May-2021 3306.50 3713.50 82.16 14.00 245.20 2504.31
   08:09:07.400.28-May-2021 3306.50 3713.08 82.16 14.00 245.40 2504.31
   08:09:07.600.28-May-2021 3306.50 3712.82 82.16 14.00 245.60 2504.31
   08:09:07.800.28-May-2021 3306.50 3713.66 82.16 14.00 245.80 2504.31
   08:09:08.000.28-May-2021 3306.50 3713.60 82.16 14.00 246.00 2504.31
   08:09:08.200.28-May-2021 3306.50 3713.60 82.16 14.00 246.20 2504.31
   08:09:08.400.28-May-2021 3306.50 3713.75 82.16 14.00 246.40 2504.31
   08:09:08.600.28-May-2021 3306.50 3713.28 82.16 14.00 246.60 2504.31
   08:09:08.800.28-May-2021 3306.50 3713.03 82.16 14.00 246.80 2504.31
   08:09:09.000.28-May-2021 3306.50 3713.82 82.16 14.00 247.00 2504.31
   08:09:09.200.28-May-2021 3306.50 3713.82 82.16 14.00 247.20 2504.31
   08:09:09.400.28-May-2021 3306.50 3713.95 82.16 14.00 247.40 2504.31
   08:09:09.600.28-May-2021 3306.50 3712.98 82.16 14.00 247.60 2504.31
   08:09:09.800.28-May-2021 3306.50 3713.64 82.16 14.00 247.80 2504.31
   08:09:10.000.28-May-2021 3306.50 3713.96 82.16 14.00 248.00 2504.31
   08:09:10.200.28-May-2021 3306.50 3713.96 82.16 14.00 248.20 2504.31
   08:09:10.400.28-May-2021 3306.50 3714.07 82.16 14.00 248.40 2504.31
