~Version Information
 VERS.                  2.0:   CWLS log ASCII Standard -VERSION 2.0
 WRAP.                   NO:   One line per depth step
~Well Information Block
#MNEM.UNIT     VALUE/NAME     DESCRIPTION
#---------     -----------    ---------------------------
 STRT.S             04:49:06 28-May-21: START TIME 04:49:06 28-May-21
 STOP.S             04:56:13 28-May-21: STOP TIME  04:56:13 28-May-21
 STEP.S                   0.00: STEP TIME
 NULL.                 -999.25: NULL VALUE
 UWI .                     N/A:  UNIQUE WELL IDENTIFIER
 API .                     N/A:  API NUMBER
 UNIT.                     N/A:  LOGGING EQUIPMENT ID
 DCON.         Sperry Drilling:  DIRECTNL CONTR
 DOE .                     N/A:  DOE NUMBER
 MWDS.                    Baku:  MWD SHOP
 SRVC.     Turan Drilling and Engineering:  CONTRACTOR
 CTRY.              Azerbaijan:  COUNTRY NAME
 PROV.                    Baku:  PROVINCE
 STAT.                    Baku:  STATE NAME
 REGN.                   EESSA:  REGION
 BASE.              Azerbaijan:  LOGGING EQUIPMENT BASE LOCATION
 WTYP.                Deviated:  WELL TYPE
 RIG .              East Azeri:  RIG NAME
 WELL.                    D02y:  WELL NAME
 FLD .                     ACG:  FIELD NAME
 COMP.     BP Exploration (Caspian Sea) Ltd.:  COMPANY
 PDAT.          Mean Sea Level:  PERMANENT DATUM
 MDS .        Operator Entered:  MAG DATA SOURCE
 SON .        AZ-XX-0906997291:  JOB NUMBER
 FTOP.          Formation Tops:  FORM TOPS DESC
 ILTD.               Lithology:  INTERP LTH DESC
 SVYD.                  Survey:  SURVEY DESC
 DMOD.             Drill Model:  DRILL MOD DESC
 HPTY.       Minimum Curvature:  HOLE POS TYPE
 NREF.                    Grid:  NORTH REFERENCE
 SPUD.               05-May-21:  SPUD DATE
 DATE.      09.27.28 12-Jun-21:  END TIME
 STIM.      09.27.28 12-May-21:  START TIME
 DMF .             Drill Floor:  DRILL MEAS FROM
 DFST.                        :  DIST FSL TEXT
 DFWT.                        :  DIST FWL TEXT
 CNTY.                        :  COUNTY
 LOC .                        :  LOCATION
 LMF .             Drill Floor:  LOG MEASURED FROM
 DEP .m                2806.40:  DEPTH
 AGAP.m                  43.60:  AIR GAP
 VSNS.m                  -4.42:  VERT SEC N/S
 VSEW.m                  -7.31:  VERT SEC E/W
 APD .m                  43.60:  DEPTH ABOVE PD
 WDMS.m                 151.80:  WD ELEV
 EGL .m                   0.00:  GROUND ELEVATION
 EPD .m                   0.00:  ELEVATION
 AZTC.deg                 6.18:  AZM TOTAL CORR
 GRDC.deg                 0.29:  GRID CORRECTION
 MDEC.deg                 6.47:  MAGNETIC DECL
 MDIP.deg                59.50:  MAGNETIC DIP
 MFLD.nT              50350.00:  MAGNETIC FIELD
 GVFD.g                   1.00:  GRAVITY FIELD
 VSDR.deg               179.08:  VERT SEC DIRECT
 TDD .m                4300.00:  TOTAL DEPTH (DRILLER)
 SDEP.m                2800.00:  START DEPTH
 DFSL.m                   0.00:  DISTANCE FSL
 DFWL.m                   0.00:  DISTANCE FWL
 UTMY.m             4431871.34:  UTM Y
 UTMX.m              538762.90:  UTM X
 WHEW.m                  -7.31:  WELL HEAD E/W
 WHNS.m                  -4.42:  WELL HEAD N/S
 LONG.deg                51.45:  LONGITUDE
 LATI.deg                40.02:  LATITUDE
 TVDS.m                  43.60:  TVDSS CORRECTN
 EKB .m                  43.60:  KB ELEVATION
 EDF .m                  43.60:  DF ELEVATION
 TDL .m                 806.00:  TOTAL DEPTH (LOGGER)
 MAGU.                 1851231:  MAGUTM CHECKSUM
 VSC .                       0:  VS TO CLOSURE
~Parameter Information Block
#MNEM.UNIT       Value        Description
#---------     -----------    ---------------------------
 AV  .mps                 1.60:  Ann Velocity 
 AVMX.mps                 2.00:  Max Ann Veloc 
 AZIF.deg               140.24:  Azm, Final 
 BHAT.        Rotary Steerable:  BHA Type 
 BROT.°/30m               0.50:  Build Rotating 
 BS  .in                  8.50:  Bit Size 
 BTPL.psig              619.00:  Bit Press Loss 
 CABU.                     Yes:  Customer Abuse 
 CGEO.          Ilgar Gurbanov:  Customer Geo 
 COMM.                     Lñv:  Run Comments 1 
 TCS .hr                 85.88:  Time Ciculation Ended 
 CV  .mps                 3.30:  Crit Velocity 
 CVMX.mps                 3.50:  Max Crit Veloc 
 DD1 .           Hamid Axmedov:  Direct Drillr 1 
 DD2 .           Teymur Aliyev:  Direct Drillr 2 
 DDSV.               Geo-Pilot:  DD Service 
 DEFF.%                 100.00:  % Det Eff 
 DLRX.°/30m               0.00:  Dogleg Rot Max 
 DLSO.°/30m               1.80:  Dogleg Oriented 
 DLSX.°/30m               3.34:  Dogleg Str Max 
 DRET.      11.50.00 27-May-21:  Drill End Time 
 DRST.      21.13.00 24-May-21:  Drill Start Tim 
 DTIM.hr                 45.11:  Time Drilling 
 EDEP.m                4054.00:  End Depth 
 ENG1.         Almaz Almadatov:  Engineer 1 
 ENG2.           Amrah Tahirov:  Engineer 2 
 ENG3.      Bakhtiyar Jabbarli:  Engineer 3 
 ENG4.          Nazrin Asgarli:  Engineer 4 
 ETIM.      10.00.00 30-May-21:  End Time 
 FLOI.gpm               530.00:  Flow In 
 FLON.gpm               400.00:  Flow In Min 
 FLOS.cptm                0.00:  Fluid Loss 
 FLOX.gpm               560.00:  Flow In Max 
 DFT .        Mineral Oil Base:  Mud Type 
 FTRO.       Formation Presure:  FTWD Run Obj 
 HFLO.                      No:  High Flow 
 HPRE.                      No:  High Pressure 
 HTEM.                      No:  High Temp 
 HYDO.m                   1.80:  Hydro Offset 
 IFIN.deg                73.83:  Inc, Final 
 IMAX.deg                73.83:  Inc Max 
 IMIN.deg                57.86:  Inc Min 
 IMND.m                3259.27:  Inc Min Depth 
 IMXD.m                4045.58:  Inc Max Depth 
 JARR.                     Yes:  Jarring 
 LETM.      11.50.00 27-May-21:  Log End Time 
 LOST.hr                     0:  Lost Rig Time 
 LSTM.      21.13.00 24-May-21:  Log Start Time 
 MDCL.ppm             42500.00:  Mud Chlorides 
 MDES.     Inversion Oil/Synthetic:  Mud Desc 
 DFD .sg                  1.52:  Mud Density 
 MDMN.sg                  1.52:  Dens Mud Min 
 MDMX.sg                  1.52:  Dens Mud Max 
 MOIL.                      70:  Run Mud Oil % 
 MOWR.                   70:30:  Run Mud OWR 
 MSND.                     0.2:  Run Mud Sand % 
 MSOL.                      22:  Run Mud Solids% 
 DFV .spqt               77.00:  Mud Viscosity 
 MWOD.in                  6.75:  MWD Tool OD 
 MWSI.                      No:  Serv Intrp, MWD 
 OTIM.hr                151.01:  Time Operating 
 PCON.          Wear / Scratch:  Pad Condition 
 PMAX.psia            11296.93:  Press Op, Max 
 PV  .cP                 37.00:  Mud PV 
 RUN .                     500:  Run Number 
 ROPA.m/hr               25.00:  ROP Avg 
 ROPN.m/hr                9.00:  ROP Min 
 ROPX.m/hr               28.00:  ROP Max 
 RPMA.rpm               140.00:  RPM Surface Avg 
 RPMN.rpm                90.00:  RPM Surface Min 
 RPMX.rpm               140.00:  RPM Surface Max 
 RRUN.                    0500:  Rig Run Number 
 SAZI.deg               172.17:  Azm, Start 
 SDEP.m                3248.00:  Start Depth 
 SIDD.                      No:  Serv Intrp, DD 
 SINC.deg                57.86:  Inc, Start 
 SPPA.psig             5620.00:  SPP Avg 
 SPPN.psig             5190.00:  SPP Min 
 SPPX.psig             6050.00:  SPP Max 
 STIM.      16.00.00 23-May-21:  Start Time 
 SVCS.                 DD, MWD:  Services 
 SVER.                    9.20:  Sperry Version 
 TDAT.m                 806.00:  Tot Depth Attmp 
 TDDF.                      No:  Trip for DD 
 TDLG.m                 806.00:  Tot Depth Loggd 
 TFF .                      No:  Trip for Fail 
 TQAA.f-kp               12.00:  Torque Abs Avg 
 TQAN.f-kp                8.00:  Torque Abs Min 
 TQAX.f-kp               15.00:  Torque Abs Max 
 TRRT.°/30m               0.30:  Turn Rotating 
 MRT .                  EWR-M5:  Maximum Recorded Temperature 
 TTMX.degC               93.00:  Max Tool Temp 
 VS01.                90649155:  Virtual Str1 SN 
 VS02.                90642264:  Virtual Str2 SN 
 VS03.                90642266:  Virtual Str3 SN 
 VS04.                90642261:  Virtual Str4 SN 
 WBMN.klb                 0.00:  WOB Min 
 WITN.             Anar Khalil:  Customer Rep 
 WITN.           Murad Guliyev:  Customer Rep 2 
 WOBA.klb                13.00:  WOB Avg 
 WOBX.klb                25.00:  WOB Max 
 YP  .lhf2               32.00:  Yield Point 
~Curve Information Block
#MNEM.UNIT                 API CODE     Curve Description
#---------               -----------    ---------------------------
 TIME.HHMMSS            00 000 000 000:  GT Time & Date
 GTDEPTH.m              00 000 000 000:  GT Depth
 GTPQH.psia             00 000 000 000:  GT HR Quartz Pressure
 GTTQ.degC              00 000 000 000:  GT Quartz Temperature
 GTTN.NONE              00 000 000 000:  GT Test Number
 GTET.sec               00 000 000 000:  GT Elapsed Test Time
 GTTVD.m                00 000 000 000:  GT True Vertical Depth
#Other Information
#
#WARRANTY: Halliburton will use its best efforts to furnish customers with 
#accurate information and interpretations that are part of, and incident to, the services 
#provided.  However, Halliburton cannot and does not warrant the accuracy 
#or correctness of such information and interpretations.  Under no circumstances should any 
#such information or interpretation be relied upon as the sole basis for any drilling, 
#completion, production, or financial decision or any procedure involving any risk to the 
#safety of any drilling venture, drilling rig or its crew or any other third party.  The 
#Customer has full responsibility for all drilling, completion and production operation.  
#Halliburton makes no representations or warranties, either expressed or 
#implied, including, but not limited to, the implied warranties of merchantability or fitness 
#for a particular purpose, with respect to the services rendered.  In no event will 
#Halliburton be liable for failure to obtain any particular results or for 
#any damages, including, but not limited to, indirect, special or consequential damages, 
#resulting from the use of any information or interpretation provided by Halliburton.
#
~A           TIME           GTDEPTH  GTPQH  GTTQ  GTTN  GTET   GTTVD  
# ...
   04:55:14.000.28-May-2021 3472.00 4230.94 82.86 9.00 368.00 2583.20
   04:55:14.200.28-May-2021 3472.00 4230.94 82.86 9.00 368.20 2583.20
   04:55:14.400.28-May-2021 3472.00 4231.22 82.86 9.00 368.40 2583.20
   04:55:14.600.28-May-2021 3472.00 4230.98 82.86 9.00 368.60 2583.20
   04:55:14.800.28-May-2021 3472.00 4230.51 82.86 9.00 368.80 2583.20
   04:55:15.000.28-May-2021 3472.00 4231.45 82.86 9.00 369.00 2583.20
   04:55:15.200.28-May-2021 3472.00 4231.45 82.86 9.00 369.20 2583.20
   04:55:15.400.28-May-2021 3472.00 4231.00 82.86 9.00 369.40 2583.20
   04:55:15.600.28-May-2021 3472.00 4230.99 82.86 9.00 369.60 2583.20
   04:55:15.800.28-May-2021 3472.00 4230.44 82.86 9.00 369.80 2583.20
   04:55:16.000.28-May-2021 3472.00 4231.53 82.86 9.00 370.00 2583.20
   04:55:16.200.28-May-2021 3472.00 4231.53 82.86 9.00 370.20 2583.20
   04:55:16.400.28-May-2021 3472.00 4231.02 82.86 9.00 370.40 2583.20
   04:55:16.600.28-May-2021 3472.00 4230.95 82.86 9.00 370.60 2583.20
   04:55:16.800.28-May-2021 3472.00 4231.38 82.86 9.00 370.80 2583.20
   04:55:17.000.28-May-2021 3472.00 4250.08 82.86 9.00 371.00 2583.20
   04:55:17.200.28-May-2021 3472.00 4250.08 82.86 9.00 371.20 2583.20
   04:55:17.400.28-May-2021 3472.00 4350.78 82.86 9.00 371.40 2583.20
   04:55:17.600.28-May-2021 3472.00 6056.33 82.86 9.00 371.60 2583.20
   04:55:17.800.28-May-2021 3472.00 6056.55 82.86 9.00 371.80 2583.20
   04:55:18.000.28-May-2021 3472.00 6055.92 82.86 9.00 372.00 2583.20
   04:55:18.200.28-May-2021 3472.00 6055.92 82.86 9.00 372.20 2583.20
   04:55:18.400.28-May-2021 3472.00 6059.59 82.86 9.00 372.40 2583.20
   04:55:18.600.28-May-2021 3472.00 6056.68 82.86 9.00 372.60 2583.20
   04:55:18.800.28-May-2021 3472.00 6056.50 82.86 9.00 372.80 2583.20
   04:55:19.000.28-May-2021 3472.00 6056.68 82.86 9.00 373.00 2583.20
   04:55:19.200.28-May-2021 3472.00 6056.68 82.86 9.00 373.20 2583.20
   04:55:19.400.28-May-2021 3472.00 6057.14 82.87 9.00 373.40 2583.20
   04:55:19.600.28-May-2021 3472.00 6057.72 82.87 9.00 373.60 2583.20
   04:55:19.800.28-May-2021 3472.00 6058.04 82.87 9.00 373.80 2583.20
   04:55:20.000.28-May-2021 3472.00 6058.53 82.87 9.00 374.00 2583.20
   04:55:20.200.28-May-2021 3472.00 6058.53 82.87 9.00 374.20 2583.20
   04:55:20.400.28-May-2021 3472.00 6058.68 82.87 9.00 374.40 2583.20
   04:55:20.600.28-May-2021 3472.00 6058.63 82.87 9.00 374.60 2583.20
   04:55:20.800.28-May-2021 3472.00 6058.60 82.87 9.00 374.80 2583.20
   04:55:21.000.28-May-2021 3472.00 6066.11 82.88 9.00 375.00 2583.20
   04:55:21.200.28-May-2021 3472.00 6066.11 82.88 9.00 375.20 2583.20
   04:55:21.400.28-May-2021 3472.00 6056.09 82.88 9.00 375.40 2583.20
   04:55:21.600.28-May-2021 3472.00 6058.86 82.88 9.00 375.60 2583.20
   04:55:21.800.28-May-2021 3472.00 6059.10 82.88 9.00 375.80 2583.20
   04:55:22.000.28-May-2021 3472.00 6064.57 82.88 9.00 376.00 2583.20
   04:55:22.200.28-May-2021 3472.00 6064.57 82.88 9.00 376.20 2583.20
   04:55:22.400.28-May-2021 3472.00 6059.37 82.88 9.00 376.40 2583.20
   04:55:22.600.28-May-2021 3472.00 6065.72 82.89 9.00 376.60 2583.20
   04:55:22.800.28-May-2021 3472.00 6057.97 82.89 9.00 376.80 2583.20
   04:55:23.000.28-May-2021 3472.00 6059.71 82.89 9.00 377.00 2583.20
   04:55:23.200.28-May-2021 3472.00 6059.71 82.89 9.00 377.20 2583.20
   04:55:23.400.28-May-2021 3472.00 6059.63 82.89 9.00 377.40 2583.20
   04:55:23.600.28-May-2021 3472.00 6067.00 82.89 9.00 377.60 2583.20
   04:55:23.800.28-May-2021 3472.00 6056.98 82.89 9.00 377.80 2583.20
   04:55:24.000.28-May-2021 3472.00 6059.63 82.89 9.00 378.00 2583.20
   04:55:24.200.28-May-2021 3472.00 6059.63 82.89 9.00 378.20 2583.20
   04:55:24.400.28-May-2021 3472.00 6059.99 82.89 9.00 378.40 2583.20
   04:55:24.600.28-May-2021 3472.00 6059.50 82.90 9.00 378.60 2583.20
   04:55:24.800.28-May-2021 3472.00 6060.05 82.90 9.00 378.80 2583.20
   04:55:25.000.28-May-2021 3472.00 6059.70 82.90 9.00 379.00 2583.20
   04:55:25.200.28-May-2021 3472.00 6059.70 82.90 9.00 379.20 2583.20
   04:55:25.400.28-May-2021 3472.00 6059.97 82.90 9.00 379.40 2583.20
   04:55:25.600.28-May-2021 3472.00 6059.87 82.90 9.00 379.60 2583.20
   04:55:25.800.28-May-2021 3472.00 6059.66 82.90 9.00 379.80 2583.20
   04:55:26.000.28-May-2021 3472.00 6059.36 82.90 9.00 380.00 2583.20
   04:55:26.200.28-May-2021 3472.00 6059.36 82.90 9.00 380.20 2583.20
   04:55:26.400.28-May-2021 3472.00 6058.48 82.90 9.00 380.40 2583.20
   04:55:26.600.28-May-2021 3472.00 6059.83 82.90 9.00 380.60 2583.20
   04:55:26.800.28-May-2021 3472.00 6059.58 82.90 9.00 380.80 2583.20
   04:55:27.000.28-May-2021 3472.00 6059.82 82.90 9.00 381.00 2583.20
   04:55:27.200.28-May-2021 3472.00 6059.82 82.90 9.00 381.20 2583.20
   04:55:27.400.28-May-2021 3472.00 6059.94 82.90 9.00 381.40 2583.20
   04:55:27.600.28-May-2021 3472.00 6059.82 82.90 9.00 381.60 2583.20
   04:55:27.800.28-May-2021 3472.00 6060.39 82.90 9.00 381.80 2583.20
   04:55:28.000.28-May-2021 3472.00 6059.99 82.90 9.00 382.00 2583.20
   04:55:28.200.28-May-2021 3472.00 6059.99 82.90 9.00 382.20 2583.20
   04:55:28.400.28-May-2021 3472.00 6060.20 82.90 9.00 382.40 2583.20
   04:55:28.600.28-May-2021 3472.00 6059.90 82.90 9.00 382.60 2583.20
   04:55:28.800.28-May-2021 3472.00 6059.67 82.90 9.00 382.80 2583.20
   04:55:29.000.28-May-2021 3472.00 6065.46 82.90 9.00 383.00 2583.20
   04:55:29.200.28-May-2021 3472.00 6065.46 82.90 9.00 383.20 2583.20
   04:55:29.400.28-May-2021 3472.00 6058.78 82.90 9.00 383.40 2583.20
   04:55:29.600.28-May-2021 3472.00 6059.53 82.90 9.00 383.60 2583.20
   04:55:29.800.28-May-2021 3472.00 6059.85 82.90 9.00 383.80 2583.20
   04:55:30.000.28-May-2021 3472.00 6059.25 82.90 9.00 384.00 2583.20
   04:55:30.200.28-May-2021 3472.00 6059.25 82.90 9.00 384.20 2583.20
   04:55:30.400.28-May-2021 3472.00 6058.25 82.91 9.00 384.40 2583.20
   04:55:30.600.28-May-2021 3472.00 6060.07 82.90 9.00 384.60 2583.20
   04:55:30.800.28-May-2021 3472.00 6067.17 82.91 9.00 384.80 2583.20
   04:55:31.000.28-May-2021 3472.00 6057.20 82.91 9.00 385.00 2583.20
   04:55:31.200.28-May-2021 3472.00 6057.20 82.91 9.00 385.20 2583.20
   04:55:31.400.28-May-2021 3472.00 6059.91 82.91 9.00 385.40 2583.20
   04:55:31.600.28-May-2021 3472.00 6059.82 82.91 9.00 385.60 2583.20
   04:55:31.800.28-May-2021 3472.00 6059.55 82.91 9.00 385.80 2583.20
   04:55:32.000.28-May-2021 3472.00 6065.47 82.90 9.00 386.00 2583.20
   04:55:32.200.28-May-2021 3472.00 6065.47 82.90 9.00 386.20 2583.20
   04:55:32.400.28-May-2021 3472.00 6060.42 82.91 9.00 386.40 2583.20
   04:55:32.600.28-May-2021 3472.00 6059.94 82.90 9.00 386.60 2583.20
   04:55:32.800.28-May-2021 3472.00 6060.26 82.90 9.00 386.80 2583.20
   04:55:33.000.28-May-2021 3472.00 6059.71 82.90 9.00 387.00 2583.20
   04:55:33.200.28-May-2021 3472.00 6059.71 82.90 9.00 387.20 2583.20
   04:55:33.400.28-May-2021 3472.00 6060.03 82.90 9.00 387.40 2583.20
   04:55:33.600.28-May-2021 3472.00 6059.97 82.90 9.00 387.60 2583.20
   04:55:33.800.28-May-2021 3472.00 6059.47 82.90 9.00 387.80 2583.20
   04:55:34.000.28-May-2021 3472.00 6059.51 82.90 9.00 388.00 2583.20
   04:55:34.200.28-May-2021 3472.00 6059.51 82.90 9.00 388.20 2583.20
   04:55:34.400.28-May-2021 3472.00 6059.56 82.90 9.00 388.40 2583.20
   04:55:34.600.28-May-2021 3472.00 6063.43 82.90 9.00 388.60 2583.20
   04:55:34.800.28-May-2021 3472.00 6060.48 82.90 9.00 388.80 2583.20
   04:55:35.000.28-May-2021 3472.00 6060.31 82.90 9.00 389.00 2583.20
   04:55:35.200.28-May-2021 3472.00 6060.31 82.90 9.00 389.20 2583.20
   04:55:35.400.28-May-2021 3472.00 6060.14 82.90 9.00 389.40 2583.20
   04:55:35.600.28-May-2021 3472.00 6059.74 82.90 9.00 389.60 2583.20
   04:55:35.800.28-May-2021 3472.00 6059.73 82.90 9.00 389.80 2583.20
   04:55:36.000.28-May-2021 3472.00 6059.85 82.90 9.00 390.00 2583.20
   04:55:36.200.28-May-2021 3472.00 6059.85 82.90 9.00 390.20 2583.20
   04:55:36.400.28-May-2021 3472.00 6059.79 82.90 9.00 390.40 2583.20
   04:55:36.600.28-May-2021 3472.00 6059.74 82.90 9.00 390.60 2583.20
   04:55:36.800.28-May-2021 3472.00 6059.69 82.90 9.00 390.80 2583.20
