~Version Information
 VERS.                  2.0:   CWLS log ASCII Standard -VERSION 2.0
 WRAP.                   NO:   One line per depth step
~Well Information Block
#MNEM.UNIT     VALUE/NAME     DESCRIPTION
#---------     -----------    ---------------------------
 STRT.S             23:52:35 27-May-21: START TIME 23:52:35 27-May-21
 STOP.S             23:59:20 27-May-21: STOP TIME  23:59:20 27-May-21
 STEP.S                   0.00: STEP TIME
 NULL.                 -999.25: NULL VALUE
 UWI .                     N/A:  UNIQUE WELL IDENTIFIER
 API .                     N/A:  API NUMBER
 UNIT.                     N/A:  LOGGING EQUIPMENT ID
 DCON.         Sperry Drilling:  DIRECTNL CONTR
 DOE .                     N/A:  DOE NUMBER
 MWDS.                    Baku:  MWD SHOP
 SRVC.     Turan Drilling and Engineering:  CONTRACTOR
 CTRY.              Azerbaijan:  COUNTRY NAME
 PROV.                    Baku:  PROVINCE
 STAT.                    Baku:  STATE NAME
 REGN.                   EESSA:  REGION
 BASE.              Azerbaijan:  LOGGING EQUIPMENT BASE LOCATION
 WTYP.                Deviated:  WELL TYPE
 RIG .              East Azeri:  RIG NAME
 WELL.                    D02y:  WELL NAME
 FLD .                     ACG:  FIELD NAME
 COMP.     BP Exploration (Caspian Sea) Ltd.:  COMPANY
 PDAT.          Mean Sea Level:  PERMANENT DATUM
 MDS .        Operator Entered:  MAG DATA SOURCE
 SON .        AZ-XX-0906997291:  JOB NUMBER
 FTOP.          Formation Tops:  FORM TOPS DESC
 ILTD.               Lithology:  INTERP LTH DESC
 SVYD.                  Survey:  SURVEY DESC
 DMOD.             Drill Model:  DRILL MOD DESC
 HPTY.       Minimum Curvature:  HOLE POS TYPE
 NREF.                    Grid:  NORTH REFERENCE
 SPUD.               05-May-21:  SPUD DATE
 DATE.      09.27.28 12-Jun-21:  END TIME
 STIM.      09.27.28 12-May-21:  START TIME
 DMF .             Drill Floor:  DRILL MEAS FROM
 DFST.                        :  DIST FSL TEXT
 DFWT.                        :  DIST FWL TEXT
 CNTY.                        :  COUNTY
 LOC .                        :  LOCATION
 LMF .             Drill Floor:  LOG MEASURED FROM
 DEP .m                2806.40:  DEPTH
 AGAP.m                  43.60:  AIR GAP
 VSNS.m                  -4.42:  VERT SEC N/S
 VSEW.m                  -7.31:  VERT SEC E/W
 APD .m                  43.60:  DEPTH ABOVE PD
 WDMS.m                 151.80:  WD ELEV
 EGL .m                   0.00:  GROUND ELEVATION
 EPD .m                   0.00:  ELEVATION
 AZTC.deg                 6.18:  AZM TOTAL CORR
 GRDC.deg                 0.29:  GRID CORRECTION
 MDEC.deg                 6.47:  MAGNETIC DECL
 MDIP.deg                59.50:  MAGNETIC DIP
 MFLD.nT              50350.00:  MAGNETIC FIELD
 GVFD.g                   1.00:  GRAVITY FIELD
 VSDR.deg               179.08:  VERT SEC DIRECT
 TDD .m                4300.00:  TOTAL DEPTH (DRILLER)
 SDEP.m                2800.00:  START DEPTH
 DFSL.m                   0.00:  DISTANCE FSL
 DFWL.m                   0.00:  DISTANCE FWL
 UTMY.m             4431871.34:  UTM Y
 UTMX.m              538762.90:  UTM X
 WHEW.m                  -7.31:  WELL HEAD E/W
 WHNS.m                  -4.42:  WELL HEAD N/S
 LONG.deg                51.45:  LONGITUDE
 LATI.deg                40.02:  LATITUDE
 TVDS.m                  43.60:  TVDSS CORRECTN
 EKB .m                  43.60:  KB ELEVATION
 EDF .m                  43.60:  DF ELEVATION
 TDL .m                 806.00:  TOTAL DEPTH (LOGGER)
 MAGU.                 1851231:  MAGUTM CHECKSUM
 VSC .                       0:  VS TO CLOSURE
~Parameter Information Block
#MNEM.UNIT       Value        Description
#---------     -----------    ---------------------------
 AV  .mps                 1.60:  Ann Velocity 
 AVMX.mps                 2.00:  Max Ann Veloc 
 AZIF.deg               140.24:  Azm, Final 
 BHAT.        Rotary Steerable:  BHA Type 
 BROT.°/30m               0.50:  Build Rotating 
 BS  .in                  8.50:  Bit Size 
 BTPL.psig              619.00:  Bit Press Loss 
 CABU.                     Yes:  Customer Abuse 
 CGEO.          Ilgar Gurbanov:  Customer Geo 
 COMM.                     t\L:  Run Comments 1 
 TCS .hr                 85.88:  Time Ciculation Ended 
 CV  .mps                 3.30:  Crit Velocity 
 CVMX.mps                 3.50:  Max Crit Veloc 
 DD1 .           Hamid Axmedov:  Direct Drillr 1 
 DD2 .           Teymur Aliyev:  Direct Drillr 2 
 DDSV.               Geo-Pilot:  DD Service 
 DEFF.%                 100.00:  % Det Eff 
 DLRX.°/30m               0.00:  Dogleg Rot Max 
 DLSO.°/30m               1.80:  Dogleg Oriented 
 DLSX.°/30m               3.34:  Dogleg Str Max 
 DRET.      11.50.00 27-May-21:  Drill End Time 
 DRST.      21.13.00 24-May-21:  Drill Start Tim 
 DTIM.hr                 45.11:  Time Drilling 
 EDEP.m                4054.00:  End Depth 
 ENG1.         Almaz Almadatov:  Engineer 1 
 ENG2.           Amrah Tahirov:  Engineer 2 
 ENG3.      Bakhtiyar Jabbarli:  Engineer 3 
 ENG4.          Nazrin Asgarli:  Engineer 4 
 ETIM.      10.00.00 30-May-21:  End Time 
 FLOI.gpm               530.00:  Flow In 
 FLON.gpm               400.00:  Flow In Min 
 FLOS.cptm                0.00:  Fluid Loss 
 FLOX.gpm               560.00:  Flow In Max 
 DFT .        Mineral Oil Base:  Mud Type 
 FTRO.       Formation Presure:  FTWD Run Obj 
 HFLO.                      No:  High Flow 
 HPRE.                      No:  High Pressure 
 HTEM.                      No:  High Temp 
 HYDO.m                   1.80:  Hydro Offset 
 IFIN.deg                73.83:  Inc, Final 
 IMAX.deg                73.83:  Inc Max 
 IMIN.deg                57.86:  Inc Min 
 IMND.m                3259.27:  Inc Min Depth 
 IMXD.m                4045.58:  Inc Max Depth 
 JARR.                     Yes:  Jarring 
 LETM.      11.50.00 27-May-21:  Log End Time 
 LOST.hr                     0:  Lost Rig Time 
 LSTM.      21.13.00 24-May-21:  Log Start Time 
 MDCL.ppm             42500.00:  Mud Chlorides 
 MDES.     Inversion Oil/Synthetic:  Mud Desc 
 DFD .sg                  1.52:  Mud Density 
 MDMN.sg                  1.52:  Dens Mud Min 
 MDMX.sg                  1.52:  Dens Mud Max 
 MOIL.                      70:  Run Mud Oil % 
 MOWR.                   70:30:  Run Mud OWR 
 MSND.                     0.2:  Run Mud Sand % 
 MSOL.                      22:  Run Mud Solids% 
 DFV .spqt               77.00:  Mud Viscosity 
 MWOD.in                  6.75:  MWD Tool OD 
 MWSI.                      No:  Serv Intrp, MWD 
 OTIM.hr                151.01:  Time Operating 
 PCON.          Wear / Scratch:  Pad Condition 
 PMAX.psia            11296.93:  Press Op, Max 
 PV  .cP                 37.00:  Mud PV 
 RUN .                     500:  Run Number 
 ROPA.m/hr               25.00:  ROP Avg 
 ROPN.m/hr                9.00:  ROP Min 
 ROPX.m/hr               28.00:  ROP Max 
 RPMA.rpm               140.00:  RPM Surface Avg 
 RPMN.rpm                90.00:  RPM Surface Min 
 RPMX.rpm               140.00:  RPM Surface Max 
 RRUN.                    0500:  Rig Run Number 
 SAZI.deg               172.17:  Azm, Start 
 SDEP.m                3248.00:  Start Depth 
 SIDD.                      No:  Serv Intrp, DD 
 SINC.deg                57.86:  Inc, Start 
 SPPA.psig             5620.00:  SPP Avg 
 SPPN.psig             5190.00:  SPP Min 
 SPPX.psig             6050.00:  SPP Max 
 STIM.      16.00.00 23-May-21:  Start Time 
 SVCS.                 DD, MWD:  Services 
 SVER.                    9.20:  Sperry Version 
 TDAT.m                 806.00:  Tot Depth Attmp 
 TDDF.                      No:  Trip for DD 
 TDLG.m                 806.00:  Tot Depth Loggd 
 TFF .                      No:  Trip for Fail 
 TQAA.f-kp               12.00:  Torque Abs Avg 
 TQAN.f-kp                8.00:  Torque Abs Min 
 TQAX.f-kp               15.00:  Torque Abs Max 
 TRRT.°/30m               0.30:  Turn Rotating 
 MRT .                  EWR-M5:  Maximum Recorded Temperature 
 TTMX.degC               93.00:  Max Tool Temp 
 VS01.                90649155:  Virtual Str1 SN 
 VS02.                90642264:  Virtual Str2 SN 
 VS03.                90642266:  Virtual Str3 SN 
 VS04.                90642261:  Virtual Str4 SN 
 WBMN.klb                 0.00:  WOB Min 
 WITN.             Anar Khalil:  Customer Rep 
 WITN.           Murad Guliyev:  Customer Rep 2 
 WOBA.klb                13.00:  WOB Avg 
 WOBX.klb                25.00:  WOB Max 
 YP  .lhf2               32.00:  Yield Point 
~Curve Information Block
#MNEM.UNIT                 API CODE     Curve Description
#---------               -----------    ---------------------------
 TIME.HHMMSS            00 000 000 000:  GT Time & Date
 GTDEPTH.m              00 000 000 000:  GT Depth
 GTPQH.psia             00 000 000 000:  GT HR Quartz Pressure
 GTTQ.degC              00 000 000 000:  GT Quartz Temperature
 GTTN.NONE              00 000 000 000:  GT Test Number
 GTET.sec               00 000 000 000:  GT Elapsed Test Time
 GTTVD.m                00 000 000 000:  GT True Vertical Depth
#Other Information
#
#WARRANTY: Halliburton will use its best efforts to furnish customers with 
#accurate information and interpretations that are part of, and incident to, the services 
#provided.  However, Halliburton cannot and does not warrant the accuracy 
#or correctness of such information and interpretations.  Under no circumstances should any 
#such information or interpretation be relied upon as the sole basis for any drilling, 
#completion, production, or financial decision or any procedure involving any risk to the 
#safety of any drilling venture, drilling rig or its crew or any other third party.  The 
#Customer has full responsibility for all drilling, completion and production operation.  
#Halliburton makes no representations or warranties, either expressed or 
#implied, including, but not limited to, the implied warranties of merchantability or fitness 
#for a particular purpose, with respect to the services rendered.  In no event will 
#Halliburton be liable for failure to obtain any particular results or for 
#any damages, including, but not limited to, indirect, special or consequential damages, 
#resulting from the use of any information or interpretation provided by Halliburton.
#
~A           TIME           GTDEPTH  GTPQH  GTTQ  GTTN  GTET   GTTVD  
# ...
   23:53:44.000.27-May-2021 3671.50  115.42 84.32 3.00  69.00 2661.54
   23:53:44.200.27-May-2021 3671.50  115.42 84.32 3.00  69.20 2661.54
   23:53:44.400.27-May-2021 3671.50  116.20 84.33 3.00  69.40 2661.54
   23:53:44.600.27-May-2021 3671.50  116.56 84.33 3.00  69.60 2661.54
   23:53:44.800.27-May-2021 3671.50  116.87 84.33 3.00  69.80 2661.54
   23:53:45.000.27-May-2021 3671.50  117.25 84.33 3.00  70.00 2661.54
   23:53:45.200.27-May-2021 3671.50  117.25 84.33 3.00  70.20 2661.54
   23:53:45.400.27-May-2021 3671.50  118.00 84.33 3.00  70.40 2661.54
   23:53:45.600.27-May-2021 3671.50  118.30 84.33 3.00  70.60 2661.54
   23:53:45.800.27-May-2021 3671.50  118.64 84.33 3.00  70.80 2661.54
   23:53:46.000.27-May-2021 3671.50  119.03 84.33 3.00  71.00 2661.54
   23:53:46.200.27-May-2021 3671.50  119.03 84.33 3.00  71.20 2661.54
   23:53:46.400.27-May-2021 3671.50  119.71 84.33 3.00  71.40 2661.54
   23:53:46.600.27-May-2021 3671.50  120.03 84.33 3.00  71.60 2661.54
   23:53:46.800.27-May-2021 3671.50  120.36 84.33 3.00  71.80 2661.54
   23:53:47.000.27-May-2021 3671.50  120.69 84.33 3.00  72.00 2661.54
   23:53:47.200.27-May-2021 3671.50  120.69 84.33 3.00  72.20 2661.54
   23:53:47.400.27-May-2021 3671.50  121.33 84.33 3.00  72.40 2661.54
   23:53:47.600.27-May-2021 3671.50  121.63 84.33 3.00  72.60 2661.54
   23:53:47.800.27-May-2021 3671.50  121.94 84.33 3.00  72.80 2661.54
   23:53:48.000.27-May-2021 3671.50  122.25 84.33 3.00  73.00 2661.54
   23:53:48.200.27-May-2021 3671.50  122.25 84.33 3.00  73.20 2661.54
   23:53:48.400.27-May-2021 3671.50  122.81 84.33 3.00  73.40 2661.54
   23:53:48.600.27-May-2021 3671.50  123.14 84.33 3.00  73.60 2661.54
   23:53:48.800.27-May-2021 3671.50  123.44 84.33 3.00  73.80 2661.54
   23:53:49.000.27-May-2021 3671.50  123.73 84.33 3.00  74.00 2661.54
   23:53:49.200.27-May-2021 3671.50  123.73 84.33 3.00  74.20 2661.54
   23:53:49.400.27-May-2021 3671.50  124.30 84.33 3.00  74.40 2661.54
   23:53:49.600.27-May-2021 3671.50  124.59 84.33 3.00  74.60 2661.54
   23:53:49.800.27-May-2021 3671.50  124.86 84.33 3.00  74.80 2661.54
   23:53:50.000.27-May-2021 3671.50  125.14 84.33 3.00  75.00 2661.54
   23:53:50.200.27-May-2021 3671.50  125.14 84.33 3.00  75.20 2661.54
   23:53:50.400.27-May-2021 3671.50  125.69 84.33 3.00  75.40 2661.54
   23:53:50.600.27-May-2021 3671.50  125.92 84.33 3.00  75.60 2661.54
   23:53:50.800.27-May-2021 3671.50  126.14 84.33 3.00  75.80 2661.54
   23:53:51.000.27-May-2021 3671.50  126.46 84.33 3.00  76.00 2661.54
   23:53:51.200.27-May-2021 3671.50  126.46 84.33 3.00  76.20 2661.54
   23:53:51.400.27-May-2021 3671.50  127.00 84.33 3.00  76.40 2661.54
   23:53:51.600.27-May-2021 3671.50  127.17 84.34 3.00  76.60 2661.54
   23:53:51.800.27-May-2021 3671.50  127.45 84.34 3.00  76.80 2661.54
   23:53:52.000.27-May-2021 3671.50  127.74 84.34 3.00  77.00 2661.54
   23:53:52.200.27-May-2021 3671.50  127.74 84.34 3.00  77.20 2661.54
   23:53:52.400.27-May-2021 3671.50  128.23 84.34 3.00  77.40 2661.54
   23:53:52.600.27-May-2021 3671.50  128.41 84.34 3.00  77.60 2661.54
   23:53:52.800.27-May-2021 3671.50  128.69 84.34 3.00  77.80 2661.54
   23:53:53.000.27-May-2021 3671.50  128.96 84.34 3.00  78.00 2661.54
   23:53:53.200.27-May-2021 3671.50  128.96 84.34 3.00  78.20 2661.54
   23:53:53.400.27-May-2021 3671.50  129.38 84.34 3.00  78.40 2661.54
   23:53:53.600.27-May-2021 3671.50  129.61 84.34 3.00  78.60 2661.54
   23:53:53.800.27-May-2021 3671.50  129.87 84.34 3.00  78.80 2661.54
   23:53:54.000.27-May-2021 3671.50  130.11 84.34 3.00  79.00 2661.54
   23:53:54.200.27-May-2021 3671.50  130.11 84.34 3.00  79.20 2661.54
   23:53:54.400.27-May-2021 3671.50  130.57 84.34 3.00  79.40 2661.54
   23:53:54.600.27-May-2021 3671.50  130.78 84.34 3.00  79.60 2661.54
   23:53:54.800.27-May-2021 3671.50  131.01 84.34 3.00  79.80 2661.54
   23:53:55.000.27-May-2021 3671.50  131.22 84.34 3.00  80.00 2661.54
   23:53:55.200.27-May-2021 3671.50  131.22 84.34 3.00  80.20 2661.54
   23:53:55.400.27-May-2021 3671.50  131.65 84.34 3.00  80.40 2661.54
   23:53:55.600.27-May-2021 3671.50  131.87 84.34 3.00  80.60 2661.54
   23:53:55.800.27-May-2021 3671.50  132.05 84.34 3.00  80.80 2661.54
   23:53:56.000.27-May-2021 3671.50  132.20 84.34 3.00  81.00 2661.54
   23:53:56.200.27-May-2021 3671.50  132.20 84.34 3.00  81.20 2661.54
   23:53:56.400.27-May-2021 3671.50  132.68 84.34 3.00  81.40 2661.54
   23:53:56.600.27-May-2021 3671.50  132.90 84.34 3.00  81.60 2661.54
   23:53:56.800.27-May-2021 3671.50  133.10 84.34 3.00  81.80 2661.54
   23:53:57.000.27-May-2021 3671.50  133.30 84.34 3.00  82.00 2661.54
   23:53:57.200.27-May-2021 3671.50  133.30 84.34 3.00  82.20 2661.54
   23:53:57.400.27-May-2021 3671.50  133.69 84.34 3.00  82.40 2661.54
   23:53:57.600.27-May-2021 3671.50  133.88 84.34 3.00  82.60 2661.54
   23:53:57.800.27-May-2021 3671.50  134.07 84.34 3.00  82.80 2661.54
   23:53:58.000.27-May-2021 3671.50  134.26 84.34 3.00  83.00 2661.54
   23:53:58.200.27-May-2021 3671.50  134.26 84.34 3.00  83.20 2661.54
   23:53:58.400.27-May-2021 3671.50  134.59 84.34 3.00  83.40 2661.54
   23:53:58.600.27-May-2021 3671.50  134.75 84.34 3.00  83.60 2661.54
   23:53:58.800.27-May-2021 3671.50  134.97 84.34 3.00  83.80 2661.54
   23:53:59.000.27-May-2021 3671.50  135.16 84.34 3.00  84.00 2661.54
   23:53:59.200.27-May-2021 3671.50  135.16 84.34 3.00  84.20 2661.54
   23:53:59.400.27-May-2021 3671.50  135.46 84.34 3.00  84.40 2661.54
   23:53:59.600.27-May-2021 3671.50  135.67 84.34 3.00  84.60 2661.54
   23:53:59.800.27-May-2021 3671.50  135.87 84.34 3.00  84.80 2661.54
   23:54:00.000.27-May-2021 3671.50  136.05 84.35 3.00  85.00 2661.54
   23:54:00.200.27-May-2021 3671.50  136.05 84.35 3.00  85.20 2661.54
   23:54:00.400.27-May-2021 3671.50  136.36 84.35 3.00  85.40 2661.54
   23:54:00.600.27-May-2021 3671.50  136.52 84.35 3.00  85.60 2661.54
   23:54:00.800.27-May-2021 3671.50  136.71 84.35 3.00  85.80 2661.54
   23:54:01.000.27-May-2021 3671.50  136.90 84.35 3.00  86.00 2661.54
   23:54:01.200.27-May-2021 3671.50  136.90 84.35 3.00  86.20 2661.54
   23:54:01.400.27-May-2021 3671.50  137.24 84.35 3.00  86.40 2661.54
   23:54:01.600.27-May-2021 3671.50  137.37 84.35 3.00  86.60 2661.54
   23:54:01.800.27-May-2021 3671.50  137.51 84.35 3.00  86.80 2661.54
   23:54:02.000.27-May-2021 3671.50  137.70 84.35 3.00  87.00 2661.54
   23:54:02.200.27-May-2021 3671.50  137.70 84.35 3.00  87.20 2661.54
   23:54:02.400.27-May-2021 3671.50  138.04 84.35 3.00  87.40 2661.54
   23:54:02.600.27-May-2021 3671.50  138.20 84.35 3.00  87.60 2661.54
   23:54:02.800.27-May-2021 3671.50  138.37 84.35 3.00  87.80 2661.54
   23:54:03.000.27-May-2021 3671.50  138.51 84.35 3.00  88.00 2661.54
   23:54:03.200.27-May-2021 3671.50  138.51 84.35 3.00  88.20 2661.54
   23:54:03.400.27-May-2021 3671.50  138.82 84.35 3.00  88.40 2661.54
   23:54:03.600.27-May-2021 3671.50  138.97 84.35 3.00  88.60 2661.54
   23:54:03.800.27-May-2021 3671.50  139.12 84.35 3.00  88.80 2661.54
   23:54:04.000.27-May-2021 3671.50  139.27 84.35 3.00  89.00 2661.54
   23:54:04.200.27-May-2021 3671.50  139.27 84.35 3.00  89.20 2661.54
   23:54:04.400.27-May-2021 3671.50  139.51 84.35 3.00  89.40 2661.54
   23:54:04.600.27-May-2021 3671.50  139.67 84.35 3.00  89.60 2661.54
   23:54:04.800.27-May-2021 3671.50  139.83 84.35 3.00  89.80 2661.54
   23:54:05.000.27-May-2021 3671.50  139.98 84.35 3.00  90.00 2661.54
   23:54:05.200.27-May-2021 3671.50  139.98 84.35 3.00  90.20 2661.54
   23:54:05.400.27-May-2021 3671.50  140.27 84.35 3.00  90.40 2661.54
   23:54:05.600.27-May-2021 3671.50  140.41 84.35 3.00  90.60 2661.54
   23:54:05.800.27-May-2021 3671.50  140.55 84.35 3.00  90.80 2661.54
   23:54:06.000.27-May-2021 3671.50  140.68 84.35 3.00  91.00 2661.54
   23:54:06.200.27-May-2021 3671.50  140.68 84.35 3.00  91.20 2661.54
   23:54:06.400.27-May-2021 3671.50  140.96 84.35 3.00  91.40 2661.54
   23:54:06.600.27-May-2021 3671.50  141.07 84.35 3.00  91.60 2661.54
   23:54:06.800.27-May-2021 3671.50  141.16 84.35 3.00  91.80 2661.54
