~Version Information
 VERS.                  2.0:   CWLS log ASCII Standard -VERSION 2.0
 WRAP.                   NO:   One line per depth step
~Well Information Block
#MNEM.UNIT     VALUE/NAME     DESCRIPTION
#---------     -----------    ---------------------------
 STRT.S             23:03:24 27-May-21: START TIME 23:03:24 27-May-21
 STOP.S             23:10:28 27-May-21: STOP TIME  23:10:28 27-May-21
 STEP.S                   0.00: STEP TIME
 NULL.                 -999.25: NULL VALUE
 UWI .                     N/A:  UNIQUE WELL IDENTIFIER
 API .                     N/A:  API NUMBER
 UNIT.                     N/A:  LOGGING EQUIPMENT ID
 DCON.         Sperry Drilling:  DIRECTNL CONTR
 DOE .                     N/A:  DOE NUMBER
 MWDS.                    Baku:  MWD SHOP
 SRVC.     Turan Drilling and Engineering:  CONTRACTOR
 CTRY.              Azerbaijan:  COUNTRY NAME
 PROV.                    Baku:  PROVINCE
 STAT.                    Baku:  STATE NAME
 REGN.                   EESSA:  REGION
 BASE.              Azerbaijan:  LOGGING EQUIPMENT BASE LOCATION
 WTYP.                Deviated:  WELL TYPE
 RIG .              East Azeri:  RIG NAME
 WELL.                    D02y:  WELL NAME
 FLD .                     ACG:  FIELD NAME
 COMP.     BP Exploration (Caspian Sea) Ltd.:  COMPANY
 PDAT.          Mean Sea Level:  PERMANENT DATUM
 MDS .        Operator Entered:  MAG DATA SOURCE
 SON .        AZ-XX-0906997291:  JOB NUMBER
 FTOP.          Formation Tops:  FORM TOPS DESC
 ILTD.               Lithology:  INTERP LTH DESC
 SVYD.                  Survey:  SURVEY DESC
 DMOD.             Drill Model:  DRILL MOD DESC
 HPTY.       Minimum Curvature:  HOLE POS TYPE
 NREF.                    Grid:  NORTH REFERENCE
 SPUD.               05-May-21:  SPUD DATE
 DATE.      09.27.28 12-Jun-21:  END TIME
 STIM.      09.27.28 12-May-21:  START TIME
 DMF .             Drill Floor:  DRILL MEAS FROM
 DFST.                        :  DIST FSL TEXT
 DFWT.                        :  DIST FWL TEXT
 CNTY.                        :  COUNTY
 LOC .                        :  LOCATION
 LMF .             Drill Floor:  LOG MEASURED FROM
 DEP .m                2806.40:  DEPTH
 AGAP.m                  43.60:  AIR GAP
 VSNS.m                  -4.42:  VERT SEC N/S
 VSEW.m                  -7.31:  VERT SEC E/W
 APD .m                  43.60:  DEPTH ABOVE PD
 WDMS.m                 151.80:  WD ELEV
 EGL .m                   0.00:  GROUND ELEVATION
 EPD .m                   0.00:  ELEVATION
 AZTC.deg                 6.18:  AZM TOTAL CORR
 GRDC.deg                 0.29:  GRID CORRECTION
 MDEC.deg                 6.47:  MAGNETIC DECL
 MDIP.deg                59.50:  MAGNETIC DIP
 MFLD.nT              50350.00:  MAGNETIC FIELD
 GVFD.g                   1.00:  GRAVITY FIELD
 VSDR.deg               179.08:  VERT SEC DIRECT
 TDD .m                4300.00:  TOTAL DEPTH (DRILLER)
 SDEP.m                2800.00:  START DEPTH
 DFSL.m                   0.00:  DISTANCE FSL
 DFWL.m                   0.00:  DISTANCE FWL
 UTMY.m             4431871.34:  UTM Y
 UTMX.m              538762.90:  UTM X
 WHEW.m                  -7.31:  WELL HEAD E/W
 WHNS.m                  -4.42:  WELL HEAD N/S
 LONG.deg                51.45:  LONGITUDE
 LATI.deg                40.02:  LATITUDE
 TVDS.m                  43.60:  TVDSS CORRECTN
 EKB .m                  43.60:  KB ELEVATION
 EDF .m                  43.60:  DF ELEVATION
 TDL .m                 806.00:  TOTAL DEPTH (LOGGER)
 MAGU.                 1851231:  MAGUTM CHECKSUM
 VSC .                       0:  VS TO CLOSURE
~Parameter Information Block
#MNEM.UNIT       Value        Description
#---------     -----------    ---------------------------
 AV  .mps                 1.60:  Ann Velocity 
 AVMX.mps                 2.00:  Max Ann Veloc 
 AZIF.deg               140.24:  Azm, Final 
 BHAT.        Rotary Steerable:  BHA Type 
 BROT.°/30m               0.50:  Build Rotating 
 BS  .in                  8.50:  Bit Size 
 BTPL.psig              619.00:  Bit Press Loss 
 CABU.                     Yes:  Customer Abuse 
 CGEO.          Ilgar Gurbanov:  Customer Geo 
 COMM.                     |¡U:  Run Comments 1 
 TCS .hr                 85.88:  Time Ciculation Ended 
 CV  .mps                 3.30:  Crit Velocity 
 CVMX.mps                 3.50:  Max Crit Veloc 
 DD1 .           Hamid Axmedov:  Direct Drillr 1 
 DD2 .           Teymur Aliyev:  Direct Drillr 2 
 DDSV.               Geo-Pilot:  DD Service 
 DEFF.%                 100.00:  % Det Eff 
 DLRX.°/30m               0.00:  Dogleg Rot Max 
 DLSO.°/30m               1.80:  Dogleg Oriented 
 DLSX.°/30m               3.34:  Dogleg Str Max 
 DRET.      11.50.00 27-May-21:  Drill End Time 
 DRST.      21.13.00 24-May-21:  Drill Start Tim 
 DTIM.hr                 45.11:  Time Drilling 
 EDEP.m                4054.00:  End Depth 
 ENG1.         Almaz Almadatov:  Engineer 1 
 ENG2.           Amrah Tahirov:  Engineer 2 
 ENG3.      Bakhtiyar Jabbarli:  Engineer 3 
 ENG4.          Nazrin Asgarli:  Engineer 4 
 ETIM.      10.00.00 30-May-21:  End Time 
 FLOI.gpm               530.00:  Flow In 
 FLON.gpm               400.00:  Flow In Min 
 FLOS.cptm                0.00:  Fluid Loss 
 FLOX.gpm               560.00:  Flow In Max 
 DFT .        Mineral Oil Base:  Mud Type 
 FTRO.       Formation Presure:  FTWD Run Obj 
 HFLO.                      No:  High Flow 
 HPRE.                      No:  High Pressure 
 HTEM.                      No:  High Temp 
 HYDO.m                   1.80:  Hydro Offset 
 IFIN.deg                73.83:  Inc, Final 
 IMAX.deg                73.83:  Inc Max 
 IMIN.deg                57.86:  Inc Min 
 IMND.m                3259.27:  Inc Min Depth 
 IMXD.m                4045.58:  Inc Max Depth 
 JARR.                     Yes:  Jarring 
 LETM.      11.50.00 27-May-21:  Log End Time 
 LOST.hr                     0:  Lost Rig Time 
 LSTM.      21.13.00 24-May-21:  Log Start Time 
 MDCL.ppm             42500.00:  Mud Chlorides 
 MDES.     Inversion Oil/Synthetic:  Mud Desc 
 DFD .sg                  1.52:  Mud Density 
 MDMN.sg                  1.52:  Dens Mud Min 
 MDMX.sg                  1.52:  Dens Mud Max 
 MOIL.                      70:  Run Mud Oil % 
 MOWR.                   70:30:  Run Mud OWR 
 MSND.                     0.2:  Run Mud Sand % 
 MSOL.                      22:  Run Mud Solids% 
 DFV .spqt               77.00:  Mud Viscosity 
 MWOD.in                  6.75:  MWD Tool OD 
 MWSI.                      No:  Serv Intrp, MWD 
 OTIM.hr                151.01:  Time Operating 
 PCON.          Wear / Scratch:  Pad Condition 
 PMAX.psia            11296.93:  Press Op, Max 
 PV  .cP                 37.00:  Mud PV 
 RUN .                     500:  Run Number 
 ROPA.m/hr               25.00:  ROP Avg 
 ROPN.m/hr                9.00:  ROP Min 
 ROPX.m/hr               28.00:  ROP Max 
 RPMA.rpm               140.00:  RPM Surface Avg 
 RPMN.rpm                90.00:  RPM Surface Min 
 RPMX.rpm               140.00:  RPM Surface Max 
 RRUN.                    0500:  Rig Run Number 
 SAZI.deg               172.17:  Azm, Start 
 SDEP.m                3248.00:  Start Depth 
 SIDD.                      No:  Serv Intrp, DD 
 SINC.deg                57.86:  Inc, Start 
 SPPA.psig             5620.00:  SPP Avg 
 SPPN.psig             5190.00:  SPP Min 
 SPPX.psig             6050.00:  SPP Max 
 STIM.      16.00.00 23-May-21:  Start Time 
 SVCS.                 DD, MWD:  Services 
 SVER.                    9.20:  Sperry Version 
 TDAT.m                 806.00:  Tot Depth Attmp 
 TDDF.                      No:  Trip for DD 
 TDLG.m                 806.00:  Tot Depth Loggd 
 TFF .                      No:  Trip for Fail 
 TQAA.f-kp               12.00:  Torque Abs Avg 
 TQAN.f-kp                8.00:  Torque Abs Min 
 TQAX.f-kp               15.00:  Torque Abs Max 
 TRRT.°/30m               0.30:  Turn Rotating 
 MRT .                  EWR-M5:  Maximum Recorded Temperature 
 TTMX.degC               93.00:  Max Tool Temp 
 VS01.                90649155:  Virtual Str1 SN 
 VS02.                90642264:  Virtual Str2 SN 
 VS03.                90642266:  Virtual Str3 SN 
 VS04.                90642261:  Virtual Str4 SN 
 WBMN.klb                 0.00:  WOB Min 
 WITN.             Anar Khalil:  Customer Rep 
 WITN.           Murad Guliyev:  Customer Rep 2 
 WOBA.klb                13.00:  WOB Avg 
 WOBX.klb                25.00:  WOB Max 
 YP  .lhf2               32.00:  Yield Point 
~Curve Information Block
#MNEM.UNIT                 API CODE     Curve Description
#---------               -----------    ---------------------------
 TIME.HHMMSS            00 000 000 000:  GT Time & Date
 GTDEPTH.m              00 000 000 000:  GT Depth
 GTPQH.psia             00 000 000 000:  GT HR Quartz Pressure
 GTTQ.degC              00 000 000 000:  GT Quartz Temperature
 GTTN.NONE              00 000 000 000:  GT Test Number
 GTET.sec               00 000 000 000:  GT Elapsed Test Time
 GTTVD.m                00 000 000 000:  GT True Vertical Depth
#Other Information
#
#WARRANTY: Halliburton will use its best efforts to furnish customers with 
#accurate information and interpretations that are part of, and incident to, the services 
#provided.  However, Halliburton cannot and does not warrant the accuracy 
#or correctness of such information and interpretations.  Under no circumstances should any 
#such information or interpretation be relied upon as the sole basis for any drilling, 
#completion, production, or financial decision or any procedure involving any risk to the 
#safety of any drilling venture, drilling rig or its crew or any other third party.  The 
#Customer has full responsibility for all drilling, completion and production operation.  
#Halliburton makes no representations or warranties, either expressed or 
#implied, including, but not limited to, the implied warranties of merchantability or fitness 
#for a particular purpose, with respect to the services rendered.  In no event will 
#Halliburton be liable for failure to obtain any particular results or for 
#any damages, including, but not limited to, indirect, special or consequential damages, 
#resulting from the use of any information or interpretation provided by Halliburton.
#
~A           TIME           GTDEPTH  GTPQH  GTTQ  GTTN  GTET   GTTVD  
# ...
   23:06:28.335.27-May-2021 3710.50 3139.56 84.61 2.00 184.07 2675.83
   23:06:28.536.27-May-2021 3710.50 3139.56 84.61 2.00 184.27 2675.83
   23:06:28.736.27-May-2021 3710.50 3139.42 84.61 2.00 184.47 2675.83
   23:06:28.936.27-May-2021 3710.50 3139.68 84.61 2.00 184.67 2675.83
   23:06:29.136.27-May-2021 3710.50 3139.57 84.61 2.00 184.87 2675.83
   23:06:29.336.27-May-2021 3710.50 3139.58 84.61 2.00 185.07 2675.83
   23:06:29.536.27-May-2021 3710.50 3139.58 84.61 2.00 185.27 2675.83
   23:06:29.736.27-May-2021 3710.50 3139.56 84.61 2.00 185.47 2675.83
   23:06:29.936.27-May-2021 3710.50 3139.49 84.61 2.00 185.67 2675.83
   23:06:30.136.27-May-2021 3710.50 3139.63 84.61 2.00 185.87 2675.83
   23:06:30.336.27-May-2021 3710.50 3139.57 84.61 2.00 186.07 2675.83
   23:06:30.536.27-May-2021 3710.50 3139.57 84.61 2.00 186.27 2675.83
   23:06:30.736.27-May-2021 3710.50 3139.57 84.61 2.00 186.47 2675.83
   23:06:30.936.27-May-2021 3710.50 3139.57 84.61 2.00 186.67 2675.83
   23:06:31.137.27-May-2021 3710.50 3139.58 84.61 2.00 186.87 2675.83
   23:06:31.337.27-May-2021 3710.50 3139.57 84.61 2.00 187.07 2675.83
   23:06:31.537.27-May-2021 3710.50 3139.57 84.61 2.00 187.27 2675.83
   23:06:31.737.27-May-2021 3710.50 3139.57 84.61 2.00 187.47 2675.83
   23:06:31.937.27-May-2021 3710.50 3139.58 84.61 2.00 187.67 2675.83
   23:06:32.137.27-May-2021 3710.50 3139.57 84.61 2.00 187.87 2675.83
   23:06:32.337.27-May-2021 3710.50 3139.59 84.61 2.00 188.07 2675.83
   23:06:32.537.27-May-2021 3710.50 3139.59 84.61 2.00 188.27 2675.83
   23:06:32.737.27-May-2021 3710.50 3139.64 84.61 2.00 188.47 2675.83
   23:06:32.937.27-May-2021 3710.50 3139.58 84.61 2.00 188.67 2675.83
   23:06:33.137.27-May-2021 3710.50 3139.57 84.61 2.00 188.87 2675.83
   23:06:33.337.27-May-2021 3710.50 3139.57 84.61 2.00 189.07 2675.83
   23:06:33.537.27-May-2021 3710.50 3139.57 84.61 2.00 189.27 2675.83
   23:06:33.738.27-May-2021 3710.50 3139.57 84.61 2.00 189.47 2675.83
   23:06:33.938.27-May-2021 3710.50 3139.57 84.61 2.00 189.67 2675.83
   23:06:34.138.27-May-2021 3710.50 3139.58 84.61 2.00 189.87 2675.83
   23:06:34.338.27-May-2021 3710.50 3139.57 84.61 2.00 190.07 2675.83
   23:06:34.538.27-May-2021 3710.50 3139.57 84.61 2.00 190.27 2675.83
   23:06:34.738.27-May-2021 3710.50 3139.58 84.61 2.00 190.47 2675.83
   23:06:34.938.27-May-2021 3710.50 3139.57 84.61 2.00 190.67 2675.83
   23:06:35.138.27-May-2021 3710.50 3139.49 84.61 2.00 190.87 2675.83
   23:06:35.338.27-May-2021 3710.50 3139.64 84.61 2.00 191.07 2675.83
   23:06:35.538.27-May-2021 3710.50 3139.64 84.61 2.00 191.27 2675.83
   23:06:35.738.27-May-2021 3710.50 3139.48 84.61 2.00 191.47 2675.83
   23:06:35.938.27-May-2021 3710.50 3139.64 84.61 2.00 191.68 2675.83
   23:06:36.138.27-May-2021 3710.50 3139.56 84.61 2.00 191.88 2675.83
   23:06:36.339.27-May-2021 3710.50 3139.58 84.61 2.00 192.08 2675.83
   23:06:36.539.27-May-2021 3710.50 3139.58 84.61 2.00 192.28 2675.83
   23:06:36.739.27-May-2021 3710.50 3139.47 84.61 2.00 192.48 2675.83
   23:06:36.939.27-May-2021 3710.50 3139.64 84.61 2.00 192.68 2675.83
   23:06:37.139.27-May-2021 3710.50 3139.57 84.61 2.00 192.88 2675.83
   23:06:37.339.27-May-2021 3710.50 3139.57 84.61 2.00 193.08 2675.83
   23:06:37.539.27-May-2021 3710.50 3139.57 84.61 2.00 193.28 2675.83
   23:06:37.739.27-May-2021 3710.50 3139.54 84.61 2.00 193.48 2675.83
   23:06:37.939.27-May-2021 3710.50 3139.55 84.61 2.00 193.68 2675.83
   23:06:38.139.27-May-2021 3710.50 3139.59 84.61 2.00 193.88 2675.83
   23:06:38.339.27-May-2021 3710.50 3139.56 84.61 2.00 194.08 2675.83
   23:06:38.539.27-May-2021 3710.50 3139.56 84.61 2.00 194.28 2675.83
   23:06:38.740.27-May-2021 3710.50 3139.56 84.61 2.00 194.48 2675.83
   23:06:38.940.27-May-2021 3710.50 3139.57 84.61 2.00 194.68 2675.83
   23:06:39.140.27-May-2021 3710.50 3139.57 84.61 2.00 194.88 2675.83
   23:06:39.340.27-May-2021 3710.50 3139.57 84.61 2.00 195.08 2675.83
   23:06:39.540.27-May-2021 3710.50 3139.57 84.61 2.00 195.28 2675.83
   23:06:39.740.27-May-2021 3710.50 3139.57 84.61 2.00 195.48 2675.83
   23:06:39.940.27-May-2021 3710.50 3139.57 84.61 2.00 195.68 2675.83
   23:06:40.140.27-May-2021 3710.50 3139.58 84.61 2.00 195.88 2675.83
   23:06:40.340.27-May-2021 3710.50 3139.54 84.61 2.00 196.08 2675.83
   23:06:40.540.27-May-2021 3710.50 3139.54 84.61 2.00 196.28 2675.83
   23:06:40.740.27-May-2021 3710.50 3139.58 84.61 2.00 196.48 2675.83
   23:06:40.940.27-May-2021 3710.50 3139.56 84.61 2.00 196.68 2675.83
   23:06:41.140.27-May-2021 3710.50 3139.58 84.61 2.00 196.88 2675.83
   23:06:41.341.27-May-2021 3710.50 3139.56 84.61 2.00 197.08 2675.83
   23:06:41.541.27-May-2021 3710.50 3139.56 84.61 2.00 197.28 2675.83
   23:06:41.741.27-May-2021 3710.50 3139.58 84.61 2.00 197.48 2675.83
   23:06:41.941.27-May-2021 3710.50 3139.56 84.61 2.00 197.68 2675.83
   23:06:42.141.27-May-2021 3710.50 3139.57 84.61 2.00 197.88 2675.83
   23:06:42.341.27-May-2021 3710.50 3139.58 84.61 2.00 198.08 2675.83
   23:06:42.541.27-May-2021 3710.50 3139.58 84.61 2.00 198.28 2675.83
   23:06:42.741.27-May-2021 3710.50 3139.57 84.61 2.00 198.48 2675.83
   23:06:42.941.27-May-2021 3710.50 3139.54 84.61 2.00 198.68 2675.83
   23:06:43.141.27-May-2021 3710.50 3139.56 84.61 2.00 198.88 2675.83
   23:06:43.341.27-May-2021 3710.50 3139.59 84.61 2.00 199.08 2675.83
   23:06:43.541.27-May-2021 3710.50 3139.59 84.61 2.00 199.28 2675.83
   23:06:43.741.27-May-2021 3710.50 3139.60 84.61 2.00 199.48 2675.83
   23:06:43.942.27-May-2021 3710.50 3139.52 84.61 2.00 199.68 2675.83
   23:06:44.142.27-May-2021 3710.50 3139.56 84.61 2.00 199.88 2675.83
   23:06:44.342.27-May-2021 3710.50 3139.56 84.61 2.00 200.08 2675.83
   23:06:44.542.27-May-2021 3710.50 3139.56 84.61 2.00 200.28 2675.83
   23:06:44.742.27-May-2021 3710.50 3139.56 84.61 2.00 200.48 2675.83
   23:06:44.942.27-May-2021 3710.50 3139.58 84.61 2.00 200.68 2675.83
   23:06:45.142.27-May-2021 3710.50 3139.56 84.61 2.00 200.88 2675.83
   23:06:45.342.27-May-2021 3710.50 3139.57 84.61 2.00 201.08 2675.83
   23:06:45.542.27-May-2021 3710.50 3139.57 84.61 2.00 201.28 2675.83
   23:06:45.742.27-May-2021 3710.50 3139.46 84.61 2.00 201.48 2675.83
   23:06:45.942.27-May-2021 3710.50 3139.65 84.61 2.00 201.68 2675.83
   23:06:46.142.27-May-2021 3710.50 3139.56 84.61 2.00 201.88 2675.83
   23:06:46.342.27-May-2021 3710.50 3139.58 84.61 2.00 202.08 2675.83
   23:06:46.543.27-May-2021 3710.50 3139.58 84.61 2.00 202.28 2675.83
   23:06:46.743.27-May-2021 3710.50 3139.56 84.61 2.00 202.48 2675.83
   23:06:46.943.27-May-2021 3710.50 3139.57 84.61 2.00 202.68 2675.83
   23:06:47.143.27-May-2021 3710.50 3139.57 84.61 2.00 202.88 2675.83
   23:06:47.343.27-May-2021 3710.50 3139.57 84.61 2.00 203.08 2675.83
   23:06:47.543.27-May-2021 3710.50 3139.57 84.61 2.00 203.28 2675.83
   23:06:47.743.27-May-2021 3710.50 3139.57 84.61 2.00 203.48 2675.83
   23:06:47.943.27-May-2021 3710.50 3139.56 84.61 2.00 203.68 2675.83
   23:06:48.143.27-May-2021 3710.50 3139.57 84.61 2.00 203.88 2675.83
   23:06:48.343.27-May-2021 3710.50 3139.45 84.61 2.00 204.08 2675.83
   23:06:48.543.27-May-2021 3710.50 3139.45 84.61 2.00 204.28 2675.83
   23:06:48.743.27-May-2021 3710.50 3139.56 84.61 2.00 204.48 2675.83
   23:06:48.944.27-May-2021 3710.50 3139.57 84.61 2.00 204.68 2675.83
   23:06:49.144.27-May-2021 3710.50 3139.55 84.61 2.00 204.88 2675.83
   23:06:49.344.27-May-2021 3710.50 3139.56 84.61 2.00 205.08 2675.83
   23:06:49.544.27-May-2021 3710.50 3139.56 84.61 2.00 205.28 2675.83
   23:06:49.744.27-May-2021 3710.50 3139.57 84.61 2.00 205.48 2675.83
   23:06:49.944.27-May-2021 3710.50 3139.56 84.61 2.00 205.68 2675.83
   23:06:50.144.27-May-2021 3710.50 3139.56 84.61 2.00 205.88 2675.83
   23:06:50.344.27-May-2021 3710.50 3139.56 84.61 2.00 206.08 2675.83
   23:06:50.544.27-May-2021 3710.50 3139.56 84.61 2.00 206.28 2675.83
   23:06:50.744.27-May-2021 3710.50 3139.56 84.61 2.00 206.48 2675.83
   23:06:50.944.27-May-2021 3710.50 3139.47 84.61 2.00 206.68 2675.83
   23:06:51.144.27-May-2021 3710.50 3139.65 84.61 2.00 206.88 2675.83
