~Version Information
 VERS.                  2.0:   CWLS log ASCII Standard -VERSION 2.0
 WRAP.                   NO:   One line per depth step
~Well Information Block
#MNEM.UNIT     VALUE/NAME     DESCRIPTION
#---------     -----------    ---------------------------
 STRT.S             05:48:37 28-May-21: START TIME 05:48:37 28-May-21
 STOP.S             05:55:44 28-May-21: STOP TIME  05:55:44 28-May-21
 STEP.S                   0.00: STEP TIME
 NULL.                 -999.25: NULL VALUE
 UWI .                     N/A:  UNIQUE WELL IDENTIFIER
 API .                     N/A:  API NUMBER
 UNIT.                     N/A:  LOGGING EQUIPMENT ID
 DCON.         Sperry Drilling:  DIRECTNL CONTR
 DOE .                     N/A:  DOE NUMBER
 MWDS.                    Baku:  MWD SHOP
 SRVC.     Turan Drilling and Engineering:  CONTRACTOR
 CTRY.              Azerbaijan:  COUNTRY NAME
 PROV.                    Baku:  PROVINCE
 STAT.                    Baku:  STATE NAME
 REGN.                   EESSA:  REGION
 BASE.              Azerbaijan:  LOGGING EQUIPMENT BASE LOCATION
 WTYP.                Deviated:  WELL TYPE
 RIG .              East Azeri:  RIG NAME
 WELL.                    D02y:  WELL NAME
 FLD .                     ACG:  FIELD NAME
 COMP.     BP Exploration (Caspian Sea) Ltd.:  COMPANY
 PDAT.          Mean Sea Level:  PERMANENT DATUM
 MDS .        Operator Entered:  MAG DATA SOURCE
 SON .        AZ-XX-0906997291:  JOB NUMBER
 FTOP.          Formation Tops:  FORM TOPS DESC
 ILTD.               Lithology:  INTERP LTH DESC
 SVYD.                  Survey:  SURVEY DESC
 DMOD.             Drill Model:  DRILL MOD DESC
 HPTY.       Minimum Curvature:  HOLE POS TYPE
 NREF.                    Grid:  NORTH REFERENCE
 SPUD.               05-May-21:  SPUD DATE
 DATE.      09.27.28 12-Jun-21:  END TIME
 STIM.      09.27.28 12-May-21:  START TIME
 DMF .             Drill Floor:  DRILL MEAS FROM
 DFST.                        :  DIST FSL TEXT
 DFWT.                        :  DIST FWL TEXT
 CNTY.                        :  COUNTY
 LOC .                        :  LOCATION
 LMF .             Drill Floor:  LOG MEASURED FROM
 DEP .m                2806.40:  DEPTH
 AGAP.m                  43.60:  AIR GAP
 VSNS.m                  -4.42:  VERT SEC N/S
 VSEW.m                  -7.31:  VERT SEC E/W
 APD .m                  43.60:  DEPTH ABOVE PD
 WDMS.m                 151.80:  WD ELEV
 EGL .m                   0.00:  GROUND ELEVATION
 EPD .m                   0.00:  ELEVATION
 AZTC.deg                 6.18:  AZM TOTAL CORR
 GRDC.deg                 0.29:  GRID CORRECTION
 MDEC.deg                 6.47:  MAGNETIC DECL
 MDIP.deg                59.50:  MAGNETIC DIP
 MFLD.nT              50350.00:  MAGNETIC FIELD
 GVFD.g                   1.00:  GRAVITY FIELD
 VSDR.deg               179.08:  VERT SEC DIRECT
 TDD .m                4300.00:  TOTAL DEPTH (DRILLER)
 SDEP.m                2800.00:  START DEPTH
 DFSL.m                   0.00:  DISTANCE FSL
 DFWL.m                   0.00:  DISTANCE FWL
 UTMY.m             4431871.34:  UTM Y
 UTMX.m              538762.90:  UTM X
 WHEW.m                  -7.31:  WELL HEAD E/W
 WHNS.m                  -4.42:  WELL HEAD N/S
 LONG.deg                51.45:  LONGITUDE
 LATI.deg                40.02:  LATITUDE
 TVDS.m                  43.60:  TVDSS CORRECTN
 EKB .m                  43.60:  KB ELEVATION
 EDF .m                  43.60:  DF ELEVATION
 TDL .m                 806.00:  TOTAL DEPTH (LOGGER)
 MAGU.                 1851231:  MAGUTM CHECKSUM
 VSC .                       0:  VS TO CLOSURE
~Parameter Information Block
#MNEM.UNIT       Value        Description
#---------     -----------    ---------------------------
 AV  .mps                 1.60:  Ann Velocity 
 AVMX.mps                 2.00:  Max Ann Veloc 
 AZIF.deg               140.24:  Azm, Final 
 BHAT.        Rotary Steerable:  BHA Type 
 BROT.°/30m               0.50:  Build Rotating 
 BS  .in                  8.50:  Bit Size 
 BTPL.psig              619.00:  Bit Press Loss 
 CABU.                     Yes:  Customer Abuse 
 CGEO.          Ilgar Gurbanov:  Customer Geo 
 COMM.                     dAY:  Run Comments 1 
 TCS .hr                 85.88:  Time Ciculation Ended 
 CV  .mps                 3.30:  Crit Velocity 
 CVMX.mps                 3.50:  Max Crit Veloc 
 DD1 .           Hamid Axmedov:  Direct Drillr 1 
 DD2 .           Teymur Aliyev:  Direct Drillr 2 
 DDSV.               Geo-Pilot:  DD Service 
 DEFF.%                 100.00:  % Det Eff 
 DLRX.°/30m               0.00:  Dogleg Rot Max 
 DLSO.°/30m               1.80:  Dogleg Oriented 
 DLSX.°/30m               3.34:  Dogleg Str Max 
 DRET.      11.50.00 27-May-21:  Drill End Time 
 DRST.      21.13.00 24-May-21:  Drill Start Tim 
 DTIM.hr                 45.11:  Time Drilling 
 EDEP.m                4054.00:  End Depth 
 ENG1.         Almaz Almadatov:  Engineer 1 
 ENG2.           Amrah Tahirov:  Engineer 2 
 ENG3.      Bakhtiyar Jabbarli:  Engineer 3 
 ENG4.          Nazrin Asgarli:  Engineer 4 
 ETIM.      10.00.00 30-May-21:  End Time 
 FLOI.gpm               530.00:  Flow In 
 FLON.gpm               400.00:  Flow In Min 
 FLOS.cptm                0.00:  Fluid Loss 
 FLOX.gpm               560.00:  Flow In Max 
 DFT .        Mineral Oil Base:  Mud Type 
 FTRO.       Formation Presure:  FTWD Run Obj 
 HFLO.                      No:  High Flow 
 HPRE.                      No:  High Pressure 
 HTEM.                      No:  High Temp 
 HYDO.m                   1.80:  Hydro Offset 
 IFIN.deg                73.83:  Inc, Final 
 IMAX.deg                73.83:  Inc Max 
 IMIN.deg                57.86:  Inc Min 
 IMND.m                3259.27:  Inc Min Depth 
 IMXD.m                4045.58:  Inc Max Depth 
 JARR.                     Yes:  Jarring 
 LETM.      11.50.00 27-May-21:  Log End Time 
 LOST.hr                     0:  Lost Rig Time 
 LSTM.      21.13.00 24-May-21:  Log Start Time 
 MDCL.ppm             42500.00:  Mud Chlorides 
 MDES.     Inversion Oil/Synthetic:  Mud Desc 
 DFD .sg                  1.52:  Mud Density 
 MDMN.sg                  1.52:  Dens Mud Min 
 MDMX.sg                  1.52:  Dens Mud Max 
 MOIL.                      70:  Run Mud Oil % 
 MOWR.                   70:30:  Run Mud OWR 
 MSND.                     0.2:  Run Mud Sand % 
 MSOL.                      22:  Run Mud Solids% 
 DFV .spqt               77.00:  Mud Viscosity 
 MWOD.in                  6.75:  MWD Tool OD 
 MWSI.                      No:  Serv Intrp, MWD 
 OTIM.hr                151.01:  Time Operating 
 PCON.          Wear / Scratch:  Pad Condition 
 PMAX.psia            11296.93:  Press Op, Max 
 PV  .cP                 37.00:  Mud PV 
 RUN .                     500:  Run Number 
 ROPA.m/hr               25.00:  ROP Avg 
 ROPN.m/hr                9.00:  ROP Min 
 ROPX.m/hr               28.00:  ROP Max 
 RPMA.rpm               140.00:  RPM Surface Avg 
 RPMN.rpm                90.00:  RPM Surface Min 
 RPMX.rpm               140.00:  RPM Surface Max 
 RRUN.                    0500:  Rig Run Number 
 SAZI.deg               172.17:  Azm, Start 
 SDEP.m                3248.00:  Start Depth 
 SIDD.                      No:  Serv Intrp, DD 
 SINC.deg                57.86:  Inc, Start 
 SPPA.psig             5620.00:  SPP Avg 
 SPPN.psig             5190.00:  SPP Min 
 SPPX.psig             6050.00:  SPP Max 
 STIM.      16.00.00 23-May-21:  Start Time 
 SVCS.                 DD, MWD:  Services 
 SVER.                    9.20:  Sperry Version 
 TDAT.m                 806.00:  Tot Depth Attmp 
 TDDF.                      No:  Trip for DD 
 TDLG.m                 806.00:  Tot Depth Loggd 
 TFF .                      No:  Trip for Fail 
 TQAA.f-kp               12.00:  Torque Abs Avg 
 TQAN.f-kp                8.00:  Torque Abs Min 
 TQAX.f-kp               15.00:  Torque Abs Max 
 TRRT.°/30m               0.30:  Turn Rotating 
 MRT .                  EWR-M5:  Maximum Recorded Temperature 
 TTMX.degC               93.00:  Max Tool Temp 
 VS01.                90649155:  Virtual Str1 SN 
 VS02.                90642264:  Virtual Str2 SN 
 VS03.                90642266:  Virtual Str3 SN 
 VS04.                90642261:  Virtual Str4 SN 
 WBMN.klb                 0.00:  WOB Min 
 WITN.             Anar Khalil:  Customer Rep 
 WITN.           Murad Guliyev:  Customer Rep 2 
 WOBA.klb                13.00:  WOB Avg 
 WOBX.klb                25.00:  WOB Max 
 YP  .lhf2               32.00:  Yield Point 
~Curve Information Block
#MNEM.UNIT                 API CODE     Curve Description
#---------               -----------    ---------------------------
 TIME.HHMMSS            00 000 000 000:  GT Time & Date
 GTDEPTH.m              00 000 000 000:  GT Depth
 GTPQH.psia             00 000 000 000:  GT HR Quartz Pressure
 GTTQ.degC              00 000 000 000:  GT Quartz Temperature
 GTTN.NONE              00 000 000 000:  GT Test Number
 GTET.sec               00 000 000 000:  GT Elapsed Test Time
 GTTVD.m                00 000 000 000:  GT True Vertical Depth
#Other Information
#
#WARRANTY: Halliburton will use its best efforts to furnish customers with 
#accurate information and interpretations that are part of, and incident to, the services 
#provided.  However, Halliburton cannot and does not warrant the accuracy 
#or correctness of such information and interpretations.  Under no circumstances should any 
#such information or interpretation be relied upon as the sole basis for any drilling, 
#completion, production, or financial decision or any procedure involving any risk to the 
#safety of any drilling venture, drilling rig or its crew or any other third party.  The 
#Customer has full responsibility for all drilling, completion and production operation.  
#Halliburton makes no representations or warranties, either expressed or 
#implied, including, but not limited to, the implied warranties of merchantability or fitness 
#for a particular purpose, with respect to the services rendered.  In no event will 
#Halliburton be liable for failure to obtain any particular results or for 
#any damages, including, but not limited to, indirect, special or consequential damages, 
#resulting from the use of any information or interpretation provided by Halliburton.
#
~A           TIME           GTDEPTH  GTPQH  GTTQ  GTTN   GTET   GTTVD  
# ...
   05:55:02.139.28-May-2021 3439.00 6014.04 83.03 11.00 384.36 2568.67
   05:55:02.339.28-May-2021 3439.00 6011.38 83.03 11.00 384.56 2568.67
   05:55:02.539.28-May-2021 3439.00 6014.52 83.03 11.00 384.76 2568.67
   05:55:02.739.28-May-2021 3439.00 6014.23 83.03 11.00 384.96 2568.67
   05:55:02.939.28-May-2021 3439.00 6021.59 83.03 11.00 385.16 2568.67
   05:55:03.139.28-May-2021 3439.00 6021.59 83.03 11.00 385.36 2568.67
   05:55:03.339.28-May-2021 3439.00 6014.75 83.03 11.00 385.56 2568.67
   05:55:03.539.28-May-2021 3439.00 6014.61 83.03 11.00 385.76 2568.67
   05:55:03.739.28-May-2021 3439.00 6014.82 83.03 11.00 385.96 2568.67
   05:55:03.939.28-May-2021 3439.00 6014.23 83.03 11.00 386.16 2568.67
   05:55:04.140.28-May-2021 3439.00 6014.23 83.03 11.00 386.36 2568.67
   05:55:04.340.28-May-2021 3439.00 6014.61 83.03 11.00 386.56 2568.67
   05:55:04.540.28-May-2021 3439.00 6014.68 83.03 11.00 386.76 2568.67
   05:55:04.740.28-May-2021 3439.00 6014.24 83.03 11.00 386.96 2568.67
   05:55:04.940.28-May-2021 3439.00 6014.14 83.03 11.00 387.16 2568.67
   05:55:05.140.28-May-2021 3439.00 6014.14 83.03 11.00 387.36 2568.67
   05:55:05.340.28-May-2021 3439.00 6014.12 83.03 11.00 387.56 2568.67
   05:55:05.540.28-May-2021 3439.00 6019.99 83.03 11.00 387.76 2568.67
   05:55:05.740.28-May-2021 3439.00 6012.59 83.03 11.00 387.96 2568.67
   05:55:05.940.28-May-2021 3439.00 6014.40 83.03 11.00 388.16 2568.67
   05:55:06.140.28-May-2021 3439.00 6014.40 83.03 11.00 388.36 2568.67
   05:55:06.340.28-May-2021 3439.00 6014.39 83.03 11.00 388.56 2568.67
   05:55:06.541.28-May-2021 3439.00 6014.40 83.03 11.00 388.76 2568.67
   05:55:06.741.28-May-2021 3439.00 6014.46 83.03 11.00 388.96 2568.67
   05:55:06.941.28-May-2021 3439.00 6014.76 83.03 11.00 389.16 2568.67
   05:55:07.141.28-May-2021 3439.00 6014.76 83.03 11.00 389.36 2568.67
   05:55:07.341.28-May-2021 3439.00 6014.75 83.03 11.00 389.56 2568.67
   05:55:07.541.28-May-2021 3439.00 6014.55 83.03 11.00 389.76 2568.67
   05:55:07.741.28-May-2021 3439.00 6014.33 83.03 11.00 389.96 2568.67
   05:55:07.941.28-May-2021 3439.00 6014.28 83.03 11.00 390.16 2568.67
   05:55:08.141.28-May-2021 3439.00 6014.28 83.03 11.00 390.36 2568.67
   05:55:08.341.28-May-2021 3439.00 6019.95 83.03 11.00 390.56 2568.67
   05:55:08.541.28-May-2021 3439.00 6012.35 83.03 11.00 390.76 2568.67
   05:55:08.741.28-May-2021 3439.00 6014.27 83.03 11.00 390.96 2568.67
   05:55:08.942.28-May-2021 3439.00 6014.35 83.03 11.00 391.16 2568.67
   05:55:09.142.28-May-2021 3439.00 6014.35 83.03 11.00 391.36 2568.67
   05:55:09.342.28-May-2021 3439.00 6013.31 83.03 11.00 391.56 2568.67
   05:55:09.542.28-May-2021 3439.00 6014.42 83.03 11.00 391.76 2568.67
   05:55:09.742.28-May-2021 3439.00 6014.28 83.03 11.00 391.96 2568.67
   05:55:09.942.28-May-2021 3439.00 6014.91 83.03 11.00 392.16 2568.67
   05:55:10.142.28-May-2021 3439.00 6014.91 83.03 11.00 392.36 2568.67
   05:55:10.342.28-May-2021 3439.00 6021.69 83.03 11.00 392.56 2568.67
   05:55:10.542.28-May-2021 3439.00 6011.40 83.03 11.00 392.76 2568.67
   05:55:10.742.28-May-2021 3439.00 6014.58 83.03 11.00 392.96 2568.67
   05:55:10.942.28-May-2021 3439.00 6014.20 83.03 11.00 393.16 2568.67
   05:55:11.142.28-May-2021 3439.00 6014.20 83.03 11.00 393.36 2568.67
   05:55:11.343.28-May-2021 3439.00 6014.14 83.03 11.00 393.56 2568.67
   05:55:11.543.28-May-2021 3439.00 6014.44 83.03 11.00 393.76 2568.67
   05:55:11.743.28-May-2021 3439.00 6015.03 83.03 11.00 393.96 2568.67
   05:55:11.943.28-May-2021 3439.00 6014.36 83.03 11.00 394.16 2568.67
   05:55:12.143.28-May-2021 3439.00 6014.36 83.03 11.00 394.36 2568.67
   05:55:12.343.28-May-2021 3439.00 6014.38 83.03 11.00 394.56 2568.67
   05:55:12.543.28-May-2021 3439.00 6014.77 83.03 11.00 394.76 2568.67
   05:55:12.743.28-May-2021 3439.00 6014.56 83.03 11.00 394.97 2568.67
   05:55:12.943.28-May-2021 3439.00 6014.58 83.03 11.00 395.17 2568.67
   05:55:13.143.28-May-2021 3439.00 6014.58 83.03 11.00 395.37 2568.67
   05:55:13.343.28-May-2021 3439.00 6014.62 83.03 11.00 395.57 2568.67
   05:55:13.543.28-May-2021 3439.00 6017.10 83.03 11.00 395.77 2568.67
   05:55:13.744.28-May-2021 3439.00 6016.11 83.03 11.00 395.97 2568.67
   05:55:13.944.28-May-2021 3439.00 6014.84 83.03 11.00 396.17 2568.67
   05:55:14.144.28-May-2021 3439.00 6014.84 83.03 11.00 396.37 2568.67
   05:55:14.344.28-May-2021 3439.00 6015.09 83.03 11.00 396.57 2568.67
   05:55:14.544.28-May-2021 3439.00 6014.37 83.03 11.00 396.77 2568.67
   05:55:14.744.28-May-2021 3439.00 6015.11 83.03 11.00 396.97 2568.67
   05:55:14.944.28-May-2021 3439.00 6014.75 83.03 11.00 397.17 2568.67
   05:55:15.144.28-May-2021 3439.00 6014.75 83.03 11.00 397.37 2568.67
   05:55:15.344.28-May-2021 3439.00 6014.78 83.03 11.00 397.57 2568.67
   05:55:15.544.28-May-2021 3439.00 6014.57 83.03 11.00 397.77 2568.67
   05:55:15.744.28-May-2021 3439.00 6014.50 83.03 11.00 397.97 2568.67
   05:55:15.944.28-May-2021 3439.00 6014.34 83.03 11.00 398.17 2568.67
   05:55:16.145.28-May-2021 3439.00 6014.34 83.03 11.00 398.37 2568.67
   05:55:16.345.28-May-2021 3439.00 6016.82 83.03 11.00 398.57 2568.67
   05:55:16.545.28-May-2021 3439.00 6015.72 83.03 11.00 398.77 2568.67
   05:55:16.745.28-May-2021 3439.00 6014.09 83.03 11.00 398.97 2568.67
   05:55:16.945.28-May-2021 3439.00 6013.84 83.03 11.00 399.17 2568.67
   05:55:17.145.28-May-2021 3439.00 6013.84 83.03 11.00 399.37 2568.67
   05:55:17.345.28-May-2021 3439.00 6019.66 83.03 11.00 399.57 2568.67
   05:55:17.545.28-May-2021 3439.00 6013.02 83.03 11.00 399.77 2568.67
   05:55:17.745.28-May-2021 3439.00 6014.32 83.03 11.00 399.97 2568.67
   05:55:17.945.28-May-2021 3439.00 6014.47 83.03 11.00 400.17 2568.67
   05:55:18.145.28-May-2021 3439.00 6014.47 83.03 11.00 400.37 2568.67
   05:55:18.345.28-May-2021 3439.00 6014.24 83.03 11.00 400.57 2568.67
   05:55:18.546.28-May-2021 3439.00 6018.46 83.03 11.00 400.77 2568.67
   05:55:18.746.28-May-2021 3439.00 6014.43 83.03 11.00 400.97 2568.67
   05:55:18.946.28-May-2021 3439.00 6014.37 83.03 11.00 401.17 2568.67
   05:55:19.146.28-May-2021 3439.00 6014.37 83.03 11.00 401.37 2568.67
   05:55:19.346.28-May-2021 3439.00 6014.16 83.03 11.00 401.57 2568.67
   05:55:19.546.28-May-2021 3439.00 6016.54 83.03 11.00 401.77 2568.67
   05:55:19.746.28-May-2021 3439.00 6015.24 83.03 11.00 401.97 2568.67
   05:55:19.946.28-May-2021 3439.00 6016.39 83.03 11.00 402.17 2568.67
   05:55:20.146.28-May-2021 3439.00 6016.39 83.03 11.00 402.37 2568.67
   05:55:20.346.28-May-2021 3439.00 6015.89 83.03 11.00 402.57 2568.67
   05:55:20.546.28-May-2021 3439.00 6015.62 83.03 11.00 402.77 2568.67
   05:55:20.746.28-May-2021 3439.00 6015.84 83.03 11.00 402.97 2568.67
   05:55:20.947.28-May-2021 3439.00 6015.57 83.03 11.00 403.17 2568.67
   05:55:21.147.28-May-2021 3439.00 6015.57 83.03 11.00 403.37 2568.67
   05:55:21.347.28-May-2021 3439.00 6015.48 83.03 11.00 403.57 2568.67
   05:55:21.547.28-May-2021 3439.00 6015.18 83.03 11.00 403.77 2568.67
   05:55:21.747.28-May-2021 3439.00 6022.28 83.03 11.00 403.97 2568.67
   05:55:21.947.28-May-2021 3439.00 6012.38 83.03 11.00 404.17 2568.67
   05:55:22.147.28-May-2021 3439.00 6012.38 83.03 11.00 404.37 2568.67
   05:55:22.347.28-May-2021 3439.00 6015.46 83.03 11.00 404.57 2568.67
   05:55:22.547.28-May-2021 3439.00 6015.69 83.03 11.00 404.77 2568.67
   05:55:22.747.28-May-2021 3439.00 6015.13 83.03 11.00 404.97 2568.67
   05:55:22.947.28-May-2021 3439.00 6015.49 83.03 11.00 405.17 2568.67
   05:55:23.147.28-May-2021 3439.00 6015.49 83.03 11.00 405.37 2568.67
   05:55:23.348.28-May-2021 3439.00 6015.73 83.03 11.00 405.57 2568.67
   05:55:23.548.28-May-2021 3439.00 6015.69 83.03 11.00 405.77 2568.67
   05:55:23.748.28-May-2021 3439.00 6015.39 83.03 11.00 405.97 2568.67
   05:55:23.948.28-May-2021 3439.00 6015.26 83.03 11.00 406.17 2568.67
   05:55:24.148.28-May-2021 3439.00 6015.26 83.03 11.00 406.37 2568.67
   05:55:24.348.28-May-2021 3439.00 6014.92 83.03 11.00 406.57 2568.67
   05:55:24.548.28-May-2021 3439.00 6021.93 83.03 11.00 406.77 2568.67
