~Version Information
 VERS.                  2.0:   CWLS log ASCII Standard -VERSION 2.0
 WRAP.                   NO:   One line per depth step
~Well Information Block
#MNEM.UNIT     VALUE/NAME     DESCRIPTION
#---------     -----------    ---------------------------
 STRT.S             07:37:51 28-May-21: START TIME 07:37:51 28-May-21
 STOP.S             07:44:58 28-May-21: STOP TIME  07:44:58 28-May-21
 STEP.S                   0.00: STEP TIME
 NULL.                 -999.25: NULL VALUE
 UWI .                     N/A:  UNIQUE WELL IDENTIFIER
 API .                     N/A:  API NUMBER
 UNIT.                     N/A:  LOGGING EQUIPMENT ID
 DCON.         Sperry Drilling:  DIRECTNL CONTR
 DOE .                     N/A:  DOE NUMBER
 MWDS.                    Baku:  MWD SHOP
 SRVC.     Turan Drilling and Engineering:  CONTRACTOR
 CTRY.              Azerbaijan:  COUNTRY NAME
 PROV.                    Baku:  PROVINCE
 STAT.                    Baku:  STATE NAME
 REGN.                   EESSA:  REGION
 BASE.              Azerbaijan:  LOGGING EQUIPMENT BASE LOCATION
 WTYP.                Deviated:  WELL TYPE
 RIG .              East Azeri:  RIG NAME
 WELL.                    D02y:  WELL NAME
 FLD .                     ACG:  FIELD NAME
 COMP.     BP Exploration (Caspian Sea) Ltd.:  COMPANY
 PDAT.          Mean Sea Level:  PERMANENT DATUM
 MDS .        Operator Entered:  MAG DATA SOURCE
 SON .        AZ-XX-0906997291:  JOB NUMBER
 FTOP.          Formation Tops:  FORM TOPS DESC
 ILTD.               Lithology:  INTERP LTH DESC
 SVYD.                  Survey:  SURVEY DESC
 DMOD.             Drill Model:  DRILL MOD DESC
 HPTY.       Minimum Curvature:  HOLE POS TYPE
 NREF.                    Grid:  NORTH REFERENCE
 SPUD.               05-May-21:  SPUD DATE
 DATE.      09.27.28 12-Jun-21:  END TIME
 STIM.      09.27.28 12-May-21:  START TIME
 DMF .             Drill Floor:  DRILL MEAS FROM
 DFST.                        :  DIST FSL TEXT
 DFWT.                        :  DIST FWL TEXT
 CNTY.                        :  COUNTY
 LOC .                        :  LOCATION
 LMF .             Drill Floor:  LOG MEASURED FROM
 DEP .m                2806.40:  DEPTH
 AGAP.m                  43.60:  AIR GAP
 VSNS.m                  -4.42:  VERT SEC N/S
 VSEW.m                  -7.31:  VERT SEC E/W
 APD .m                  43.60:  DEPTH ABOVE PD
 WDMS.m                 151.80:  WD ELEV
 EGL .m                   0.00:  GROUND ELEVATION
 EPD .m                   0.00:  ELEVATION
 AZTC.deg                 6.18:  AZM TOTAL CORR
 GRDC.deg                 0.29:  GRID CORRECTION
 MDEC.deg                 6.47:  MAGNETIC DECL
 MDIP.deg                59.50:  MAGNETIC DIP
 MFLD.nT              50350.00:  MAGNETIC FIELD
 GVFD.g                   1.00:  GRAVITY FIELD
 VSDR.deg               179.08:  VERT SEC DIRECT
 TDD .m                4300.00:  TOTAL DEPTH (DRILLER)
 SDEP.m                2800.00:  START DEPTH
 DFSL.m                   0.00:  DISTANCE FSL
 DFWL.m                   0.00:  DISTANCE FWL
 UTMY.m             4431871.34:  UTM Y
 UTMX.m              538762.90:  UTM X
 WHEW.m                  -7.31:  WELL HEAD E/W
 WHNS.m                  -4.42:  WELL HEAD N/S
 LONG.deg                51.45:  LONGITUDE
 LATI.deg                40.02:  LATITUDE
 TVDS.m                  43.60:  TVDSS CORRECTN
 EKB .m                  43.60:  KB ELEVATION
 EDF .m                  43.60:  DF ELEVATION
 TDL .m                 806.00:  TOTAL DEPTH (LOGGER)
 MAGU.                 1851231:  MAGUTM CHECKSUM
 VSC .                       0:  VS TO CLOSURE
~Parameter Information Block
#MNEM.UNIT       Value        Description
#---------     -----------    ---------------------------
 AV  .mps                 1.60:  Ann Velocity 
 AVMX.mps                 2.00:  Max Ann Veloc 
 AZIF.deg               140.24:  Azm, Final 
 BHAT.        Rotary Steerable:  BHA Type 
 BROT.°/30m               0.50:  Build Rotating 
 BS  .in                  8.50:  Bit Size 
 BTPL.psig              619.00:  Bit Press Loss 
 CABU.                     Yes:  Customer Abuse 
 CGEO.          Ilgar Gurbanov:  Customer Geo 
 COMM.                     dSc:  Run Comments 1 
 TCS .hr                 85.88:  Time Ciculation Ended 
 CV  .mps                 3.30:  Crit Velocity 
 CVMX.mps                 3.50:  Max Crit Veloc 
 DD1 .           Hamid Axmedov:  Direct Drillr 1 
 DD2 .           Teymur Aliyev:  Direct Drillr 2 
 DDSV.               Geo-Pilot:  DD Service 
 DEFF.%                 100.00:  % Det Eff 
 DLRX.°/30m               0.00:  Dogleg Rot Max 
 DLSO.°/30m               1.80:  Dogleg Oriented 
 DLSX.°/30m               3.34:  Dogleg Str Max 
 DRET.      11.50.00 27-May-21:  Drill End Time 
 DRST.      21.13.00 24-May-21:  Drill Start Tim 
 DTIM.hr                 45.11:  Time Drilling 
 EDEP.m                4054.00:  End Depth 
 ENG1.         Almaz Almadatov:  Engineer 1 
 ENG2.           Amrah Tahirov:  Engineer 2 
 ENG3.      Bakhtiyar Jabbarli:  Engineer 3 
 ENG4.          Nazrin Asgarli:  Engineer 4 
 ETIM.      10.00.00 30-May-21:  End Time 
 FLOI.gpm               530.00:  Flow In 
 FLON.gpm               400.00:  Flow In Min 
 FLOS.cptm                0.00:  Fluid Loss 
 FLOX.gpm               560.00:  Flow In Max 
 DFT .        Mineral Oil Base:  Mud Type 
 FTRO.       Formation Presure:  FTWD Run Obj 
 HFLO.                      No:  High Flow 
 HPRE.                      No:  High Pressure 
 HTEM.                      No:  High Temp 
 HYDO.m                   1.80:  Hydro Offset 
 IFIN.deg                73.83:  Inc, Final 
 IMAX.deg                73.83:  Inc Max 
 IMIN.deg                57.86:  Inc Min 
 IMND.m                3259.27:  Inc Min Depth 
 IMXD.m                4045.58:  Inc Max Depth 
 JARR.                     Yes:  Jarring 
 LETM.      11.50.00 27-May-21:  Log End Time 
 LOST.hr                     0:  Lost Rig Time 
 LSTM.      21.13.00 24-May-21:  Log Start Time 
 MDCL.ppm             42500.00:  Mud Chlorides 
 MDES.     Inversion Oil/Synthetic:  Mud Desc 
 DFD .sg                  1.52:  Mud Density 
 MDMN.sg                  1.52:  Dens Mud Min 
 MDMX.sg                  1.52:  Dens Mud Max 
 MOIL.                      70:  Run Mud Oil % 
 MOWR.                   70:30:  Run Mud OWR 
 MSND.                     0.2:  Run Mud Sand % 
 MSOL.                      22:  Run Mud Solids% 
 DFV .spqt               77.00:  Mud Viscosity 
 MWOD.in                  6.75:  MWD Tool OD 
 MWSI.                      No:  Serv Intrp, MWD 
 OTIM.hr                151.01:  Time Operating 
 PCON.          Wear / Scratch:  Pad Condition 
 PMAX.psia            11296.93:  Press Op, Max 
 PV  .cP                 37.00:  Mud PV 
 RUN .                     500:  Run Number 
 ROPA.m/hr               25.00:  ROP Avg 
 ROPN.m/hr                9.00:  ROP Min 
 ROPX.m/hr               28.00:  ROP Max 
 RPMA.rpm               140.00:  RPM Surface Avg 
 RPMN.rpm                90.00:  RPM Surface Min 
 RPMX.rpm               140.00:  RPM Surface Max 
 RRUN.                    0500:  Rig Run Number 
 SAZI.deg               172.17:  Azm, Start 
 SDEP.m                3248.00:  Start Depth 
 SIDD.                      No:  Serv Intrp, DD 
 SINC.deg                57.86:  Inc, Start 
 SPPA.psig             5620.00:  SPP Avg 
 SPPN.psig             5190.00:  SPP Min 
 SPPX.psig             6050.00:  SPP Max 
 STIM.      16.00.00 23-May-21:  Start Time 
 SVCS.                 DD, MWD:  Services 
 SVER.                    9.20:  Sperry Version 
 TDAT.m                 806.00:  Tot Depth Attmp 
 TDDF.                      No:  Trip for DD 
 TDLG.m                 806.00:  Tot Depth Loggd 
 TFF .                      No:  Trip for Fail 
 TQAA.f-kp               12.00:  Torque Abs Avg 
 TQAN.f-kp                8.00:  Torque Abs Min 
 TQAX.f-kp               15.00:  Torque Abs Max 
 TRRT.°/30m               0.30:  Turn Rotating 
 MRT .                  EWR-M5:  Maximum Recorded Temperature 
 TTMX.degC               93.00:  Max Tool Temp 
 VS01.                90649155:  Virtual Str1 SN 
 VS02.                90642264:  Virtual Str2 SN 
 VS03.                90642266:  Virtual Str3 SN 
 VS04.                90642261:  Virtual Str4 SN 
 WBMN.klb                 0.00:  WOB Min 
 WITN.             Anar Khalil:  Customer Rep 
 WITN.           Murad Guliyev:  Customer Rep 2 
 WOBA.klb                13.00:  WOB Avg 
 WOBX.klb                25.00:  WOB Max 
 YP  .lhf2               32.00:  Yield Point 
~Curve Information Block
#MNEM.UNIT                 API CODE     Curve Description
#---------               -----------    ---------------------------
 TIME.HHMMSS            00 000 000 000:  GT Time & Date
 GTDEPTH.m              00 000 000 000:  GT Depth
 GTPQH.psia             00 000 000 000:  GT HR Quartz Pressure
 GTTQ.degC              00 000 000 000:  GT Quartz Temperature
 GTTN.NONE              00 000 000 000:  GT Test Number
 GTET.sec               00 000 000 000:  GT Elapsed Test Time
 GTTVD.m                00 000 000 000:  GT True Vertical Depth
#Other Information
#
#WARRANTY: Halliburton will use its best efforts to furnish customers with 
#accurate information and interpretations that are part of, and incident to, the services 
#provided.  However, Halliburton cannot and does not warrant the accuracy 
#or correctness of such information and interpretations.  Under no circumstances should any 
#such information or interpretation be relied upon as the sole basis for any drilling, 
#completion, production, or financial decision or any procedure involving any risk to the 
#safety of any drilling venture, drilling rig or its crew or any other third party.  The 
#Customer has full responsibility for all drilling, completion and production operation.  
#Halliburton makes no representations or warranties, either expressed or 
#implied, including, but not limited to, the implied warranties of merchantability or fitness 
#for a particular purpose, with respect to the services rendered.  In no event will 
#Halliburton be liable for failure to obtain any particular results or for 
#any damages, including, but not limited to, indirect, special or consequential damages, 
#resulting from the use of any information or interpretation provided by Halliburton.
#
~A           TIME           GTDEPTH  GTPQH  GTTQ  GTTN   GTET   GTTVD  
# ...
   07:43:52.600.28-May-2021 3306.00 4535.86 81.92 13.00 361.60 2504.05
   07:43:52.800.28-May-2021 3306.00 4535.80 81.92 13.00 361.80 2504.05
   07:43:53.000.28-May-2021 3306.00 4535.97 81.92 13.00 362.00 2504.05
   07:43:53.200.28-May-2021 3306.00 4535.97 81.92 13.00 362.20 2504.05
   07:43:53.400.28-May-2021 3306.00 4536.13 81.92 13.00 362.40 2504.05
   07:43:53.600.28-May-2021 3306.00 4535.98 81.92 13.00 362.60 2504.05
   07:43:53.800.28-May-2021 3306.00 4536.03 81.92 13.00 362.80 2504.05
   07:43:54.000.28-May-2021 3306.00 4536.03 81.92 13.00 363.00 2504.05
   07:43:54.200.28-May-2021 3306.00 4536.03 81.92 13.00 363.20 2504.05
   07:43:54.400.28-May-2021 3306.00 4536.11 81.92 13.00 363.40 2504.05
   07:43:54.600.28-May-2021 3306.00 4536.13 81.92 13.00 363.60 2504.05
   07:43:54.800.28-May-2021 3306.00 4536.13 81.92 13.00 363.80 2504.05
   07:43:55.000.28-May-2021 3306.00 4536.16 81.92 13.00 364.00 2504.05
   07:43:55.200.28-May-2021 3306.00 4536.16 81.92 13.00 364.20 2504.05
   07:43:55.400.28-May-2021 3306.00 4536.19 81.92 13.00 364.40 2504.05
   07:43:55.600.28-May-2021 3306.00 4536.16 81.92 13.00 364.60 2504.05
   07:43:55.800.28-May-2021 3306.00 4534.83 81.92 13.00 364.80 2504.05
   07:43:56.000.28-May-2021 3306.00 4536.30 81.92 13.00 365.00 2504.05
   07:43:56.200.28-May-2021 3306.00 4536.30 81.92 13.00 365.20 2504.05
   07:43:56.400.28-May-2021 3306.00 4536.39 81.92 13.00 365.40 2504.05
   07:43:56.600.28-May-2021 3306.00 4536.38 81.92 13.00 365.60 2504.05
   07:43:56.800.28-May-2021 3306.00 4536.42 81.92 13.00 365.80 2504.05
   07:43:57.000.28-May-2021 3306.00 4536.42 81.92 13.00 366.00 2504.05
   07:43:57.200.28-May-2021 3306.00 4536.42 81.92 13.00 366.20 2504.05
   07:43:57.400.28-May-2021 3306.00 4536.46 81.92 13.00 366.40 2504.05
   07:43:57.600.28-May-2021 3306.00 4536.46 81.92 13.00 366.60 2504.05
   07:43:57.800.28-May-2021 3306.00 4536.49 81.92 13.00 366.80 2504.05
   07:43:58.000.28-May-2021 3306.00 4536.52 81.92 13.00 367.00 2504.05
   07:43:58.200.28-May-2021 3306.00 4536.52 81.92 13.00 367.20 2504.05
   07:43:58.400.28-May-2021 3306.00 4535.32 81.92 13.00 367.40 2504.05
   07:43:58.600.28-May-2021 3306.00 4536.31 81.92 13.00 367.60 2504.05
   07:43:58.800.28-May-2021 3306.00 4536.61 81.92 13.00 367.80 2504.05
   07:43:59.000.28-May-2021 3306.00 4536.63 81.91 13.00 368.00 2504.05
   07:43:59.200.28-May-2021 3306.00 4536.63 81.91 13.00 368.20 2504.05
   07:43:59.400.28-May-2021 3306.00 4536.64 81.91 13.00 368.40 2504.05
   07:43:59.600.28-May-2021 3306.00 4535.25 81.91 13.00 368.60 2504.05
   07:43:59.800.28-May-2021 3306.00 4536.65 81.91 13.00 368.80 2504.05
   07:44:00.000.28-May-2021 3306.00 4536.71 81.91 13.00 369.00 2504.05
   07:44:00.200.28-May-2021 3306.00 4536.71 81.91 13.00 369.20 2504.05
   07:44:00.400.28-May-2021 3306.00 4535.53 81.91 13.00 369.40 2504.05
   07:44:00.600.28-May-2021 3306.00 4536.51 81.91 13.00 369.60 2504.05
   07:44:00.800.28-May-2021 3306.00 4536.82 81.91 13.00 369.80 2504.05
   07:44:01.000.28-May-2021 3306.00 4536.82 81.91 13.00 370.00 2504.05
   07:44:01.200.28-May-2021 3306.00 4536.82 81.91 13.00 370.20 2504.05
   07:44:01.400.28-May-2021 3306.00 4535.75 81.91 13.00 370.40 2504.05
   07:44:01.600.28-May-2021 3306.00 4535.92 81.91 13.00 370.60 2504.05
   07:44:01.800.28-May-2021 3306.00 4644.97 81.91 13.00 370.80 2504.05
   07:44:02.000.28-May-2021 3306.00 5111.63 81.91 13.00 371.00 2504.05
   07:44:02.200.28-May-2021 3306.00 5111.63 81.91 13.00 371.20 2504.05
   07:44:02.400.28-May-2021 3306.00 5847.43 81.91 13.00 371.40 2504.05
   07:44:02.600.28-May-2021 3306.00 5847.21 81.91 13.00 371.60 2504.05
   07:44:02.800.28-May-2021 3306.00 5846.28 81.92 13.00 371.80 2504.05
   07:44:03.000.28-May-2021 3306.00 5846.32 81.92 13.00 372.00 2504.05
   07:44:03.200.28-May-2021 3306.00 5846.32 81.92 13.00 372.20 2504.05
   07:44:03.400.28-May-2021 3306.00 5846.88 81.92 13.00 372.40 2504.05
   07:44:03.600.28-May-2021 3306.00 5847.22 81.92 13.00 372.60 2504.05
   07:44:03.800.28-May-2021 3306.00 5847.55 81.92 13.00 372.80 2504.05
   07:44:04.000.28-May-2021 3306.00 5854.09 81.92 13.00 373.00 2504.05
   07:44:04.200.28-May-2021 3306.00 5854.09 81.92 13.00 373.20 2504.05
   07:44:04.400.28-May-2021 3306.00 5849.60 81.92 13.00 373.40 2504.05
   07:44:04.600.28-May-2021 3306.00 5848.89 81.92 13.00 373.60 2504.05
   07:44:04.800.28-May-2021 3306.00 5849.42 81.92 13.00 373.80 2504.05
   07:44:05.000.28-May-2021 3306.00 5849.24 81.92 13.00 374.00 2504.05
   07:44:05.200.28-May-2021 3306.00 5849.24 81.92 13.00 374.20 2504.05
   07:44:05.400.28-May-2021 3306.00 5849.17 81.93 13.00 374.40 2504.05
   07:44:05.600.28-May-2021 3306.00 5849.10 81.93 13.00 374.60 2504.05
   07:44:05.800.28-May-2021 3306.00 5849.12 81.93 13.00 374.80 2504.05
   07:44:06.000.28-May-2021 3306.00 5849.06 81.93 13.00 375.00 2504.05
   07:44:06.200.28-May-2021 3306.00 5849.06 81.93 13.00 375.20 2504.05
   07:44:06.400.28-May-2021 3306.00 5849.07 81.93 13.00 375.40 2504.05
   07:44:06.600.28-May-2021 3306.00 5852.64 81.93 13.00 375.60 2504.05
   07:44:06.800.28-May-2021 3306.00 5849.69 81.93 13.00 375.80 2504.05
   07:44:07.000.28-May-2021 3306.00 5850.05 81.93 13.00 376.00 2504.05
   07:44:07.200.28-May-2021 3306.00 5850.05 81.93 13.00 376.20 2504.05
   07:44:07.400.28-May-2021 3306.00 5850.36 81.93 13.00 376.40 2504.05
   07:44:07.600.28-May-2021 3306.00 5849.21 81.93 13.00 376.60 2504.05
   07:44:07.800.28-May-2021 3306.00 5856.59 81.94 13.00 376.80 2504.05
   07:44:08.000.28-May-2021 3306.00 5846.80 81.94 13.00 377.00 2504.05
   07:44:08.200.28-May-2021 3306.00 5846.80 81.94 13.00 377.20 2504.05
   07:44:08.400.28-May-2021 3306.00 5849.64 81.94 13.00 377.40 2504.05
   07:44:08.600.28-May-2021 3306.00 5858.80 81.94 13.00 377.60 2504.05
   07:44:08.800.28-May-2021 3306.00 5844.72 81.94 13.00 377.80 2504.05
   07:44:09.000.28-May-2021 3306.00 5851.06 81.94 13.00 378.00 2504.05
   07:44:09.200.28-May-2021 3306.00 5851.06 81.94 13.00 378.20 2504.05
   07:44:09.400.28-May-2021 3306.00 5845.94 81.94 13.00 378.40 2504.05
   07:44:09.600.28-May-2021 3306.00 5850.95 81.94 13.00 378.60 2504.05
   07:44:09.800.28-May-2021 3306.00 5850.26 81.94 13.00 378.80 2504.05
   07:44:10.000.28-May-2021 3306.00 5850.70 81.94 13.00 379.00 2504.05
   07:44:10.200.28-May-2021 3306.00 5850.70 81.94 13.00 379.20 2504.05
   07:44:10.400.28-May-2021 3306.00 5850.57 81.94 13.00 379.40 2504.05
   07:44:10.600.28-May-2021 3306.00 5850.07 81.94 13.00 379.60 2504.05
   07:44:10.800.28-May-2021 3306.00 5850.17 81.94 13.00 379.80 2504.05
   07:44:11.000.28-May-2021 3306.00 5850.02 81.94 13.00 380.00 2504.05
   07:44:11.200.28-May-2021 3306.00 5850.02 81.94 13.00 380.20 2504.05
   07:44:11.400.28-May-2021 3306.00 5849.54 81.94 13.00 380.40 2504.05
   07:44:11.600.28-May-2021 3306.00 5849.50 81.94 13.00 380.60 2504.05
   07:44:11.800.28-May-2021 3306.00 5855.57 81.94 13.00 380.80 2504.05
   07:44:12.000.28-May-2021 3306.00 5847.72 81.94 13.00 381.00 2504.05
   07:44:12.200.28-May-2021 3306.00 5847.72 81.94 13.00 381.20 2504.05
   07:44:12.400.28-May-2021 3306.00 5849.89 81.94 13.00 381.40 2504.05
   07:44:12.600.28-May-2021 3306.00 5850.48 81.94 13.00 381.60 2504.05
   07:44:12.800.28-May-2021 3306.00 5850.44 81.94 13.00 381.80 2504.05
   07:44:13.000.28-May-2021 3306.00 5850.51 81.94 13.00 382.00 2504.05
   07:44:13.200.28-May-2021 3306.00 5850.51 81.94 13.00 382.20 2504.05
   07:44:13.400.28-May-2021 3306.00 5850.15 81.94 13.00 382.40 2504.05
   07:44:13.600.28-May-2021 3306.00 5850.14 81.95 13.00 382.60 2504.05
   07:44:13.800.28-May-2021 3306.00 5849.85 81.95 13.00 382.80 2504.05
   07:44:14.000.28-May-2021 3306.00 5849.64 81.95 13.00 383.00 2504.05
   07:44:14.200.28-May-2021 3306.00 5849.64 81.95 13.00 383.20 2504.05
   07:44:14.400.28-May-2021 3306.00 5849.46 81.95 13.00 383.40 2504.05
   07:44:14.600.28-May-2021 3306.00 5853.85 81.95 13.00 383.60 2504.05
   07:44:14.800.28-May-2021 3306.00 5849.81 81.95 13.00 383.80 2504.05
   07:44:15.000.28-May-2021 3306.00 5849.99 81.95 13.00 384.00 2504.05
