~Version Information
 VERS.                  2.0:   CWLS log ASCII Standard -VERSION 2.0
 WRAP.                   NO:   One line per depth step
~Well Information Block
#MNEM.UNIT     VALUE/NAME     DESCRIPTION
#---------     -----------    ---------------------------
 STRT.S             05:31:02 28-May-21: START TIME 05:31:02 28-May-21
 STOP.S             05:38:03 28-May-21: STOP TIME  05:38:03 28-May-21
 STEP.S                   0.00: STEP TIME
 NULL.                 -999.25: NULL VALUE
 UWI .                     N/A:  UNIQUE WELL IDENTIFIER
 API .                     N/A:  API NUMBER
 UNIT.                     N/A:  LOGGING EQUIPMENT ID
 DCON.         Sperry Drilling:  DIRECTNL CONTR
 DOE .                     N/A:  DOE NUMBER
 MWDS.                    Baku:  MWD SHOP
 SRVC.     Turan Drilling and Engineering:  CONTRACTOR
 CTRY.              Azerbaijan:  COUNTRY NAME
 PROV.                    Baku:  PROVINCE
 STAT.                    Baku:  STATE NAME
 REGN.                   EESSA:  REGION
 BASE.              Azerbaijan:  LOGGING EQUIPMENT BASE LOCATION
 WTYP.                Deviated:  WELL TYPE
 RIG .              East Azeri:  RIG NAME
 WELL.                    D02y:  WELL NAME
 FLD .                     ACG:  FIELD NAME
 COMP.     BP Exploration (Caspian Sea) Ltd.:  COMPANY
 PDAT.          Mean Sea Level:  PERMANENT DATUM
 MDS .        Operator Entered:  MAG DATA SOURCE
 SON .        AZ-XX-0906997291:  JOB NUMBER
 FTOP.          Formation Tops:  FORM TOPS DESC
 ILTD.               Lithology:  INTERP LTH DESC
 SVYD.                  Survey:  SURVEY DESC
 DMOD.             Drill Model:  DRILL MOD DESC
 HPTY.       Minimum Curvature:  HOLE POS TYPE
 NREF.                    Grid:  NORTH REFERENCE
 SPUD.               05-May-21:  SPUD DATE
 DATE.      09.27.28 12-Jun-21:  END TIME
 STIM.      09.27.28 12-May-21:  START TIME
 DMF .             Drill Floor:  DRILL MEAS FROM
 DFST.                        :  DIST FSL TEXT
 DFWT.                        :  DIST FWL TEXT
 CNTY.                        :  COUNTY
 LOC .                        :  LOCATION
 LMF .             Drill Floor:  LOG MEASURED FROM
 DEP .m                2806.40:  DEPTH
 AGAP.m                  43.60:  AIR GAP
 VSNS.m                  -4.42:  VERT SEC N/S
 VSEW.m                  -7.31:  VERT SEC E/W
 APD .m                  43.60:  DEPTH ABOVE PD
 WDMS.m                 151.80:  WD ELEV
 EGL .m                   0.00:  GROUND ELEVATION
 EPD .m                   0.00:  ELEVATION
 AZTC.deg                 6.18:  AZM TOTAL CORR
 GRDC.deg                 0.29:  GRID CORRECTION
 MDEC.deg                 6.47:  MAGNETIC DECL
 MDIP.deg                59.50:  MAGNETIC DIP
 MFLD.nT              50350.00:  MAGNETIC FIELD
 GVFD.g                   1.00:  GRAVITY FIELD
 VSDR.deg               179.08:  VERT SEC DIRECT
 TDD .m                4300.00:  TOTAL DEPTH (DRILLER)
 SDEP.m                2800.00:  START DEPTH
 DFSL.m                   0.00:  DISTANCE FSL
 DFWL.m                   0.00:  DISTANCE FWL
 UTMY.m             4431871.34:  UTM Y
 UTMX.m              538762.90:  UTM X
 WHEW.m                  -7.31:  WELL HEAD E/W
 WHNS.m                  -4.42:  WELL HEAD N/S
 LONG.deg                51.45:  LONGITUDE
 LATI.deg                40.02:  LATITUDE
 TVDS.m                  43.60:  TVDSS CORRECTN
 EKB .m                  43.60:  KB ELEVATION
 EDF .m                  43.60:  DF ELEVATION
 TDL .m                 806.00:  TOTAL DEPTH (LOGGER)
 MAGU.                 1851231:  MAGUTM CHECKSUM
 VSC .                       0:  VS TO CLOSURE
~Parameter Information Block
#MNEM.UNIT       Value        Description
#---------     -----------    ---------------------------
 AV  .mps                 1.60:  Ann Velocity 
 AVMX.mps                 2.00:  Max Ann Veloc 
 AZIF.deg               140.24:  Azm, Final 
 BHAT.        Rotary Steerable:  BHA Type 
 BROT.°/30m               0.50:  Build Rotating 
 BS  .in                  8.50:  Bit Size 
 BTPL.psig              619.00:  Bit Press Loss 
 CABU.                     Yes:  Customer Abuse 
 CGEO.          Ilgar Gurbanov:  Customer Geo 
 COMM.                     LMh:  Run Comments 1 
 TCS .hr                 85.88:  Time Ciculation Ended 
 CV  .mps                 3.30:  Crit Velocity 
 CVMX.mps                 3.50:  Max Crit Veloc 
 DD1 .           Hamid Axmedov:  Direct Drillr 1 
 DD2 .           Teymur Aliyev:  Direct Drillr 2 
 DDSV.               Geo-Pilot:  DD Service 
 DEFF.%                 100.00:  % Det Eff 
 DLRX.°/30m               0.00:  Dogleg Rot Max 
 DLSO.°/30m               1.80:  Dogleg Oriented 
 DLSX.°/30m               3.34:  Dogleg Str Max 
 DRET.      11.50.00 27-May-21:  Drill End Time 
 DRST.      21.13.00 24-May-21:  Drill Start Tim 
 DTIM.hr                 45.11:  Time Drilling 
 EDEP.m                4054.00:  End Depth 
 ENG1.         Almaz Almadatov:  Engineer 1 
 ENG2.           Amrah Tahirov:  Engineer 2 
 ENG3.      Bakhtiyar Jabbarli:  Engineer 3 
 ENG4.          Nazrin Asgarli:  Engineer 4 
 ETIM.      10.00.00 30-May-21:  End Time 
 FLOI.gpm               530.00:  Flow In 
 FLON.gpm               400.00:  Flow In Min 
 FLOS.cptm                0.00:  Fluid Loss 
 FLOX.gpm               560.00:  Flow In Max 
 DFT .        Mineral Oil Base:  Mud Type 
 FTRO.       Formation Presure:  FTWD Run Obj 
 HFLO.                      No:  High Flow 
 HPRE.                      No:  High Pressure 
 HTEM.                      No:  High Temp 
 HYDO.m                   1.80:  Hydro Offset 
 IFIN.deg                73.83:  Inc, Final 
 IMAX.deg                73.83:  Inc Max 
 IMIN.deg                57.86:  Inc Min 
 IMND.m                3259.27:  Inc Min Depth 
 IMXD.m                4045.58:  Inc Max Depth 
 JARR.                     Yes:  Jarring 
 LETM.      11.50.00 27-May-21:  Log End Time 
 LOST.hr                     0:  Lost Rig Time 
 LSTM.      21.13.00 24-May-21:  Log Start Time 
 MDCL.ppm             42500.00:  Mud Chlorides 
 MDES.     Inversion Oil/Synthetic:  Mud Desc 
 DFD .sg                  1.52:  Mud Density 
 MDMN.sg                  1.52:  Dens Mud Min 
 MDMX.sg                  1.52:  Dens Mud Max 
 MOIL.                      70:  Run Mud Oil % 
 MOWR.                   70:30:  Run Mud OWR 
 MSND.                     0.2:  Run Mud Sand % 
 MSOL.                      22:  Run Mud Solids% 
 DFV .spqt               77.00:  Mud Viscosity 
 MWOD.in                  6.75:  MWD Tool OD 
 MWSI.                      No:  Serv Intrp, MWD 
 OTIM.hr                151.01:  Time Operating 
 PCON.          Wear / Scratch:  Pad Condition 
 PMAX.psia            11296.93:  Press Op, Max 
 PV  .cP                 37.00:  Mud PV 
 RUN .                     500:  Run Number 
 ROPA.m/hr               25.00:  ROP Avg 
 ROPN.m/hr                9.00:  ROP Min 
 ROPX.m/hr               28.00:  ROP Max 
 RPMA.rpm               140.00:  RPM Surface Avg 
 RPMN.rpm                90.00:  RPM Surface Min 
 RPMX.rpm               140.00:  RPM Surface Max 
 RRUN.                    0500:  Rig Run Number 
 SAZI.deg               172.17:  Azm, Start 
 SDEP.m                3248.00:  Start Depth 
 SIDD.                      No:  Serv Intrp, DD 
 SINC.deg                57.86:  Inc, Start 
 SPPA.psig             5620.00:  SPP Avg 
 SPPN.psig             5190.00:  SPP Min 
 SPPX.psig             6050.00:  SPP Max 
 STIM.      16.00.00 23-May-21:  Start Time 
 SVCS.                 DD, MWD:  Services 
 SVER.                    9.20:  Sperry Version 
 TDAT.m                 806.00:  Tot Depth Attmp 
 TDDF.                      No:  Trip for DD 
 TDLG.m                 806.00:  Tot Depth Loggd 
 TFF .                      No:  Trip for Fail 
 TQAA.f-kp               12.00:  Torque Abs Avg 
 TQAN.f-kp                8.00:  Torque Abs Min 
 TQAX.f-kp               15.00:  Torque Abs Max 
 TRRT.°/30m               0.30:  Turn Rotating 
 MRT .                  EWR-M5:  Maximum Recorded Temperature 
 TTMX.degC               93.00:  Max Tool Temp 
 VS01.                90649155:  Virtual Str1 SN 
 VS02.                90642264:  Virtual Str2 SN 
 VS03.                90642266:  Virtual Str3 SN 
 VS04.                90642261:  Virtual Str4 SN 
 WBMN.klb                 0.00:  WOB Min 
 WITN.             Anar Khalil:  Customer Rep 
 WITN.           Murad Guliyev:  Customer Rep 2 
 WOBA.klb                13.00:  WOB Avg 
 WOBX.klb                25.00:  WOB Max 
 YP  .lhf2               32.00:  Yield Point 
~Curve Information Block
#MNEM.UNIT                 API CODE     Curve Description
#---------               -----------    ---------------------------
 TIME.HHMMSS            00 000 000 000:  GT Time & Date
 GTDEPTH.m              00 000 000 000:  GT Depth
 GTPQH.psia             00 000 000 000:  GT HR Quartz Pressure
 GTTQ.degC              00 000 000 000:  GT Quartz Temperature
 GTTN.NONE              00 000 000 000:  GT Test Number
 GTET.sec               00 000 000 000:  GT Elapsed Test Time
 GTTVD.m                00 000 000 000:  GT True Vertical Depth
#Other Information
#
#WARRANTY: Halliburton will use its best efforts to furnish customers with 
#accurate information and interpretations that are part of, and incident to, the services 
#provided.  However, Halliburton cannot and does not warrant the accuracy 
#or correctness of such information and interpretations.  Under no circumstances should any 
#such information or interpretation be relied upon as the sole basis for any drilling, 
#completion, production, or financial decision or any procedure involving any risk to the 
#safety of any drilling venture, drilling rig or its crew or any other third party.  The 
#Customer has full responsibility for all drilling, completion and production operation.  
#Halliburton makes no representations or warranties, either expressed or 
#implied, including, but not limited to, the implied warranties of merchantability or fitness 
#for a particular purpose, with respect to the services rendered.  In no event will 
#Halliburton be liable for failure to obtain any particular results or for 
#any damages, including, but not limited to, indirect, special or consequential damages, 
#resulting from the use of any information or interpretation provided by Halliburton.
#
~A           TIME           GTDEPTH  GTPQH  GTTQ  GTTN   GTET   GTTVD  
# ...
   05:35:11.041.28-May-2021 3456.50 4230.85 82.94 10.00 248.70 2576.46
   05:35:11.241.28-May-2021 3456.50 4230.86 82.94 10.00 248.90 2576.46
   05:35:11.441.28-May-2021 3456.50 4230.85 82.94 10.00 249.10 2576.46
   05:35:11.641.28-May-2021 3456.50 4230.85 82.94 10.00 249.30 2576.46
   05:35:11.841.28-May-2021 3456.50 4230.77 82.94 10.00 249.50 2576.46
   05:35:12.041.28-May-2021 3456.50 4230.85 82.94 10.00 249.70 2576.46
   05:35:12.241.28-May-2021 3456.50 4230.85 82.94 10.00 249.90 2576.46
   05:35:12.441.28-May-2021 3456.50 4230.87 82.94 10.00 250.10 2576.46
   05:35:12.642.28-May-2021 3456.50 4230.86 82.94 10.00 250.30 2576.46
   05:35:12.842.28-May-2021 3456.50 4230.86 82.94 10.00 250.50 2576.46
   05:35:13.042.28-May-2021 3456.50 4230.85 82.94 10.00 250.70 2576.46
   05:35:13.242.28-May-2021 3456.50 4230.86 82.94 10.00 250.90 2576.46
   05:35:13.442.28-May-2021 3456.50 4230.85 82.94 10.00 251.10 2576.46
   05:35:13.642.28-May-2021 3456.50 4230.85 82.94 10.00 251.31 2576.46
   05:35:13.842.28-May-2021 3456.50 4230.86 82.94 10.00 251.51 2576.46
   05:35:14.042.28-May-2021 3456.50 4230.85 82.94 10.00 251.71 2576.46
   05:35:14.242.28-May-2021 3456.50 4230.74 82.94 10.00 251.91 2576.46
   05:35:14.442.28-May-2021 3456.50 4230.98 82.94 10.00 252.11 2576.46
   05:35:14.642.28-May-2021 3456.50 4230.98 82.94 10.00 252.31 2576.46
   05:35:14.842.28-May-2021 3456.50 4230.87 82.94 10.00 252.51 2576.46
   05:35:15.043.28-May-2021 3456.50 4230.85 82.94 10.00 252.71 2576.46
   05:35:15.243.28-May-2021 3456.50 4230.79 82.94 10.00 252.91 2576.46
   05:35:15.443.28-May-2021 3456.50 4230.92 82.94 10.00 253.11 2576.46
   05:35:15.643.28-May-2021 3456.50 4230.92 82.94 10.00 253.31 2576.46
   05:35:15.843.28-May-2021 3456.50 4230.67 82.94 10.00 253.51 2576.46
   05:35:16.043.28-May-2021 3456.50 4231.04 82.94 10.00 253.71 2576.46
   05:35:16.243.28-May-2021 3456.50 4230.85 82.94 10.00 253.91 2576.46
   05:35:16.443.28-May-2021 3456.50 4230.86 82.94 10.00 254.11 2576.46
   05:35:16.643.28-May-2021 3456.50 4230.86 82.94 10.00 254.31 2576.46
   05:35:16.843.28-May-2021 3456.50 4230.73 82.94 10.00 254.51 2576.46
   05:35:17.043.28-May-2021 3456.50 4230.97 82.94 10.00 254.71 2576.46
   05:35:17.243.28-May-2021 3456.50 4230.86 82.94 10.00 254.91 2576.46
   05:35:17.444.28-May-2021 3456.50 4230.86 82.94 10.00 255.11 2576.46
   05:35:17.644.28-May-2021 3456.50 4230.86 82.94 10.00 255.31 2576.46
   05:35:17.844.28-May-2021 3456.50 4230.85 82.94 10.00 255.51 2576.46
   05:35:18.044.28-May-2021 3456.50 4230.86 82.94 10.00 255.71 2576.46
   05:35:18.244.28-May-2021 3456.50 4230.85 82.94 10.00 255.91 2576.46
   05:35:18.444.28-May-2021 3456.50 4230.85 82.94 10.00 256.11 2576.46
   05:35:18.644.28-May-2021 3456.50 4230.85 82.94 10.00 256.31 2576.46
   05:35:18.844.28-May-2021 3456.50 4230.85 82.94 10.00 256.51 2576.46
   05:35:19.044.28-May-2021 3456.50 4231.25 82.94 10.00 256.71 2576.46
   05:35:19.244.28-May-2021 3456.50 4184.39 82.94 10.00 256.91 2576.46
   05:35:19.444.28-May-2021 3456.50 4172.30 82.94 10.00 257.11 2576.46
   05:35:19.644.28-May-2021 3456.50 4172.30 82.94 10.00 257.31 2576.46
   05:35:19.845.28-May-2021 3456.50 4174.32 82.94 10.00 257.51 2576.46
   05:35:20.045.28-May-2021 3456.50 4173.75 82.94 10.00 257.71 2576.46
   05:35:20.245.28-May-2021 3456.50 4174.90 82.94 10.00 257.91 2576.46
   05:35:20.445.28-May-2021 3456.50 4173.56 82.94 10.00 258.11 2576.46
   05:35:20.645.28-May-2021 3456.50 4173.56 82.94 10.00 258.31 2576.46
   05:35:20.845.28-May-2021 3456.50 4174.08 82.94 10.00 258.51 2576.46
   05:35:21.045.28-May-2021 3456.50 4174.05 82.94 10.00 258.71 2576.46
   05:35:21.245.28-May-2021 3456.50 4174.26 82.94 10.00 258.91 2576.46
   05:35:21.445.28-May-2021 3456.50 4173.93 82.94 10.00 259.11 2576.46
   05:35:21.645.28-May-2021 3456.50 4173.93 82.94 10.00 259.31 2576.46
   05:35:21.845.28-May-2021 3456.50 4173.56 82.94 10.00 259.51 2576.46
   05:35:22.045.28-May-2021 3456.50 4174.26 82.94 10.00 259.71 2576.46
   05:35:22.246.28-May-2021 3456.50 4173.53 82.94 10.00 259.91 2576.46
   05:35:22.446.28-May-2021 3456.50 4174.29 82.94 10.00 260.11 2576.46
   05:35:22.646.28-May-2021 3456.50 4174.29 82.94 10.00 260.31 2576.46
   05:35:22.846.28-May-2021 3456.50 4173.75 82.94 10.00 260.51 2576.46
   05:35:23.046.28-May-2021 3456.50 4172.64 82.94 10.00 260.71 2576.46
   05:35:23.246.28-May-2021 3456.50 4170.86 82.94 10.00 260.91 2576.46
   05:35:23.446.28-May-2021 3456.50 4172.43 82.94 10.00 261.11 2576.46
   05:35:23.646.28-May-2021 3456.50 4172.43 82.94 10.00 261.31 2576.46
   05:35:23.846.28-May-2021 3456.50 4171.00 82.94 10.00 261.51 2576.46
   05:35:24.046.28-May-2021 3456.50 4171.84 82.94 10.00 261.71 2576.46
   05:35:24.246.28-May-2021 3456.50 4170.90 82.94 10.00 261.91 2576.46
   05:35:24.446.28-May-2021 3456.50 4170.98 82.94 10.00 262.11 2576.46
   05:35:24.647.28-May-2021 3456.50 4170.98 82.94 10.00 262.31 2576.46
   05:35:24.847.28-May-2021 3456.50 4170.26 82.94 10.00 262.51 2576.46
   05:35:25.047.28-May-2021 3456.50 4171.30 82.94 10.00 262.71 2576.46
   05:35:25.247.28-May-2021 3456.50 4171.34 82.94 10.00 262.91 2576.46
   05:35:25.447.28-May-2021 3456.50 4170.68 82.94 10.00 263.11 2576.46
   05:35:25.647.28-May-2021 3456.50 4170.68 82.94 10.00 263.31 2576.46
   05:35:25.847.28-May-2021 3456.50 4173.19 82.94 10.00 263.51 2576.46
   05:35:26.047.28-May-2021 3456.50 4173.10 82.94 10.00 263.71 2576.46
   05:35:26.247.28-May-2021 3456.50 4171.60 82.94 10.00 263.91 2576.46
   05:35:26.447.28-May-2021 3456.50 4173.33 82.94 10.00 264.11 2576.46
   05:35:26.647.28-May-2021 3456.50 4173.33 82.94 10.00 264.31 2576.46
   05:35:26.847.28-May-2021 3456.50 4174.47 82.94 10.00 264.51 2576.46
   05:35:27.048.28-May-2021 3456.50 4172.56 82.94 10.00 264.71 2576.46
   05:35:27.248.28-May-2021 3456.50 4172.63 82.94 10.00 264.91 2576.46
   05:35:27.448.28-May-2021 3456.50 4172.53 82.94 10.00 265.11 2576.46
   05:35:27.648.28-May-2021 3456.50 4172.53 82.94 10.00 265.31 2576.46
   05:35:27.848.28-May-2021 3456.50 4173.11 82.94 10.00 265.51 2576.46
   05:35:28.048.28-May-2021 3456.50 4173.06 82.94 10.00 265.71 2576.46
   05:35:28.248.28-May-2021 3456.50 4172.34 82.94 10.00 265.91 2576.46
   05:35:28.448.28-May-2021 3456.50 4172.49 82.94 10.00 266.11 2576.46
   05:35:28.648.28-May-2021 3456.50 4172.49 82.94 10.00 266.31 2576.46
   05:35:28.848.28-May-2021 3456.50 4172.12 82.94 10.00 266.51 2576.46
   05:35:29.048.28-May-2021 3456.50 4174.15 82.94 10.00 266.71 2576.46
   05:35:29.248.28-May-2021 3456.50 4182.08 82.94 10.00 266.91 2576.46
   05:35:29.449.28-May-2021 3456.50 4227.30 82.94 10.00 267.11 2576.46
   05:35:29.649.28-May-2021 3456.50 4227.30 82.94 10.00 267.31 2576.46
   05:35:29.849.28-May-2021 3456.50 4229.72 82.94 10.00 267.51 2576.46
   05:35:30.049.28-May-2021 3456.50 4230.29 82.94 10.00 267.71 2576.46
   05:35:30.249.28-May-2021 3456.50 4230.25 82.94 10.00 267.91 2576.46
   05:35:30.449.28-May-2021 3456.50 4230.29 82.94 10.00 268.11 2576.46
   05:35:30.649.28-May-2021 3456.50 4230.29 82.94 10.00 268.31 2576.46
   05:35:30.849.28-May-2021 3456.50 4230.33 82.94 10.00 268.51 2576.46
   05:35:31.049.28-May-2021 3456.50 4230.44 82.94 10.00 268.71 2576.46
   05:35:31.249.28-May-2021 3456.50 4230.45 82.94 10.00 268.91 2576.46
   05:35:31.449.28-May-2021 3456.50 4230.49 82.94 10.00 269.11 2576.46
   05:35:31.649.28-May-2021 3456.50 4230.49 82.94 10.00 269.31 2576.46
   05:35:31.850.28-May-2021 3456.50 4230.47 82.94 10.00 269.51 2576.46
   05:35:32.050.28-May-2021 3456.50 4230.56 82.94 10.00 269.71 2576.46
   05:35:32.250.28-May-2021 3456.50 4230.45 82.94 10.00 269.91 2576.46
   05:35:32.450.28-May-2021 3456.50 4230.73 82.94 10.00 270.11 2576.46
   05:35:32.650.28-May-2021 3456.50 4230.73 82.94 10.00 270.31 2576.46
   05:35:32.850.28-May-2021 3456.50 4230.62 82.94 10.00 270.51 2576.46
   05:35:33.050.28-May-2021 3456.50 4230.61 82.94 10.00 270.71 2576.46
   05:35:33.250.28-May-2021 3456.50 4230.63 82.94 10.00 270.91 2576.46
   05:35:33.450.28-May-2021 3456.50 4230.62 82.94 10.00 271.11 2576.46
