~Version Information
 VERS.                  2.0:   CWLS log ASCII Standard -VERSION 2.0
 WRAP.                   NO:   One line per depth step
~Well Information Block
#MNEM.UNIT     VALUE/NAME     DESCRIPTION
#---------     -----------    ---------------------------
 STRT.S             00:59:34 28-May-21: START TIME 00:59:34 28-May-21
 STOP.S             01:06:40 28-May-21: STOP TIME  01:06:40 28-May-21
 STEP.S                   0.00: STEP TIME
 NULL.                 -999.25: NULL VALUE
 UWI .                     N/A:  UNIQUE WELL IDENTIFIER
 API .                     N/A:  API NUMBER
 UNIT.                     N/A:  LOGGING EQUIPMENT ID
 DCON.         Sperry Drilling:  DIRECTNL CONTR
 DOE .                     N/A:  DOE NUMBER
 MWDS.                    Baku:  MWD SHOP
 SRVC.     Turan Drilling and Engineering:  CONTRACTOR
 CTRY.              Azerbaijan:  COUNTRY NAME
 PROV.                    Baku:  PROVINCE
 STAT.                    Baku:  STATE NAME
 REGN.                   EESSA:  REGION
 BASE.              Azerbaijan:  LOGGING EQUIPMENT BASE LOCATION
 WTYP.                Deviated:  WELL TYPE
 RIG .              East Azeri:  RIG NAME
 WELL.                    D02y:  WELL NAME
 FLD .                     ACG:  FIELD NAME
 COMP.     BP Exploration (Caspian Sea) Ltd.:  COMPANY
 PDAT.          Mean Sea Level:  PERMANENT DATUM
 MDS .        Operator Entered:  MAG DATA SOURCE
 SON .        AZ-XX-0906997291:  JOB NUMBER
 FTOP.          Formation Tops:  FORM TOPS DESC
 ILTD.               Lithology:  INTERP LTH DESC
 SVYD.                  Survey:  SURVEY DESC
 DMOD.             Drill Model:  DRILL MOD DESC
 HPTY.       Minimum Curvature:  HOLE POS TYPE
 NREF.                    Grid:  NORTH REFERENCE
 SPUD.               05-May-21:  SPUD DATE
 DATE.      09.27.28 12-Jun-21:  END TIME
 STIM.      09.27.28 12-May-21:  START TIME
 DMF .             Drill Floor:  DRILL MEAS FROM
 DFST.                        :  DIST FSL TEXT
 DFWT.                        :  DIST FWL TEXT
 CNTY.                        :  COUNTY
 LOC .                        :  LOCATION
 LMF .             Drill Floor:  LOG MEASURED FROM
 DEP .m                2806.40:  DEPTH
 AGAP.m                  43.60:  AIR GAP
 VSNS.m                  -4.42:  VERT SEC N/S
 VSEW.m                  -7.31:  VERT SEC E/W
 APD .m                  43.60:  DEPTH ABOVE PD
 WDMS.m                 151.80:  WD ELEV
 EGL .m                   0.00:  GROUND ELEVATION
 EPD .m                   0.00:  ELEVATION
 AZTC.deg                 6.18:  AZM TOTAL CORR
 GRDC.deg                 0.29:  GRID CORRECTION
 MDEC.deg                 6.47:  MAGNETIC DECL
 MDIP.deg                59.50:  MAGNETIC DIP
 MFLD.nT              50350.00:  MAGNETIC FIELD
 GVFD.g                   1.00:  GRAVITY FIELD
 VSDR.deg               179.08:  VERT SEC DIRECT
 TDD .m                4300.00:  TOTAL DEPTH (DRILLER)
 SDEP.m                2800.00:  START DEPTH
 DFSL.m                   0.00:  DISTANCE FSL
 DFWL.m                   0.00:  DISTANCE FWL
 UTMY.m             4431871.34:  UTM Y
 UTMX.m              538762.90:  UTM X
 WHEW.m                  -7.31:  WELL HEAD E/W
 WHNS.m                  -4.42:  WELL HEAD N/S
 LONG.deg                51.45:  LONGITUDE
 LATI.deg                40.02:  LATITUDE
 TVDS.m                  43.60:  TVDSS CORRECTN
 EKB .m                  43.60:  KB ELEVATION
 EDF .m                  43.60:  DF ELEVATION
 TDL .m                 806.00:  TOTAL DEPTH (LOGGER)
 MAGU.                 1851231:  MAGUTM CHECKSUM
 VSC .                       0:  VS TO CLOSURE
~Parameter Information Block
#MNEM.UNIT       Value        Description
#---------     -----------    ---------------------------
 AV  .mps                 1.60:  Ann Velocity 
 AVMX.mps                 2.00:  Max Ann Veloc 
 AZIF.deg               140.24:  Azm, Final 
 BHAT.        Rotary Steerable:  BHA Type 
 BROT.°/30m               0.50:  Build Rotating 
 BS  .in                  8.50:  Bit Size 
 BTPL.psig              619.00:  Bit Press Loss 
 CABU.                     Yes:  Customer Abuse 
 CGEO.          Ilgar Gurbanov:  Customer Geo 
 COMM.                     ô:r:  Run Comments 1 
 TCS .hr                 85.88:  Time Ciculation Ended 
 CV  .mps                 3.30:  Crit Velocity 
 CVMX.mps                 3.50:  Max Crit Veloc 
 DD1 .           Hamid Axmedov:  Direct Drillr 1 
 DD2 .           Teymur Aliyev:  Direct Drillr 2 
 DDSV.               Geo-Pilot:  DD Service 
 DEFF.%                 100.00:  % Det Eff 
 DLRX.°/30m               0.00:  Dogleg Rot Max 
 DLSO.°/30m               1.80:  Dogleg Oriented 
 DLSX.°/30m               3.34:  Dogleg Str Max 
 DRET.      11.50.00 27-May-21:  Drill End Time 
 DRST.      21.13.00 24-May-21:  Drill Start Tim 
 DTIM.hr                 45.11:  Time Drilling 
 EDEP.m                4054.00:  End Depth 
 ENG1.         Almaz Almadatov:  Engineer 1 
 ENG2.           Amrah Tahirov:  Engineer 2 
 ENG3.      Bakhtiyar Jabbarli:  Engineer 3 
 ENG4.          Nazrin Asgarli:  Engineer 4 
 ETIM.      10.00.00 30-May-21:  End Time 
 FLOI.gpm               530.00:  Flow In 
 FLON.gpm               400.00:  Flow In Min 
 FLOS.cptm                0.00:  Fluid Loss 
 FLOX.gpm               560.00:  Flow In Max 
 DFT .        Mineral Oil Base:  Mud Type 
 FTRO.       Formation Presure:  FTWD Run Obj 
 HFLO.                      No:  High Flow 
 HPRE.                      No:  High Pressure 
 HTEM.                      No:  High Temp 
 HYDO.m                   1.80:  Hydro Offset 
 IFIN.deg                73.83:  Inc, Final 
 IMAX.deg                73.83:  Inc Max 
 IMIN.deg                57.86:  Inc Min 
 IMND.m                3259.27:  Inc Min Depth 
 IMXD.m                4045.58:  Inc Max Depth 
 JARR.                     Yes:  Jarring 
 LETM.      11.50.00 27-May-21:  Log End Time 
 LOST.hr                     0:  Lost Rig Time 
 LSTM.      21.13.00 24-May-21:  Log Start Time 
 MDCL.ppm             42500.00:  Mud Chlorides 
 MDES.     Inversion Oil/Synthetic:  Mud Desc 
 DFD .sg                  1.52:  Mud Density 
 MDMN.sg                  1.52:  Dens Mud Min 
 MDMX.sg                  1.52:  Dens Mud Max 
 MOIL.                      70:  Run Mud Oil % 
 MOWR.                   70:30:  Run Mud OWR 
 MSND.                     0.2:  Run Mud Sand % 
 MSOL.                      22:  Run Mud Solids% 
 DFV .spqt               77.00:  Mud Viscosity 
 MWOD.in                  6.75:  MWD Tool OD 
 MWSI.                      No:  Serv Intrp, MWD 
 OTIM.hr                151.01:  Time Operating 
 PCON.          Wear / Scratch:  Pad Condition 
 PMAX.psia            11296.93:  Press Op, Max 
 PV  .cP                 37.00:  Mud PV 
 RUN .                     500:  Run Number 
 ROPA.m/hr               25.00:  ROP Avg 
 ROPN.m/hr                9.00:  ROP Min 
 ROPX.m/hr               28.00:  ROP Max 
 RPMA.rpm               140.00:  RPM Surface Avg 
 RPMN.rpm                90.00:  RPM Surface Min 
 RPMX.rpm               140.00:  RPM Surface Max 
 RRUN.                    0500:  Rig Run Number 
 SAZI.deg               172.17:  Azm, Start 
 SDEP.m                3248.00:  Start Depth 
 SIDD.                      No:  Serv Intrp, DD 
 SINC.deg                57.86:  Inc, Start 
 SPPA.psig             5620.00:  SPP Avg 
 SPPN.psig             5190.00:  SPP Min 
 SPPX.psig             6050.00:  SPP Max 
 STIM.      16.00.00 23-May-21:  Start Time 
 SVCS.                 DD, MWD:  Services 
 SVER.                    9.20:  Sperry Version 
 TDAT.m                 806.00:  Tot Depth Attmp 
 TDDF.                      No:  Trip for DD 
 TDLG.m                 806.00:  Tot Depth Loggd 
 TFF .                      No:  Trip for Fail 
 TQAA.f-kp               12.00:  Torque Abs Avg 
 TQAN.f-kp                8.00:  Torque Abs Min 
 TQAX.f-kp               15.00:  Torque Abs Max 
 TRRT.°/30m               0.30:  Turn Rotating 
 MRT .                  EWR-M5:  Maximum Recorded Temperature 
 TTMX.degC               93.00:  Max Tool Temp 
 VS01.                90649155:  Virtual Str1 SN 
 VS02.                90642264:  Virtual Str2 SN 
 VS03.                90642266:  Virtual Str3 SN 
 VS04.                90642261:  Virtual Str4 SN 
 WBMN.klb                 0.00:  WOB Min 
 WITN.             Anar Khalil:  Customer Rep 
 WITN.           Murad Guliyev:  Customer Rep 2 
 WOBA.klb                13.00:  WOB Avg 
 WOBX.klb                25.00:  WOB Max 
 YP  .lhf2               32.00:  Yield Point 
~Curve Information Block
#MNEM.UNIT                 API CODE     Curve Description
#---------               -----------    ---------------------------
 TIME.HHMMSS            00 000 000 000:  GT Time & Date
 GTDEPTH.m              00 000 000 000:  GT Depth
 GTPQH.psia             00 000 000 000:  GT HR Quartz Pressure
 GTTQ.degC              00 000 000 000:  GT Quartz Temperature
 GTTN.NONE              00 000 000 000:  GT Test Number
 GTET.sec               00 000 000 000:  GT Elapsed Test Time
 GTTVD.m                00 000 000 000:  GT True Vertical Depth
#Other Information
#
#WARRANTY: Halliburton will use its best efforts to furnish customers with 
#accurate information and interpretations that are part of, and incident to, the services 
#provided.  However, Halliburton cannot and does not warrant the accuracy 
#or correctness of such information and interpretations.  Under no circumstances should any 
#such information or interpretation be relied upon as the sole basis for any drilling, 
#completion, production, or financial decision or any procedure involving any risk to the 
#safety of any drilling venture, drilling rig or its crew or any other third party.  The 
#Customer has full responsibility for all drilling, completion and production operation.  
#Halliburton makes no representations or warranties, either expressed or 
#implied, including, but not limited to, the implied warranties of merchantability or fitness 
#for a particular purpose, with respect to the services rendered.  In no event will 
#Halliburton be liable for failure to obtain any particular results or for 
#any damages, including, but not limited to, indirect, special or consequential damages, 
#resulting from the use of any information or interpretation provided by Halliburton.
#
~A           TIME           GTDEPTH  GTPQH  GTTQ  GTTN  GTET   GTTVD  
# ...
   01:05:43.335.28-May-2021 3649.00 3165.37 84.92 5.00 368.38 2653.32
   01:05:43.535.28-May-2021 3649.00 3165.37 84.92 5.00 368.58 2653.32
   01:05:43.735.28-May-2021 3649.00 3169.05 84.92 5.00 368.78 2653.32
   01:05:43.935.28-May-2021 3649.00 3189.53 84.92 5.00 368.98 2653.32
   01:05:44.135.28-May-2021 3649.00 5820.05 84.92 5.00 369.18 2653.32
   01:05:44.336.28-May-2021 3649.00 6201.86 84.92 5.00 369.38 2653.32
   01:05:44.536.28-May-2021 3649.00 6201.86 84.92 5.00 369.58 2653.32
   01:05:44.736.28-May-2021 3649.00 6201.46 84.92 5.00 369.78 2653.32
   01:05:44.936.28-May-2021 3649.00 6201.74 84.92 5.00 369.98 2653.32
   01:05:45.136.28-May-2021 3649.00 6202.15 84.92 5.00 370.19 2653.32
   01:05:45.337.28-May-2021 3649.00 6208.46 84.92 5.00 370.39 2653.32
   01:05:45.537.28-May-2021 3649.00 6208.46 84.92 5.00 370.59 2653.32
   01:05:45.737.28-May-2021 3649.00 6203.97 84.93 5.00 370.79 2653.32
   01:05:45.937.28-May-2021 3649.00 6212.70 84.93 5.00 370.99 2653.32
   01:05:46.137.28-May-2021 3649.00 6203.00 84.93 5.00 371.19 2653.32
   01:05:46.338.28-May-2021 3649.00 6205.85 84.93 5.00 371.39 2653.32
   01:05:46.538.28-May-2021 3649.00 6205.85 84.93 5.00 371.59 2653.32
   01:05:46.738.28-May-2021 3649.00 6206.63 84.94 5.00 371.79 2653.32
   01:05:46.938.28-May-2021 3649.00 6207.15 84.94 5.00 371.99 2653.32
   01:05:47.139.28-May-2021 3649.00 6214.42 84.94 5.00 372.19 2653.32
   01:05:47.339.28-May-2021 3649.00 6205.39 84.94 5.00 372.39 2653.32
   01:05:47.539.28-May-2021 3649.00 6205.39 84.94 5.00 372.59 2653.32
   01:05:47.739.28-May-2021 3649.00 6208.80 84.95 5.00 372.79 2653.32
   01:05:47.939.28-May-2021 3649.00 6209.40 84.95 5.00 372.99 2653.32
   01:05:48.140.28-May-2021 3649.00 6209.66 84.95 5.00 373.19 2653.32
   01:05:48.340.28-May-2021 3649.00 6214.37 84.96 5.00 373.39 2653.32
   01:05:48.540.28-May-2021 3649.00 6214.37 84.96 5.00 373.59 2653.32
   01:05:48.740.28-May-2021 3649.00 6209.47 84.96 5.00 373.79 2653.32
   01:05:48.940.28-May-2021 3649.00 6210.24 84.96 5.00 373.99 2653.32
   01:05:49.141.28-May-2021 3649.00 6210.00 84.96 5.00 374.19 2653.32
   01:05:49.341.28-May-2021 3649.00 6209.60 84.97 5.00 374.39 2653.32
   01:05:49.541.28-May-2021 3649.00 6209.60 84.97 5.00 374.59 2653.32
   01:05:49.741.28-May-2021 3649.00 6209.29 84.97 5.00 374.79 2653.32
   01:05:49.941.28-May-2021 3649.00 6209.73 84.97 5.00 374.99 2653.32
   01:05:50.142.28-May-2021 3649.00 6209.83 84.97 5.00 375.19 2653.32
   01:05:50.342.28-May-2021 3649.00 6210.30 84.97 5.00 375.39 2653.32
   01:05:50.542.28-May-2021 3649.00 6210.30 84.97 5.00 375.59 2653.32
   01:05:50.742.28-May-2021 3649.00 6209.82 84.98 5.00 375.79 2653.32
   01:05:50.942.28-May-2021 3649.00 6214.90 84.98 5.00 375.99 2653.32
   01:05:51.143.28-May-2021 3649.00 6209.42 84.98 5.00 376.19 2653.32
   01:05:51.343.28-May-2021 3649.00 6209.79 84.98 5.00 376.39 2653.32
   01:05:51.543.28-May-2021 3649.00 6209.79 84.98 5.00 376.59 2653.32
   01:05:51.743.28-May-2021 3649.00 6210.05 84.98 5.00 376.79 2653.32
   01:05:51.944.28-May-2021 3649.00 6209.90 84.99 5.00 376.99 2653.32
   01:05:52.144.28-May-2021 3649.00 6210.08 84.99 5.00 377.19 2653.32
   01:05:52.344.28-May-2021 3649.00 6209.83 84.99 5.00 377.39 2653.32
   01:05:52.544.28-May-2021 3649.00 6209.83 84.99 5.00 377.59 2653.32
   01:05:52.744.28-May-2021 3649.00 6210.29 84.99 5.00 377.79 2653.32
   01:05:52.945.28-May-2021 3649.00 6210.85 84.99 5.00 377.99 2653.32
   01:05:53.145.28-May-2021 3649.00 6210.42 84.99 5.00 378.19 2653.32
   01:05:53.345.28-May-2021 3649.00 6210.35 84.99 5.00 378.39 2653.32
   01:05:53.545.28-May-2021 3649.00 6210.35 84.99 5.00 378.59 2653.32
   01:05:53.745.28-May-2021 3649.00 6209.85 84.99 5.00 378.79 2653.32
   01:05:53.946.28-May-2021 3649.00 6209.85 84.99 5.00 378.99 2653.32
   01:05:54.146.28-May-2021 3649.00 6217.83 84.99 5.00 379.19 2653.32
   01:05:54.346.28-May-2021 3649.00 6207.37 84.99 5.00 379.39 2653.32
   01:05:54.546.28-May-2021 3649.00 6207.37 84.99 5.00 379.59 2653.32
   01:05:54.746.28-May-2021 3649.00 6210.32 85.00 5.00 379.80 2653.32
   01:05:54.947.28-May-2021 3649.00 6209.81 85.00 5.00 380.00 2653.32
   01:05:55.147.28-May-2021 3649.00 6209.98 85.00 5.00 380.20 2653.32
   01:05:55.347.28-May-2021 3649.00 6216.92 85.00 5.00 380.40 2653.32
   01:05:55.547.28-May-2021 3649.00 6216.92 85.00 5.00 380.60 2653.32
   01:05:55.747.28-May-2021 3649.00 6210.33 85.00 5.00 380.80 2653.32
   01:05:55.948.28-May-2021 3649.00 6210.56 85.00 5.00 381.00 2653.32
   01:05:56.148.28-May-2021 3649.00 6210.94 85.00 5.00 381.20 2653.32
   01:05:56.348.28-May-2021 3649.00 6210.86 85.00 5.00 381.40 2653.32
   01:05:56.548.28-May-2021 3649.00 6210.86 85.00 5.00 381.60 2653.32
   01:05:56.749.28-May-2021 3649.00 6209.40 85.00 5.00 381.80 2653.32
   01:05:56.949.28-May-2021 3649.00 6210.31 85.00 5.00 382.00 2653.32
   01:05:57.149.28-May-2021 3649.00 6211.06 85.00 5.00 382.20 2653.32
   01:05:57.349.28-May-2021 3649.00 6210.81 85.00 5.00 382.40 2653.32
   01:05:57.549.28-May-2021 3649.00 6210.81 85.00 5.00 382.60 2653.32
   01:05:57.750.28-May-2021 3649.00 6210.46 85.00 5.00 382.80 2653.32
   01:05:57.950.28-May-2021 3649.00 6210.14 85.00 5.00 383.00 2653.32
   01:05:58.150.28-May-2021 3649.00 6210.59 85.00 5.00 383.20 2653.32
   01:05:58.350.28-May-2021 3649.00 6210.65 85.00 5.00 383.40 2653.32
   01:05:58.550.28-May-2021 3649.00 6210.65 85.00 5.00 383.60 2653.32
   01:05:58.751.28-May-2021 3649.00 6210.59 85.00 5.00 383.80 2653.32
   01:05:58.951.28-May-2021 3649.00 6210.51 85.00 5.00 384.00 2653.32
   01:05:59.151.28-May-2021 3649.00 6215.55 85.00 5.00 384.20 2653.32
   01:05:59.351.28-May-2021 3649.00 6210.04 85.00 5.00 384.40 2653.32
   01:05:59.551.28-May-2021 3649.00 6210.04 85.00 5.00 384.60 2653.32
   01:05:59.752.28-May-2021 3649.00 6211.17 85.00 5.00 384.80 2653.32
   01:05:59.952.28-May-2021 3649.00 6210.53 85.00 5.00 385.00 2653.32
   01:06:00.152.28-May-2021 3649.00 6210.31 85.00 5.00 385.20 2653.32
   01:06:00.352.28-May-2021 3649.00 6210.41 85.00 5.00 385.40 2653.32
   01:06:00.552.28-May-2021 3649.00 6210.41 85.00 5.00 385.60 2653.32
   01:06:00.753.28-May-2021 3649.00 6210.38 85.00 5.00 385.80 2653.32
   01:06:00.953.28-May-2021 3649.00 6210.55 85.00 5.00 386.00 2653.32
   01:06:01.153.28-May-2021 3649.00 6211.02 85.00 5.00 386.20 2653.32
   01:06:01.353.28-May-2021 3649.00 6210.58 85.00 5.00 386.40 2653.32
   01:06:01.554.28-May-2021 3649.00 6210.58 85.00 5.00 386.60 2653.32
   01:06:01.754.28-May-2021 3649.00 6217.45 85.00 5.00 386.80 2653.32
   01:06:01.954.28-May-2021 3649.00 6207.74 85.00 5.00 387.00 2653.32
   01:06:02.154.28-May-2021 3649.00 6210.02 85.00 5.00 387.20 2653.32
   01:06:02.354.28-May-2021 3649.00 6215.19 85.00 5.00 387.40 2653.32
   01:06:02.555.28-May-2021 3649.00 6215.19 85.00 5.00 387.60 2653.32
   01:06:02.755.28-May-2021 3649.00 6210.28 85.00 5.00 387.80 2653.32
   01:06:02.955.28-May-2021 3649.00 6209.71 85.00 5.00 388.00 2653.32
   01:06:03.155.28-May-2021 3649.00 6210.12 85.00 5.00 388.20 2653.32
   01:06:03.355.28-May-2021 3649.00 6217.63 85.00 5.00 388.40 2653.32
   01:06:03.556.28-May-2021 3649.00 6217.63 85.00 5.00 388.60 2653.32
   01:06:03.756.28-May-2021 3649.00 6210.16 85.00 5.00 388.80 2653.32
   01:06:03.956.28-May-2021 3649.00 6211.15 85.00 5.00 389.00 2653.32
   01:06:04.156.28-May-2021 3649.00 6210.34 85.00 5.00 389.20 2653.32
   01:06:04.356.28-May-2021 3649.00 6215.60 85.00 5.00 389.41 2653.32
   01:06:04.557.28-May-2021 3649.00 6215.60 85.00 5.00 389.61 2653.32
   01:06:04.757.28-May-2021 3649.00 6210.31 85.00 5.00 389.81 2653.32
   01:06:04.957.28-May-2021 3649.00 6210.51 85.00 5.00 390.01 2653.32
   01:06:05.157.28-May-2021 3649.00 6210.90 85.00 5.00 390.21 2653.32
   01:06:05.357.28-May-2021 3649.00 6211.25 84.99 5.00 390.41 2653.32
   01:06:05.558.28-May-2021 3649.00 6211.25 84.99 5.00 390.61 2653.32
   01:06:05.758.28-May-2021 3649.00 6210.28 84.99 5.00 390.81 2653.32
   01:06:05.958.28-May-2021 3649.00 6210.49 84.99 5.00 391.01 2653.32
   01:06:06.158.28-May-2021 3649.00 6210.38 84.99 5.00 391.21 2653.32
