~Version Information
 VERS.                  2.0:   CWLS log ASCII Standard -VERSION 2.0
 WRAP.                   NO:   One line per depth step
~Well Information Block
#MNEM.UNIT     VALUE/NAME     DESCRIPTION
#---------     -----------    ---------------------------
 STRT.S             09:05:41 28-May-21: START TIME 09:05:41 28-May-21
 STOP.S             09:12:44 28-May-21: STOP TIME  09:12:44 28-May-21
 STEP.S                   0.00: STEP TIME
 NULL.                 -999.25: NULL VALUE
 UWI .                     N/A:  UNIQUE WELL IDENTIFIER
 API .                     N/A:  API NUMBER
 UNIT.                     N/A:  LOGGING EQUIPMENT ID
 DCON.         Sperry Drilling:  DIRECTNL CONTR
 DOE .                     N/A:  DOE NUMBER
 MWDS.                    Baku:  MWD SHOP
 SRVC.     Turan Drilling and Engineering:  CONTRACTOR
 CTRY.              Azerbaijan:  COUNTRY NAME
 PROV.                    Baku:  PROVINCE
 STAT.                    Baku:  STATE NAME
 REGN.                   EESSA:  REGION
 BASE.              Azerbaijan:  LOGGING EQUIPMENT BASE LOCATION
 WTYP.                Deviated:  WELL TYPE
 RIG .              East Azeri:  RIG NAME
 WELL.                    D02y:  WELL NAME
 FLD .                     ACG:  FIELD NAME
 COMP.     BP Exploration (Caspian Sea) Ltd.:  COMPANY
 PDAT.          Mean Sea Level:  PERMANENT DATUM
 MDS .        Operator Entered:  MAG DATA SOURCE
 SON .        AZ-XX-0906997291:  JOB NUMBER
 FTOP.          Formation Tops:  FORM TOPS DESC
 ILTD.               Lithology:  INTERP LTH DESC
 SVYD.                  Survey:  SURVEY DESC
 DMOD.             Drill Model:  DRILL MOD DESC
 HPTY.       Minimum Curvature:  HOLE POS TYPE
 NREF.                    Grid:  NORTH REFERENCE
 SPUD.               05-May-21:  SPUD DATE
 DATE.      09.27.28 12-Jun-21:  END TIME
 STIM.      09.27.28 12-May-21:  START TIME
 DMF .             Drill Floor:  DRILL MEAS FROM
 DFST.                        :  DIST FSL TEXT
 DFWT.                        :  DIST FWL TEXT
 CNTY.                        :  COUNTY
 LOC .                        :  LOCATION
 LMF .             Drill Floor:  LOG MEASURED FROM
 DEP .m                2806.40:  DEPTH
 AGAP.m                  43.60:  AIR GAP
 VSNS.m                  -4.42:  VERT SEC N/S
 VSEW.m                  -7.31:  VERT SEC E/W
 APD .m                  43.60:  DEPTH ABOVE PD
 WDMS.m                 151.80:  WD ELEV
 EGL .m                   0.00:  GROUND ELEVATION
 EPD .m                   0.00:  ELEVATION
 AZTC.deg                 6.18:  AZM TOTAL CORR
 GRDC.deg                 0.29:  GRID CORRECTION
 MDEC.deg                 6.47:  MAGNETIC DECL
 MDIP.deg                59.50:  MAGNETIC DIP
 MFLD.nT              50350.00:  MAGNETIC FIELD
 GVFD.g                   1.00:  GRAVITY FIELD
 VSDR.deg               179.08:  VERT SEC DIRECT
 TDD .m                4300.00:  TOTAL DEPTH (DRILLER)
 SDEP.m                2800.00:  START DEPTH
 DFSL.m                   0.00:  DISTANCE FSL
 DFWL.m                   0.00:  DISTANCE FWL
 UTMY.m             4431871.34:  UTM Y
 UTMX.m              538762.90:  UTM X
 WHEW.m                  -7.31:  WELL HEAD E/W
 WHNS.m                  -4.42:  WELL HEAD N/S
 LONG.deg                51.45:  LONGITUDE
 LATI.deg                40.02:  LATITUDE
 TVDS.m                  43.60:  TVDSS CORRECTN
 EKB .m                  43.60:  KB ELEVATION
 EDF .m                  43.60:  DF ELEVATION
 TDL .m                 806.00:  TOTAL DEPTH (LOGGER)
 MAGU.                 1851231:  MAGUTM CHECKSUM
 VSC .                       0:  VS TO CLOSURE
~Parameter Information Block
#MNEM.UNIT       Value        Description
#---------     -----------    ---------------------------
 AV  .mps                 1.60:  Ann Velocity 
 AVMX.mps                 2.00:  Max Ann Veloc 
 AZIF.deg               140.24:  Azm, Final 
 BHAT.        Rotary Steerable:  BHA Type 
 BROT.°/30m               0.50:  Build Rotating 
 BS  .in                  8.50:  Bit Size 
 BTPL.psig              619.00:  Bit Press Loss 
 CABU.                     Yes:  Customer Abuse 
 CGEO.          Ilgar Gurbanov:  Customer Geo 
 COMM.                     ÜøQ:  Run Comments 1 
 TCS .hr                 85.88:  Time Ciculation Ended 
 CV  .mps                 3.30:  Crit Velocity 
 CVMX.mps                 3.50:  Max Crit Veloc 
 DD1 .           Hamid Axmedov:  Direct Drillr 1 
 DD2 .           Teymur Aliyev:  Direct Drillr 2 
 DDSV.               Geo-Pilot:  DD Service 
 DEFF.%                 100.00:  % Det Eff 
 DLRX.°/30m               0.00:  Dogleg Rot Max 
 DLSO.°/30m               1.80:  Dogleg Oriented 
 DLSX.°/30m               3.34:  Dogleg Str Max 
 DRET.      11.50.00 27-May-21:  Drill End Time 
 DRST.      21.13.00 24-May-21:  Drill Start Tim 
 DTIM.hr                 45.11:  Time Drilling 
 EDEP.m                4054.00:  End Depth 
 ENG1.         Almaz Almadatov:  Engineer 1 
 ENG2.           Amrah Tahirov:  Engineer 2 
 ENG3.      Bakhtiyar Jabbarli:  Engineer 3 
 ENG4.          Nazrin Asgarli:  Engineer 4 
 ETIM.      10.00.00 30-May-21:  End Time 
 FLOI.gpm               530.00:  Flow In 
 FLON.gpm               400.00:  Flow In Min 
 FLOS.cptm                0.00:  Fluid Loss 
 FLOX.gpm               560.00:  Flow In Max 
 DFT .        Mineral Oil Base:  Mud Type 
 FTRO.       Formation Presure:  FTWD Run Obj 
 HFLO.                      No:  High Flow 
 HPRE.                      No:  High Pressure 
 HTEM.                      No:  High Temp 
 HYDO.m                   1.80:  Hydro Offset 
 IFIN.deg                73.83:  Inc, Final 
 IMAX.deg                73.83:  Inc Max 
 IMIN.deg                57.86:  Inc Min 
 IMND.m                3259.27:  Inc Min Depth 
 IMXD.m                4045.58:  Inc Max Depth 
 JARR.                     Yes:  Jarring 
 LETM.      11.50.00 27-May-21:  Log End Time 
 LOST.hr                     0:  Lost Rig Time 
 LSTM.      21.13.00 24-May-21:  Log Start Time 
 MDCL.ppm             42500.00:  Mud Chlorides 
 MDES.     Inversion Oil/Synthetic:  Mud Desc 
 DFD .sg                  1.52:  Mud Density 
 MDMN.sg                  1.52:  Dens Mud Min 
 MDMX.sg                  1.52:  Dens Mud Max 
 MOIL.                      70:  Run Mud Oil % 
 MOWR.                   70:30:  Run Mud OWR 
 MSND.                     0.2:  Run Mud Sand % 
 MSOL.                      22:  Run Mud Solids% 
 DFV .spqt               77.00:  Mud Viscosity 
 MWOD.in                  6.75:  MWD Tool OD 
 MWSI.                      No:  Serv Intrp, MWD 
 OTIM.hr                151.01:  Time Operating 
 PCON.          Wear / Scratch:  Pad Condition 
 PMAX.psia            11296.93:  Press Op, Max 
 PV  .cP                 37.00:  Mud PV 
 RUN .                     500:  Run Number 
 ROPA.m/hr               25.00:  ROP Avg 
 ROPN.m/hr                9.00:  ROP Min 
 ROPX.m/hr               28.00:  ROP Max 
 RPMA.rpm               140.00:  RPM Surface Avg 
 RPMN.rpm                90.00:  RPM Surface Min 
 RPMX.rpm               140.00:  RPM Surface Max 
 RRUN.                    0500:  Rig Run Number 
 SAZI.deg               172.17:  Azm, Start 
 SDEP.m                3248.00:  Start Depth 
 SIDD.                      No:  Serv Intrp, DD 
 SINC.deg                57.86:  Inc, Start 
 SPPA.psig             5620.00:  SPP Avg 
 SPPN.psig             5190.00:  SPP Min 
 SPPX.psig             6050.00:  SPP Max 
 STIM.      16.00.00 23-May-21:  Start Time 
 SVCS.                 DD, MWD:  Services 
 SVER.                    9.20:  Sperry Version 
 TDAT.m                 806.00:  Tot Depth Attmp 
 TDDF.                      No:  Trip for DD 
 TDLG.m                 806.00:  Tot Depth Loggd 
 TFF .                      No:  Trip for Fail 
 TQAA.f-kp               12.00:  Torque Abs Avg 
 TQAN.f-kp                8.00:  Torque Abs Min 
 TQAX.f-kp               15.00:  Torque Abs Max 
 TRRT.°/30m               0.30:  Turn Rotating 
 MRT .                  EWR-M5:  Maximum Recorded Temperature 
 TTMX.degC               93.00:  Max Tool Temp 
 VS01.                90649155:  Virtual Str1 SN 
 VS02.                90642264:  Virtual Str2 SN 
 VS03.                90642266:  Virtual Str3 SN 
 VS04.                90642261:  Virtual Str4 SN 
 WBMN.klb                 0.00:  WOB Min 
 WITN.             Anar Khalil:  Customer Rep 
 WITN.           Murad Guliyev:  Customer Rep 2 
 WOBA.klb                13.00:  WOB Avg 
 WOBX.klb                25.00:  WOB Max 
 YP  .lhf2               32.00:  Yield Point 
~Curve Information Block
#MNEM.UNIT                 API CODE     Curve Description
#---------               -----------    ---------------------------
 TIME.HHMMSS            00 000 000 000:  GT Time & Date
 GTDEPTH.m              00 000 000 000:  GT Depth
 GTPQH.psia             00 000 000 000:  GT HR Quartz Pressure
 GTTQ.degC              00 000 000 000:  GT Quartz Temperature
 GTTN.NONE              00 000 000 000:  GT Test Number
 GTET.sec               00 000 000 000:  GT Elapsed Test Time
 GTTVD.m                00 000 000 000:  GT True Vertical Depth
#Other Information
#
#WARRANTY: Halliburton will use its best efforts to furnish customers with 
#accurate information and interpretations that are part of, and incident to, the services 
#provided.  However, Halliburton cannot and does not warrant the accuracy 
#or correctness of such information and interpretations.  Under no circumstances should any 
#such information or interpretation be relied upon as the sole basis for any drilling, 
#completion, production, or financial decision or any procedure involving any risk to the 
#safety of any drilling venture, drilling rig or its crew or any other third party.  The 
#Customer has full responsibility for all drilling, completion and production operation.  
#Halliburton makes no representations or warranties, either expressed or 
#implied, including, but not limited to, the implied warranties of merchantability or fitness 
#for a particular purpose, with respect to the services rendered.  In no event will 
#Halliburton be liable for failure to obtain any particular results or for 
#any damages, including, but not limited to, indirect, special or consequential damages, 
#resulting from the use of any information or interpretation provided by Halliburton.
#
~A           TIME           GTDEPTH  GTPQH  GTTQ  GTTN   GTET   GTTVD  
# ...
   09:11:42.769.28-May-2021 3286.00 4016.88 82.08 15.00 361.65 2493.81
   09:11:42.969.28-May-2021 3286.00 4018.20 82.08 15.00 361.85 2493.81
   09:11:43.169.28-May-2021 3286.00 4017.81 82.08 15.00 362.05 2493.81
   09:11:43.369.28-May-2021 3286.00 4017.81 82.08 15.00 362.25 2493.81
   09:11:43.569.28-May-2021 3286.00 4017.68 82.08 15.00 362.45 2493.81
   09:11:43.769.28-May-2021 3286.00 4016.85 82.08 15.00 362.65 2493.81
   09:11:43.969.28-May-2021 3286.00 4018.20 82.08 15.00 362.85 2493.81
   09:11:44.169.28-May-2021 3286.00 4017.80 82.08 15.00 363.05 2493.81
   09:11:44.369.28-May-2021 3286.00 4017.80 82.08 15.00 363.25 2493.81
   09:11:44.569.28-May-2021 3286.00 4017.70 82.08 15.00 363.45 2493.81
   09:11:44.769.28-May-2021 3286.00 4017.69 82.08 15.00 363.65 2493.81
   09:11:44.969.28-May-2021 3286.00 4017.68 82.08 15.00 363.85 2493.81
   09:11:45.169.28-May-2021 3286.00 4017.69 82.08 15.00 364.05 2493.81
   09:11:45.369.28-May-2021 3286.00 4017.69 82.08 15.00 364.25 2493.81
   09:11:45.569.28-May-2021 3286.00 4017.67 82.08 15.00 364.45 2493.81
   09:11:45.769.28-May-2021 3286.00 4017.67 82.08 15.00 364.65 2493.81
   09:11:45.969.28-May-2021 3286.00 4017.65 82.08 15.00 364.85 2493.81
   09:11:46.169.28-May-2021 3286.00 4017.65 82.08 15.00 365.05 2493.81
   09:11:46.369.28-May-2021 3286.00 4017.65 82.08 15.00 365.25 2493.81
   09:11:46.569.28-May-2021 3286.00 4017.96 82.08 15.00 365.45 2493.81
   09:11:46.769.28-May-2021 3286.00 4017.79 82.08 15.00 365.65 2493.81
   09:11:46.969.28-May-2021 3286.00 4017.73 82.08 15.00 365.85 2493.81
   09:11:47.169.28-May-2021 3286.00 4017.71 82.08 15.00 366.05 2493.81
   09:11:47.369.28-May-2021 3286.00 4017.71 82.08 15.00 366.25 2493.81
   09:11:47.569.28-May-2021 3286.00 4017.69 82.08 15.00 366.45 2493.81
   09:11:47.769.28-May-2021 3286.00 4017.66 82.08 15.00 366.65 2493.81
   09:11:47.969.28-May-2021 3286.00 4017.66 82.08 15.00 366.85 2493.81
   09:11:48.170.28-May-2021 3286.00 4017.65 82.08 15.00 367.05 2493.81
   09:11:48.370.28-May-2021 3286.00 4017.65 82.08 15.00 367.25 2493.81
   09:11:48.570.28-May-2021 3286.00 4016.12 82.08 15.00 367.45 2493.81
   09:11:48.770.28-May-2021 3286.00 4102.57 82.08 15.00 367.65 2493.81
   09:11:48.970.28-May-2021 3286.00 4759.16 82.08 15.00 367.85 2493.81
   09:11:49.170.28-May-2021 3286.00 5812.44 82.08 15.00 368.05 2493.81
   09:11:49.370.28-May-2021 3286.00 5812.44 82.08 15.00 368.25 2493.81
   09:11:49.570.28-May-2021 3286.00 5809.41 82.08 15.00 368.45 2493.81
   09:11:49.770.28-May-2021 3286.00 5810.82 82.08 15.00 368.65 2493.81
   09:11:49.970.28-May-2021 3286.00 5809.69 82.08 15.00 368.85 2493.81
   09:11:50.170.28-May-2021 3286.00 5818.14 82.08 15.00 369.05 2493.81
   09:11:50.370.28-May-2021 3286.00 5818.14 82.08 15.00 369.25 2493.81
   09:11:50.570.28-May-2021 3286.00 5812.28 82.08 15.00 369.45 2493.81
   09:11:50.770.28-May-2021 3286.00 5812.22 82.08 15.00 369.65 2493.81
   09:11:50.970.28-May-2021 3286.00 5819.38 82.08 15.00 369.85 2493.81
   09:11:51.170.28-May-2021 3286.00 5810.61 82.08 15.00 370.05 2493.81
   09:11:51.370.28-May-2021 3286.00 5810.61 82.08 15.00 370.25 2493.81
   09:11:51.570.28-May-2021 3286.00 5813.63 82.09 15.00 370.45 2493.81
   09:11:51.770.28-May-2021 3286.00 5813.91 82.09 15.00 370.65 2493.81
   09:11:51.970.28-May-2021 3286.00 5821.38 82.09 15.00 370.85 2493.81
   09:11:52.170.28-May-2021 3286.00 5811.99 82.09 15.00 371.05 2493.81
   09:11:52.370.28-May-2021 3286.00 5811.99 82.09 15.00 371.25 2493.81
   09:11:52.570.28-May-2021 3286.00 5814.88 82.09 15.00 371.45 2493.81
   09:11:52.770.28-May-2021 3286.00 5815.22 82.09 15.00 371.65 2493.81
   09:11:52.970.28-May-2021 3286.00 5815.47 82.10 15.00 371.85 2493.81
   09:11:53.170.28-May-2021 3286.00 5815.29 82.10 15.00 372.05 2493.81
   09:11:53.370.28-May-2021 3286.00 5815.29 82.10 15.00 372.25 2493.81
   09:11:53.570.28-May-2021 3286.00 5814.40 82.10 15.00 372.45 2493.81
   09:11:53.770.28-May-2021 3286.00 5814.43 82.10 15.00 372.65 2493.81
   09:11:53.970.28-May-2021 3286.00 5814.45 82.10 15.00 372.85 2493.81
   09:11:54.170.28-May-2021 3286.00 5814.48 82.10 15.00 373.05 2493.81
   09:11:54.370.28-May-2021 3286.00 5814.48 82.10 15.00 373.25 2493.81
   09:11:54.570.28-May-2021 3286.00 5821.98 82.10 15.00 373.45 2493.81
   09:11:54.770.28-May-2021 3286.00 5811.52 82.11 15.00 373.65 2493.81
   09:11:54.970.28-May-2021 3286.00 5815.93 82.11 15.00 373.85 2493.81
   09:11:55.170.28-May-2021 3286.00 5814.90 82.11 15.00 374.05 2493.81
   09:11:55.370.28-May-2021 3286.00 5814.90 82.11 15.00 374.25 2493.81
   09:11:55.571.28-May-2021 3286.00 5815.61 82.11 15.00 374.45 2493.81
   09:11:55.771.28-May-2021 3286.00 5815.72 82.11 15.00 374.65 2493.81
   09:11:55.971.28-May-2021 3286.00 5815.32 82.11 15.00 374.85 2493.81
   09:11:56.171.28-May-2021 3286.00 5815.06 82.11 15.00 375.05 2493.81
   09:11:56.371.28-May-2021 3286.00 5815.06 82.11 15.00 375.25 2493.81
   09:11:56.571.28-May-2021 3286.00 5814.86 82.11 15.00 375.45 2493.81
   09:11:56.771.28-May-2021 3286.00 5814.83 82.11 15.00 375.65 2493.81
   09:11:56.971.28-May-2021 3286.00 5814.84 82.11 15.00 375.85 2493.81
   09:11:57.171.28-May-2021 3286.00 5819.96 82.11 15.00 376.05 2493.81
   09:11:57.371.28-May-2021 3286.00 5819.96 82.11 15.00 376.25 2493.81
   09:11:57.571.28-May-2021 3286.00 5815.76 82.12 15.00 376.45 2493.81
   09:11:57.771.28-May-2021 3286.00 5814.64 82.12 15.00 376.65 2493.81
   09:11:57.971.28-May-2021 3286.00 5815.98 82.12 15.00 376.85 2493.81
   09:11:58.171.28-May-2021 3286.00 5814.87 82.12 15.00 377.05 2493.81
   09:11:58.371.28-May-2021 3286.00 5814.87 82.12 15.00 377.25 2493.81
   09:11:58.571.28-May-2021 3286.00 5814.60 82.12 15.00 377.45 2493.81
   09:11:58.771.28-May-2021 3286.00 5815.28 82.12 15.00 377.65 2493.81
   09:11:58.971.28-May-2021 3286.00 5815.82 82.12 15.00 377.85 2493.81
   09:11:59.171.28-May-2021 3286.00 5819.20 82.12 15.00 378.05 2493.81
   09:11:59.371.28-May-2021 3286.00 5819.20 82.12 15.00 378.25 2493.81
   09:11:59.571.28-May-2021 3286.00 5815.53 82.12 15.00 378.45 2493.81
   09:11:59.771.28-May-2021 3286.00 5815.89 82.12 15.00 378.65 2493.81
   09:11:59.971.28-May-2021 3286.00 5814.94 82.12 15.00 378.85 2493.81
   09:12:00.171.28-May-2021 3286.00 5820.37 82.12 15.00 379.05 2493.81
   09:12:00.371.28-May-2021 3286.00 5820.37 82.12 15.00 379.25 2493.81
   09:12:00.571.28-May-2021 3286.00 5815.47 82.12 15.00 379.45 2493.81
   09:12:00.771.28-May-2021 3286.00 5816.23 82.12 15.00 379.65 2493.81
   09:12:00.971.28-May-2021 3286.00 5815.36 82.12 15.00 379.85 2493.81
   09:12:01.171.28-May-2021 3286.00 5816.13 82.12 15.00 380.05 2493.81
   09:12:01.371.28-May-2021 3286.00 5816.13 82.12 15.00 380.25 2493.81
   09:12:01.571.28-May-2021 3286.00 5815.27 82.12 15.00 380.45 2493.81
   09:12:01.771.28-May-2021 3286.00 5815.02 82.12 15.00 380.65 2493.81
   09:12:01.971.28-May-2021 3286.00 5814.84 82.12 15.00 380.85 2493.81
   09:12:02.171.28-May-2021 3286.00 5814.73 82.12 15.00 381.05 2493.81
   09:12:02.371.28-May-2021 3286.00 5814.73 82.12 15.00 381.25 2493.81
   09:12:02.571.28-May-2021 3286.00 5816.36 82.12 15.00 381.45 2493.81
   09:12:02.771.28-May-2021 3286.00 5816.65 82.12 15.00 381.65 2493.81
   09:12:02.972.28-May-2021 3286.00 5815.34 82.12 15.00 381.85 2493.81
   09:12:03.172.28-May-2021 3286.00 5814.76 82.12 15.00 382.05 2493.81
   09:12:03.372.28-May-2021 3286.00 5814.76 82.12 15.00 382.25 2493.81
   09:12:03.572.28-May-2021 3286.00 5814.93 82.12 15.00 382.45 2493.81
   09:12:03.772.28-May-2021 3286.00 5815.72 82.12 15.00 382.65 2493.81
   09:12:03.972.28-May-2021 3286.00 5815.26 82.12 15.00 382.85 2493.81
   09:12:04.172.28-May-2021 3286.00 5815.21 82.12 15.00 383.05 2493.81
   09:12:04.372.28-May-2021 3286.00 5815.21 82.12 15.00 383.25 2493.81
   09:12:04.572.28-May-2021 3286.00 5814.96 82.12 15.00 383.45 2493.81
   09:12:04.772.28-May-2021 3286.00 5814.85 82.12 15.00 383.65 2493.81
   09:12:04.972.28-May-2021 3286.00 5814.82 82.12 15.00 383.85 2493.81
   09:12:05.172.28-May-2021 3286.00 5814.71 82.12 15.00 384.05 2493.81
