~Version Information
 VERS.                  2.0:   CWLS log ASCII Standard -VERSION 2.0
 WRAP.                   NO:   One line per depth step
~Well Information Block
#MNEM.UNIT     VALUE/NAME     DESCRIPTION
#---------     -----------    ---------------------------
 STRT.S             06:06:39 28-May-21: START TIME 06:06:39 28-May-21
 STOP.S             06:13:42 28-May-21: STOP TIME  06:13:42 28-May-21
 STEP.S                   0.00: STEP TIME
 NULL.                 -999.25: NULL VALUE
 UWI .                     N/A:  UNIQUE WELL IDENTIFIER
 API .                     N/A:  API NUMBER
 UNIT.                     N/A:  LOGGING EQUIPMENT ID
 DCON.         Sperry Drilling:  DIRECTNL CONTR
 DOE .                     N/A:  DOE NUMBER
 MWDS.                    Baku:  MWD SHOP
 SRVC.     Turan Drilling and Engineering:  CONTRACTOR
 CTRY.              Azerbaijan:  COUNTRY NAME
 PROV.                    Baku:  PROVINCE
 STAT.                    Baku:  STATE NAME
 REGN.                   EESSA:  REGION
 BASE.              Azerbaijan:  LOGGING EQUIPMENT BASE LOCATION
 WTYP.                Deviated:  WELL TYPE
 RIG .              East Azeri:  RIG NAME
 WELL.                    D02y:  WELL NAME
 FLD .                     ACG:  FIELD NAME
 COMP.     BP Exploration (Caspian Sea) Ltd.:  COMPANY
 PDAT.          Mean Sea Level:  PERMANENT DATUM
 MDS .        Operator Entered:  MAG DATA SOURCE
 SON .        AZ-XX-0906997291:  JOB NUMBER
 FTOP.          Formation Tops:  FORM TOPS DESC
 ILTD.               Lithology:  INTERP LTH DESC
 SVYD.                  Survey:  SURVEY DESC
 DMOD.             Drill Model:  DRILL MOD DESC
 HPTY.       Minimum Curvature:  HOLE POS TYPE
 NREF.                    Grid:  NORTH REFERENCE
 SPUD.               05-May-21:  SPUD DATE
 DATE.      09.27.28 12-Jun-21:  END TIME
 STIM.      09.27.28 12-May-21:  START TIME
 DMF .             Drill Floor:  DRILL MEAS FROM
 DFST.                        :  DIST FSL TEXT
 DFWT.                        :  DIST FWL TEXT
 CNTY.                        :  COUNTY
 LOC .                        :  LOCATION
 LMF .             Drill Floor:  LOG MEASURED FROM
 DEP .m                2806.40:  DEPTH
 AGAP.m                  43.60:  AIR GAP
 VSNS.m                  -4.42:  VERT SEC N/S
 VSEW.m                  -7.31:  VERT SEC E/W
 APD .m                  43.60:  DEPTH ABOVE PD
 WDMS.m                 151.80:  WD ELEV
 EGL .m                   0.00:  GROUND ELEVATION
 EPD .m                   0.00:  ELEVATION
 AZTC.deg                 6.18:  AZM TOTAL CORR
 GRDC.deg                 0.29:  GRID CORRECTION
 MDEC.deg                 6.47:  MAGNETIC DECL
 MDIP.deg                59.50:  MAGNETIC DIP
 MFLD.nT              50350.00:  MAGNETIC FIELD
 GVFD.g                   1.00:  GRAVITY FIELD
 VSDR.deg               179.08:  VERT SEC DIRECT
 TDD .m                4300.00:  TOTAL DEPTH (DRILLER)
 SDEP.m                2800.00:  START DEPTH
 DFSL.m                   0.00:  DISTANCE FSL
 DFWL.m                   0.00:  DISTANCE FWL
 UTMY.m             4431871.34:  UTM Y
 UTMX.m              538762.90:  UTM X
 WHEW.m                  -7.31:  WELL HEAD E/W
 WHNS.m                  -4.42:  WELL HEAD N/S
 LONG.deg                51.45:  LONGITUDE
 LATI.deg                40.02:  LATITUDE
 TVDS.m                  43.60:  TVDSS CORRECTN
 EKB .m                  43.60:  KB ELEVATION
 EDF .m                  43.60:  DF ELEVATION
 TDL .m                 806.00:  TOTAL DEPTH (LOGGER)
 MAGU.                 1851231:  MAGUTM CHECKSUM
 VSC .                       0:  VS TO CLOSURE
~Parameter Information Block
#MNEM.UNIT       Value        Description
#---------     -----------    ---------------------------
 AV  .mps                 1.60:  Ann Velocity 
 AVMX.mps                 2.00:  Max Ann Veloc 
 AZIF.deg               140.24:  Azm, Final 
 BHAT.        Rotary Steerable:  BHA Type 
 BROT.°/30m               0.50:  Build Rotating 
 BS  .in                  8.50:  Bit Size 
 BTPL.psig              619.00:  Bit Press Loss 
 CABU.                     Yes:  Customer Abuse 
 CGEO.          Ilgar Gurbanov:  Customer Geo 
 COMM.                     ´.T:  Run Comments 1 
 TCS .hr                 85.88:  Time Ciculation Ended 
 CV  .mps                 3.30:  Crit Velocity 
 CVMX.mps                 3.50:  Max Crit Veloc 
 DD1 .           Hamid Axmedov:  Direct Drillr 1 
 DD2 .           Teymur Aliyev:  Direct Drillr 2 
 DDSV.               Geo-Pilot:  DD Service 
 DEFF.%                 100.00:  % Det Eff 
 DLRX.°/30m               0.00:  Dogleg Rot Max 
 DLSO.°/30m               1.80:  Dogleg Oriented 
 DLSX.°/30m               3.34:  Dogleg Str Max 
 DRET.      11.50.00 27-May-21:  Drill End Time 
 DRST.      21.13.00 24-May-21:  Drill Start Tim 
 DTIM.hr                 45.11:  Time Drilling 
 EDEP.m                4054.00:  End Depth 
 ENG1.         Almaz Almadatov:  Engineer 1 
 ENG2.           Amrah Tahirov:  Engineer 2 
 ENG3.      Bakhtiyar Jabbarli:  Engineer 3 
 ENG4.          Nazrin Asgarli:  Engineer 4 
 ETIM.      10.00.00 30-May-21:  End Time 
 FLOI.gpm               530.00:  Flow In 
 FLON.gpm               400.00:  Flow In Min 
 FLOS.cptm                0.00:  Fluid Loss 
 FLOX.gpm               560.00:  Flow In Max 
 DFT .        Mineral Oil Base:  Mud Type 
 FTRO.       Formation Presure:  FTWD Run Obj 
 HFLO.                      No:  High Flow 
 HPRE.                      No:  High Pressure 
 HTEM.                      No:  High Temp 
 HYDO.m                   1.80:  Hydro Offset 
 IFIN.deg                73.83:  Inc, Final 
 IMAX.deg                73.83:  Inc Max 
 IMIN.deg                57.86:  Inc Min 
 IMND.m                3259.27:  Inc Min Depth 
 IMXD.m                4045.58:  Inc Max Depth 
 JARR.                     Yes:  Jarring 
 LETM.      11.50.00 27-May-21:  Log End Time 
 LOST.hr                     0:  Lost Rig Time 
 LSTM.      21.13.00 24-May-21:  Log Start Time 
 MDCL.ppm             42500.00:  Mud Chlorides 
 MDES.     Inversion Oil/Synthetic:  Mud Desc 
 DFD .sg                  1.52:  Mud Density 
 MDMN.sg                  1.52:  Dens Mud Min 
 MDMX.sg                  1.52:  Dens Mud Max 
 MOIL.                      70:  Run Mud Oil % 
 MOWR.                   70:30:  Run Mud OWR 
 MSND.                     0.2:  Run Mud Sand % 
 MSOL.                      22:  Run Mud Solids% 
 DFV .spqt               77.00:  Mud Viscosity 
 MWOD.in                  6.75:  MWD Tool OD 
 MWSI.                      No:  Serv Intrp, MWD 
 OTIM.hr                151.01:  Time Operating 
 PCON.          Wear / Scratch:  Pad Condition 
 PMAX.psia            11296.93:  Press Op, Max 
 PV  .cP                 37.00:  Mud PV 
 RUN .                     500:  Run Number 
 ROPA.m/hr               25.00:  ROP Avg 
 ROPN.m/hr                9.00:  ROP Min 
 ROPX.m/hr               28.00:  ROP Max 
 RPMA.rpm               140.00:  RPM Surface Avg 
 RPMN.rpm                90.00:  RPM Surface Min 
 RPMX.rpm               140.00:  RPM Surface Max 
 RRUN.                    0500:  Rig Run Number 
 SAZI.deg               172.17:  Azm, Start 
 SDEP.m                3248.00:  Start Depth 
 SIDD.                      No:  Serv Intrp, DD 
 SINC.deg                57.86:  Inc, Start 
 SPPA.psig             5620.00:  SPP Avg 
 SPPN.psig             5190.00:  SPP Min 
 SPPX.psig             6050.00:  SPP Max 
 STIM.      16.00.00 23-May-21:  Start Time 
 SVCS.                 DD, MWD:  Services 
 SVER.                    9.20:  Sperry Version 
 TDAT.m                 806.00:  Tot Depth Attmp 
 TDDF.                      No:  Trip for DD 
 TDLG.m                 806.00:  Tot Depth Loggd 
 TFF .                      No:  Trip for Fail 
 TQAA.f-kp               12.00:  Torque Abs Avg 
 TQAN.f-kp                8.00:  Torque Abs Min 
 TQAX.f-kp               15.00:  Torque Abs Max 
 TRRT.°/30m               0.30:  Turn Rotating 
 MRT .                  EWR-M5:  Maximum Recorded Temperature 
 TTMX.degC               93.00:  Max Tool Temp 
 VS01.                90649155:  Virtual Str1 SN 
 VS02.                90642264:  Virtual Str2 SN 
 VS03.                90642266:  Virtual Str3 SN 
 VS04.                90642261:  Virtual Str4 SN 
 WBMN.klb                 0.00:  WOB Min 
 WITN.             Anar Khalil:  Customer Rep 
 WITN.           Murad Guliyev:  Customer Rep 2 
 WOBA.klb                13.00:  WOB Avg 
 WOBX.klb                25.00:  WOB Max 
 YP  .lhf2               32.00:  Yield Point 
~Curve Information Block
#MNEM.UNIT                 API CODE     Curve Description
#---------               -----------    ---------------------------
 TIME.HHMMSS            00 000 000 000:  GT Time & Date
 GTDEPTH.m              00 000 000 000:  GT Depth
 GTPQH.psia             00 000 000 000:  GT HR Quartz Pressure
 GTTQ.degC              00 000 000 000:  GT Quartz Temperature
 GTTN.NONE              00 000 000 000:  GT Test Number
 GTET.sec               00 000 000 000:  GT Elapsed Test Time
 GTTVD.m                00 000 000 000:  GT True Vertical Depth
#Other Information
#
#WARRANTY: Halliburton will use its best efforts to furnish customers with 
#accurate information and interpretations that are part of, and incident to, the services 
#provided.  However, Halliburton cannot and does not warrant the accuracy 
#or correctness of such information and interpretations.  Under no circumstances should any 
#such information or interpretation be relied upon as the sole basis for any drilling, 
#completion, production, or financial decision or any procedure involving any risk to the 
#safety of any drilling venture, drilling rig or its crew or any other third party.  The 
#Customer has full responsibility for all drilling, completion and production operation.  
#Halliburton makes no representations or warranties, either expressed or 
#implied, including, but not limited to, the implied warranties of merchantability or fitness 
#for a particular purpose, with respect to the services rendered.  In no event will 
#Halliburton be liable for failure to obtain any particular results or for 
#any damages, including, but not limited to, indirect, special or consequential damages, 
#resulting from the use of any information or interpretation provided by Halliburton.
#
~A           TIME           GTDEPTH  GTPQH  GTTQ  GTTN   GTET   GTTVD  
# ...
   06:08:54.887.28-May-2021 3440.00 4242.73 83.24 12.00 135.66 2569.12
   06:08:55.087.28-May-2021 3440.00 4242.74 83.24 12.00 135.86 2569.12
   06:08:55.287.28-May-2021 3440.00 4242.73 83.24 12.00 136.06 2569.12
   06:08:55.487.28-May-2021 3440.00 4242.73 83.24 12.00 136.26 2569.12
   06:08:55.687.28-May-2021 3440.00 4242.41 83.24 12.00 136.46 2569.12
   06:08:55.887.28-May-2021 3440.00 4243.08 83.24 12.00 136.66 2569.12
   06:08:56.087.28-May-2021 3440.00 4242.70 83.24 12.00 136.86 2569.12
   06:08:56.287.28-May-2021 3440.00 4242.73 83.24 12.00 137.06 2569.12
   06:08:56.487.28-May-2021 3440.00 4242.73 83.24 12.00 137.26 2569.12
   06:08:56.687.28-May-2021 3440.00 4242.70 83.24 12.00 137.46 2569.12
   06:08:56.888.28-May-2021 3440.00 4242.74 83.24 12.00 137.66 2569.12
   06:08:57.088.28-May-2021 3440.00 4242.73 83.24 12.00 137.86 2569.12
   06:08:57.288.28-May-2021 3440.00 4242.74 83.24 12.00 138.06 2569.12
   06:08:57.488.28-May-2021 3440.00 4242.74 83.24 12.00 138.26 2569.12
   06:08:57.688.28-May-2021 3440.00 4242.74 83.24 12.00 138.46 2569.12
   06:08:57.888.28-May-2021 3440.00 4242.75 83.24 12.00 138.66 2569.12
   06:08:58.088.28-May-2021 3440.00 4242.76 83.24 12.00 138.86 2569.12
   06:08:58.288.28-May-2021 3440.00 4242.74 83.24 12.00 139.06 2569.12
   06:08:58.488.28-May-2021 3440.00 4242.74 83.24 12.00 139.26 2569.12
   06:08:58.688.28-May-2021 3440.00 4242.65 83.24 12.00 139.46 2569.12
   06:08:58.888.28-May-2021 3440.00 4242.69 83.24 12.00 139.66 2569.12
   06:08:59.088.28-May-2021 3440.00 4242.73 83.24 12.00 139.86 2569.12
   06:08:59.289.28-May-2021 3440.00 4242.41 83.24 12.00 140.06 2569.12
   06:08:59.489.28-May-2021 3440.00 4242.41 83.24 12.00 140.26 2569.12
   06:08:59.689.28-May-2021 3440.00 4242.71 83.24 12.00 140.46 2569.12
   06:08:59.889.28-May-2021 3440.00 4242.71 83.24 12.00 140.66 2569.12
   06:09:00.089.28-May-2021 3440.00 4242.40 83.24 12.00 140.86 2569.12
   06:09:00.289.28-May-2021 3440.00 4243.08 83.24 12.00 141.06 2569.12
   06:09:00.489.28-May-2021 3440.00 4243.08 83.24 12.00 141.26 2569.12
   06:09:00.689.28-May-2021 3440.00 4242.71 83.24 12.00 141.46 2569.12
   06:09:00.889.28-May-2021 3440.00 4242.40 83.24 12.00 141.66 2569.12
   06:09:01.089.28-May-2021 3440.00 4243.06 83.24 12.00 141.86 2569.12
   06:09:01.289.28-May-2021 3440.00 4242.70 83.24 12.00 142.06 2569.12
   06:09:01.489.28-May-2021 3440.00 4242.70 83.24 12.00 142.26 2569.12
   06:09:01.690.28-May-2021 3440.00 4242.71 83.24 12.00 142.46 2569.12
   06:09:01.890.28-May-2021 3440.00 4242.70 83.24 12.00 142.66 2569.12
   06:09:02.090.28-May-2021 3440.00 4242.74 83.24 12.00 142.86 2569.12
   06:09:02.290.28-May-2021 3440.00 4242.72 83.24 12.00 143.06 2569.12
   06:09:02.490.28-May-2021 3440.00 4242.72 83.24 12.00 143.26 2569.12
   06:09:02.690.28-May-2021 3440.00 4242.75 83.24 12.00 143.46 2569.12
   06:09:02.890.28-May-2021 3440.00 4242.74 83.24 12.00 143.66 2569.12
   06:09:03.090.28-May-2021 3440.00 4242.73 83.24 12.00 143.86 2569.12
   06:09:03.290.28-May-2021 3440.00 4242.74 83.24 12.00 144.06 2569.12
   06:09:03.490.28-May-2021 3440.00 4242.74 83.24 12.00 144.26 2569.12
   06:09:03.690.28-May-2021 3440.00 4242.67 83.24 12.00 144.46 2569.12
   06:09:03.890.28-May-2021 3440.00 4242.72 83.24 12.00 144.66 2569.12
   06:09:04.091.28-May-2021 3440.00 4242.72 83.24 12.00 144.86 2569.12
   06:09:04.291.28-May-2021 3440.00 4242.73 83.24 12.00 145.06 2569.12
   06:09:04.491.28-May-2021 3440.00 4242.73 83.24 12.00 145.26 2569.12
   06:09:04.691.28-May-2021 3440.00 4242.73 83.24 12.00 145.46 2569.12
   06:09:04.891.28-May-2021 3440.00 4242.74 83.24 12.00 145.66 2569.12
   06:09:05.091.28-May-2021 3440.00 4242.75 83.24 12.00 145.86 2569.12
   06:09:05.291.28-May-2021 3440.00 4242.74 83.24 12.00 146.06 2569.12
   06:09:05.491.28-May-2021 3440.00 4242.74 83.24 12.00 146.26 2569.12
   06:09:05.691.28-May-2021 3440.00 4242.76 83.24 12.00 146.46 2569.12
   06:09:05.891.28-May-2021 3440.00 4242.74 83.24 12.00 146.66 2569.12
   06:09:06.091.28-May-2021 3440.00 4242.42 83.24 12.00 146.86 2569.12
   06:09:06.291.28-May-2021 3440.00 4243.11 83.24 12.00 147.06 2569.12
   06:09:06.492.28-May-2021 3440.00 4243.11 83.24 12.00 147.26 2569.12
   06:09:06.692.28-May-2021 3440.00 4242.74 83.24 12.00 147.46 2569.12
   06:09:06.892.28-May-2021 3440.00 4242.73 83.24 12.00 147.66 2569.12
   06:09:07.092.28-May-2021 3440.00 4242.43 83.24 12.00 147.86 2569.12
   06:09:07.292.28-May-2021 3440.00 4243.06 83.24 12.00 148.06 2569.12
   06:09:07.492.28-May-2021 3440.00 4243.06 83.24 12.00 148.26 2569.12
   06:09:07.692.28-May-2021 3440.00 4242.74 83.24 12.00 148.46 2569.12
   06:09:07.892.28-May-2021 3440.00 4242.81 83.24 12.00 148.66 2569.12
   06:09:08.092.28-May-2021 3440.00 4242.65 83.24 12.00 148.86 2569.12
   06:09:08.292.28-May-2021 3440.00 4242.69 83.24 12.00 149.06 2569.12
   06:09:08.492.28-May-2021 3440.00 4242.69 83.24 12.00 149.26 2569.12
   06:09:08.692.28-May-2021 3440.00 4242.83 83.24 12.00 149.46 2569.12
   06:09:08.893.28-May-2021 3440.00 4242.65 83.24 12.00 149.66 2569.12
   06:09:09.093.28-May-2021 3440.00 4242.70 83.24 12.00 149.86 2569.12
   06:09:09.293.28-May-2021 3440.00 4242.74 83.24 12.00 150.06 2569.12
   06:09:09.493.28-May-2021 3440.00 4242.74 83.24 12.00 150.26 2569.12
   06:09:09.693.28-May-2021 3440.00 4242.72 83.24 12.00 150.46 2569.12
   06:09:09.893.28-May-2021 3440.00 4242.73 83.24 12.00 150.66 2569.12
   06:09:10.093.28-May-2021 3440.00 4242.73 83.25 12.00 150.86 2569.12
   06:09:10.293.28-May-2021 3440.00 4242.74 83.24 12.00 151.06 2569.12
   06:09:10.493.28-May-2021 3440.00 4242.74 83.24 12.00 151.26 2569.12
   06:09:10.693.28-May-2021 3440.00 4242.74 83.25 12.00 151.46 2569.12
   06:09:10.893.28-May-2021 3440.00 4242.74 83.25 12.00 151.66 2569.12
   06:09:11.093.28-May-2021 3440.00 4242.49 83.25 12.00 151.86 2569.12
   06:09:11.294.28-May-2021 3440.00 4165.24 83.25 12.00 152.06 2569.12
   06:09:11.494.28-May-2021 3440.00 4165.24 83.25 12.00 152.26 2569.12
   06:09:11.694.28-May-2021 3440.00 4049.21 83.25 12.00 152.46 2569.12
   06:09:11.894.28-May-2021 3440.00 4053.21 83.25 12.00 152.66 2569.12
   06:09:12.094.28-May-2021 3440.00 4053.91 83.25 12.00 152.86 2569.12
   06:09:12.294.28-May-2021 3440.00 4050.86 83.25 12.00 153.06 2569.12
   06:09:12.494.28-May-2021 3440.00 4050.86 83.25 12.00 153.26 2569.12
   06:09:12.694.28-May-2021 3440.00 4048.40 83.25 12.00 153.46 2569.12
   06:09:12.894.28-May-2021 3440.00 4047.84 83.25 12.00 153.66 2569.12
   06:09:13.094.28-May-2021 3440.00 4047.31 83.25 12.00 153.86 2569.12
   06:09:13.294.28-May-2021 3440.00 4045.16 83.25 12.00 154.06 2569.12
   06:09:13.494.28-May-2021 3440.00 4045.16 83.25 12.00 154.26 2569.12
   06:09:13.695.28-May-2021 3440.00 4044.74 83.25 12.00 154.46 2569.12
   06:09:13.895.28-May-2021 3440.00 4042.35 83.25 12.00 154.66 2569.12
   06:09:14.095.28-May-2021 3440.00 4038.03 83.24 12.00 154.86 2569.12
   06:09:14.295.28-May-2021 3440.00 4040.81 83.24 12.00 155.06 2569.12
   06:09:14.495.28-May-2021 3440.00 4040.81 83.24 12.00 155.26 2569.12
   06:09:14.695.28-May-2021 3440.00 4036.48 83.24 12.00 155.46 2569.12
   06:09:14.895.28-May-2021 3440.00 4036.70 83.24 12.00 155.67 2569.12
   06:09:15.095.28-May-2021 3440.00 4033.78 83.24 12.00 155.87 2569.12
   06:09:15.295.28-May-2021 3440.00 4034.34 83.24 12.00 156.07 2569.12
   06:09:15.495.28-May-2021 3440.00 4034.34 83.24 12.00 156.27 2569.12
   06:09:15.695.28-May-2021 3440.00 4033.83 83.24 12.00 156.47 2569.12
   06:09:15.896.28-May-2021 3440.00 4033.34 83.24 12.00 156.67 2569.12
   06:09:16.096.28-May-2021 3440.00 4031.46 83.24 12.00 156.87 2569.12
   06:09:16.296.28-May-2021 3440.00 4030.21 83.24 12.00 157.07 2569.12
   06:09:16.496.28-May-2021 3440.00 4030.21 83.24 12.00 157.27 2569.12
   06:09:16.696.28-May-2021 3440.00 4029.19 83.24 12.00 157.47 2569.12
   06:09:16.896.28-May-2021 3440.00 4030.02 83.24 12.00 157.67 2569.12
   06:09:17.096.28-May-2021 3440.00 4027.82 83.24 12.00 157.87 2569.12
   06:09:17.296.28-May-2021 3440.00 4027.47 83.24 12.00 158.07 2569.12
