~Version Information
 VERS.                  2.0:   CWLS log ASCII Standard -VERSION 2.0
 WRAP.                   NO:   One line per depth step
~Well Information Block
#MNEM.UNIT     VALUE/NAME     DESCRIPTION
#---------     -----------    ---------------------------
 STRT.S             05:48:37 28-May-21: START TIME 05:48:37 28-May-21
 STOP.S             05:55:44 28-May-21: STOP TIME  05:55:44 28-May-21
 STEP.S                   0.00: STEP TIME
 NULL.                 -999.25: NULL VALUE
 UWI .                     N/A:  UNIQUE WELL IDENTIFIER
 API .                     N/A:  API NUMBER
 UNIT.                     N/A:  LOGGING EQUIPMENT ID
 DCON.         Sperry Drilling:  DIRECTNL CONTR
 DOE .                     N/A:  DOE NUMBER
 MWDS.                    Baku:  MWD SHOP
 SRVC.     Turan Drilling and Engineering:  CONTRACTOR
 CTRY.              Azerbaijan:  COUNTRY NAME
 PROV.                    Baku:  PROVINCE
 STAT.                    Baku:  STATE NAME
 REGN.                   EESSA:  REGION
 BASE.              Azerbaijan:  LOGGING EQUIPMENT BASE LOCATION
 WTYP.                Deviated:  WELL TYPE
 RIG .              East Azeri:  RIG NAME
 WELL.                    D02y:  WELL NAME
 FLD .                     ACG:  FIELD NAME
 COMP.     BP Exploration (Caspian Sea) Ltd.:  COMPANY
 PDAT.          Mean Sea Level:  PERMANENT DATUM
 MDS .        Operator Entered:  MAG DATA SOURCE
 SON .        AZ-XX-0906997291:  JOB NUMBER
 FTOP.          Formation Tops:  FORM TOPS DESC
 ILTD.               Lithology:  INTERP LTH DESC
 SVYD.                  Survey:  SURVEY DESC
 DMOD.             Drill Model:  DRILL MOD DESC
 HPTY.       Minimum Curvature:  HOLE POS TYPE
 NREF.                    Grid:  NORTH REFERENCE
 SPUD.               05-May-21:  SPUD DATE
 DATE.      09.27.28 12-Jun-21:  END TIME
 STIM.      09.27.28 12-May-21:  START TIME
 DMF .             Drill Floor:  DRILL MEAS FROM
 DFST.                        :  DIST FSL TEXT
 DFWT.                        :  DIST FWL TEXT
 CNTY.                        :  COUNTY
 LOC .                        :  LOCATION
 LMF .             Drill Floor:  LOG MEASURED FROM
 DEP .m                2806.40:  DEPTH
 AGAP.m                  43.60:  AIR GAP
 VSNS.m                  -4.42:  VERT SEC N/S
 VSEW.m                  -7.31:  VERT SEC E/W
 APD .m                  43.60:  DEPTH ABOVE PD
 WDMS.m                 151.80:  WD ELEV
 EGL .m                   0.00:  GROUND ELEVATION
 EPD .m                   0.00:  ELEVATION
 AZTC.deg                 6.18:  AZM TOTAL CORR
 GRDC.deg                 0.29:  GRID CORRECTION
 MDEC.deg                 6.47:  MAGNETIC DECL
 MDIP.deg                59.50:  MAGNETIC DIP
 MFLD.nT              50350.00:  MAGNETIC FIELD
 GVFD.g                   1.00:  GRAVITY FIELD
 VSDR.deg               179.08:  VERT SEC DIRECT
 TDD .m                4300.00:  TOTAL DEPTH (DRILLER)
 SDEP.m                2800.00:  START DEPTH
 DFSL.m                   0.00:  DISTANCE FSL
 DFWL.m                   0.00:  DISTANCE FWL
 UTMY.m             4431871.34:  UTM Y
 UTMX.m              538762.90:  UTM X
 WHEW.m                  -7.31:  WELL HEAD E/W
 WHNS.m                  -4.42:  WELL HEAD N/S
 LONG.deg                51.45:  LONGITUDE
 LATI.deg                40.02:  LATITUDE
 TVDS.m                  43.60:  TVDSS CORRECTN
 EKB .m                  43.60:  KB ELEVATION
 EDF .m                  43.60:  DF ELEVATION
 TDL .m                 806.00:  TOTAL DEPTH (LOGGER)
 MAGU.                 1851231:  MAGUTM CHECKSUM
 VSC .                       0:  VS TO CLOSURE
~Parameter Information Block
#MNEM.UNIT       Value        Description
#---------     -----------    ---------------------------
 AV  .mps                 1.60:  Ann Velocity 
 AVMX.mps                 2.00:  Max Ann Veloc 
 AZIF.deg               140.24:  Azm, Final 
 BHAT.        Rotary Steerable:  BHA Type 
 BROT.°/30m               0.50:  Build Rotating 
 BS  .in                  8.50:  Bit Size 
 BTPL.psig              619.00:  Bit Press Loss 
 CABU.                     Yes:  Customer Abuse 
 CGEO.          Ilgar Gurbanov:  Customer Geo 
 COMM.                     dAY:  Run Comments 1 
 TCS .hr                 85.88:  Time Ciculation Ended 
 CV  .mps                 3.30:  Crit Velocity 
 CVMX.mps                 3.50:  Max Crit Veloc 
 DD1 .           Hamid Axmedov:  Direct Drillr 1 
 DD2 .           Teymur Aliyev:  Direct Drillr 2 
 DDSV.               Geo-Pilot:  DD Service 
 DEFF.%                 100.00:  % Det Eff 
 DLRX.°/30m               0.00:  Dogleg Rot Max 
 DLSO.°/30m               1.80:  Dogleg Oriented 
 DLSX.°/30m               3.34:  Dogleg Str Max 
 DRET.      11.50.00 27-May-21:  Drill End Time 
 DRST.      21.13.00 24-May-21:  Drill Start Tim 
 DTIM.hr                 45.11:  Time Drilling 
 EDEP.m                4054.00:  End Depth 
 ENG1.         Almaz Almadatov:  Engineer 1 
 ENG2.           Amrah Tahirov:  Engineer 2 
 ENG3.      Bakhtiyar Jabbarli:  Engineer 3 
 ENG4.          Nazrin Asgarli:  Engineer 4 
 ETIM.      10.00.00 30-May-21:  End Time 
 FLOI.gpm               530.00:  Flow In 
 FLON.gpm               400.00:  Flow In Min 
 FLOS.cptm                0.00:  Fluid Loss 
 FLOX.gpm               560.00:  Flow In Max 
 DFT .        Mineral Oil Base:  Mud Type 
 FTRO.       Formation Presure:  FTWD Run Obj 
 HFLO.                      No:  High Flow 
 HPRE.                      No:  High Pressure 
 HTEM.                      No:  High Temp 
 HYDO.m                   1.80:  Hydro Offset 
 IFIN.deg                73.83:  Inc, Final 
 IMAX.deg                73.83:  Inc Max 
 IMIN.deg                57.86:  Inc Min 
 IMND.m                3259.27:  Inc Min Depth 
 IMXD.m                4045.58:  Inc Max Depth 
 JARR.                     Yes:  Jarring 
 LETM.      11.50.00 27-May-21:  Log End Time 
 LOST.hr                     0:  Lost Rig Time 
 LSTM.      21.13.00 24-May-21:  Log Start Time 
 MDCL.ppm             42500.00:  Mud Chlorides 
 MDES.     Inversion Oil/Synthetic:  Mud Desc 
 DFD .sg                  1.52:  Mud Density 
 MDMN.sg                  1.52:  Dens Mud Min 
 MDMX.sg                  1.52:  Dens Mud Max 
 MOIL.                      70:  Run Mud Oil % 
 MOWR.                   70:30:  Run Mud OWR 
 MSND.                     0.2:  Run Mud Sand % 
 MSOL.                      22:  Run Mud Solids% 
 DFV .spqt               77.00:  Mud Viscosity 
 MWOD.in                  6.75:  MWD Tool OD 
 MWSI.                      No:  Serv Intrp, MWD 
 OTIM.hr                151.01:  Time Operating 
 PCON.          Wear / Scratch:  Pad Condition 
 PMAX.psia            11296.93:  Press Op, Max 
 PV  .cP                 37.00:  Mud PV 
 RUN .                     500:  Run Number 
 ROPA.m/hr               25.00:  ROP Avg 
 ROPN.m/hr                9.00:  ROP Min 
 ROPX.m/hr               28.00:  ROP Max 
 RPMA.rpm               140.00:  RPM Surface Avg 
 RPMN.rpm                90.00:  RPM Surface Min 
 RPMX.rpm               140.00:  RPM Surface Max 
 RRUN.                    0500:  Rig Run Number 
 SAZI.deg               172.17:  Azm, Start 
 SDEP.m                3248.00:  Start Depth 
 SIDD.                      No:  Serv Intrp, DD 
 SINC.deg                57.86:  Inc, Start 
 SPPA.psig             5620.00:  SPP Avg 
 SPPN.psig             5190.00:  SPP Min 
 SPPX.psig             6050.00:  SPP Max 
 STIM.      16.00.00 23-May-21:  Start Time 
 SVCS.                 DD, MWD:  Services 
 SVER.                    9.20:  Sperry Version 
 TDAT.m                 806.00:  Tot Depth Attmp 
 TDDF.                      No:  Trip for DD 
 TDLG.m                 806.00:  Tot Depth Loggd 
 TFF .                      No:  Trip for Fail 
 TQAA.f-kp               12.00:  Torque Abs Avg 
 TQAN.f-kp                8.00:  Torque Abs Min 
 TQAX.f-kp               15.00:  Torque Abs Max 
 TRRT.°/30m               0.30:  Turn Rotating 
 MRT .                  EWR-M5:  Maximum Recorded Temperature 
 TTMX.degC               93.00:  Max Tool Temp 
 VS01.                90649155:  Virtual Str1 SN 
 VS02.                90642264:  Virtual Str2 SN 
 VS03.                90642266:  Virtual Str3 SN 
 VS04.                90642261:  Virtual Str4 SN 
 WBMN.klb                 0.00:  WOB Min 
 WITN.             Anar Khalil:  Customer Rep 
 WITN.           Murad Guliyev:  Customer Rep 2 
 WOBA.klb                13.00:  WOB Avg 
 WOBX.klb                25.00:  WOB Max 
 YP  .lhf2               32.00:  Yield Point 
~Curve Information Block
#MNEM.UNIT                 API CODE     Curve Description
#---------               -----------    ---------------------------
 TIME.HHMMSS            00 000 000 000:  GT Time & Date
 GTDEPTH.m              00 000 000 000:  GT Depth
 GTPQH.psia             00 000 000 000:  GT HR Quartz Pressure
 GTTQ.degC              00 000 000 000:  GT Quartz Temperature
 GTTN.NONE              00 000 000 000:  GT Test Number
 GTET.sec               00 000 000 000:  GT Elapsed Test Time
 GTTVD.m                00 000 000 000:  GT True Vertical Depth
#Other Information
#
#WARRANTY: Halliburton will use its best efforts to furnish customers with 
#accurate information and interpretations that are part of, and incident to, the services 
#provided.  However, Halliburton cannot and does not warrant the accuracy 
#or correctness of such information and interpretations.  Under no circumstances should any 
#such information or interpretation be relied upon as the sole basis for any drilling, 
#completion, production, or financial decision or any procedure involving any risk to the 
#safety of any drilling venture, drilling rig or its crew or any other third party.  The 
#Customer has full responsibility for all drilling, completion and production operation.  
#Halliburton makes no representations or warranties, either expressed or 
#implied, including, but not limited to, the implied warranties of merchantability or fitness 
#for a particular purpose, with respect to the services rendered.  In no event will 
#Halliburton be liable for failure to obtain any particular results or for 
#any damages, including, but not limited to, indirect, special or consequential damages, 
#resulting from the use of any information or interpretation provided by Halliburton.
#
~A           TIME           GTDEPTH  GTPQH  GTTQ  GTTN   GTET   GTTVD  
# ...
   05:53:54.310.28-May-2021 3439.00 5214.04 82.99 11.00 316.53 2568.67
   05:53:54.510.28-May-2021 3439.00 5213.85 82.99 11.00 316.73 2568.67
   05:53:54.710.28-May-2021 3439.00 5213.82 82.99 11.00 316.93 2568.67
   05:53:54.911.28-May-2021 3439.00 5213.61 82.99 11.00 317.13 2568.67
   05:53:55.111.28-May-2021 3439.00 5213.61 82.99 11.00 317.33 2568.67
   05:53:55.311.28-May-2021 3439.00 5213.40 82.99 11.00 317.53 2568.67
   05:53:55.511.28-May-2021 3439.00 5213.31 82.99 11.00 317.73 2568.67
   05:53:55.711.28-May-2021 3439.00 5213.18 82.99 11.00 317.93 2568.67
   05:53:55.911.28-May-2021 3439.00 5213.09 82.99 11.00 318.13 2568.67
   05:53:56.111.28-May-2021 3439.00 5213.09 82.99 11.00 318.33 2568.67
   05:53:56.311.28-May-2021 3439.00 5212.84 82.99 11.00 318.53 2568.67
   05:53:56.511.28-May-2021 3439.00 5212.73 82.99 11.00 318.73 2568.67
   05:53:56.711.28-May-2021 3439.00 5212.60 82.99 11.00 318.93 2568.67
   05:53:56.911.28-May-2021 3439.00 5210.96 82.99 11.00 319.13 2568.67
   05:53:57.112.28-May-2021 3439.00 5210.96 82.99 11.00 319.33 2568.67
   05:53:57.312.28-May-2021 3439.00 5212.08 82.99 11.00 319.53 2568.67
   05:53:57.512.28-May-2021 3439.00 5211.50 82.99 11.00 319.73 2568.67
   05:53:57.712.28-May-2021 3439.00 5211.06 82.99 11.00 319.93 2568.67
   05:53:57.912.28-May-2021 3439.00 5211.76 82.99 11.00 320.13 2568.67
   05:53:58.112.28-May-2021 3439.00 5211.76 82.99 11.00 320.33 2568.67
   05:53:58.312.28-May-2021 3439.00 5211.59 82.99 11.00 320.53 2568.67
   05:53:58.512.28-May-2021 3439.00 5210.81 82.99 11.00 320.73 2568.67
   05:53:58.712.28-May-2021 3439.00 5210.51 82.99 11.00 320.93 2568.67
   05:53:58.912.28-May-2021 3439.00 5211.19 82.99 11.00 321.13 2568.67
   05:53:59.112.28-May-2021 3439.00 5211.19 82.99 11.00 321.33 2568.67
   05:53:59.312.28-May-2021 3439.00 5211.11 82.99 11.00 321.53 2568.67
   05:53:59.513.28-May-2021 3439.00 5210.92 82.99 11.00 321.73 2568.67
   05:53:59.713.28-May-2021 3439.00 5209.68 82.99 11.00 321.93 2568.67
   05:53:59.913.28-May-2021 3439.00 5210.41 82.99 11.00 322.13 2568.67
   05:54:00.113.28-May-2021 3439.00 5210.41 82.99 11.00 322.33 2568.67
   05:54:00.313.28-May-2021 3439.00 5210.51 82.99 11.00 322.53 2568.67
   05:54:00.513.28-May-2021 3439.00 5210.46 82.99 11.00 322.73 2568.67
   05:54:00.713.28-May-2021 3439.00 5210.33 82.99 11.00 322.93 2568.67
   05:54:00.913.28-May-2021 3439.00 5210.28 82.99 11.00 323.14 2568.67
   05:54:01.113.28-May-2021 3439.00 5210.28 82.99 11.00 323.34 2568.67
   05:54:01.313.28-May-2021 3439.00 5210.11 82.99 11.00 323.54 2568.67
   05:54:01.513.28-May-2021 3439.00 5210.00 82.99 11.00 323.74 2568.67
   05:54:01.713.28-May-2021 3439.00 5209.94 82.99 11.00 323.94 2568.67
   05:54:01.914.28-May-2021 3439.00 5209.82 82.99 11.00 324.14 2568.67
   05:54:02.114.28-May-2021 3439.00 5209.82 82.99 11.00 324.34 2568.67
   05:54:02.314.28-May-2021 3439.00 5208.11 82.99 11.00 324.54 2568.67
   05:54:02.514.28-May-2021 3439.00 5209.52 82.99 11.00 324.74 2568.67
   05:54:02.714.28-May-2021 3439.00 5209.36 82.99 11.00 324.94 2568.67
   05:54:02.914.28-May-2021 3439.00 5209.40 82.99 11.00 325.14 2568.67
   05:54:03.114.28-May-2021 3439.00 5209.40 82.99 11.00 325.34 2568.67
   05:54:03.314.28-May-2021 3439.00 5209.16 82.99 11.00 325.54 2568.67
   05:54:03.514.28-May-2021 3439.00 5209.10 82.99 11.00 325.74 2568.67
   05:54:03.714.28-May-2021 3439.00 5209.01 82.99 11.00 325.94 2568.67
   05:54:03.914.28-May-2021 3439.00 5208.94 82.99 11.00 326.14 2568.67
   05:54:04.114.28-May-2021 3439.00 5208.94 82.99 11.00 326.34 2568.67
   05:54:04.315.28-May-2021 3439.00 5208.78 82.99 11.00 326.54 2568.67
   05:54:04.515.28-May-2021 3439.00 5208.70 82.99 11.00 326.74 2568.67
   05:54:04.715.28-May-2021 3439.00 5208.62 82.99 11.00 326.94 2568.67
   05:54:04.915.28-May-2021 3439.00 5208.50 82.99 11.00 327.14 2568.67
   05:54:05.115.28-May-2021 3439.00 5208.50 82.99 11.00 327.34 2568.67
   05:54:05.315.28-May-2021 3439.00 5208.30 82.99 11.00 327.54 2568.67
   05:54:05.515.28-May-2021 3439.00 5208.13 82.99 11.00 327.74 2568.67
   05:54:05.715.28-May-2021 3439.00 5206.53 82.99 11.00 327.94 2568.67
   05:54:05.915.28-May-2021 3439.00 5208.23 82.99 11.00 328.14 2568.67
   05:54:06.115.28-May-2021 3439.00 5208.23 82.99 11.00 328.34 2568.67
   05:54:06.315.28-May-2021 3439.00 5207.91 82.99 11.00 328.54 2568.67
   05:54:06.515.28-May-2021 3439.00 5207.79 82.99 11.00 328.74 2568.67
   05:54:06.716.28-May-2021 3439.00 5207.71 82.99 11.00 328.94 2568.67
   05:54:06.916.28-May-2021 3439.00 5205.97 82.99 11.00 329.14 2568.67
   05:54:07.116.28-May-2021 3439.00 5205.97 82.99 11.00 329.34 2568.67
   05:54:07.316.28-May-2021 3439.00 5207.45 82.99 11.00 329.54 2568.67
   05:54:07.516.28-May-2021 3439.00 5207.44 82.99 11.00 329.74 2568.67
   05:54:07.716.28-May-2021 3439.00 5207.31 82.99 11.00 329.94 2568.67
   05:54:07.916.28-May-2021 3439.00 5207.25 82.99 11.00 330.14 2568.67
   05:54:08.116.28-May-2021 3439.00 5207.25 82.99 11.00 330.34 2568.67
   05:54:08.316.28-May-2021 3439.00 5207.06 82.99 11.00 330.54 2568.67
   05:54:08.516.28-May-2021 3439.00 5206.95 82.99 11.00 330.74 2568.67
   05:54:08.716.28-May-2021 3439.00 5207.00 82.99 11.00 330.94 2568.67
   05:54:08.916.28-May-2021 3439.00 5206.90 82.99 11.00 331.14 2568.67
   05:54:09.117.28-May-2021 3439.00 5206.90 82.99 11.00 331.34 2568.67
   05:54:09.317.28-May-2021 3439.00 5206.78 82.99 11.00 331.54 2568.67
   05:54:09.517.28-May-2021 3439.00 5206.72 82.99 11.00 331.74 2568.67
   05:54:09.717.28-May-2021 3439.00 5206.66 82.99 11.00 331.94 2568.67
   05:54:09.917.28-May-2021 3439.00 5206.60 82.99 11.00 332.14 2568.67
   05:54:10.117.28-May-2021 3439.00 5206.60 82.99 11.00 332.34 2568.67
   05:54:10.317.28-May-2021 3439.00 5206.47 82.99 11.00 332.54 2568.67
   05:54:10.517.28-May-2021 3439.00 5205.23 82.99 11.00 332.74 2568.67
   05:54:10.717.28-May-2021 3439.00 5205.94 82.99 11.00 332.94 2568.67
   05:54:10.917.28-May-2021 3439.00 5206.17 82.99 11.00 333.14 2568.67
   05:54:11.117.28-May-2021 3439.00 5206.17 82.99 11.00 333.34 2568.67
   05:54:11.317.28-May-2021 3439.00 5206.11 82.99 11.00 333.54 2568.67
   05:54:11.518.28-May-2021 3439.00 5205.99 82.99 11.00 333.74 2568.67
   05:54:11.718.28-May-2021 3439.00 5206.00 82.99 11.00 333.94 2568.67
   05:54:11.918.28-May-2021 3439.00 5205.91 82.99 11.00 334.14 2568.67
   05:54:12.118.28-May-2021 3439.00 5205.91 82.99 11.00 334.34 2568.67
   05:54:12.318.28-May-2021 3439.00 5205.81 82.99 11.00 334.54 2568.67
   05:54:12.518.28-May-2021 3439.00 5205.73 82.99 11.00 334.74 2568.67
   05:54:12.718.28-May-2021 3439.00 5205.68 82.99 11.00 334.94 2568.67
   05:54:12.918.28-May-2021 3439.00 5205.63 82.99 11.00 335.14 2568.67
   05:54:13.118.28-May-2021 3439.00 5205.63 82.99 11.00 335.34 2568.67
   05:54:13.318.28-May-2021 3439.00 5203.78 82.99 11.00 335.54 2568.67
   05:54:13.518.28-May-2021 3439.00 5205.57 82.99 11.00 335.74 2568.67
   05:54:13.718.28-May-2021 3439.00 5205.28 82.99 11.00 335.94 2568.67
   05:54:13.919.28-May-2021 3439.00 5204.66 82.99 11.00 336.14 2568.67
   05:54:14.119.28-May-2021 3439.00 5204.66 82.99 11.00 336.34 2568.67
   05:54:14.319.28-May-2021 3439.00 5205.04 82.99 11.00 336.54 2568.67
   05:54:14.519.28-May-2021 3439.00 5204.92 82.99 11.00 336.74 2568.67
   05:54:14.719.28-May-2021 3439.00 5205.07 82.99 11.00 336.94 2568.67
   05:54:14.919.28-May-2021 3439.00 5204.89 82.99 11.00 337.14 2568.67
   05:54:15.119.28-May-2021 3439.00 5204.89 82.99 11.00 337.34 2568.67
   05:54:15.319.28-May-2021 3439.00 5204.97 82.99 11.00 337.54 2568.67
   05:54:15.519.28-May-2021 3439.00 5204.70 82.99 11.00 337.74 2568.67
   05:54:15.719.28-May-2021 3439.00 5204.70 82.99 11.00 337.94 2568.67
   05:54:15.919.28-May-2021 3439.00 5204.60 82.99 11.00 338.14 2568.67
   05:54:16.119.28-May-2021 3439.00 5204.60 82.99 11.00 338.34 2568.67
   05:54:16.320.28-May-2021 3439.00 5204.48 82.99 11.00 338.54 2568.67
   05:54:16.520.28-May-2021 3439.00 5204.40 82.99 11.00 338.74 2568.67
   05:54:16.720.28-May-2021 3439.00 5204.42 82.99 11.00 338.94 2568.67
