~Version Information
 VERS.                  2.0:   CWLS log ASCII Standard -VERSION 2.0
 WRAP.                   NO:   One line per depth step
~Well Information Block
#MNEM.UNIT     VALUE/NAME     DESCRIPTION
#---------     -----------    ---------------------------
 STRT.S             00:59:34 28-May-21: START TIME 00:59:34 28-May-21
 STOP.S             01:06:40 28-May-21: STOP TIME  01:06:40 28-May-21
 STEP.S                   0.00: STEP TIME
 NULL.                 -999.25: NULL VALUE
 UWI .                     N/A:  UNIQUE WELL IDENTIFIER
 API .                     N/A:  API NUMBER
 UNIT.                     N/A:  LOGGING EQUIPMENT ID
 DCON.         Sperry Drilling:  DIRECTNL CONTR
 DOE .                     N/A:  DOE NUMBER
 MWDS.                    Baku:  MWD SHOP
 SRVC.     Turan Drilling and Engineering:  CONTRACTOR
 CTRY.              Azerbaijan:  COUNTRY NAME
 PROV.                    Baku:  PROVINCE
 STAT.                    Baku:  STATE NAME
 REGN.                   EESSA:  REGION
 BASE.              Azerbaijan:  LOGGING EQUIPMENT BASE LOCATION
 WTYP.                Deviated:  WELL TYPE
 RIG .              East Azeri:  RIG NAME
 WELL.                    D02y:  WELL NAME
 FLD .                     ACG:  FIELD NAME
 COMP.     BP Exploration (Caspian Sea) Ltd.:  COMPANY
 PDAT.          Mean Sea Level:  PERMANENT DATUM
 MDS .        Operator Entered:  MAG DATA SOURCE
 SON .        AZ-XX-0906997291:  JOB NUMBER
 FTOP.          Formation Tops:  FORM TOPS DESC
 ILTD.               Lithology:  INTERP LTH DESC
 SVYD.                  Survey:  SURVEY DESC
 DMOD.             Drill Model:  DRILL MOD DESC
 HPTY.       Minimum Curvature:  HOLE POS TYPE
 NREF.                    Grid:  NORTH REFERENCE
 SPUD.               05-May-21:  SPUD DATE
 DATE.      09.27.28 12-Jun-21:  END TIME
 STIM.      09.27.28 12-May-21:  START TIME
 DMF .             Drill Floor:  DRILL MEAS FROM
 DFST.                        :  DIST FSL TEXT
 DFWT.                        :  DIST FWL TEXT
 CNTY.                        :  COUNTY
 LOC .                        :  LOCATION
 LMF .             Drill Floor:  LOG MEASURED FROM
 DEP .m                2806.40:  DEPTH
 AGAP.m                  43.60:  AIR GAP
 VSNS.m                  -4.42:  VERT SEC N/S
 VSEW.m                  -7.31:  VERT SEC E/W
 APD .m                  43.60:  DEPTH ABOVE PD
 WDMS.m                 151.80:  WD ELEV
 EGL .m                   0.00:  GROUND ELEVATION
 EPD .m                   0.00:  ELEVATION
 AZTC.deg                 6.18:  AZM TOTAL CORR
 GRDC.deg                 0.29:  GRID CORRECTION
 MDEC.deg                 6.47:  MAGNETIC DECL
 MDIP.deg                59.50:  MAGNETIC DIP
 MFLD.nT              50350.00:  MAGNETIC FIELD
 GVFD.g                   1.00:  GRAVITY FIELD
 VSDR.deg               179.08:  VERT SEC DIRECT
 TDD .m                4300.00:  TOTAL DEPTH (DRILLER)
 SDEP.m                2800.00:  START DEPTH
 DFSL.m                   0.00:  DISTANCE FSL
 DFWL.m                   0.00:  DISTANCE FWL
 UTMY.m             4431871.34:  UTM Y
 UTMX.m              538762.90:  UTM X
 WHEW.m                  -7.31:  WELL HEAD E/W
 WHNS.m                  -4.42:  WELL HEAD N/S
 LONG.deg                51.45:  LONGITUDE
 LATI.deg                40.02:  LATITUDE
 TVDS.m                  43.60:  TVDSS CORRECTN
 EKB .m                  43.60:  KB ELEVATION
 EDF .m                  43.60:  DF ELEVATION
 TDL .m                 806.00:  TOTAL DEPTH (LOGGER)
 MAGU.                 1851231:  MAGUTM CHECKSUM
 VSC .                       0:  VS TO CLOSURE
~Parameter Information Block
#MNEM.UNIT       Value        Description
#---------     -----------    ---------------------------
 AV  .mps                 1.60:  Ann Velocity 
 AVMX.mps                 2.00:  Max Ann Veloc 
 AZIF.deg               140.24:  Azm, Final 
 BHAT.        Rotary Steerable:  BHA Type 
 BROT.°/30m               0.50:  Build Rotating 
 BS  .in                  8.50:  Bit Size 
 BTPL.psig              619.00:  Bit Press Loss 
 CABU.                     Yes:  Customer Abuse 
 CGEO.          Ilgar Gurbanov:  Customer Geo 
 COMM.                     ô:r:  Run Comments 1 
 TCS .hr                 85.88:  Time Ciculation Ended 
 CV  .mps                 3.30:  Crit Velocity 
 CVMX.mps                 3.50:  Max Crit Veloc 
 DD1 .           Hamid Axmedov:  Direct Drillr 1 
 DD2 .           Teymur Aliyev:  Direct Drillr 2 
 DDSV.               Geo-Pilot:  DD Service 
 DEFF.%                 100.00:  % Det Eff 
 DLRX.°/30m               0.00:  Dogleg Rot Max 
 DLSO.°/30m               1.80:  Dogleg Oriented 
 DLSX.°/30m               3.34:  Dogleg Str Max 
 DRET.      11.50.00 27-May-21:  Drill End Time 
 DRST.      21.13.00 24-May-21:  Drill Start Tim 
 DTIM.hr                 45.11:  Time Drilling 
 EDEP.m                4054.00:  End Depth 
 ENG1.         Almaz Almadatov:  Engineer 1 
 ENG2.           Amrah Tahirov:  Engineer 2 
 ENG3.      Bakhtiyar Jabbarli:  Engineer 3 
 ENG4.          Nazrin Asgarli:  Engineer 4 
 ETIM.      10.00.00 30-May-21:  End Time 
 FLOI.gpm               530.00:  Flow In 
 FLON.gpm               400.00:  Flow In Min 
 FLOS.cptm                0.00:  Fluid Loss 
 FLOX.gpm               560.00:  Flow In Max 
 DFT .        Mineral Oil Base:  Mud Type 
 FTRO.       Formation Presure:  FTWD Run Obj 
 HFLO.                      No:  High Flow 
 HPRE.                      No:  High Pressure 
 HTEM.                      No:  High Temp 
 HYDO.m                   1.80:  Hydro Offset 
 IFIN.deg                73.83:  Inc, Final 
 IMAX.deg                73.83:  Inc Max 
 IMIN.deg                57.86:  Inc Min 
 IMND.m                3259.27:  Inc Min Depth 
 IMXD.m                4045.58:  Inc Max Depth 
 JARR.                     Yes:  Jarring 
 LETM.      11.50.00 27-May-21:  Log End Time 
 LOST.hr                     0:  Lost Rig Time 
 LSTM.      21.13.00 24-May-21:  Log Start Time 
 MDCL.ppm             42500.00:  Mud Chlorides 
 MDES.     Inversion Oil/Synthetic:  Mud Desc 
 DFD .sg                  1.52:  Mud Density 
 MDMN.sg                  1.52:  Dens Mud Min 
 MDMX.sg                  1.52:  Dens Mud Max 
 MOIL.                      70:  Run Mud Oil % 
 MOWR.                   70:30:  Run Mud OWR 
 MSND.                     0.2:  Run Mud Sand % 
 MSOL.                      22:  Run Mud Solids% 
 DFV .spqt               77.00:  Mud Viscosity 
 MWOD.in                  6.75:  MWD Tool OD 
 MWSI.                      No:  Serv Intrp, MWD 
 OTIM.hr                151.01:  Time Operating 
 PCON.          Wear / Scratch:  Pad Condition 
 PMAX.psia            11296.93:  Press Op, Max 
 PV  .cP                 37.00:  Mud PV 
 RUN .                     500:  Run Number 
 ROPA.m/hr               25.00:  ROP Avg 
 ROPN.m/hr                9.00:  ROP Min 
 ROPX.m/hr               28.00:  ROP Max 
 RPMA.rpm               140.00:  RPM Surface Avg 
 RPMN.rpm                90.00:  RPM Surface Min 
 RPMX.rpm               140.00:  RPM Surface Max 
 RRUN.                    0500:  Rig Run Number 
 SAZI.deg               172.17:  Azm, Start 
 SDEP.m                3248.00:  Start Depth 
 SIDD.                      No:  Serv Intrp, DD 
 SINC.deg                57.86:  Inc, Start 
 SPPA.psig             5620.00:  SPP Avg 
 SPPN.psig             5190.00:  SPP Min 
 SPPX.psig             6050.00:  SPP Max 
 STIM.      16.00.00 23-May-21:  Start Time 
 SVCS.                 DD, MWD:  Services 
 SVER.                    9.20:  Sperry Version 
 TDAT.m                 806.00:  Tot Depth Attmp 
 TDDF.                      No:  Trip for DD 
 TDLG.m                 806.00:  Tot Depth Loggd 
 TFF .                      No:  Trip for Fail 
 TQAA.f-kp               12.00:  Torque Abs Avg 
 TQAN.f-kp                8.00:  Torque Abs Min 
 TQAX.f-kp               15.00:  Torque Abs Max 
 TRRT.°/30m               0.30:  Turn Rotating 
 MRT .                  EWR-M5:  Maximum Recorded Temperature 
 TTMX.degC               93.00:  Max Tool Temp 
 VS01.                90649155:  Virtual Str1 SN 
 VS02.                90642264:  Virtual Str2 SN 
 VS03.                90642266:  Virtual Str3 SN 
 VS04.                90642261:  Virtual Str4 SN 
 WBMN.klb                 0.00:  WOB Min 
 WITN.             Anar Khalil:  Customer Rep 
 WITN.           Murad Guliyev:  Customer Rep 2 
 WOBA.klb                13.00:  WOB Avg 
 WOBX.klb                25.00:  WOB Max 
 YP  .lhf2               32.00:  Yield Point 
~Curve Information Block
#MNEM.UNIT                 API CODE     Curve Description
#---------               -----------    ---------------------------
 TIME.HHMMSS            00 000 000 000:  GT Time & Date
 GTDEPTH.m              00 000 000 000:  GT Depth
 GTPQH.psia             00 000 000 000:  GT HR Quartz Pressure
 GTTQ.degC              00 000 000 000:  GT Quartz Temperature
 GTTN.NONE              00 000 000 000:  GT Test Number
 GTET.sec               00 000 000 000:  GT Elapsed Test Time
 GTTVD.m                00 000 000 000:  GT True Vertical Depth
#Other Information
#
#WARRANTY: Halliburton will use its best efforts to furnish customers with 
#accurate information and interpretations that are part of, and incident to, the services 
#provided.  However, Halliburton cannot and does not warrant the accuracy 
#or correctness of such information and interpretations.  Under no circumstances should any 
#such information or interpretation be relied upon as the sole basis for any drilling, 
#completion, production, or financial decision or any procedure involving any risk to the 
#safety of any drilling venture, drilling rig or its crew or any other third party.  The 
#Customer has full responsibility for all drilling, completion and production operation.  
#Halliburton makes no representations or warranties, either expressed or 
#implied, including, but not limited to, the implied warranties of merchantability or fitness 
#for a particular purpose, with respect to the services rendered.  In no event will 
#Halliburton be liable for failure to obtain any particular results or for 
#any damages, including, but not limited to, indirect, special or consequential damages, 
#resulting from the use of any information or interpretation provided by Halliburton.
#
~A           TIME           GTDEPTH  GTPQH  GTTQ  GTTN  GTET   GTTVD  
# ...
   01:02:16.119.28-May-2021 3649.00 3156.19 84.94 5.00 161.17 2653.32
   01:02:16.319.28-May-2021 3649.00 3156.19 84.94 5.00 161.37 2653.32
   01:02:16.519.28-May-2021 3649.00 3156.03 84.94 5.00 161.57 2653.32
   01:02:16.720.28-May-2021 3649.00 3156.19 84.94 5.00 161.77 2653.32
   01:02:16.920.28-May-2021 3649.00 3156.26 84.94 5.00 161.97 2653.32
   01:02:17.120.28-May-2021 3649.00 3156.22 84.94 5.00 162.17 2653.32
   01:02:17.320.28-May-2021 3649.00 3156.22 84.94 5.00 162.37 2653.32
   01:02:17.520.28-May-2021 3649.00 3156.22 84.94 5.00 162.57 2653.32
   01:02:17.721.28-May-2021 3649.00 3156.19 84.94 5.00 162.77 2653.32
   01:02:17.921.28-May-2021 3649.00 3156.14 84.94 5.00 162.97 2653.32
   01:02:18.121.28-May-2021 3649.00 3156.21 84.94 5.00 163.17 2653.32
   01:02:18.321.28-May-2021 3649.00 3156.21 84.94 5.00 163.37 2653.32
   01:02:18.522.28-May-2021 3649.00 3156.28 84.94 5.00 163.57 2653.32
   01:02:18.722.28-May-2021 3649.00 3156.16 84.94 5.00 163.77 2653.32
   01:02:18.922.28-May-2021 3649.00 3156.18 84.94 5.00 163.97 2653.32
   01:02:19.122.28-May-2021 3649.00 3156.12 84.94 5.00 164.17 2653.32
   01:02:19.322.28-May-2021 3649.00 3156.12 84.94 5.00 164.37 2653.32
   01:02:19.523.28-May-2021 3649.00 3165.17 84.94 5.00 164.57 2653.32
   01:02:19.723.28-May-2021 3649.00 3165.25 84.94 5.00 164.77 2653.32
   01:02:19.923.28-May-2021 3649.00 3165.27 84.94 5.00 164.97 2653.32
   01:02:20.123.28-May-2021 3649.00 3165.29 84.94 5.00 165.17 2653.32
   01:02:20.323.28-May-2021 3649.00 3165.29 84.94 5.00 165.37 2653.32
   01:02:20.524.28-May-2021 3649.00 3165.32 84.94 5.00 165.57 2653.32
   01:02:20.724.28-May-2021 3649.00 3165.33 84.94 5.00 165.77 2653.32
   01:02:20.924.28-May-2021 3649.00 3165.34 84.94 5.00 165.97 2653.32
   01:02:21.124.28-May-2021 3649.00 3165.36 84.94 5.00 166.17 2653.32
   01:02:21.324.28-May-2021 3649.00 3165.36 84.94 5.00 166.37 2653.32
   01:02:21.525.28-May-2021 3649.00 3165.36 84.94 5.00 166.57 2653.32
   01:02:21.725.28-May-2021 3649.00 3165.44 84.94 5.00 166.77 2653.32
   01:02:21.925.28-May-2021 3649.00 3165.47 84.94 5.00 166.97 2653.32
   01:02:22.125.28-May-2021 3649.00 3165.49 84.94 5.00 167.17 2653.32
   01:02:22.325.28-May-2021 3649.00 3165.49 84.94 5.00 167.37 2653.32
   01:02:22.526.28-May-2021 3649.00 3165.49 84.94 5.00 167.57 2653.32
   01:02:22.726.28-May-2021 3649.00 3165.49 84.94 5.00 167.77 2653.32
   01:02:22.926.28-May-2021 3649.00 3165.50 84.94 5.00 167.97 2653.32
   01:02:23.126.28-May-2021 3649.00 3165.49 84.94 5.00 168.17 2653.32
   01:02:23.326.28-May-2021 3649.00 3165.49 84.94 5.00 168.38 2653.32
   01:02:23.527.28-May-2021 3649.00 3165.50 84.94 5.00 168.58 2653.32
   01:02:23.727.28-May-2021 3649.00 3165.51 84.94 5.00 168.78 2653.32
   01:02:23.927.28-May-2021 3649.00 3165.51 84.94 5.00 168.98 2653.32
   01:02:24.127.28-May-2021 3649.00 3165.50 84.94 5.00 169.18 2653.32
   01:02:24.328.28-May-2021 3649.00 3165.50 84.94 5.00 169.38 2653.32
   01:02:24.528.28-May-2021 3649.00 3165.51 84.94 5.00 169.58 2653.32
   01:02:24.728.28-May-2021 3649.00 3165.52 84.94 5.00 169.78 2653.32
   01:02:24.928.28-May-2021 3649.00 3165.51 84.94 5.00 169.98 2653.32
   01:02:25.128.28-May-2021 3649.00 3165.52 84.94 5.00 170.18 2653.32
   01:02:25.329.28-May-2021 3649.00 3165.52 84.94 5.00 170.38 2653.32
   01:02:25.529.28-May-2021 3649.00 3165.51 84.94 5.00 170.58 2653.32
   01:02:25.729.28-May-2021 3649.00 3165.52 84.94 5.00 170.78 2653.32
   01:02:25.929.28-May-2021 3649.00 3165.53 84.94 5.00 170.98 2653.32
   01:02:26.129.28-May-2021 3649.00 3165.52 84.94 5.00 171.18 2653.32
   01:02:26.330.28-May-2021 3649.00 3165.52 84.94 5.00 171.38 2653.32
   01:02:26.530.28-May-2021 3649.00 3165.52 84.94 5.00 171.58 2653.32
   01:02:26.730.28-May-2021 3649.00 3165.51 84.94 5.00 171.78 2653.32
   01:02:26.930.28-May-2021 3649.00 3165.54 84.94 5.00 171.98 2653.32
   01:02:27.130.28-May-2021 3649.00 3165.52 84.94 5.00 172.18 2653.32
   01:02:27.331.28-May-2021 3649.00 3165.52 84.94 5.00 172.38 2653.32
   01:02:27.531.28-May-2021 3649.00 3165.53 84.94 5.00 172.58 2653.32
   01:02:27.731.28-May-2021 3649.00 3165.52 84.94 5.00 172.78 2653.32
   01:02:27.931.28-May-2021 3649.00 3165.54 84.94 5.00 172.98 2653.32
   01:02:28.131.28-May-2021 3649.00 3165.53 84.94 5.00 173.18 2653.32
   01:02:28.332.28-May-2021 3649.00 3165.53 84.94 5.00 173.38 2653.32
   01:02:28.532.28-May-2021 3649.00 3165.53 84.94 5.00 173.58 2653.32
   01:02:28.732.28-May-2021 3649.00 3165.54 84.94 5.00 173.78 2653.32
   01:02:28.932.28-May-2021 3649.00 3165.55 84.94 5.00 173.98 2653.32
   01:02:29.133.28-May-2021 3649.00 3165.54 84.94 5.00 174.18 2653.32
   01:02:29.333.28-May-2021 3649.00 3165.54 84.94 5.00 174.38 2653.32
   01:02:29.533.28-May-2021 3649.00 3165.56 84.94 5.00 174.58 2653.32
   01:02:29.733.28-May-2021 3649.00 3165.53 84.94 5.00 174.78 2653.32
   01:02:29.933.28-May-2021 3649.00 3165.52 84.94 5.00 174.98 2653.32
   01:02:30.134.28-May-2021 3649.00 3165.53 84.94 5.00 175.18 2653.32
   01:02:30.334.28-May-2021 3649.00 3165.53 84.94 5.00 175.38 2653.32
   01:02:30.534.28-May-2021 3649.00 3165.54 84.94 5.00 175.58 2653.32
   01:02:30.734.28-May-2021 3649.00 3165.53 84.94 5.00 175.78 2653.32
   01:02:30.934.28-May-2021 3649.00 3165.55 84.94 5.00 175.98 2653.32
   01:02:31.135.28-May-2021 3649.00 3165.55 84.94 5.00 176.18 2653.32
   01:02:31.335.28-May-2021 3649.00 3165.55 84.94 5.00 176.38 2653.32
   01:02:31.535.28-May-2021 3649.00 3165.54 84.94 5.00 176.58 2653.32
   01:02:31.735.28-May-2021 3649.00 3165.54 84.94 5.00 176.78 2653.32
   01:02:31.935.28-May-2021 3649.00 3165.52 84.94 5.00 176.98 2653.32
   01:02:32.136.28-May-2021 3649.00 3165.55 84.94 5.00 177.18 2653.32
   01:02:32.336.28-May-2021 3649.00 3165.55 84.94 5.00 177.38 2653.32
   01:02:32.536.28-May-2021 3649.00 3165.53 84.94 5.00 177.58 2653.32
   01:02:32.736.28-May-2021 3649.00 3165.54 84.94 5.00 177.78 2653.32
   01:02:32.936.28-May-2021 3649.00 3165.54 84.94 5.00 177.99 2653.32
   01:02:33.137.28-May-2021 3649.00 3165.54 84.94 5.00 178.19 2653.32
   01:02:33.337.28-May-2021 3649.00 3165.54 84.94 5.00 178.39 2653.32
   01:02:33.537.28-May-2021 3649.00 3165.54 84.94 5.00 178.59 2653.32
   01:02:33.737.28-May-2021 3649.00 3165.55 84.94 5.00 178.79 2653.32
   01:02:33.938.28-May-2021 3649.00 3165.55 84.94 5.00 178.99 2653.32
   01:02:34.138.28-May-2021 3649.00 3165.55 84.94 5.00 179.19 2653.32
   01:02:34.338.28-May-2021 3649.00 3165.55 84.94 5.00 179.39 2653.32
   01:02:34.538.28-May-2021 3649.00 3165.53 84.94 5.00 179.59 2653.32
   01:02:34.738.28-May-2021 3649.00 3165.56 84.94 5.00 179.79 2653.32
   01:02:34.939.28-May-2021 3649.00 3165.55 84.94 5.00 179.99 2653.32
   01:02:35.139.28-May-2021 3649.00 3165.55 84.94 5.00 180.19 2653.32
   01:02:35.339.28-May-2021 3649.00 3165.55 84.94 5.00 180.39 2653.32
   01:02:35.539.28-May-2021 3649.00 3165.55 84.94 5.00 180.59 2653.32
   01:02:35.739.28-May-2021 3649.00 3165.55 84.94 5.00 180.79 2653.32
   01:02:35.940.28-May-2021 3649.00 3165.55 84.94 5.00 180.99 2653.32
   01:02:36.140.28-May-2021 3649.00 3165.55 84.94 5.00 181.19 2653.32
   01:02:36.340.28-May-2021 3649.00 3165.55 84.94 5.00 181.39 2653.32
   01:02:36.540.28-May-2021 3649.00 3165.55 84.94 5.00 181.59 2653.32
   01:02:36.740.28-May-2021 3649.00 3165.55 84.94 5.00 181.79 2653.32
   01:02:36.941.28-May-2021 3649.00 3165.55 84.94 5.00 181.99 2653.32
   01:02:37.141.28-May-2021 3649.00 3165.53 84.94 5.00 182.19 2653.32
   01:02:37.341.28-May-2021 3649.00 3165.53 84.94 5.00 182.39 2653.32
   01:02:37.541.28-May-2021 3649.00 3165.55 84.94 5.00 182.59 2653.32
   01:02:37.741.28-May-2021 3649.00 3165.55 84.94 5.00 182.79 2653.32
   01:02:37.942.28-May-2021 3649.00 3165.55 84.94 5.00 182.99 2653.32
   01:02:38.142.28-May-2021 3649.00 3165.55 84.94 5.00 183.19 2653.32
   01:02:38.342.28-May-2021 3649.00 3165.55 84.94 5.00 183.39 2653.32
   01:02:38.542.28-May-2021 3649.00 3165.56 84.94 5.00 183.59 2653.32
   01:02:38.743.28-May-2021 3649.00 3165.54 84.94 5.00 183.79 2653.32
   01:02:38.943.28-May-2021 3649.00 3165.55 84.94 5.00 183.99 2653.32
