~Version Information
 VERS.                  2.0:   CWLS log ASCII Standard -VERSION 2.0
 WRAP.                   NO:   One line per depth step
~Well Information Block
#MNEM.UNIT     VALUE/NAME     DESCRIPTION
#---------     -----------    ---------------------------
 STRT.S             00:59:34 28-May-21: START TIME 00:59:34 28-May-21
 STOP.S             01:06:40 28-May-21: STOP TIME  01:06:40 28-May-21
 STEP.S                   0.00: STEP TIME
 NULL.                 -999.25: NULL VALUE
 UWI .                     N/A:  UNIQUE WELL IDENTIFIER
 API .                     N/A:  API NUMBER
 UNIT.                     N/A:  LOGGING EQUIPMENT ID
 DCON.         Sperry Drilling:  DIRECTNL CONTR
 DOE .                     N/A:  DOE NUMBER
 MWDS.                    Baku:  MWD SHOP
 SRVC.     Turan Drilling and Engineering:  CONTRACTOR
 CTRY.              Azerbaijan:  COUNTRY NAME
 PROV.                    Baku:  PROVINCE
 STAT.                    Baku:  STATE NAME
 REGN.                   EESSA:  REGION
 BASE.              Azerbaijan:  LOGGING EQUIPMENT BASE LOCATION
 WTYP.                Deviated:  WELL TYPE
 RIG .              East Azeri:  RIG NAME
 WELL.                    D02y:  WELL NAME
 FLD .                     ACG:  FIELD NAME
 COMP.     BP Exploration (Caspian Sea) Ltd.:  COMPANY
 PDAT.          Mean Sea Level:  PERMANENT DATUM
 MDS .        Operator Entered:  MAG DATA SOURCE
 SON .        AZ-XX-0906997291:  JOB NUMBER
 FTOP.          Formation Tops:  FORM TOPS DESC
 ILTD.               Lithology:  INTERP LTH DESC
 SVYD.                  Survey:  SURVEY DESC
 DMOD.             Drill Model:  DRILL MOD DESC
 HPTY.       Minimum Curvature:  HOLE POS TYPE
 NREF.                    Grid:  NORTH REFERENCE
 SPUD.               05-May-21:  SPUD DATE
 DATE.      09.27.28 12-Jun-21:  END TIME
 STIM.      09.27.28 12-May-21:  START TIME
 DMF .             Drill Floor:  DRILL MEAS FROM
 DFST.                        :  DIST FSL TEXT
 DFWT.                        :  DIST FWL TEXT
 CNTY.                        :  COUNTY
 LOC .                        :  LOCATION
 LMF .             Drill Floor:  LOG MEASURED FROM
 DEP .m                2806.40:  DEPTH
 AGAP.m                  43.60:  AIR GAP
 VSNS.m                  -4.42:  VERT SEC N/S
 VSEW.m                  -7.31:  VERT SEC E/W
 APD .m                  43.60:  DEPTH ABOVE PD
 WDMS.m                 151.80:  WD ELEV
 EGL .m                   0.00:  GROUND ELEVATION
 EPD .m                   0.00:  ELEVATION
 AZTC.deg                 6.18:  AZM TOTAL CORR
 GRDC.deg                 0.29:  GRID CORRECTION
 MDEC.deg                 6.47:  MAGNETIC DECL
 MDIP.deg                59.50:  MAGNETIC DIP
 MFLD.nT              50350.00:  MAGNETIC FIELD
 GVFD.g                   1.00:  GRAVITY FIELD
 VSDR.deg               179.08:  VERT SEC DIRECT
 TDD .m                4300.00:  TOTAL DEPTH (DRILLER)
 SDEP.m                2800.00:  START DEPTH
 DFSL.m                   0.00:  DISTANCE FSL
 DFWL.m                   0.00:  DISTANCE FWL
 UTMY.m             4431871.34:  UTM Y
 UTMX.m              538762.90:  UTM X
 WHEW.m                  -7.31:  WELL HEAD E/W
 WHNS.m                  -4.42:  WELL HEAD N/S
 LONG.deg                51.45:  LONGITUDE
 LATI.deg                40.02:  LATITUDE
 TVDS.m                  43.60:  TVDSS CORRECTN
 EKB .m                  43.60:  KB ELEVATION
 EDF .m                  43.60:  DF ELEVATION
 TDL .m                 806.00:  TOTAL DEPTH (LOGGER)
 MAGU.                 1851231:  MAGUTM CHECKSUM
 VSC .                       0:  VS TO CLOSURE
~Parameter Information Block
#MNEM.UNIT       Value        Description
#---------     -----------    ---------------------------
 AV  .mps                 1.60:  Ann Velocity 
 AVMX.mps                 2.00:  Max Ann Veloc 
 AZIF.deg               140.24:  Azm, Final 
 BHAT.        Rotary Steerable:  BHA Type 
 BROT.°/30m               0.50:  Build Rotating 
 BS  .in                  8.50:  Bit Size 
 BTPL.psig              619.00:  Bit Press Loss 
 CABU.                     Yes:  Customer Abuse 
 CGEO.          Ilgar Gurbanov:  Customer Geo 
 COMM.                     ô:r:  Run Comments 1 
 TCS .hr                 85.88:  Time Ciculation Ended 
 CV  .mps                 3.30:  Crit Velocity 
 CVMX.mps                 3.50:  Max Crit Veloc 
 DD1 .           Hamid Axmedov:  Direct Drillr 1 
 DD2 .           Teymur Aliyev:  Direct Drillr 2 
 DDSV.               Geo-Pilot:  DD Service 
 DEFF.%                 100.00:  % Det Eff 
 DLRX.°/30m               0.00:  Dogleg Rot Max 
 DLSO.°/30m               1.80:  Dogleg Oriented 
 DLSX.°/30m               3.34:  Dogleg Str Max 
 DRET.      11.50.00 27-May-21:  Drill End Time 
 DRST.      21.13.00 24-May-21:  Drill Start Tim 
 DTIM.hr                 45.11:  Time Drilling 
 EDEP.m                4054.00:  End Depth 
 ENG1.         Almaz Almadatov:  Engineer 1 
 ENG2.           Amrah Tahirov:  Engineer 2 
 ENG3.      Bakhtiyar Jabbarli:  Engineer 3 
 ENG4.          Nazrin Asgarli:  Engineer 4 
 ETIM.      10.00.00 30-May-21:  End Time 
 FLOI.gpm               530.00:  Flow In 
 FLON.gpm               400.00:  Flow In Min 
 FLOS.cptm                0.00:  Fluid Loss 
 FLOX.gpm               560.00:  Flow In Max 
 DFT .        Mineral Oil Base:  Mud Type 
 FTRO.       Formation Presure:  FTWD Run Obj 
 HFLO.                      No:  High Flow 
 HPRE.                      No:  High Pressure 
 HTEM.                      No:  High Temp 
 HYDO.m                   1.80:  Hydro Offset 
 IFIN.deg                73.83:  Inc, Final 
 IMAX.deg                73.83:  Inc Max 
 IMIN.deg                57.86:  Inc Min 
 IMND.m                3259.27:  Inc Min Depth 
 IMXD.m                4045.58:  Inc Max Depth 
 JARR.                     Yes:  Jarring 
 LETM.      11.50.00 27-May-21:  Log End Time 
 LOST.hr                     0:  Lost Rig Time 
 LSTM.      21.13.00 24-May-21:  Log Start Time 
 MDCL.ppm             42500.00:  Mud Chlorides 
 MDES.     Inversion Oil/Synthetic:  Mud Desc 
 DFD .sg                  1.52:  Mud Density 
 MDMN.sg                  1.52:  Dens Mud Min 
 MDMX.sg                  1.52:  Dens Mud Max 
 MOIL.                      70:  Run Mud Oil % 
 MOWR.                   70:30:  Run Mud OWR 
 MSND.                     0.2:  Run Mud Sand % 
 MSOL.                      22:  Run Mud Solids% 
 DFV .spqt               77.00:  Mud Viscosity 
 MWOD.in                  6.75:  MWD Tool OD 
 MWSI.                      No:  Serv Intrp, MWD 
 OTIM.hr                151.01:  Time Operating 
 PCON.          Wear / Scratch:  Pad Condition 
 PMAX.psia            11296.93:  Press Op, Max 
 PV  .cP                 37.00:  Mud PV 
 RUN .                     500:  Run Number 
 ROPA.m/hr               25.00:  ROP Avg 
 ROPN.m/hr                9.00:  ROP Min 
 ROPX.m/hr               28.00:  ROP Max 
 RPMA.rpm               140.00:  RPM Surface Avg 
 RPMN.rpm                90.00:  RPM Surface Min 
 RPMX.rpm               140.00:  RPM Surface Max 
 RRUN.                    0500:  Rig Run Number 
 SAZI.deg               172.17:  Azm, Start 
 SDEP.m                3248.00:  Start Depth 
 SIDD.                      No:  Serv Intrp, DD 
 SINC.deg                57.86:  Inc, Start 
 SPPA.psig             5620.00:  SPP Avg 
 SPPN.psig             5190.00:  SPP Min 
 SPPX.psig             6050.00:  SPP Max 
 STIM.      16.00.00 23-May-21:  Start Time 
 SVCS.                 DD, MWD:  Services 
 SVER.                    9.20:  Sperry Version 
 TDAT.m                 806.00:  Tot Depth Attmp 
 TDDF.                      No:  Trip for DD 
 TDLG.m                 806.00:  Tot Depth Loggd 
 TFF .                      No:  Trip for Fail 
 TQAA.f-kp               12.00:  Torque Abs Avg 
 TQAN.f-kp                8.00:  Torque Abs Min 
 TQAX.f-kp               15.00:  Torque Abs Max 
 TRRT.°/30m               0.30:  Turn Rotating 
 MRT .                  EWR-M5:  Maximum Recorded Temperature 
 TTMX.degC               93.00:  Max Tool Temp 
 VS01.                90649155:  Virtual Str1 SN 
 VS02.                90642264:  Virtual Str2 SN 
 VS03.                90642266:  Virtual Str3 SN 
 VS04.                90642261:  Virtual Str4 SN 
 WBMN.klb                 0.00:  WOB Min 
 WITN.             Anar Khalil:  Customer Rep 
 WITN.           Murad Guliyev:  Customer Rep 2 
 WOBA.klb                13.00:  WOB Avg 
 WOBX.klb                25.00:  WOB Max 
 YP  .lhf2               32.00:  Yield Point 
~Curve Information Block
#MNEM.UNIT                 API CODE     Curve Description
#---------               -----------    ---------------------------
 TIME.HHMMSS            00 000 000 000:  GT Time & Date
 GTDEPTH.m              00 000 000 000:  GT Depth
 GTPQH.psia             00 000 000 000:  GT HR Quartz Pressure
 GTTQ.degC              00 000 000 000:  GT Quartz Temperature
 GTTN.NONE              00 000 000 000:  GT Test Number
 GTET.sec               00 000 000 000:  GT Elapsed Test Time
 GTTVD.m                00 000 000 000:  GT True Vertical Depth
#Other Information
#
#WARRANTY: Halliburton will use its best efforts to furnish customers with 
#accurate information and interpretations that are part of, and incident to, the services 
#provided.  However, Halliburton cannot and does not warrant the accuracy 
#or correctness of such information and interpretations.  Under no circumstances should any 
#such information or interpretation be relied upon as the sole basis for any drilling, 
#completion, production, or financial decision or any procedure involving any risk to the 
#safety of any drilling venture, drilling rig or its crew or any other third party.  The 
#Customer has full responsibility for all drilling, completion and production operation.  
#Halliburton makes no representations or warranties, either expressed or 
#implied, including, but not limited to, the implied warranties of merchantability or fitness 
#for a particular purpose, with respect to the services rendered.  In no event will 
#Halliburton be liable for failure to obtain any particular results or for 
#any damages, including, but not limited to, indirect, special or consequential damages, 
#resulting from the use of any information or interpretation provided by Halliburton.
#
~A           TIME           GTDEPTH  GTPQH  GTTQ  GTTN  GTET   GTTVD  
# ...
   01:03:48.215.28-May-2021 3649.00 3165.50 84.93 5.00 253.26 2653.32
   01:03:48.415.28-May-2021 3649.00 3165.50 84.93 5.00 253.46 2653.32
   01:03:48.615.28-May-2021 3649.00 3165.52 84.93 5.00 253.66 2653.32
   01:03:48.815.28-May-2021 3649.00 3165.50 84.93 5.00 253.86 2653.32
   01:03:49.016.28-May-2021 3649.00 3165.50 84.93 5.00 254.06 2653.32
   01:03:49.216.28-May-2021 3649.00 3165.50 84.93 5.00 254.26 2653.32
   01:03:49.416.28-May-2021 3649.00 3165.50 84.93 5.00 254.46 2653.32
   01:03:49.616.28-May-2021 3649.00 3165.49 84.93 5.00 254.66 2653.32
   01:03:49.816.28-May-2021 3649.00 3165.50 84.93 5.00 254.87 2653.32
   01:03:50.017.28-May-2021 3649.00 3165.49 84.93 5.00 255.07 2653.32
   01:03:50.217.28-May-2021 3649.00 3165.50 84.93 5.00 255.27 2653.32
   01:03:50.417.28-May-2021 3649.00 3165.50 84.93 5.00 255.47 2653.32
   01:03:50.617.28-May-2021 3649.00 3165.49 84.93 5.00 255.67 2653.32
   01:03:50.818.28-May-2021 3649.00 3165.50 84.93 5.00 255.87 2653.32
   01:03:51.018.28-May-2021 3649.00 3165.48 84.93 5.00 256.07 2653.32
   01:03:51.218.28-May-2021 3649.00 3165.51 84.93 5.00 256.27 2653.32
   01:03:51.418.28-May-2021 3649.00 3165.51 84.93 5.00 256.47 2653.32
   01:03:51.618.28-May-2021 3649.00 3165.50 84.93 5.00 256.67 2653.32
   01:03:51.819.28-May-2021 3649.00 3165.49 84.93 5.00 256.87 2653.32
   01:03:52.019.28-May-2021 3649.00 3165.49 84.93 5.00 257.07 2653.32
   01:03:52.219.28-May-2021 3649.00 3165.48 84.93 5.00 257.27 2653.32
   01:03:52.419.28-May-2021 3649.00 3165.48 84.93 5.00 257.47 2653.32
   01:03:52.619.28-May-2021 3649.00 3165.49 84.93 5.00 257.67 2653.32
   01:03:52.820.28-May-2021 3649.00 3165.49 84.93 5.00 257.87 2653.32
   01:03:53.020.28-May-2021 3649.00 3165.50 84.93 5.00 258.07 2653.32
   01:03:53.220.28-May-2021 3649.00 3165.48 84.93 5.00 258.27 2653.32
   01:03:53.420.28-May-2021 3649.00 3165.48 84.93 5.00 258.47 2653.32
   01:03:53.620.28-May-2021 3649.00 3165.49 84.93 5.00 258.67 2653.32
   01:03:53.821.28-May-2021 3649.00 3165.49 84.93 5.00 258.87 2653.32
   01:03:54.021.28-May-2021 3649.00 3165.48 84.93 5.00 259.07 2653.32
   01:03:54.221.28-May-2021 3649.00 3165.50 84.93 5.00 259.27 2653.32
   01:03:54.421.28-May-2021 3649.00 3165.50 84.93 5.00 259.47 2653.32
   01:03:54.621.28-May-2021 3649.00 3165.49 84.93 5.00 259.67 2653.32
   01:03:54.822.28-May-2021 3649.00 3165.49 84.93 5.00 259.87 2653.32
   01:03:55.022.28-May-2021 3649.00 3165.49 84.93 5.00 260.07 2653.32
   01:03:55.222.28-May-2021 3649.00 3165.49 84.93 5.00 260.27 2653.32
   01:03:55.422.28-May-2021 3649.00 3165.49 84.93 5.00 260.47 2653.32
   01:03:55.623.28-May-2021 3649.00 3165.49 84.93 5.00 260.67 2653.32
   01:03:55.823.28-May-2021 3649.00 3165.50 84.93 5.00 260.87 2653.32
   01:03:56.023.28-May-2021 3649.00 3165.50 84.93 5.00 261.07 2653.32
   01:03:56.223.28-May-2021 3649.00 3164.19 84.93 5.00 261.27 2653.32
   01:03:56.423.28-May-2021 3649.00 3164.19 84.93 5.00 261.47 2653.32
   01:03:56.624.28-May-2021 3649.00 3156.20 84.93 5.00 261.67 2653.32
   01:03:56.824.28-May-2021 3649.00 3156.16 84.93 5.00 261.87 2653.32
   01:03:57.024.28-May-2021 3649.00 3156.19 84.93 5.00 262.07 2653.32
   01:03:57.224.28-May-2021 3649.00 3156.44 84.93 5.00 262.27 2653.32
   01:03:57.424.28-May-2021 3649.00 3156.44 84.93 5.00 262.47 2653.32
   01:03:57.625.28-May-2021 3649.00 3156.25 84.93 5.00 262.67 2653.32
   01:03:57.825.28-May-2021 3649.00 3156.17 84.93 5.00 262.87 2653.32
   01:03:58.025.28-May-2021 3649.00 3156.12 84.93 5.00 263.07 2653.32
   01:03:58.225.28-May-2021 3649.00 3156.30 84.93 5.00 263.27 2653.32
   01:03:58.425.28-May-2021 3649.00 3156.30 84.93 5.00 263.47 2653.32
   01:03:58.626.28-May-2021 3649.00 3156.10 84.93 5.00 263.67 2653.32
   01:03:58.826.28-May-2021 3649.00 3156.26 84.93 5.00 263.87 2653.32
   01:03:59.026.28-May-2021 3649.00 3156.22 84.93 5.00 264.07 2653.32
   01:03:59.226.28-May-2021 3649.00 3156.20 84.93 5.00 264.27 2653.32
   01:03:59.426.28-May-2021 3649.00 3156.20 84.93 5.00 264.48 2653.32
   01:03:59.627.28-May-2021 3649.00 3156.33 84.93 5.00 264.68 2653.32
   01:03:59.827.28-May-2021 3649.00 3156.30 84.93 5.00 264.88 2653.32
   01:04:00.027.28-May-2021 3649.00 3156.25 84.93 5.00 265.08 2653.32
   01:04:00.227.28-May-2021 3649.00 3156.34 84.93 5.00 265.28 2653.32
   01:04:00.428.28-May-2021 3649.00 3156.34 84.93 5.00 265.48 2653.32
   01:04:00.628.28-May-2021 3649.00 3156.29 84.93 5.00 265.68 2653.32
   01:04:00.828.28-May-2021 3649.00 3156.30 84.93 5.00 265.88 2653.32
   01:04:01.028.28-May-2021 3649.00 3156.27 84.93 5.00 266.08 2653.32
   01:04:01.228.28-May-2021 3649.00 3156.13 84.93 5.00 266.28 2653.32
   01:04:01.429.28-May-2021 3649.00 3156.13 84.93 5.00 266.48 2653.32
   01:04:01.629.28-May-2021 3649.00 3156.20 84.93 5.00 266.68 2653.32
   01:04:01.829.28-May-2021 3649.00 3156.22 84.93 5.00 266.88 2653.32
   01:04:02.029.28-May-2021 3649.00 3156.28 84.93 5.00 267.08 2653.32
   01:04:02.229.28-May-2021 3649.00 3156.18 84.93 5.00 267.28 2653.32
   01:04:02.430.28-May-2021 3649.00 3156.18 84.93 5.00 267.48 2653.32
   01:04:02.630.28-May-2021 3649.00 3156.18 84.93 5.00 267.68 2653.32
   01:04:02.830.28-May-2021 3649.00 3156.24 84.93 5.00 267.88 2653.32
   01:04:03.030.28-May-2021 3649.00 3156.22 84.93 5.00 268.08 2653.32
   01:04:03.230.28-May-2021 3649.00 3156.19 84.93 5.00 268.28 2653.32
   01:04:03.431.28-May-2021 3649.00 3156.19 84.93 5.00 268.48 2653.32
   01:04:03.631.28-May-2021 3649.00 3156.23 84.93 5.00 268.68 2653.32
   01:04:03.831.28-May-2021 3649.00 3156.28 84.93 5.00 268.88 2653.32
   01:04:04.031.28-May-2021 3649.00 3156.12 84.93 5.00 269.08 2653.32
   01:04:04.231.28-May-2021 3649.00 3156.16 84.93 5.00 269.28 2653.32
   01:04:04.432.28-May-2021 3649.00 3156.16 84.93 5.00 269.48 2653.32
   01:04:04.632.28-May-2021 3649.00 3156.16 84.93 5.00 269.68 2653.32
   01:04:04.832.28-May-2021 3649.00 3156.13 84.93 5.00 269.88 2653.32
   01:04:05.032.28-May-2021 3649.00 3156.11 84.93 5.00 270.08 2653.32
   01:04:05.233.28-May-2021 3649.00 3156.23 84.93 5.00 270.28 2653.32
   01:04:05.433.28-May-2021 3649.00 3156.23 84.93 5.00 270.48 2653.32
   01:04:05.633.28-May-2021 3649.00 3156.14 84.93 5.00 270.68 2653.32
   01:04:05.833.28-May-2021 3649.00 3156.16 84.93 5.00 270.88 2653.32
   01:04:06.033.28-May-2021 3649.00 3156.18 84.93 5.00 271.08 2653.32
   01:04:06.234.28-May-2021 3649.00 3156.12 84.93 5.00 271.28 2653.32
   01:04:06.434.28-May-2021 3649.00 3156.12 84.93 5.00 271.48 2653.32
   01:04:06.634.28-May-2021 3649.00 3165.06 84.93 5.00 271.68 2653.32
   01:04:06.834.28-May-2021 3649.00 3165.16 84.93 5.00 271.88 2653.32
   01:04:07.034.28-May-2021 3649.00 3165.16 84.93 5.00 272.08 2653.32
   01:04:07.235.28-May-2021 3649.00 3165.18 84.93 5.00 272.28 2653.32
   01:04:07.435.28-May-2021 3649.00 3165.18 84.93 5.00 272.48 2653.32
   01:04:07.635.28-May-2021 3649.00 3165.31 84.93 5.00 272.68 2653.32
   01:04:07.835.28-May-2021 3649.00 3165.32 84.93 5.00 272.88 2653.32
   01:04:08.035.28-May-2021 3649.00 3165.31 84.93 5.00 273.08 2653.32
   01:04:08.236.28-May-2021 3649.00 3165.35 84.93 5.00 273.28 2653.32
   01:04:08.436.28-May-2021 3649.00 3165.35 84.93 5.00 273.48 2653.32
   01:04:08.636.28-May-2021 3649.00 3165.36 84.93 5.00 273.68 2653.32
   01:04:08.836.28-May-2021 3649.00 3165.35 84.93 5.00 273.88 2653.32
   01:04:09.036.28-May-2021 3649.00 3165.36 84.93 5.00 274.09 2653.32
   01:04:09.237.28-May-2021 3649.00 3165.34 84.93 5.00 274.29 2653.32
   01:04:09.437.28-May-2021 3649.00 3165.34 84.93 5.00 274.49 2653.32
   01:04:09.637.28-May-2021 3649.00 3165.38 84.93 5.00 274.69 2653.32
   01:04:09.837.28-May-2021 3649.00 3165.38 84.93 5.00 274.89 2653.32
   01:04:10.038.28-May-2021 3649.00 3165.34 84.93 5.00 275.09 2653.32
   01:04:10.238.28-May-2021 3649.00 3165.41 84.93 5.00 275.29 2653.32
   01:04:10.438.28-May-2021 3649.00 3165.41 84.93 5.00 275.49 2653.32
   01:04:10.638.28-May-2021 3649.00 3165.38 84.93 5.00 275.69 2653.32
   01:04:10.838.28-May-2021 3649.00 3165.39 84.92 5.00 275.89 2653.32
   01:04:11.039.28-May-2021 3649.00 3165.39 84.93 5.00 276.09 2653.32
