~Version Information
 VERS.                  2.0:   CWLS log ASCII Standard -VERSION 2.0
 WRAP.                   NO:   One line per depth step
~Well Information Block
#MNEM.UNIT     VALUE/NAME     DESCRIPTION
#---------     -----------    ---------------------------
 STRT.S             00:59:34 28-May-21: START TIME 00:59:34 28-May-21
 STOP.S             01:06:40 28-May-21: STOP TIME  01:06:40 28-May-21
 STEP.S                   0.00: STEP TIME
 NULL.                 -999.25: NULL VALUE
 UWI .                     N/A:  UNIQUE WELL IDENTIFIER
 API .                     N/A:  API NUMBER
 UNIT.                     N/A:  LOGGING EQUIPMENT ID
 DCON.         Sperry Drilling:  DIRECTNL CONTR
 DOE .                     N/A:  DOE NUMBER
 MWDS.                    Baku:  MWD SHOP
 SRVC.     Turan Drilling and Engineering:  CONTRACTOR
 CTRY.              Azerbaijan:  COUNTRY NAME
 PROV.                    Baku:  PROVINCE
 STAT.                    Baku:  STATE NAME
 REGN.                   EESSA:  REGION
 BASE.              Azerbaijan:  LOGGING EQUIPMENT BASE LOCATION
 WTYP.                Deviated:  WELL TYPE
 RIG .              East Azeri:  RIG NAME
 WELL.                    D02y:  WELL NAME
 FLD .                     ACG:  FIELD NAME
 COMP.     BP Exploration (Caspian Sea) Ltd.:  COMPANY
 PDAT.          Mean Sea Level:  PERMANENT DATUM
 MDS .        Operator Entered:  MAG DATA SOURCE
 SON .        AZ-XX-0906997291:  JOB NUMBER
 FTOP.          Formation Tops:  FORM TOPS DESC
 ILTD.               Lithology:  INTERP LTH DESC
 SVYD.                  Survey:  SURVEY DESC
 DMOD.             Drill Model:  DRILL MOD DESC
 HPTY.       Minimum Curvature:  HOLE POS TYPE
 NREF.                    Grid:  NORTH REFERENCE
 SPUD.               05-May-21:  SPUD DATE
 DATE.      09.27.28 12-Jun-21:  END TIME
 STIM.      09.27.28 12-May-21:  START TIME
 DMF .             Drill Floor:  DRILL MEAS FROM
 DFST.                        :  DIST FSL TEXT
 DFWT.                        :  DIST FWL TEXT
 CNTY.                        :  COUNTY
 LOC .                        :  LOCATION
 LMF .             Drill Floor:  LOG MEASURED FROM
 DEP .m                2806.40:  DEPTH
 AGAP.m                  43.60:  AIR GAP
 VSNS.m                  -4.42:  VERT SEC N/S
 VSEW.m                  -7.31:  VERT SEC E/W
 APD .m                  43.60:  DEPTH ABOVE PD
 WDMS.m                 151.80:  WD ELEV
 EGL .m                   0.00:  GROUND ELEVATION
 EPD .m                   0.00:  ELEVATION
 AZTC.deg                 6.18:  AZM TOTAL CORR
 GRDC.deg                 0.29:  GRID CORRECTION
 MDEC.deg                 6.47:  MAGNETIC DECL
 MDIP.deg                59.50:  MAGNETIC DIP
 MFLD.nT              50350.00:  MAGNETIC FIELD
 GVFD.g                   1.00:  GRAVITY FIELD
 VSDR.deg               179.08:  VERT SEC DIRECT
 TDD .m                4300.00:  TOTAL DEPTH (DRILLER)
 SDEP.m                2800.00:  START DEPTH
 DFSL.m                   0.00:  DISTANCE FSL
 DFWL.m                   0.00:  DISTANCE FWL
 UTMY.m             4431871.34:  UTM Y
 UTMX.m              538762.90:  UTM X
 WHEW.m                  -7.31:  WELL HEAD E/W
 WHNS.m                  -4.42:  WELL HEAD N/S
 LONG.deg                51.45:  LONGITUDE
 LATI.deg                40.02:  LATITUDE
 TVDS.m                  43.60:  TVDSS CORRECTN
 EKB .m                  43.60:  KB ELEVATION
 EDF .m                  43.60:  DF ELEVATION
 TDL .m                 806.00:  TOTAL DEPTH (LOGGER)
 MAGU.                 1851231:  MAGUTM CHECKSUM
 VSC .                       0:  VS TO CLOSURE
~Parameter Information Block
#MNEM.UNIT       Value        Description
#---------     -----------    ---------------------------
 AV  .mps                 1.60:  Ann Velocity 
 AVMX.mps                 2.00:  Max Ann Veloc 
 AZIF.deg               140.24:  Azm, Final 
 BHAT.        Rotary Steerable:  BHA Type 
 BROT.°/30m               0.50:  Build Rotating 
 BS  .in                  8.50:  Bit Size 
 BTPL.psig              619.00:  Bit Press Loss 
 CABU.                     Yes:  Customer Abuse 
 CGEO.          Ilgar Gurbanov:  Customer Geo 
 COMM.                     ô:r:  Run Comments 1 
 TCS .hr                 85.88:  Time Ciculation Ended 
 CV  .mps                 3.30:  Crit Velocity 
 CVMX.mps                 3.50:  Max Crit Veloc 
 DD1 .           Hamid Axmedov:  Direct Drillr 1 
 DD2 .           Teymur Aliyev:  Direct Drillr 2 
 DDSV.               Geo-Pilot:  DD Service 
 DEFF.%                 100.00:  % Det Eff 
 DLRX.°/30m               0.00:  Dogleg Rot Max 
 DLSO.°/30m               1.80:  Dogleg Oriented 
 DLSX.°/30m               3.34:  Dogleg Str Max 
 DRET.      11.50.00 27-May-21:  Drill End Time 
 DRST.      21.13.00 24-May-21:  Drill Start Tim 
 DTIM.hr                 45.11:  Time Drilling 
 EDEP.m                4054.00:  End Depth 
 ENG1.         Almaz Almadatov:  Engineer 1 
 ENG2.           Amrah Tahirov:  Engineer 2 
 ENG3.      Bakhtiyar Jabbarli:  Engineer 3 
 ENG4.          Nazrin Asgarli:  Engineer 4 
 ETIM.      10.00.00 30-May-21:  End Time 
 FLOI.gpm               530.00:  Flow In 
 FLON.gpm               400.00:  Flow In Min 
 FLOS.cptm                0.00:  Fluid Loss 
 FLOX.gpm               560.00:  Flow In Max 
 DFT .        Mineral Oil Base:  Mud Type 
 FTRO.       Formation Presure:  FTWD Run Obj 
 HFLO.                      No:  High Flow 
 HPRE.                      No:  High Pressure 
 HTEM.                      No:  High Temp 
 HYDO.m                   1.80:  Hydro Offset 
 IFIN.deg                73.83:  Inc, Final 
 IMAX.deg                73.83:  Inc Max 
 IMIN.deg                57.86:  Inc Min 
 IMND.m                3259.27:  Inc Min Depth 
 IMXD.m                4045.58:  Inc Max Depth 
 JARR.                     Yes:  Jarring 
 LETM.      11.50.00 27-May-21:  Log End Time 
 LOST.hr                     0:  Lost Rig Time 
 LSTM.      21.13.00 24-May-21:  Log Start Time 
 MDCL.ppm             42500.00:  Mud Chlorides 
 MDES.     Inversion Oil/Synthetic:  Mud Desc 
 DFD .sg                  1.52:  Mud Density 
 MDMN.sg                  1.52:  Dens Mud Min 
 MDMX.sg                  1.52:  Dens Mud Max 
 MOIL.                      70:  Run Mud Oil % 
 MOWR.                   70:30:  Run Mud OWR 
 MSND.                     0.2:  Run Mud Sand % 
 MSOL.                      22:  Run Mud Solids% 
 DFV .spqt               77.00:  Mud Viscosity 
 MWOD.in                  6.75:  MWD Tool OD 
 MWSI.                      No:  Serv Intrp, MWD 
 OTIM.hr                151.01:  Time Operating 
 PCON.          Wear / Scratch:  Pad Condition 
 PMAX.psia            11296.93:  Press Op, Max 
 PV  .cP                 37.00:  Mud PV 
 RUN .                     500:  Run Number 
 ROPA.m/hr               25.00:  ROP Avg 
 ROPN.m/hr                9.00:  ROP Min 
 ROPX.m/hr               28.00:  ROP Max 
 RPMA.rpm               140.00:  RPM Surface Avg 
 RPMN.rpm                90.00:  RPM Surface Min 
 RPMX.rpm               140.00:  RPM Surface Max 
 RRUN.                    0500:  Rig Run Number 
 SAZI.deg               172.17:  Azm, Start 
 SDEP.m                3248.00:  Start Depth 
 SIDD.                      No:  Serv Intrp, DD 
 SINC.deg                57.86:  Inc, Start 
 SPPA.psig             5620.00:  SPP Avg 
 SPPN.psig             5190.00:  SPP Min 
 SPPX.psig             6050.00:  SPP Max 
 STIM.      16.00.00 23-May-21:  Start Time 
 SVCS.                 DD, MWD:  Services 
 SVER.                    9.20:  Sperry Version 
 TDAT.m                 806.00:  Tot Depth Attmp 
 TDDF.                      No:  Trip for DD 
 TDLG.m                 806.00:  Tot Depth Loggd 
 TFF .                      No:  Trip for Fail 
 TQAA.f-kp               12.00:  Torque Abs Avg 
 TQAN.f-kp                8.00:  Torque Abs Min 
 TQAX.f-kp               15.00:  Torque Abs Max 
 TRRT.°/30m               0.30:  Turn Rotating 
 MRT .                  EWR-M5:  Maximum Recorded Temperature 
 TTMX.degC               93.00:  Max Tool Temp 
 VS01.                90649155:  Virtual Str1 SN 
 VS02.                90642264:  Virtual Str2 SN 
 VS03.                90642266:  Virtual Str3 SN 
 VS04.                90642261:  Virtual Str4 SN 
 WBMN.klb                 0.00:  WOB Min 
 WITN.             Anar Khalil:  Customer Rep 
 WITN.           Murad Guliyev:  Customer Rep 2 
 WOBA.klb                13.00:  WOB Avg 
 WOBX.klb                25.00:  WOB Max 
 YP  .lhf2               32.00:  Yield Point 
~Curve Information Block
#MNEM.UNIT                 API CODE     Curve Description
#---------               -----------    ---------------------------
 TIME.HHMMSS            00 000 000 000:  GT Time & Date
 GTDEPTH.m              00 000 000 000:  GT Depth
 GTPQH.psia             00 000 000 000:  GT HR Quartz Pressure
 GTTQ.degC              00 000 000 000:  GT Quartz Temperature
 GTTN.NONE              00 000 000 000:  GT Test Number
 GTET.sec               00 000 000 000:  GT Elapsed Test Time
 GTTVD.m                00 000 000 000:  GT True Vertical Depth
#Other Information
#
#WARRANTY: Halliburton will use its best efforts to furnish customers with 
#accurate information and interpretations that are part of, and incident to, the services 
#provided.  However, Halliburton cannot and does not warrant the accuracy 
#or correctness of such information and interpretations.  Under no circumstances should any 
#such information or interpretation be relied upon as the sole basis for any drilling, 
#completion, production, or financial decision or any procedure involving any risk to the 
#safety of any drilling venture, drilling rig or its crew or any other third party.  The 
#Customer has full responsibility for all drilling, completion and production operation.  
#Halliburton makes no representations or warranties, either expressed or 
#implied, including, but not limited to, the implied warranties of merchantability or fitness 
#for a particular purpose, with respect to the services rendered.  In no event will 
#Halliburton be liable for failure to obtain any particular results or for 
#any damages, including, but not limited to, indirect, special or consequential damages, 
#resulting from the use of any information or interpretation provided by Halliburton.
#
~A           TIME           GTDEPTH  GTPQH  GTTQ  GTTN  GTET   GTTVD  
# ...
   01:01:53.095.28-May-2021 3649.00 3165.75 84.94 5.00 138.14 2653.32
   01:01:53.295.28-May-2021 3649.00 3165.75 84.94 5.00 138.34 2653.32
   01:01:53.495.28-May-2021 3649.00 3165.76 84.94 5.00 138.54 2653.32
   01:01:53.696.28-May-2021 3649.00 3165.76 84.94 5.00 138.74 2653.32
   01:01:53.896.28-May-2021 3649.00 3165.77 84.94 5.00 138.94 2653.32
   01:01:54.096.28-May-2021 3649.00 3165.77 84.94 5.00 139.14 2653.32
   01:01:54.296.28-May-2021 3649.00 3165.77 84.94 5.00 139.34 2653.32
   01:01:54.497.28-May-2021 3649.00 3165.71 84.94 5.00 139.55 2653.32
   01:01:54.697.28-May-2021 3649.00 3165.72 84.94 5.00 139.75 2653.32
   01:01:54.897.28-May-2021 3649.00 3165.74 84.94 5.00 139.95 2653.32
   01:01:55.097.28-May-2021 3649.00 3165.74 84.94 5.00 140.15 2653.32
   01:01:55.297.28-May-2021 3649.00 3165.74 84.94 5.00 140.35 2653.32
   01:01:55.498.28-May-2021 3649.00 3165.76 84.94 5.00 140.55 2653.32
   01:01:55.698.28-May-2021 3649.00 3165.75 84.94 5.00 140.75 2653.32
   01:01:55.898.28-May-2021 3649.00 3165.76 84.94 5.00 140.95 2653.32
   01:01:56.098.28-May-2021 3649.00 3165.77 84.94 5.00 141.15 2653.32
   01:01:56.298.28-May-2021 3649.00 3165.77 84.94 5.00 141.35 2653.32
   01:01:56.499.28-May-2021 3649.00 3165.77 84.94 5.00 141.55 2653.32
   01:01:56.699.28-May-2021 3649.00 3165.78 84.94 5.00 141.75 2653.32
   01:01:56.899.28-May-2021 3649.00 3165.77 84.94 5.00 141.95 2653.32
   01:01:57.099.28-May-2021 3649.00 3165.72 84.94 5.00 142.15 2653.32
   01:01:57.299.28-May-2021 3649.00 3165.72 84.94 5.00 142.35 2653.32
   01:01:57.500.28-May-2021 3649.00 3165.73 84.94 5.00 142.55 2653.32
   01:01:57.700.28-May-2021 3649.00 3165.73 84.94 5.00 142.75 2653.32
   01:01:57.900.28-May-2021 3649.00 3165.72 84.94 5.00 142.95 2653.32
   01:01:58.100.28-May-2021 3649.00 3165.72 84.94 5.00 143.15 2653.32
   01:01:58.300.28-May-2021 3649.00 3165.72 84.94 5.00 143.35 2653.32
   01:01:58.501.28-May-2021 3649.00 3165.74 84.94 5.00 143.55 2653.32
   01:01:58.701.28-May-2021 3649.00 3165.72 84.94 5.00 143.75 2653.32
   01:01:58.901.28-May-2021 3649.00 3165.73 84.94 5.00 143.95 2653.32
   01:01:59.101.28-May-2021 3649.00 3165.71 84.94 5.00 144.15 2653.32
   01:01:59.302.28-May-2021 3649.00 3165.71 84.94 5.00 144.35 2653.32
   01:01:59.502.28-May-2021 3649.00 3165.73 84.94 5.00 144.55 2653.32
   01:01:59.702.28-May-2021 3649.00 3165.72 84.94 5.00 144.75 2653.32
   01:01:59.902.28-May-2021 3649.00 3165.74 84.94 5.00 144.95 2653.32
   01:02:00.102.28-May-2021 3649.00 3165.69 84.94 5.00 145.15 2653.32
   01:02:00.303.28-May-2021 3649.00 3165.69 84.94 5.00 145.35 2653.32
   01:02:00.503.28-May-2021 3649.00 3165.71 84.94 5.00 145.55 2653.32
   01:02:00.703.28-May-2021 3649.00 3165.72 84.94 5.00 145.75 2653.32
   01:02:00.903.28-May-2021 3649.00 3165.72 84.94 5.00 145.95 2653.32
   01:02:01.103.28-May-2021 3649.00 3165.73 84.94 5.00 146.15 2653.32
   01:02:01.304.28-May-2021 3649.00 3165.73 84.94 5.00 146.35 2653.32
   01:02:01.504.28-May-2021 3649.00 3165.74 84.94 5.00 146.55 2653.32
   01:02:01.704.28-May-2021 3649.00 3165.74 84.94 5.00 146.75 2653.32
   01:02:01.904.28-May-2021 3649.00 3165.75 84.94 5.00 146.95 2653.32
   01:02:02.104.28-May-2021 3649.00 3165.75 84.94 5.00 147.15 2653.32
   01:02:02.305.28-May-2021 3649.00 3165.75 84.94 5.00 147.35 2653.32
   01:02:02.505.28-May-2021 3649.00 3165.75 84.94 5.00 147.55 2653.32
   01:02:02.705.28-May-2021 3649.00 3165.70 84.94 5.00 147.75 2653.32
   01:02:02.905.28-May-2021 3649.00 3165.71 84.94 5.00 147.95 2653.32
   01:02:03.105.28-May-2021 3649.00 3165.72 84.94 5.00 148.15 2653.32
   01:02:03.306.28-May-2021 3649.00 3165.72 84.94 5.00 148.35 2653.32
   01:02:03.506.28-May-2021 3649.00 3165.73 84.94 5.00 148.55 2653.32
   01:02:03.706.28-May-2021 3649.00 3165.74 84.94 5.00 148.75 2653.32
   01:02:03.906.28-May-2021 3649.00 3165.75 84.94 5.00 148.95 2653.32
   01:02:04.107.28-May-2021 3649.00 3165.74 84.94 5.00 149.16 2653.32
   01:02:04.307.28-May-2021 3649.00 3165.74 84.94 5.00 149.36 2653.32
   01:02:04.507.28-May-2021 3649.00 3165.76 84.94 5.00 149.56 2653.32
   01:02:04.707.28-May-2021 3649.00 3165.76 84.94 5.00 149.76 2653.32
   01:02:04.907.28-May-2021 3649.00 3165.76 84.94 5.00 149.96 2653.32
   01:02:05.108.28-May-2021 3649.00 3165.76 84.94 5.00 150.16 2653.32
   01:02:05.308.28-May-2021 3649.00 3165.76 84.94 5.00 150.36 2653.32
   01:02:05.508.28-May-2021 3649.00 3165.72 84.94 5.00 150.56 2653.32
   01:02:05.708.28-May-2021 3649.00 3165.71 84.94 5.00 150.76 2653.32
   01:02:05.908.28-May-2021 3649.00 3165.72 84.94 5.00 150.96 2653.32
   01:02:06.109.28-May-2021 3649.00 3165.71 84.94 5.00 151.16 2653.32
   01:02:06.309.28-May-2021 3649.00 3165.71 84.94 5.00 151.36 2653.32
   01:02:06.509.28-May-2021 3649.00 3165.71 84.94 5.00 151.56 2653.32
   01:02:06.709.28-May-2021 3649.00 3165.72 84.94 5.00 151.76 2653.32
   01:02:06.909.28-May-2021 3649.00 3165.71 84.94 5.00 151.96 2653.32
   01:02:07.110.28-May-2021 3649.00 3165.72 84.94 5.00 152.16 2653.32
   01:02:07.310.28-May-2021 3649.00 3165.72 84.94 5.00 152.36 2653.32
   01:02:07.510.28-May-2021 3649.00 3165.71 84.94 5.00 152.56 2653.32
   01:02:07.710.28-May-2021 3649.00 3165.71 84.94 5.00 152.76 2653.32
   01:02:07.910.28-May-2021 3649.00 3165.71 84.94 5.00 152.96 2653.32
   01:02:08.111.28-May-2021 3649.00 3165.73 84.94 5.00 153.16 2653.32
   01:02:08.311.28-May-2021 3649.00 3165.73 84.94 5.00 153.36 2653.32
   01:02:08.511.28-May-2021 3649.00 3165.70 84.94 5.00 153.56 2653.32
   01:02:08.711.28-May-2021 3649.00 3165.70 84.94 5.00 153.76 2653.32
   01:02:08.912.28-May-2021 3649.00 3165.71 84.94 5.00 153.96 2653.32
   01:02:09.112.28-May-2021 3649.00 3164.10 84.94 5.00 154.16 2653.32
   01:02:09.312.28-May-2021 3649.00 3164.10 84.94 5.00 154.36 2653.32
   01:02:09.512.28-May-2021 3649.00 3156.36 84.94 5.00 154.56 2653.32
   01:02:09.712.28-May-2021 3649.00 3156.51 84.94 5.00 154.76 2653.32
   01:02:09.913.28-May-2021 3649.00 3156.53 84.94 5.00 154.96 2653.32
   01:02:10.113.28-May-2021 3649.00 3156.54 84.94 5.00 155.16 2653.32
   01:02:10.313.28-May-2021 3649.00 3156.54 84.94 5.00 155.36 2653.32
   01:02:10.513.28-May-2021 3649.00 3156.46 84.94 5.00 155.56 2653.32
   01:02:10.713.28-May-2021 3649.00 3156.60 84.94 5.00 155.76 2653.32
   01:02:10.914.28-May-2021 3649.00 3156.34 84.94 5.00 155.96 2653.32
   01:02:11.114.28-May-2021 3649.00 3156.46 84.94 5.00 156.16 2653.32
   01:02:11.314.28-May-2021 3649.00 3156.46 84.94 5.00 156.36 2653.32
   01:02:11.514.28-May-2021 3649.00 3156.33 84.94 5.00 156.56 2653.32
   01:02:11.714.28-May-2021 3649.00 3156.29 84.94 5.00 156.76 2653.32
   01:02:11.915.28-May-2021 3649.00 3156.27 84.94 5.00 156.96 2653.32
   01:02:12.115.28-May-2021 3649.00 3156.33 84.94 5.00 157.16 2653.32
   01:02:12.315.28-May-2021 3649.00 3156.33 84.94 5.00 157.36 2653.32
   01:02:12.515.28-May-2021 3649.00 3156.25 84.94 5.00 157.56 2653.32
   01:02:12.715.28-May-2021 3649.00 3156.29 84.94 5.00 157.76 2653.32
   01:02:12.916.28-May-2021 3649.00 3156.21 84.94 5.00 157.96 2653.32
   01:02:13.116.28-May-2021 3649.00 3156.24 84.94 5.00 158.16 2653.32
   01:02:13.316.28-May-2021 3649.00 3156.24 84.94 5.00 158.36 2653.32
   01:02:13.516.28-May-2021 3649.00 3156.20 84.94 5.00 158.56 2653.32
   01:02:13.717.28-May-2021 3649.00 3156.15 84.94 5.00 158.77 2653.32
   01:02:13.917.28-May-2021 3649.00 3156.17 84.94 5.00 158.97 2653.32
   01:02:14.117.28-May-2021 3649.00 3156.04 84.94 5.00 159.17 2653.32
   01:02:14.317.28-May-2021 3649.00 3156.04 84.94 5.00 159.37 2653.32
   01:02:14.517.28-May-2021 3649.00 3156.31 84.94 5.00 159.57 2653.32
   01:02:14.718.28-May-2021 3649.00 3156.28 84.94 5.00 159.77 2653.32
   01:02:14.918.28-May-2021 3649.00 3156.21 84.94 5.00 159.97 2653.32
   01:02:15.118.28-May-2021 3649.00 3156.26 84.94 5.00 160.17 2653.32
   01:02:15.318.28-May-2021 3649.00 3156.26 84.94 5.00 160.37 2653.32
   01:02:15.518.28-May-2021 3649.00 3156.31 84.94 5.00 160.57 2653.32
   01:02:15.719.28-May-2021 3649.00 3156.28 84.94 5.00 160.77 2653.32
   01:02:15.919.28-May-2021 3649.00 3156.21 84.94 5.00 160.97 2653.32
