~Version Information
 VERS.                  2.0:   CWLS log ASCII Standard -VERSION 2.0
 WRAP.                   NO:   One line per depth step
~Well Information Block
#MNEM.UNIT     VALUE/NAME     DESCRIPTION
#---------     -----------    ---------------------------
 STRT.S             08:05:02 28-May-21: START TIME 08:05:02 28-May-21
 STOP.S             08:12:05 28-May-21: STOP TIME  08:12:05 28-May-21
 STEP.S                   0.00: STEP TIME
 NULL.                 -999.25: NULL VALUE
 UWI .                     N/A:  UNIQUE WELL IDENTIFIER
 API .                     N/A:  API NUMBER
 UNIT.                     N/A:  LOGGING EQUIPMENT ID
 DCON.         Sperry Drilling:  DIRECTNL CONTR
 DOE .                     N/A:  DOE NUMBER
 MWDS.                    Baku:  MWD SHOP
 SRVC.     Turan Drilling and Engineering:  CONTRACTOR
 CTRY.              Azerbaijan:  COUNTRY NAME
 PROV.                    Baku:  PROVINCE
 STAT.                    Baku:  STATE NAME
 REGN.                   EESSA:  REGION
 BASE.              Azerbaijan:  LOGGING EQUIPMENT BASE LOCATION
 WTYP.                Deviated:  WELL TYPE
 RIG .              East Azeri:  RIG NAME
 WELL.                    D02y:  WELL NAME
 FLD .                     ACG:  FIELD NAME
 COMP.     BP Exploration (Caspian Sea) Ltd.:  COMPANY
 PDAT.          Mean Sea Level:  PERMANENT DATUM
 MDS .        Operator Entered:  MAG DATA SOURCE
 SON .        AZ-XX-0906997291:  JOB NUMBER
 FTOP.          Formation Tops:  FORM TOPS DESC
 ILTD.               Lithology:  INTERP LTH DESC
 SVYD.                  Survey:  SURVEY DESC
 DMOD.             Drill Model:  DRILL MOD DESC
 HPTY.       Minimum Curvature:  HOLE POS TYPE
 NREF.                    Grid:  NORTH REFERENCE
 SPUD.               05-May-21:  SPUD DATE
 DATE.      09.27.28 12-Jun-21:  END TIME
 STIM.      09.27.28 12-May-21:  START TIME
 DMF .             Drill Floor:  DRILL MEAS FROM
 DFST.                        :  DIST FSL TEXT
 DFWT.                        :  DIST FWL TEXT
 CNTY.                        :  COUNTY
 LOC .                        :  LOCATION
 LMF .             Drill Floor:  LOG MEASURED FROM
 DEP .m                2806.40:  DEPTH
 AGAP.m                  43.60:  AIR GAP
 VSNS.m                  -4.42:  VERT SEC N/S
 VSEW.m                  -7.31:  VERT SEC E/W
 APD .m                  43.60:  DEPTH ABOVE PD
 WDMS.m                 151.80:  WD ELEV
 EGL .m                   0.00:  GROUND ELEVATION
 EPD .m                   0.00:  ELEVATION
 AZTC.deg                 6.18:  AZM TOTAL CORR
 GRDC.deg                 0.29:  GRID CORRECTION
 MDEC.deg                 6.47:  MAGNETIC DECL
 MDIP.deg                59.50:  MAGNETIC DIP
 MFLD.nT              50350.00:  MAGNETIC FIELD
 GVFD.g                   1.00:  GRAVITY FIELD
 VSDR.deg               179.08:  VERT SEC DIRECT
 TDD .m                4300.00:  TOTAL DEPTH (DRILLER)
 SDEP.m                2800.00:  START DEPTH
 DFSL.m                   0.00:  DISTANCE FSL
 DFWL.m                   0.00:  DISTANCE FWL
 UTMY.m             4431871.34:  UTM Y
 UTMX.m              538762.90:  UTM X
 WHEW.m                  -7.31:  WELL HEAD E/W
 WHNS.m                  -4.42:  WELL HEAD N/S
 LONG.deg                51.45:  LONGITUDE
 LATI.deg                40.02:  LATITUDE
 TVDS.m                  43.60:  TVDSS CORRECTN
 EKB .m                  43.60:  KB ELEVATION
 EDF .m                  43.60:  DF ELEVATION
 TDL .m                 806.00:  TOTAL DEPTH (LOGGER)
 MAGU.                 1851231:  MAGUTM CHECKSUM
 VSC .                       0:  VS TO CLOSURE
~Parameter Information Block
#MNEM.UNIT       Value        Description
#---------     -----------    ---------------------------
 AV  .mps                 1.60:  Ann Velocity 
 AVMX.mps                 2.00:  Max Ann Veloc 
 AZIF.deg               140.24:  Azm, Final 
 BHAT.        Rotary Steerable:  BHA Type 
 BROT.°/30m               0.50:  Build Rotating 
 BS  .in                  8.50:  Bit Size 
 BTPL.psig              619.00:  Bit Press Loss 
 CABU.                     Yes:  Customer Abuse 
 CGEO.          Ilgar Gurbanov:  Customer Geo 
 TCS .hr                 85.88:  Time Ciculation Ended 
 CV  .mps                 3.30:  Crit Velocity 
 CVMX.mps                 3.50:  Max Crit Veloc 
 DD1 .           Hamid Axmedov:  Direct Drillr 1 
 DD2 .           Teymur Aliyev:  Direct Drillr 2 
 DDSV.               Geo-Pilot:  DD Service 
 DEFF.%                 100.00:  % Det Eff 
 DLRX.°/30m               0.00:  Dogleg Rot Max 
 DLSO.°/30m               1.80:  Dogleg Oriented 
 DLSX.°/30m               3.34:  Dogleg Str Max 
 DRET.      11.50.00 27-May-21:  Drill End Time 
 DRST.      21.13.00 24-May-21:  Drill Start Tim 
 DTIM.hr                 45.11:  Time Drilling 
 EDEP.m                4054.00:  End Depth 
 ENG1.         Almaz Almadatov:  Engineer 1 
 ENG2.           Amrah Tahirov:  Engineer 2 
 ENG3.      Bakhtiyar Jabbarli:  Engineer 3 
 ENG4.          Nazrin Asgarli:  Engineer 4 
 ETIM.      10.00.00 30-May-21:  End Time 
 FLOI.gpm               530.00:  Flow In 
 FLON.gpm               400.00:  Flow In Min 
 FLOS.cptm                0.00:  Fluid Loss 
 FLOX.gpm               560.00:  Flow In Max 
 DFT .        Mineral Oil Base:  Mud Type 
 FTRO.       Formation Presure:  FTWD Run Obj 
 HFLO.                      No:  High Flow 
 HPRE.                      No:  High Pressure 
 HTEM.                      No:  High Temp 
 HYDO.m                   1.80:  Hydro Offset 
 IFIN.deg                73.83:  Inc, Final 
 IMAX.deg                73.83:  Inc Max 
 IMIN.deg                57.86:  Inc Min 
 IMND.m                3259.27:  Inc Min Depth 
 IMXD.m                4045.58:  Inc Max Depth 
 JARR.                     Yes:  Jarring 
 LETM.      11.50.00 27-May-21:  Log End Time 
 LOST.hr                     0:  Lost Rig Time 
 LSTM.      21.13.00 24-May-21:  Log Start Time 
 MDCL.ppm             42500.00:  Mud Chlorides 
 MDES.     Inversion Oil/Synthetic:  Mud Desc 
 DFD .sg                  1.52:  Mud Density 
 MDMN.sg                  1.52:  Dens Mud Min 
 MDMX.sg                  1.52:  Dens Mud Max 
 MOIL.                      70:  Run Mud Oil % 
 MOWR.                   70:30:  Run Mud OWR 
 MSND.                     0.2:  Run Mud Sand % 
 MSOL.                      22:  Run Mud Solids% 
 DFV .spqt               77.00:  Mud Viscosity 
 MWOD.in                  6.75:  MWD Tool OD 
 MWSI.                      No:  Serv Intrp, MWD 
 OTIM.hr                151.01:  Time Operating 
 PCON.          Wear / Scratch:  Pad Condition 
 PMAX.psia            11296.93:  Press Op, Max 
 PV  .cP                 37.00:  Mud PV 
 RUN .                     500:  Run Number 
 ROPA.m/hr               25.00:  ROP Avg 
 ROPN.m/hr                9.00:  ROP Min 
 ROPX.m/hr               28.00:  ROP Max 
 RPMA.rpm               140.00:  RPM Surface Avg 
 RPMN.rpm                90.00:  RPM Surface Min 
 RPMX.rpm               140.00:  RPM Surface Max 
 RRUN.                    0500:  Rig Run Number 
 SAZI.deg               172.17:  Azm, Start 
 SDEP.m                3248.00:  Start Depth 
 SIDD.                      No:  Serv Intrp, DD 
 SINC.deg                57.86:  Inc, Start 
 SPPA.psig             5620.00:  SPP Avg 
 SPPN.psig             5190.00:  SPP Min 
 SPPX.psig             6050.00:  SPP Max 
 STIM.      16.00.00 23-May-21:  Start Time 
 SVCS.                 DD, MWD:  Services 
 SVER.                    9.20:  Sperry Version 
 TDAT.m                 806.00:  Tot Depth Attmp 
 TDDF.                      No:  Trip for DD 
 TDLG.m                 806.00:  Tot Depth Loggd 
 TFF .                      No:  Trip for Fail 
 TQAA.f-kp               12.00:  Torque Abs Avg 
 TQAN.f-kp                8.00:  Torque Abs Min 
 TQAX.f-kp               15.00:  Torque Abs Max 
 TRRT.°/30m               0.30:  Turn Rotating 
 MRT .                  EWR-M5:  Maximum Recorded Temperature 
 TTMX.degC               93.00:  Max Tool Temp 
 VS01.                90649155:  Virtual Str1 SN 
 VS02.                90642264:  Virtual Str2 SN 
 VS03.                90642266:  Virtual Str3 SN 
 VS04.                90642261:  Virtual Str4 SN 
 WBMN.klb                 0.00:  WOB Min 
 WITN.             Anar Khalil:  Customer Rep 
 WITN.           Murad Guliyev:  Customer Rep 2 
 WOBA.klb                13.00:  WOB Avg 
 WOBX.klb                25.00:  WOB Max 
 YP  .lhf2               32.00:  Yield Point 
~Curve Information Block
#MNEM.UNIT                 API CODE     Curve Description
#---------               -----------    ---------------------------
 TIME.HHMMSS            00 000 000 000:  GT Time & Date
 GTDEPTH.m              00 000 000 000:  GT Depth
 GTPQH.psia             00 000 000 000:  GT HR Quartz Pressure
 GTTQ.degC              00 000 000 000:  GT Quartz Temperature
 GTTN.NONE              00 000 000 000:  GT Test Number
 GTET.sec               00 000 000 000:  GT Elapsed Test Time
 GTTVD.m                00 000 000 000:  GT True Vertical Depth
#Other Information
#
#WARRANTY: Halliburton will use its best efforts to furnish customers with 
#accurate information and interpretations that are part of, and incident to, the services 
#provided.  However, Halliburton cannot and does not warrant the accuracy 
#or correctness of such information and interpretations.  Under no circumstances should any 
#such information or interpretation be relied upon as the sole basis for any drilling, 
#completion, production, or financial decision or any procedure involving any risk to the 
#safety of any drilling venture, drilling rig or its crew or any other third party.  The 
#Customer has full responsibility for all drilling, completion and production operation.  
#Halliburton makes no representations or warranties, either expressed or 
#implied, including, but not limited to, the implied warranties of merchantability or fitness 
#for a particular purpose, with respect to the services rendered.  In no event will 
#Halliburton be liable for failure to obtain any particular results or for 
#any damages, including, but not limited to, indirect, special or consequential damages, 
#resulting from the use of any information or interpretation provided by Halliburton.
#
~A           TIME           GTDEPTH  GTPQH  GTTQ  GTTN   GTET   GTTVD  
   08:05:02.000.28-May-2021 3306.50 5823.04 82.17 14.00   0.00 2504.31
   08:05:02.200.28-May-2021 3306.50 5823.04 82.17 14.00   0.20 2504.31
   08:05:02.400.28-May-2021 3306.50 5829.07 82.17 14.00   0.40 2504.31
   08:05:02.600.28-May-2021 3306.50 5821.14 82.17 14.00   0.60 2504.31
   08:05:02.800.28-May-2021 3306.50 5824.16 82.17 14.00   0.80 2504.31
   08:05:03.000.28-May-2021 3306.50 5824.16 82.17 14.00   1.00 2504.31
   08:05:03.200.28-May-2021 3306.50 5823.38 82.17 14.00   1.20 2504.31
   08:05:03.400.28-May-2021 3306.50 5823.38 82.17 14.00   1.40 2504.31
   08:05:03.600.28-May-2021 3306.50 5824.94 82.17 14.00   1.60 2504.31
   08:05:03.800.28-May-2021 3306.50 5825.02 82.17 14.00   1.80 2504.31
   08:05:04.000.28-May-2021 3306.50 5825.18 82.17 14.00   2.00 2504.31
   08:05:04.200.28-May-2021 3306.50 5825.18 82.17 14.00   2.20 2504.31
   08:05:04.400.28-May-2021 3306.50 5825.19 82.17 14.00   2.40 2504.31
   08:05:04.600.28-May-2021 3306.50 5825.77 82.17 14.00   2.60 2504.31
   08:05:04.800.28-May-2021 3306.50 5829.94 82.17 14.00   2.80 2504.31
   08:05:05.000.28-May-2021 3306.50 5825.36 82.17 14.00   3.00 2504.31
   08:05:05.200.28-May-2021 3306.50 5825.36 82.17 14.00   3.20 2504.31
   08:05:05.400.28-May-2021 3306.50 5826.59 82.17 14.00   3.40 2504.31
   08:05:05.600.28-May-2021 3306.50 5826.42 82.17 14.00   3.60 2504.31
   08:05:05.800.28-May-2021 3306.50 5827.06 82.17 14.00   3.80 2504.31
   08:05:06.000.28-May-2021 3306.50 5827.16 82.17 14.00   4.00 2504.31
   08:05:06.200.28-May-2021 3306.50 5827.16 82.17 14.00   4.20 2504.31
   08:05:06.400.28-May-2021 3306.50 5827.17 82.17 14.00   4.40 2504.31
   08:05:06.600.28-May-2021 3306.50 5827.25 82.17 14.00   4.60 2504.31
   08:05:06.800.28-May-2021 3306.50 5827.37 82.17 14.00   4.80 2504.31
   08:05:07.000.28-May-2021 3306.50 5827.58 82.17 14.00   5.00 2504.31
   08:05:07.200.28-May-2021 3306.50 5827.58 82.17 14.00   5.20 2504.31
   08:05:07.400.28-May-2021 3306.50 5827.79 82.17 14.00   5.40 2504.31
   08:05:07.600.28-May-2021 3306.50 5833.92 82.17 14.00   5.60 2504.31
   08:05:07.800.28-May-2021 3306.50 5825.82 82.17 14.00   5.80 2504.31
   08:05:08.000.28-May-2021 3306.50 5828.75 82.17 14.00   6.00 2504.31
   08:05:08.200.28-May-2021 3306.50 5828.75 82.17 14.00   6.20 2504.31
   08:05:08.400.28-May-2021 3306.50 5829.14 82.17 14.00   6.40 2504.31
   08:05:08.600.28-May-2021 3306.50 5829.39 82.17 14.00   6.60 2504.31
   08:05:08.800.28-May-2021 3306.50 5829.86 82.17 14.00   6.80 2504.31
   08:05:09.000.28-May-2021 3306.50 5829.79 82.17 14.00   7.00 2504.31
   08:05:09.200.28-May-2021 3306.50 5829.79 82.17 14.00   7.20 2504.31
   08:05:09.400.28-May-2021 3306.50 5829.81 82.17 14.00   7.40 2504.31
   08:05:09.600.28-May-2021 3306.50 5829.72 82.17 14.00   7.60 2504.31
   08:05:09.800.28-May-2021 3306.50 5829.79 82.17 14.00   7.80 2504.31
   08:05:10.000.28-May-2021 3306.50 5829.91 82.17 14.00   8.00 2504.31
   08:05:10.200.28-May-2021 3306.50 5829.91 82.17 14.00   8.20 2504.31
   08:05:10.400.28-May-2021 3306.50 5834.51 82.17 14.00   8.40 2504.31
   08:05:10.600.28-May-2021 3306.50 5830.46 82.17 14.00   8.60 2504.31
   08:05:10.800.28-May-2021 3306.50 5830.84 82.17 14.00   8.80 2504.31
   08:05:11.000.28-May-2021 3306.50 5830.86 82.17 14.00   9.00 2504.31
   08:05:11.200.28-May-2021 3306.50 5830.86 82.17 14.00   9.20 2504.31
   08:05:11.400.28-May-2021 3306.50 5832.11 82.17 14.00   9.40 2504.31
   08:05:11.600.28-May-2021 3306.50 5831.48 82.17 14.00   9.60 2504.31
   08:05:11.800.28-May-2021 3306.50 5830.72 82.17 14.00   9.80 2504.31
   08:05:12.000.28-May-2021 3306.50 5831.33 82.17 14.00  10.00 2504.31
   08:05:12.200.28-May-2021 3306.50 5831.33 82.17 14.00  10.20 2504.31
   08:05:12.400.28-May-2021 3306.50 5829.47 82.17 14.00  10.40 2504.31
   08:05:12.600.28-May-2021 3306.50 5832.31 82.17 14.00  10.60 2504.31
   08:05:12.800.28-May-2021 3306.50 5831.40 82.17 14.00  10.80 2504.31
   08:05:13.000.28-May-2021 3306.50 5832.67 82.17 14.00  11.00 2504.31
   08:05:13.200.28-May-2021 3306.50 5832.67 82.17 14.00  11.20 2504.31
   08:05:13.400.28-May-2021 3306.50 5830.57 82.17 14.00  11.40 2504.31
   08:05:13.600.28-May-2021 3306.50 5833.24 82.17 14.00  11.60 2504.31
   08:05:13.800.28-May-2021 3306.50 5840.00 82.17 14.00  11.80 2504.31
   08:05:14.000.28-May-2021 3306.50 5828.80 82.17 14.00  12.00 2504.31
   08:05:14.200.28-May-2021 3306.50 5828.80 82.17 14.00  12.20 2504.31
   08:05:14.400.28-May-2021 3306.50 5832.96 82.17 14.00  12.40 2504.31
   08:05:14.600.28-May-2021 3306.50 5833.83 82.17 14.00  12.60 2504.31
   08:05:14.800.28-May-2021 3306.50 5833.13 82.17 14.00  12.80 2504.31
   08:05:15.000.28-May-2021 3306.50 5837.77 82.17 14.00  13.00 2504.31
   08:05:15.200.28-May-2021 3306.50 5837.77 82.17 14.00  13.20 2504.31
   08:05:15.400.28-May-2021 3306.50 5837.77 82.17 14.00  13.40 2504.31
   08:05:15.600.28-May-2021 3306.50 5833.42 82.17 14.00  13.60 2504.31
   08:05:15.800.28-May-2021 3306.50 5833.16 82.17 14.00  13.80 2504.31
   08:05:16.000.28-May-2021 3306.50 5834.08 82.17 14.00  14.00 2504.31
   08:05:16.200.28-May-2021 3306.50 5834.08 82.17 14.00  14.20 2504.31
   08:05:16.400.28-May-2021 3306.50 5834.08 82.17 14.00  14.40 2504.31
   08:05:16.600.28-May-2021 3306.50 5834.19 82.17 14.00  14.60 2504.31
   08:05:16.800.28-May-2021 3306.50 5834.31 82.17 14.00  14.80 2504.31
   08:05:17.000.28-May-2021 3306.50 5834.40 82.17 14.00  15.00 2504.31
   08:05:17.200.28-May-2021 3306.50 5834.40 82.17 14.00  15.20 2504.31
   08:05:17.400.28-May-2021 3306.50 5837.31 82.17 14.00  15.40 2504.31
   08:05:17.600.28-May-2021 3306.50 5835.51 82.17 14.00  15.60 2504.31
   08:05:17.800.28-May-2021 3306.50 5834.82 82.17 14.00  15.80 2504.31
   08:05:18.000.28-May-2021 3306.50 5834.42 82.17 14.00  16.00 2504.31
   08:05:18.200.28-May-2021 3306.50 5834.42 82.17 14.00  16.20 2504.31
   08:05:18.400.28-May-2021 3306.50 5834.49 82.17 14.00  16.40 2504.31
   08:05:18.600.28-May-2021 3306.50 5835.45 82.17 14.00  16.60 2504.31
   08:05:18.800.28-May-2021 3306.50 5835.31 82.17 14.00  16.80 2504.31
   08:05:19.000.28-May-2021 3306.50 5835.59 82.17 14.00  17.00 2504.31
   08:05:19.200.28-May-2021 3306.50 5835.59 82.17 14.00  17.20 2504.31
   08:05:19.400.28-May-2021 3306.50 5835.42 82.17 14.00  17.40 2504.31
   08:05:19.600.28-May-2021 3306.50 5835.39 82.17 14.00  17.60 2504.31
   08:05:19.800.28-May-2021 3306.50 5835.51 82.17 14.00  17.80 2504.31
   08:05:20.000.28-May-2021 3306.50 5835.56 82.17 14.00  18.00 2504.31
   08:05:20.200.28-May-2021 3306.50 5835.56 82.17 14.00  18.20 2504.31
   08:05:20.400.28-May-2021 3306.50 5833.26 82.17 14.00  18.40 2504.31
   08:05:20.600.28-May-2021 3306.50 5836.15 82.17 14.00  18.60 2504.31
   08:05:20.800.28-May-2021 3306.50 5835.00 82.16 14.00  18.80 2504.31
   08:05:21.000.28-May-2021 3306.50 5836.21 82.17 14.00  19.00 2504.31
   08:05:21.200.28-May-2021 3306.50 5836.21 82.17 14.00  19.20 2504.31
   08:05:21.400.28-May-2021 3306.50 5837.35 82.16 14.00  19.40 2504.31
   08:05:21.600.28-May-2021 3306.50 5836.38 82.16 14.00  19.60 2504.31
   08:05:21.800.28-May-2021 3306.50 5836.02 82.16 14.00  19.80 2504.31
   08:05:22.000.28-May-2021 3306.50 5836.63 82.16 14.00  20.00 2504.31
   08:05:22.200.28-May-2021 3306.50 5836.63 82.16 14.00  20.20 2504.31
   08:05:22.400.28-May-2021 3306.50 5832.66 82.16 14.00  20.40 2504.31
   08:05:22.600.28-May-2021 3306.50 5837.33 82.16 14.00  20.60 2504.31
   08:05:22.800.28-May-2021 3306.50 5836.15 82.16 14.00  20.80 2504.31
   08:05:23.000.28-May-2021 3306.50 5843.27 82.16 14.00  21.00 2504.31
   08:05:23.200.28-May-2021 3306.50 5843.27 82.16 14.00  21.20 2504.31
   08:05:23.400.28-May-2021 3306.50 5838.20 82.16 14.00  21.40 2504.31
   08:05:23.600.28-May-2021 3306.50 5836.84 82.16 14.00  21.60 2504.31
   08:05:23.800.28-May-2021 3306.50 5837.52 82.16 14.00  21.80 2504.31
   08:05:24.000.28-May-2021 3306.50 5837.53 82.16 14.00  22.00 2504.31
   08:05:24.200.28-May-2021 3306.50 5837.53 82.16 14.00  22.20 2504.31
   08:05:24.400.28-May-2021 3306.50 5837.64 82.16 14.00  22.40 2504.31
