~Version Information
 VERS.                  2.0:   CWLS log ASCII Standard -VERSION 2.0
 WRAP.                   NO:   One line per depth step
~Well Information Block
#MNEM.UNIT     VALUE/NAME     DESCRIPTION
#---------     -----------    ---------------------------
 STRT.S             04:01:58 28-May-21: START TIME 04:01:58 28-May-21
 STOP.S             04:09:02 28-May-21: STOP TIME  04:09:02 28-May-21
 STEP.S                   0.00: STEP TIME
 NULL.                 -999.25: NULL VALUE
 UWI .                     N/A:  UNIQUE WELL IDENTIFIER
 API .                     N/A:  API NUMBER
 UNIT.                     N/A:  LOGGING EQUIPMENT ID
 DCON.         Sperry Drilling:  DIRECTNL CONTR
 DOE .                     N/A:  DOE NUMBER
 MWDS.                    Baku:  MWD SHOP
 SRVC.     Turan Drilling and Engineering:  CONTRACTOR
 CTRY.              Azerbaijan:  COUNTRY NAME
 PROV.                    Baku:  PROVINCE
 STAT.                    Baku:  STATE NAME
 REGN.                   EESSA:  REGION
 BASE.              Azerbaijan:  LOGGING EQUIPMENT BASE LOCATION
 WTYP.                Deviated:  WELL TYPE
 RIG .              East Azeri:  RIG NAME
 WELL.                    D02y:  WELL NAME
 FLD .                     ACG:  FIELD NAME
 COMP.     BP Exploration (Caspian Sea) Ltd.:  COMPANY
 PDAT.          Mean Sea Level:  PERMANENT DATUM
 MDS .        Operator Entered:  MAG DATA SOURCE
 SON .        AZ-XX-0906997291:  JOB NUMBER
 FTOP.          Formation Tops:  FORM TOPS DESC
 ILTD.               Lithology:  INTERP LTH DESC
 SVYD.                  Survey:  SURVEY DESC
 DMOD.             Drill Model:  DRILL MOD DESC
 HPTY.       Minimum Curvature:  HOLE POS TYPE
 NREF.                    Grid:  NORTH REFERENCE
 SPUD.               05-May-21:  SPUD DATE
 DATE.      09.27.28 12-Jun-21:  END TIME
 STIM.      09.27.28 12-May-21:  START TIME
 DMF .             Drill Floor:  DRILL MEAS FROM
 DFST.                        :  DIST FSL TEXT
 DFWT.                        :  DIST FWL TEXT
 CNTY.                        :  COUNTY
 LOC .                        :  LOCATION
 LMF .             Drill Floor:  LOG MEASURED FROM
 DEP .m                2806.40:  DEPTH
 AGAP.m                  43.60:  AIR GAP
 VSNS.m                  -4.42:  VERT SEC N/S
 VSEW.m                  -7.31:  VERT SEC E/W
 APD .m                  43.60:  DEPTH ABOVE PD
 WDMS.m                 151.80:  WD ELEV
 EGL .m                   0.00:  GROUND ELEVATION
 EPD .m                   0.00:  ELEVATION
 AZTC.deg                 6.18:  AZM TOTAL CORR
 GRDC.deg                 0.29:  GRID CORRECTION
 MDEC.deg                 6.47:  MAGNETIC DECL
 MDIP.deg                59.50:  MAGNETIC DIP
 MFLD.nT              50350.00:  MAGNETIC FIELD
 GVFD.g                   1.00:  GRAVITY FIELD
 VSDR.deg               179.08:  VERT SEC DIRECT
 TDD .m                4300.00:  TOTAL DEPTH (DRILLER)
 SDEP.m                2800.00:  START DEPTH
 DFSL.m                   0.00:  DISTANCE FSL
 DFWL.m                   0.00:  DISTANCE FWL
 UTMY.m             4431871.34:  UTM Y
 UTMX.m              538762.90:  UTM X
 WHEW.m                  -7.31:  WELL HEAD E/W
 WHNS.m                  -4.42:  WELL HEAD N/S
 LONG.deg                51.45:  LONGITUDE
 LATI.deg                40.02:  LATITUDE
 TVDS.m                  43.60:  TVDSS CORRECTN
 EKB .m                  43.60:  KB ELEVATION
 EDF .m                  43.60:  DF ELEVATION
 TDL .m                 806.00:  TOTAL DEPTH (LOGGER)
 MAGU.                 1851231:  MAGUTM CHECKSUM
 VSC .                       0:  VS TO CLOSURE
~Parameter Information Block
#MNEM.UNIT       Value        Description
#---------     -----------    ---------------------------
 AV  .mps                 1.60:  Ann Velocity 
 AVMX.mps                 2.00:  Max Ann Veloc 
 AZIF.deg               140.24:  Azm, Final 
 BHAT.        Rotary Steerable:  BHA Type 
 BROT.°/30m               0.50:  Build Rotating 
 BS  .in                  8.50:  Bit Size 
 BTPL.psig              619.00:  Bit Press Loss 
 CABU.                     Yes:  Customer Abuse 
 CGEO.          Ilgar Gurbanov:  Customer Geo 
 COMM.                     4`:  Run Comments 1 
 TCS .hr                 85.88:  Time Ciculation Ended 
 CV  .mps                 3.30:  Crit Velocity 
 CVMX.mps                 3.50:  Max Crit Veloc 
 DD1 .           Hamid Axmedov:  Direct Drillr 1 
 DD2 .           Teymur Aliyev:  Direct Drillr 2 
 DDSV.               Geo-Pilot:  DD Service 
 DEFF.%                 100.00:  % Det Eff 
 DLRX.°/30m               0.00:  Dogleg Rot Max 
 DLSO.°/30m               1.80:  Dogleg Oriented 
 DLSX.°/30m               3.34:  Dogleg Str Max 
 DRET.      11.50.00 27-May-21:  Drill End Time 
 DRST.      21.13.00 24-May-21:  Drill Start Tim 
 DTIM.hr                 45.11:  Time Drilling 
 EDEP.m                4054.00:  End Depth 
 ENG1.         Almaz Almadatov:  Engineer 1 
 ENG2.           Amrah Tahirov:  Engineer 2 
 ENG3.      Bakhtiyar Jabbarli:  Engineer 3 
 ENG4.          Nazrin Asgarli:  Engineer 4 
 ETIM.      10.00.00 30-May-21:  End Time 
 FLOI.gpm               530.00:  Flow In 
 FLON.gpm               400.00:  Flow In Min 
 FLOS.cptm                0.00:  Fluid Loss 
 FLOX.gpm               560.00:  Flow In Max 
 DFT .        Mineral Oil Base:  Mud Type 
 FTRO.       Formation Presure:  FTWD Run Obj 
 HFLO.                      No:  High Flow 
 HPRE.                      No:  High Pressure 
 HTEM.                      No:  High Temp 
 HYDO.m                   1.80:  Hydro Offset 
 IFIN.deg                73.83:  Inc, Final 
 IMAX.deg                73.83:  Inc Max 
 IMIN.deg                57.86:  Inc Min 
 IMND.m                3259.27:  Inc Min Depth 
 IMXD.m                4045.58:  Inc Max Depth 
 JARR.                     Yes:  Jarring 
 LETM.      11.50.00 27-May-21:  Log End Time 
 LOST.hr                     0:  Lost Rig Time 
 LSTM.      21.13.00 24-May-21:  Log Start Time 
 MDCL.ppm             42500.00:  Mud Chlorides 
 MDES.     Inversion Oil/Synthetic:  Mud Desc 
 DFD .sg                  1.52:  Mud Density 
 MDMN.sg                  1.52:  Dens Mud Min 
 MDMX.sg                  1.52:  Dens Mud Max 
 MOIL.                      70:  Run Mud Oil % 
 MOWR.                   70:30:  Run Mud OWR 
 MSND.                     0.2:  Run Mud Sand % 
 MSOL.                      22:  Run Mud Solids% 
 DFV .spqt               77.00:  Mud Viscosity 
 MWOD.in                  6.75:  MWD Tool OD 
 MWSI.                      No:  Serv Intrp, MWD 
 OTIM.hr                151.01:  Time Operating 
 PCON.          Wear / Scratch:  Pad Condition 
 PMAX.psia            11296.93:  Press Op, Max 
 PV  .cP                 37.00:  Mud PV 
 RUN .                     500:  Run Number 
 ROPA.m/hr               25.00:  ROP Avg 
 ROPN.m/hr                9.00:  ROP Min 
 ROPX.m/hr               28.00:  ROP Max 
 RPMA.rpm               140.00:  RPM Surface Avg 
 RPMN.rpm                90.00:  RPM Surface Min 
 RPMX.rpm               140.00:  RPM Surface Max 
 RRUN.                    0500:  Rig Run Number 
 SAZI.deg               172.17:  Azm, Start 
 SDEP.m                3248.00:  Start Depth 
 SIDD.                      No:  Serv Intrp, DD 
 SINC.deg                57.86:  Inc, Start 
 SPPA.psig             5620.00:  SPP Avg 
 SPPN.psig             5190.00:  SPP Min 
 SPPX.psig             6050.00:  SPP Max 
 STIM.      16.00.00 23-May-21:  Start Time 
 SVCS.                 DD, MWD:  Services 
 SVER.                    9.20:  Sperry Version 
 TDAT.m                 806.00:  Tot Depth Attmp 
 TDDF.                      No:  Trip for DD 
 TDLG.m                 806.00:  Tot Depth Loggd 
 TFF .                      No:  Trip for Fail 
 TQAA.f-kp               12.00:  Torque Abs Avg 
 TQAN.f-kp                8.00:  Torque Abs Min 
 TQAX.f-kp               15.00:  Torque Abs Max 
 TRRT.°/30m               0.30:  Turn Rotating 
 MRT .                  EWR-M5:  Maximum Recorded Temperature 
 TTMX.degC               93.00:  Max Tool Temp 
 VS01.                90649155:  Virtual Str1 SN 
 VS02.                90642264:  Virtual Str2 SN 
 VS03.                90642266:  Virtual Str3 SN 
 VS04.                90642261:  Virtual Str4 SN 
 WBMN.klb                 0.00:  WOB Min 
 WITN.             Anar Khalil:  Customer Rep 
 WITN.           Murad Guliyev:  Customer Rep 2 
 WOBA.klb                13.00:  WOB Avg 
 WOBX.klb                25.00:  WOB Max 
 YP  .lhf2               32.00:  Yield Point 
~Curve Information Block
#MNEM.UNIT                 API CODE     Curve Description
#---------               -----------    ---------------------------
 TIME.HHMMSS            00 000 000 000:  GT Time & Date
 GTDEPTH.m              00 000 000 000:  GT Depth
 GTPQH.psia             00 000 000 000:  GT HR Quartz Pressure
 GTTQ.degC              00 000 000 000:  GT Quartz Temperature
 GTTN.NONE              00 000 000 000:  GT Test Number
 GTET.sec               00 000 000 000:  GT Elapsed Test Time
 GTTVD.m                00 000 000 000:  GT True Vertical Depth
#Other Information
#
#WARRANTY: Halliburton will use its best efforts to furnish customers with 
#accurate information and interpretations that are part of, and incident to, the services 
#provided.  However, Halliburton cannot and does not warrant the accuracy 
#or correctness of such information and interpretations.  Under no circumstances should any 
#such information or interpretation be relied upon as the sole basis for any drilling, 
#completion, production, or financial decision or any procedure involving any risk to the 
#safety of any drilling venture, drilling rig or its crew or any other third party.  The 
#Customer has full responsibility for all drilling, completion and production operation.  
#Halliburton makes no representations or warranties, either expressed or 
#implied, including, but not limited to, the implied warranties of merchantability or fitness 
#for a particular purpose, with respect to the services rendered.  In no event will 
#Halliburton be liable for failure to obtain any particular results or for 
#any damages, including, but not limited to, indirect, special or consequential damages, 
#resulting from the use of any information or interpretation provided by Halliburton.
#
~A           TIME           GTDEPTH  GTPQH  GTTQ  GTTN  GTET   GTTVD  
# ...
   04:04:16.390.28-May-2021 3493.50 4217.11 83.15 8.00 138.04 2592.27
   04:04:16.590.28-May-2021 3493.50 4217.11 83.15 8.00 138.24 2592.27
   04:04:16.790.28-May-2021 3493.50 4217.00 83.15 8.00 138.44 2592.27
   04:04:16.990.28-May-2021 3493.50 4217.03 83.15 8.00 138.64 2592.27
   04:04:17.190.28-May-2021 3493.50 4217.03 83.15 8.00 138.84 2592.27
   04:04:17.390.28-May-2021 3493.50 4217.03 83.15 8.00 139.04 2592.27
   04:04:17.591.28-May-2021 3493.50 4217.03 83.15 8.00 139.24 2592.27
   04:04:17.791.28-May-2021 3493.50 4217.03 83.15 8.00 139.44 2592.27
   04:04:17.991.28-May-2021 3493.50 4217.02 83.15 8.00 139.64 2592.27
   04:04:18.191.28-May-2021 3493.50 4217.03 83.15 8.00 139.85 2592.27
   04:04:18.391.28-May-2021 3493.50 4217.02 83.15 8.00 140.05 2592.27
   04:04:18.591.28-May-2021 3493.50 4217.02 83.15 8.00 140.25 2592.27
   04:04:18.791.28-May-2021 3493.50 4217.03 83.15 8.00 140.45 2592.27
   04:04:18.991.28-May-2021 3493.50 4216.87 83.15 8.00 140.65 2592.27
   04:04:19.191.28-May-2021 3493.50 4217.16 83.15 8.00 140.85 2592.27
   04:04:19.391.28-May-2021 3493.50 4217.03 83.15 8.00 141.05 2592.27
   04:04:19.591.28-May-2021 3493.50 4217.03 83.15 8.00 141.25 2592.27
   04:04:19.791.28-May-2021 3493.50 4216.75 83.15 8.00 141.45 2592.27
   04:04:19.991.28-May-2021 3493.50 4217.25 83.15 8.00 141.65 2592.27
   04:04:20.191.28-May-2021 3493.50 4217.03 83.15 8.00 141.85 2592.27
   04:04:20.391.28-May-2021 3493.50 4217.05 83.15 8.00 142.05 2592.27
   04:04:20.592.28-May-2021 3493.50 4217.05 83.15 8.00 142.25 2592.27
   04:04:20.792.28-May-2021 3493.50 4217.02 83.15 8.00 142.45 2592.27
   04:04:20.992.28-May-2021 3493.50 4217.12 83.15 8.00 142.65 2592.27
   04:04:21.192.28-May-2021 3493.50 4216.92 83.15 8.00 142.85 2592.27
   04:04:21.392.28-May-2021 3493.50 4217.01 83.15 8.00 143.05 2592.27
   04:04:21.592.28-May-2021 3493.50 4217.01 83.15 8.00 143.25 2592.27
   04:04:21.792.28-May-2021 3493.50 4216.94 83.15 8.00 143.45 2592.27
   04:04:21.992.28-May-2021 3493.50 4217.11 83.14 8.00 143.65 2592.27
   04:04:22.192.28-May-2021 3493.50 4217.03 83.14 8.00 143.85 2592.27
   04:04:22.392.28-May-2021 3493.50 4217.00 83.14 8.00 144.05 2592.27
   04:04:22.592.28-May-2021 3493.50 4217.00 83.14 8.00 144.25 2592.27
   04:04:22.792.28-May-2021 3493.50 4217.02 83.14 8.00 144.45 2592.27
   04:04:22.992.28-May-2021 3493.50 4217.02 83.14 8.00 144.65 2592.27
   04:04:23.192.28-May-2021 3493.50 4217.01 83.14 8.00 144.85 2592.27
   04:04:23.392.28-May-2021 3493.50 4217.02 83.14 8.00 145.05 2592.27
   04:04:23.592.28-May-2021 3493.50 4217.02 83.14 8.00 145.25 2592.27
   04:04:23.793.28-May-2021 3493.50 4217.03 83.14 8.00 145.45 2592.27
   04:04:23.993.28-May-2021 3493.50 4217.01 83.14 8.00 145.65 2592.27
   04:04:24.193.28-May-2021 3493.50 4217.03 83.14 8.00 145.85 2592.27
   04:04:24.393.28-May-2021 3493.50 4216.76 83.14 8.00 146.05 2592.27
   04:04:24.593.28-May-2021 3493.50 4216.76 83.14 8.00 146.25 2592.27
   04:04:24.793.28-May-2021 3493.50 4217.02 83.14 8.00 146.45 2592.27
   04:04:24.993.28-May-2021 3493.50 4217.04 83.14 8.00 146.65 2592.27
   04:04:25.193.28-May-2021 3493.50 4217.01 83.14 8.00 146.85 2592.27
   04:04:25.393.28-May-2021 3493.50 4217.01 83.14 8.00 147.05 2592.27
   04:04:25.593.28-May-2021 3493.50 4217.01 83.14 8.00 147.25 2592.27
   04:04:25.793.28-May-2021 3493.50 4217.02 83.14 8.00 147.45 2592.27
   04:04:25.993.28-May-2021 3493.50 4217.02 83.14 8.00 147.65 2592.27
   04:04:26.193.28-May-2021 3493.50 4217.01 83.14 8.00 147.85 2592.27
   04:04:26.393.28-May-2021 3493.50 4217.02 83.14 8.00 148.05 2592.27
   04:04:26.593.28-May-2021 3493.50 4217.02 83.14 8.00 148.25 2592.27
   04:04:26.794.28-May-2021 3493.50 4217.01 83.14 8.00 148.45 2592.27
   04:04:26.994.28-May-2021 3493.50 4216.93 83.14 8.00 148.65 2592.27
   04:04:27.194.28-May-2021 3493.50 4217.10 83.14 8.00 148.85 2592.27
   04:04:27.394.28-May-2021 3493.50 4217.01 83.14 8.00 149.05 2592.27
   04:04:27.594.28-May-2021 3493.50 4217.01 83.14 8.00 149.25 2592.27
   04:04:27.794.28-May-2021 3493.50 4217.02 83.14 8.00 149.45 2592.27
   04:04:27.994.28-May-2021 3493.50 4217.13 83.14 8.00 149.65 2592.27
   04:04:28.194.28-May-2021 3493.50 4216.90 83.14 8.00 149.85 2592.27
   04:04:28.394.28-May-2021 3493.50 4217.00 83.14 8.00 150.05 2592.27
   04:04:28.594.28-May-2021 3493.50 4217.00 83.14 8.00 150.25 2592.27
   04:04:28.794.28-May-2021 3493.50 4217.01 83.14 8.00 150.45 2592.27
   04:04:28.994.28-May-2021 3493.50 4216.65 83.14 8.00 150.65 2592.27
   04:04:29.194.28-May-2021 3493.50 4217.36 83.14 8.00 150.85 2592.27
   04:04:29.394.28-May-2021 3493.50 4217.02 83.14 8.00 151.05 2592.27
   04:04:29.594.28-May-2021 3493.50 4217.02 83.14 8.00 151.25 2592.27
   04:04:29.794.28-May-2021 3493.50 4217.01 83.14 8.00 151.45 2592.27
   04:04:29.995.28-May-2021 3493.50 4216.77 83.14 8.00 151.65 2592.27
   04:04:30.195.28-May-2021 3493.50 4217.25 83.14 8.00 151.85 2592.27
   04:04:30.395.28-May-2021 3493.50 4217.02 83.14 8.00 152.05 2592.27
   04:04:30.595.28-May-2021 3493.50 4217.02 83.14 8.00 152.25 2592.27
   04:04:30.795.28-May-2021 3493.50 4216.99 83.14 8.00 152.45 2592.27
   04:04:30.995.28-May-2021 3493.50 4216.85 83.14 8.00 152.65 2592.27
   04:04:31.195.28-May-2021 3493.50 4154.08 83.14 8.00 152.85 2592.27
   04:04:31.395.28-May-2021 3493.50 4129.47 83.14 8.00 153.05 2592.27
   04:04:31.595.28-May-2021 3493.50 4129.47 83.14 8.00 153.25 2592.27
   04:04:31.795.28-May-2021 3493.50 4126.82 83.14 8.00 153.45 2592.27
   04:04:31.995.28-May-2021 3493.50 4127.64 83.14 8.00 153.65 2592.27
   04:04:32.195.28-May-2021 3493.50 4126.50 83.14 8.00 153.85 2592.27
   04:04:32.395.28-May-2021 3493.50 4126.54 83.14 8.00 154.05 2592.27
   04:04:32.595.28-May-2021 3493.50 4126.54 83.14 8.00 154.25 2592.27
   04:04:32.795.28-May-2021 3493.50 4126.54 83.14 8.00 154.45 2592.27
   04:04:32.996.28-May-2021 3493.50 4126.77 83.14 8.00 154.65 2592.27
   04:04:33.196.28-May-2021 3493.50 4125.36 83.14 8.00 154.85 2592.27
   04:04:33.396.28-May-2021 3493.50 4130.62 83.14 8.00 155.05 2592.27
   04:04:33.596.28-May-2021 3493.50 4130.62 83.14 8.00 155.25 2592.27
   04:04:33.796.28-May-2021 3493.50 4126.82 83.14 8.00 155.45 2592.27
   04:04:33.996.28-May-2021 3493.50 4126.88 83.13 8.00 155.65 2592.27
   04:04:34.196.28-May-2021 3493.50 4126.93 83.13 8.00 155.85 2592.27
   04:04:34.396.28-May-2021 3493.50 4126.87 83.13 8.00 156.05 2592.27
   04:04:34.596.28-May-2021 3493.50 4126.87 83.13 8.00 156.25 2592.27
   04:04:34.796.28-May-2021 3493.50 4126.92 83.13 8.00 156.45 2592.27
   04:04:34.996.28-May-2021 3493.50 4126.95 83.13 8.00 156.65 2592.27
   04:04:35.196.28-May-2021 3493.50 4124.77 83.13 8.00 156.85 2592.27
   04:04:35.396.28-May-2021 3493.50 4125.86 83.13 8.00 157.05 2592.27
   04:04:35.596.28-May-2021 3493.50 4125.86 83.13 8.00 157.25 2592.27
   04:04:35.796.28-May-2021 3493.50 4124.52 83.13 8.00 157.45 2592.27
   04:04:35.996.28-May-2021 3493.50 4127.94 83.13 8.00 157.65 2592.27
   04:04:36.197.28-May-2021 3493.50 4126.04 83.13 8.00 157.85 2592.27
   04:04:36.397.28-May-2021 3493.50 4130.12 83.13 8.00 158.05 2592.27
   04:04:36.597.28-May-2021 3493.50 4130.12 83.13 8.00 158.25 2592.27
   04:04:36.797.28-May-2021 3493.50 4125.74 83.13 8.00 158.45 2592.27
   04:04:36.997.28-May-2021 3493.50 4126.17 83.13 8.00 158.65 2592.27
   04:04:37.197.28-May-2021 3493.50 4125.96 83.13 8.00 158.85 2592.27
   04:04:37.397.28-May-2021 3493.50 4125.02 83.13 8.00 159.05 2592.27
   04:04:37.597.28-May-2021 3493.50 4125.02 83.13 8.00 159.25 2592.27
   04:04:37.797.28-May-2021 3493.50 4126.20 83.13 8.00 159.45 2592.27
   04:04:37.997.28-May-2021 3493.50 4125.86 83.13 8.00 159.65 2592.27
   04:04:38.197.28-May-2021 3493.50 4124.42 83.13 8.00 159.85 2592.27
   04:04:38.397.28-May-2021 3493.50 4125.41 83.13 8.00 160.05 2592.27
   04:04:38.597.28-May-2021 3493.50 4125.41 83.13 8.00 160.25 2592.27
   04:04:38.797.28-May-2021 3493.50 4124.34 83.13 8.00 160.45 2592.27
   04:04:38.997.28-May-2021 3493.50 4125.57 83.13 8.00 160.65 2592.27
   04:04:39.198.28-May-2021 3493.50 4125.72 83.13 8.00 160.85 2592.27
