~Version Information
 VERS.                  2.0:   CWLS log ASCII Standard -VERSION 2.0
 WRAP.                   NO:   One line per depth step
~Well Information Block
#MNEM.UNIT     VALUE/NAME     DESCRIPTION
#---------     -----------    ---------------------------
 STRT.S             22:21:57 27-May-21: START TIME 22:21:57 27-May-21
 STOP.S             22:28:58 27-May-21: STOP TIME  22:28:58 27-May-21
 STEP.S                   0.00: STEP TIME
 NULL.                 -999.25: NULL VALUE
 UWI .                     N/A:  UNIQUE WELL IDENTIFIER
 API .                     N/A:  API NUMBER
 UNIT.                     N/A:  LOGGING EQUIPMENT ID
 DCON.         Sperry Drilling:  DIRECTNL CONTR
 DOE .                     N/A:  DOE NUMBER
 MWDS.                    Baku:  MWD SHOP
 SRVC.     Turan Drilling and Engineering:  CONTRACTOR
 CTRY.              Azerbaijan:  COUNTRY NAME
 PROV.                    Baku:  PROVINCE
 STAT.                    Baku:  STATE NAME
 REGN.                   EESSA:  REGION
 BASE.              Azerbaijan:  LOGGING EQUIPMENT BASE LOCATION
 WTYP.                Deviated:  WELL TYPE
 RIG .              East Azeri:  RIG NAME
 WELL.                    D02y:  WELL NAME
 FLD .                     ACG:  FIELD NAME
 COMP.     BP Exploration (Caspian Sea) Ltd.:  COMPANY
 PDAT.          Mean Sea Level:  PERMANENT DATUM
 MDS .        Operator Entered:  MAG DATA SOURCE
 SON .        AZ-XX-0906997291:  JOB NUMBER
 FTOP.          Formation Tops:  FORM TOPS DESC
 ILTD.               Lithology:  INTERP LTH DESC
 SVYD.                  Survey:  SURVEY DESC
 DMOD.             Drill Model:  DRILL MOD DESC
 HPTY.       Minimum Curvature:  HOLE POS TYPE
 NREF.                    Grid:  NORTH REFERENCE
 SPUD.               05-May-21:  SPUD DATE
 DATE.      09.27.28 12-Jun-21:  END TIME
 STIM.      09.27.28 12-May-21:  START TIME
 DMF .             Drill Floor:  DRILL MEAS FROM
 DFST.                        :  DIST FSL TEXT
 DFWT.                        :  DIST FWL TEXT
 CNTY.                        :  COUNTY
 LOC .                        :  LOCATION
 LMF .             Drill Floor:  LOG MEASURED FROM
 DEP .m                2806.40:  DEPTH
 AGAP.m                  43.60:  AIR GAP
 VSNS.m                  -4.42:  VERT SEC N/S
 VSEW.m                  -7.31:  VERT SEC E/W
 APD .m                  43.60:  DEPTH ABOVE PD
 WDMS.m                 151.80:  WD ELEV
 EGL .m                   0.00:  GROUND ELEVATION
 EPD .m                   0.00:  ELEVATION
 AZTC.deg                 6.18:  AZM TOTAL CORR
 GRDC.deg                 0.29:  GRID CORRECTION
 MDEC.deg                 6.47:  MAGNETIC DECL
 MDIP.deg                59.50:  MAGNETIC DIP
 MFLD.nT              50350.00:  MAGNETIC FIELD
 GVFD.g                   1.00:  GRAVITY FIELD
 VSDR.deg               179.08:  VERT SEC DIRECT
 TDD .m                4300.00:  TOTAL DEPTH (DRILLER)
 SDEP.m                2800.00:  START DEPTH
 DFSL.m                   0.00:  DISTANCE FSL
 DFWL.m                   0.00:  DISTANCE FWL
 UTMY.m             4431871.34:  UTM Y
 UTMX.m              538762.90:  UTM X
 WHEW.m                  -7.31:  WELL HEAD E/W
 WHNS.m                  -4.42:  WELL HEAD N/S
 LONG.deg                51.45:  LONGITUDE
 LATI.deg                40.02:  LATITUDE
 TVDS.m                  43.60:  TVDSS CORRECTN
 EKB .m                  43.60:  KB ELEVATION
 EDF .m                  43.60:  DF ELEVATION
 TDL .m                 806.00:  TOTAL DEPTH (LOGGER)
 MAGU.                 1851231:  MAGUTM CHECKSUM
 VSC .                       0:  VS TO CLOSURE
~Parameter Information Block
#MNEM.UNIT       Value        Description
#---------     -----------    ---------------------------
 AV  .mps                 1.60:  Ann Velocity 
 AVMX.mps                 2.00:  Max Ann Veloc 
 AZIF.deg               140.24:  Azm, Final 
 BHAT.        Rotary Steerable:  BHA Type 
 BROT.°/30m               0.50:  Build Rotating 
 BS  .in                  8.50:  Bit Size 
 BTPL.psig              619.00:  Bit Press Loss 
 CABU.                     Yes:  Customer Abuse 
 CGEO.          Ilgar Gurbanov:  Customer Geo 
 COMM.                     ¼ƒj:  Run Comments 1 
 TCS .hr                 85.88:  Time Ciculation Ended 
 CV  .mps                 3.30:  Crit Velocity 
 CVMX.mps                 3.50:  Max Crit Veloc 
 DD1 .           Hamid Axmedov:  Direct Drillr 1 
 DD2 .           Teymur Aliyev:  Direct Drillr 2 
 DDSV.               Geo-Pilot:  DD Service 
 DEFF.%                 100.00:  % Det Eff 
 DLRX.°/30m               0.00:  Dogleg Rot Max 
 DLSO.°/30m               1.80:  Dogleg Oriented 
 DLSX.°/30m               3.34:  Dogleg Str Max 
 DRET.      11.50.00 27-May-21:  Drill End Time 
 DRST.      21.13.00 24-May-21:  Drill Start Tim 
 DTIM.hr                 45.11:  Time Drilling 
 EDEP.m                4054.00:  End Depth 
 ENG1.         Almaz Almadatov:  Engineer 1 
 ENG2.           Amrah Tahirov:  Engineer 2 
 ENG3.      Bakhtiyar Jabbarli:  Engineer 3 
 ENG4.          Nazrin Asgarli:  Engineer 4 
 ETIM.      10.00.00 30-May-21:  End Time 
 FLOI.gpm               530.00:  Flow In 
 FLON.gpm               400.00:  Flow In Min 
 FLOS.cptm                0.00:  Fluid Loss 
 FLOX.gpm               560.00:  Flow In Max 
 DFT .        Mineral Oil Base:  Mud Type 
 FTRO.       Formation Presure:  FTWD Run Obj 
 HFLO.                      No:  High Flow 
 HPRE.                      No:  High Pressure 
 HTEM.                      No:  High Temp 
 HYDO.m                   1.80:  Hydro Offset 
 IFIN.deg                73.83:  Inc, Final 
 IMAX.deg                73.83:  Inc Max 
 IMIN.deg                57.86:  Inc Min 
 IMND.m                3259.27:  Inc Min Depth 
 IMXD.m                4045.58:  Inc Max Depth 
 JARR.                     Yes:  Jarring 
 LETM.      11.50.00 27-May-21:  Log End Time 
 LOST.hr                     0:  Lost Rig Time 
 LSTM.      21.13.00 24-May-21:  Log Start Time 
 MDCL.ppm             42500.00:  Mud Chlorides 
 MDES.     Inversion Oil/Synthetic:  Mud Desc 
 DFD .sg                  1.52:  Mud Density 
 MDMN.sg                  1.52:  Dens Mud Min 
 MDMX.sg                  1.52:  Dens Mud Max 
 MOIL.                      70:  Run Mud Oil % 
 MOWR.                   70:30:  Run Mud OWR 
 MSND.                     0.2:  Run Mud Sand % 
 MSOL.                      22:  Run Mud Solids% 
 DFV .spqt               77.00:  Mud Viscosity 
 MWOD.in                  6.75:  MWD Tool OD 
 MWSI.                      No:  Serv Intrp, MWD 
 OTIM.hr                151.01:  Time Operating 
 PCON.          Wear / Scratch:  Pad Condition 
 PMAX.psia            11296.93:  Press Op, Max 
 PV  .cP                 37.00:  Mud PV 
 RUN .                     500:  Run Number 
 ROPA.m/hr               25.00:  ROP Avg 
 ROPN.m/hr                9.00:  ROP Min 
 ROPX.m/hr               28.00:  ROP Max 
 RPMA.rpm               140.00:  RPM Surface Avg 
 RPMN.rpm                90.00:  RPM Surface Min 
 RPMX.rpm               140.00:  RPM Surface Max 
 RRUN.                    0500:  Rig Run Number 
 SAZI.deg               172.17:  Azm, Start 
 SDEP.m                3248.00:  Start Depth 
 SIDD.                      No:  Serv Intrp, DD 
 SINC.deg                57.86:  Inc, Start 
 SPPA.psig             5620.00:  SPP Avg 
 SPPN.psig             5190.00:  SPP Min 
 SPPX.psig             6050.00:  SPP Max 
 STIM.      16.00.00 23-May-21:  Start Time 
 SVCS.                 DD, MWD:  Services 
 SVER.                    9.20:  Sperry Version 
 TDAT.m                 806.00:  Tot Depth Attmp 
 TDDF.                      No:  Trip for DD 
 TDLG.m                 806.00:  Tot Depth Loggd 
 TFF .                      No:  Trip for Fail 
 TQAA.f-kp               12.00:  Torque Abs Avg 
 TQAN.f-kp                8.00:  Torque Abs Min 
 TQAX.f-kp               15.00:  Torque Abs Max 
 TRRT.°/30m               0.30:  Turn Rotating 
 MRT .                  EWR-M5:  Maximum Recorded Temperature 
 TTMX.degC               93.00:  Max Tool Temp 
 VS01.                90649155:  Virtual Str1 SN 
 VS02.                90642264:  Virtual Str2 SN 
 VS03.                90642266:  Virtual Str3 SN 
 VS04.                90642261:  Virtual Str4 SN 
 WBMN.klb                 0.00:  WOB Min 
 WITN.             Anar Khalil:  Customer Rep 
 WITN.           Murad Guliyev:  Customer Rep 2 
 WOBA.klb                13.00:  WOB Avg 
 WOBX.klb                25.00:  WOB Max 
 YP  .lhf2               32.00:  Yield Point 
~Curve Information Block
#MNEM.UNIT                 API CODE     Curve Description
#---------               -----------    ---------------------------
 TIME.HHMMSS            00 000 000 000:  GT Time & Date
 GTDEPTH.m              00 000 000 000:  GT Depth
 GTPQH.psia             00 000 000 000:  GT HR Quartz Pressure
 GTTQ.degC              00 000 000 000:  GT Quartz Temperature
 GTTN.NONE              00 000 000 000:  GT Test Number
 GTET.sec               00 000 000 000:  GT Elapsed Test Time
 GTTVD.m                00 000 000 000:  GT True Vertical Depth
#Other Information
#
#WARRANTY: Halliburton will use its best efforts to furnish customers with 
#accurate information and interpretations that are part of, and incident to, the services 
#provided.  However, Halliburton cannot and does not warrant the accuracy 
#or correctness of such information and interpretations.  Under no circumstances should any 
#such information or interpretation be relied upon as the sole basis for any drilling, 
#completion, production, or financial decision or any procedure involving any risk to the 
#safety of any drilling venture, drilling rig or its crew or any other third party.  The 
#Customer has full responsibility for all drilling, completion and production operation.  
#Halliburton makes no representations or warranties, either expressed or 
#implied, including, but not limited to, the implied warranties of merchantability or fitness 
#for a particular purpose, with respect to the services rendered.  In no event will 
#Halliburton be liable for failure to obtain any particular results or for 
#any damages, including, but not limited to, indirect, special or consequential damages, 
#resulting from the use of any information or interpretation provided by Halliburton.
#
~A           TIME           GTDEPTH  GTPQH  GTTQ  GTTN  GTET   GTTVD  
# ...
   22:25:47.742.27-May-2021 3723.00 3141.45 84.31 1.00 230.04 2680.40
   22:25:47.942.27-May-2021 3723.00 3141.45 84.31 1.00 230.24 2680.40
   22:25:48.142.27-May-2021 3723.00 3141.41 84.31 1.00 230.44 2680.40
   22:25:48.342.27-May-2021 3723.00 3141.42 84.31 1.00 230.64 2680.40
   22:25:48.542.27-May-2021 3723.00 3141.42 84.31 1.00 230.84 2680.40
   22:25:48.742.27-May-2021 3723.00 3141.41 84.31 1.00 231.04 2680.40
   22:25:48.942.27-May-2021 3723.00 3141.41 84.31 1.00 231.24 2680.40
   22:25:49.142.27-May-2021 3723.00 3141.41 84.31 1.00 231.44 2680.40
   22:25:49.342.27-May-2021 3723.00 3141.41 84.31 1.00 231.64 2680.40
   22:25:49.542.27-May-2021 3723.00 3141.42 84.31 1.00 231.84 2680.40
   22:25:49.742.27-May-2021 3723.00 3141.41 84.31 1.00 232.04 2680.40
   22:25:49.942.27-May-2021 3723.00 3141.41 84.31 1.00 232.24 2680.40
   22:25:50.142.27-May-2021 3723.00 3141.41 84.31 1.00 232.44 2680.40
   22:25:50.342.27-May-2021 3723.00 3141.44 84.31 1.00 232.64 2680.40
   22:25:50.542.27-May-2021 3723.00 3141.37 84.31 1.00 232.84 2680.40
   22:25:50.743.27-May-2021 3723.00 3141.40 84.31 1.00 233.04 2680.40
   22:25:50.943.27-May-2021 3723.00 3141.40 84.31 1.00 233.24 2680.40
   22:25:51.143.27-May-2021 3723.00 3141.37 84.31 1.00 233.44 2680.40
   22:25:51.343.27-May-2021 3723.00 3141.41 84.31 1.00 233.64 2680.40
   22:25:51.543.27-May-2021 3723.00 3141.40 84.31 1.00 233.84 2680.40
   22:25:51.743.27-May-2021 3723.00 3141.41 84.31 1.00 234.04 2680.40
   22:25:51.943.27-May-2021 3723.00 3141.41 84.31 1.00 234.24 2680.40
   22:25:52.143.27-May-2021 3723.00 3141.52 84.31 1.00 234.44 2680.40
   22:25:52.343.27-May-2021 3723.00 3141.41 84.31 1.00 234.64 2680.40
   22:25:52.543.27-May-2021 3723.00 3141.42 84.31 1.00 234.84 2680.40
   22:25:52.743.27-May-2021 3723.00 3141.40 84.31 1.00 235.04 2680.40
   22:25:52.943.27-May-2021 3723.00 3141.40 84.31 1.00 235.24 2680.40
   22:25:53.143.27-May-2021 3723.00 3141.40 84.31 1.00 235.44 2680.40
   22:25:53.343.27-May-2021 3723.00 3141.40 84.31 1.00 235.64 2680.40
   22:25:53.543.27-May-2021 3723.00 3141.40 84.31 1.00 235.84 2680.40
   22:25:53.743.27-May-2021 3723.00 3141.41 84.31 1.00 236.04 2680.40
   22:25:53.943.27-May-2021 3723.00 3141.41 84.31 1.00 236.24 2680.40
   22:25:54.143.27-May-2021 3723.00 3141.41 84.31 1.00 236.44 2680.40
   22:25:54.343.27-May-2021 3723.00 3141.39 84.31 1.00 236.64 2680.40
   22:25:54.543.27-May-2021 3723.00 3141.41 84.31 1.00 236.84 2680.40
   22:25:54.743.27-May-2021 3723.00 3141.40 84.31 1.00 237.04 2680.40
   22:25:54.943.27-May-2021 3723.00 3141.40 84.31 1.00 237.24 2680.40
   22:25:55.143.27-May-2021 3723.00 3141.41 84.31 1.00 237.44 2680.40
   22:25:55.343.27-May-2021 3723.00 3141.40 84.31 1.00 237.64 2680.40
   22:25:55.543.27-May-2021 3723.00 3141.40 84.31 1.00 237.84 2680.40
   22:25:55.743.27-May-2021 3723.00 3141.41 84.31 1.00 238.04 2680.40
   22:25:55.943.27-May-2021 3723.00 3141.41 84.31 1.00 238.24 2680.40
   22:25:56.143.27-May-2021 3723.00 3141.38 84.31 1.00 238.44 2680.40
   22:25:56.343.27-May-2021 3723.00 3141.41 84.31 1.00 238.64 2680.40
   22:25:56.543.27-May-2021 3723.00 3141.40 84.31 1.00 238.84 2680.40
   22:25:56.743.27-May-2021 3723.00 3141.39 84.31 1.00 239.04 2680.40
   22:25:56.944.27-May-2021 3723.00 3141.39 84.31 1.00 239.24 2680.40
   22:25:57.144.27-May-2021 3723.00 3141.39 84.31 1.00 239.44 2680.40
   22:25:57.344.27-May-2021 3723.00 3141.40 84.31 1.00 239.64 2680.40
   22:25:57.544.27-May-2021 3723.00 3141.39 84.31 1.00 239.84 2680.40
   22:25:57.744.27-May-2021 3723.00 3141.39 84.31 1.00 240.04 2680.40
   22:25:57.944.27-May-2021 3723.00 3141.39 84.31 1.00 240.24 2680.40
   22:25:58.144.27-May-2021 3723.00 3141.40 84.31 1.00 240.44 2680.40
   22:25:58.344.27-May-2021 3723.00 3141.39 84.31 1.00 240.64 2680.40
   22:25:58.544.27-May-2021 3723.00 3141.39 84.31 1.00 240.84 2680.40
   22:25:58.744.27-May-2021 3723.00 3141.38 84.31 1.00 241.04 2680.40
   22:25:58.944.27-May-2021 3723.00 3141.38 84.31 1.00 241.24 2680.40
   22:25:59.144.27-May-2021 3723.00 3141.39 84.31 1.00 241.44 2680.40
   22:25:59.344.27-May-2021 3723.00 3141.39 84.31 1.00 241.64 2680.40
   22:25:59.544.27-May-2021 3723.00 3141.39 84.31 1.00 241.84 2680.40
   22:25:59.744.27-May-2021 3723.00 3141.40 84.31 1.00 242.04 2680.40
   22:25:59.944.27-May-2021 3723.00 3141.40 84.31 1.00 242.24 2680.40
   22:26:00.144.27-May-2021 3723.00 3141.35 84.31 1.00 242.44 2680.40
   22:26:00.344.27-May-2021 3723.00 3141.39 84.31 1.00 242.64 2680.40
   22:26:00.544.27-May-2021 3723.00 3141.38 84.31 1.00 242.84 2680.40
   22:26:00.744.27-May-2021 3723.00 3141.39 84.31 1.00 243.04 2680.40
   22:26:00.944.27-May-2021 3723.00 3141.39 84.31 1.00 243.24 2680.40
   22:26:01.144.27-May-2021 3723.00 3141.51 84.31 1.00 243.44 2680.40
   22:26:01.344.27-May-2021 3723.00 3141.38 84.31 1.00 243.64 2680.40
   22:26:01.544.27-May-2021 3723.00 3141.39 84.31 1.00 243.84 2680.40
   22:26:01.744.27-May-2021 3723.00 3141.38 84.31 1.00 244.04 2680.40
   22:26:01.944.27-May-2021 3723.00 3141.38 84.31 1.00 244.24 2680.40
   22:26:02.144.27-May-2021 3723.00 3141.39 84.31 1.00 244.44 2680.40
   22:26:02.344.27-May-2021 3723.00 3141.38 84.31 1.00 244.64 2680.40
   22:26:02.544.27-May-2021 3723.00 3141.38 84.31 1.00 244.84 2680.40
   22:26:02.744.27-May-2021 3723.00 3141.39 84.31 1.00 245.04 2680.40
   22:26:02.945.27-May-2021 3723.00 3141.39 84.31 1.00 245.24 2680.40
   22:26:03.145.27-May-2021 3723.00 3141.39 84.31 1.00 245.44 2680.40
   22:26:03.345.27-May-2021 3723.00 3141.39 84.31 1.00 245.64 2680.40
   22:26:03.545.27-May-2021 3723.00 3141.24 84.31 1.00 245.84 2680.40
   22:26:03.745.27-May-2021 3723.00 3141.53 84.31 1.00 246.04 2680.40
   22:26:03.945.27-May-2021 3723.00 3141.53 84.31 1.00 246.24 2680.40
   22:26:04.145.27-May-2021 3723.00 3141.39 84.31 1.00 246.44 2680.40
   22:26:04.345.27-May-2021 3723.00 3141.38 84.31 1.00 246.64 2680.40
   22:26:04.545.27-May-2021 3723.00 3141.38 84.31 1.00 246.84 2680.40
   22:26:04.745.27-May-2021 3723.00 3141.38 84.31 1.00 247.04 2680.40
   22:26:04.945.27-May-2021 3723.00 3141.38 84.31 1.00 247.24 2680.40
   22:26:05.145.27-May-2021 3723.00 3141.38 84.31 1.00 247.44 2680.40
   22:26:05.345.27-May-2021 3723.00 3141.38 84.31 1.00 247.64 2680.40
   22:26:05.545.27-May-2021 3723.00 3141.38 84.31 1.00 247.84 2680.40
   22:26:05.745.27-May-2021 3723.00 3141.38 84.31 1.00 248.04 2680.40
   22:26:05.945.27-May-2021 3723.00 3141.38 84.31 1.00 248.24 2680.40
   22:26:06.145.27-May-2021 3723.00 3141.24 84.31 1.00 248.44 2680.40
   22:26:06.345.27-May-2021 3723.00 3141.52 84.31 1.00 248.64 2680.40
   22:26:06.545.27-May-2021 3723.00 3141.37 84.31 1.00 248.84 2680.40
   22:26:06.745.27-May-2021 3723.00 3141.25 84.31 1.00 249.04 2680.40
   22:26:06.945.27-May-2021 3723.00 3141.25 84.31 1.00 249.24 2680.40
   22:26:07.145.27-May-2021 3723.00 3141.37 84.31 1.00 249.44 2680.40
   22:26:07.345.27-May-2021 3723.00 3141.38 84.31 1.00 249.64 2680.40
   22:26:07.545.27-May-2021 3723.00 3141.37 84.31 1.00 249.84 2680.40
   22:26:07.745.27-May-2021 3723.00 3141.37 84.31 1.00 250.04 2680.40
   22:26:07.945.27-May-2021 3723.00 3141.37 84.31 1.00 250.24 2680.40
   22:26:08.145.27-May-2021 3723.00 3141.37 84.31 1.00 250.44 2680.40
   22:26:08.345.27-May-2021 3723.00 3141.37 84.31 1.00 250.64 2680.40
   22:26:08.545.27-May-2021 3723.00 3141.37 84.31 1.00 250.84 2680.40
   22:26:08.745.27-May-2021 3723.00 3141.38 84.31 1.00 251.04 2680.40
   22:26:08.945.27-May-2021 3723.00 3141.38 84.31 1.00 251.24 2680.40
   22:26:09.146.27-May-2021 3723.00 3141.49 84.31 1.00 251.44 2680.40
   22:26:09.346.27-May-2021 3723.00 3141.37 84.31 1.00 251.64 2680.40
   22:26:09.546.27-May-2021 3723.00 3141.39 84.31 1.00 251.84 2680.40
   22:26:09.746.27-May-2021 3723.00 3141.36 84.31 1.00 252.04 2680.40
   22:26:09.946.27-May-2021 3723.00 3141.36 84.31 1.00 252.24 2680.40
   22:26:10.146.27-May-2021 3723.00 3141.37 84.31 1.00 252.44 2680.40
   22:26:10.346.27-May-2021 3723.00 3141.37 84.31 1.00 252.64 2680.40
   22:26:10.546.27-May-2021 3723.00 3141.38 84.31 1.00 252.84 2680.40
