~Version Information
 VERS.                  2.0:   CWLS log ASCII Standard -VERSION 2.0
 WRAP.                   NO:   One line per depth step
~Well Information Block
#MNEM.UNIT     VALUE/NAME     DESCRIPTION
#---------     -----------    ---------------------------
 STRT.S             09:05:41 28-May-21: START TIME 09:05:41 28-May-21
 STOP.S             09:12:44 28-May-21: STOP TIME  09:12:44 28-May-21
 STEP.S                   0.00: STEP TIME
 NULL.                 -999.25: NULL VALUE
 UWI .                     N/A:  UNIQUE WELL IDENTIFIER
 API .                     N/A:  API NUMBER
 UNIT.                     N/A:  LOGGING EQUIPMENT ID
 DCON.         Sperry Drilling:  DIRECTNL CONTR
 DOE .                     N/A:  DOE NUMBER
 MWDS.                    Baku:  MWD SHOP
 SRVC.     Turan Drilling and Engineering:  CONTRACTOR
 CTRY.              Azerbaijan:  COUNTRY NAME
 PROV.                    Baku:  PROVINCE
 STAT.                    Baku:  STATE NAME
 REGN.                   EESSA:  REGION
 BASE.              Azerbaijan:  LOGGING EQUIPMENT BASE LOCATION
 WTYP.                Deviated:  WELL TYPE
 RIG .              East Azeri:  RIG NAME
 WELL.                    D02y:  WELL NAME
 FLD .                     ACG:  FIELD NAME
 COMP.     BP Exploration (Caspian Sea) Ltd.:  COMPANY
 PDAT.          Mean Sea Level:  PERMANENT DATUM
 MDS .        Operator Entered:  MAG DATA SOURCE
 SON .        AZ-XX-0906997291:  JOB NUMBER
 FTOP.          Formation Tops:  FORM TOPS DESC
 ILTD.               Lithology:  INTERP LTH DESC
 SVYD.                  Survey:  SURVEY DESC
 DMOD.             Drill Model:  DRILL MOD DESC
 HPTY.       Minimum Curvature:  HOLE POS TYPE
 NREF.                    Grid:  NORTH REFERENCE
 SPUD.               05-May-21:  SPUD DATE
 DATE.      09.27.28 12-Jun-21:  END TIME
 STIM.      09.27.28 12-May-21:  START TIME
 DMF .             Drill Floor:  DRILL MEAS FROM
 DFST.                        :  DIST FSL TEXT
 DFWT.                        :  DIST FWL TEXT
 CNTY.                        :  COUNTY
 LOC .                        :  LOCATION
 LMF .             Drill Floor:  LOG MEASURED FROM
 DEP .m                2806.40:  DEPTH
 AGAP.m                  43.60:  AIR GAP
 VSNS.m                  -4.42:  VERT SEC N/S
 VSEW.m                  -7.31:  VERT SEC E/W
 APD .m                  43.60:  DEPTH ABOVE PD
 WDMS.m                 151.80:  WD ELEV
 EGL .m                   0.00:  GROUND ELEVATION
 EPD .m                   0.00:  ELEVATION
 AZTC.deg                 6.18:  AZM TOTAL CORR
 GRDC.deg                 0.29:  GRID CORRECTION
 MDEC.deg                 6.47:  MAGNETIC DECL
 MDIP.deg                59.50:  MAGNETIC DIP
 MFLD.nT              50350.00:  MAGNETIC FIELD
 GVFD.g                   1.00:  GRAVITY FIELD
 VSDR.deg               179.08:  VERT SEC DIRECT
 TDD .m                4300.00:  TOTAL DEPTH (DRILLER)
 SDEP.m                2800.00:  START DEPTH
 DFSL.m                   0.00:  DISTANCE FSL
 DFWL.m                   0.00:  DISTANCE FWL
 UTMY.m             4431871.34:  UTM Y
 UTMX.m              538762.90:  UTM X
 WHEW.m                  -7.31:  WELL HEAD E/W
 WHNS.m                  -4.42:  WELL HEAD N/S
 LONG.deg                51.45:  LONGITUDE
 LATI.deg                40.02:  LATITUDE
 TVDS.m                  43.60:  TVDSS CORRECTN
 EKB .m                  43.60:  KB ELEVATION
 EDF .m                  43.60:  DF ELEVATION
 TDL .m                 806.00:  TOTAL DEPTH (LOGGER)
 MAGU.                 1851231:  MAGUTM CHECKSUM
 VSC .                       0:  VS TO CLOSURE
~Parameter Information Block
#MNEM.UNIT       Value        Description
#---------     -----------    ---------------------------
 AV  .mps                 1.60:  Ann Velocity 
 AVMX.mps                 2.00:  Max Ann Veloc 
 AZIF.deg               140.24:  Azm, Final 
 BHAT.        Rotary Steerable:  BHA Type 
 BROT.°/30m               0.50:  Build Rotating 
 BS  .in                  8.50:  Bit Size 
 BTPL.psig              619.00:  Bit Press Loss 
 CABU.                     Yes:  Customer Abuse 
 CGEO.          Ilgar Gurbanov:  Customer Geo 
 COMM.                     ÜøQ:  Run Comments 1 
 TCS .hr                 85.88:  Time Ciculation Ended 
 CV  .mps                 3.30:  Crit Velocity 
 CVMX.mps                 3.50:  Max Crit Veloc 
 DD1 .           Hamid Axmedov:  Direct Drillr 1 
 DD2 .           Teymur Aliyev:  Direct Drillr 2 
 DDSV.               Geo-Pilot:  DD Service 
 DEFF.%                 100.00:  % Det Eff 
 DLRX.°/30m               0.00:  Dogleg Rot Max 
 DLSO.°/30m               1.80:  Dogleg Oriented 
 DLSX.°/30m               3.34:  Dogleg Str Max 
 DRET.      11.50.00 27-May-21:  Drill End Time 
 DRST.      21.13.00 24-May-21:  Drill Start Tim 
 DTIM.hr                 45.11:  Time Drilling 
 EDEP.m                4054.00:  End Depth 
 ENG1.         Almaz Almadatov:  Engineer 1 
 ENG2.           Amrah Tahirov:  Engineer 2 
 ENG3.      Bakhtiyar Jabbarli:  Engineer 3 
 ENG4.          Nazrin Asgarli:  Engineer 4 
 ETIM.      10.00.00 30-May-21:  End Time 
 FLOI.gpm               530.00:  Flow In 
 FLON.gpm               400.00:  Flow In Min 
 FLOS.cptm                0.00:  Fluid Loss 
 FLOX.gpm               560.00:  Flow In Max 
 DFT .        Mineral Oil Base:  Mud Type 
 FTRO.       Formation Presure:  FTWD Run Obj 
 HFLO.                      No:  High Flow 
 HPRE.                      No:  High Pressure 
 HTEM.                      No:  High Temp 
 HYDO.m                   1.80:  Hydro Offset 
 IFIN.deg                73.83:  Inc, Final 
 IMAX.deg                73.83:  Inc Max 
 IMIN.deg                57.86:  Inc Min 
 IMND.m                3259.27:  Inc Min Depth 
 IMXD.m                4045.58:  Inc Max Depth 
 JARR.                     Yes:  Jarring 
 LETM.      11.50.00 27-May-21:  Log End Time 
 LOST.hr                     0:  Lost Rig Time 
 LSTM.      21.13.00 24-May-21:  Log Start Time 
 MDCL.ppm             42500.00:  Mud Chlorides 
 MDES.     Inversion Oil/Synthetic:  Mud Desc 
 DFD .sg                  1.52:  Mud Density 
 MDMN.sg                  1.52:  Dens Mud Min 
 MDMX.sg                  1.52:  Dens Mud Max 
 MOIL.                      70:  Run Mud Oil % 
 MOWR.                   70:30:  Run Mud OWR 
 MSND.                     0.2:  Run Mud Sand % 
 MSOL.                      22:  Run Mud Solids% 
 DFV .spqt               77.00:  Mud Viscosity 
 MWOD.in                  6.75:  MWD Tool OD 
 MWSI.                      No:  Serv Intrp, MWD 
 OTIM.hr                151.01:  Time Operating 
 PCON.          Wear / Scratch:  Pad Condition 
 PMAX.psia            11296.93:  Press Op, Max 
 PV  .cP                 37.00:  Mud PV 
 RUN .                     500:  Run Number 
 ROPA.m/hr               25.00:  ROP Avg 
 ROPN.m/hr                9.00:  ROP Min 
 ROPX.m/hr               28.00:  ROP Max 
 RPMA.rpm               140.00:  RPM Surface Avg 
 RPMN.rpm                90.00:  RPM Surface Min 
 RPMX.rpm               140.00:  RPM Surface Max 
 RRUN.                    0500:  Rig Run Number 
 SAZI.deg               172.17:  Azm, Start 
 SDEP.m                3248.00:  Start Depth 
 SIDD.                      No:  Serv Intrp, DD 
 SINC.deg                57.86:  Inc, Start 
 SPPA.psig             5620.00:  SPP Avg 
 SPPN.psig             5190.00:  SPP Min 
 SPPX.psig             6050.00:  SPP Max 
 STIM.      16.00.00 23-May-21:  Start Time 
 SVCS.                 DD, MWD:  Services 
 SVER.                    9.20:  Sperry Version 
 TDAT.m                 806.00:  Tot Depth Attmp 
 TDDF.                      No:  Trip for DD 
 TDLG.m                 806.00:  Tot Depth Loggd 
 TFF .                      No:  Trip for Fail 
 TQAA.f-kp               12.00:  Torque Abs Avg 
 TQAN.f-kp                8.00:  Torque Abs Min 
 TQAX.f-kp               15.00:  Torque Abs Max 
 TRRT.°/30m               0.30:  Turn Rotating 
 MRT .                  EWR-M5:  Maximum Recorded Temperature 
 TTMX.degC               93.00:  Max Tool Temp 
 VS01.                90649155:  Virtual Str1 SN 
 VS02.                90642264:  Virtual Str2 SN 
 VS03.                90642266:  Virtual Str3 SN 
 VS04.                90642261:  Virtual Str4 SN 
 WBMN.klb                 0.00:  WOB Min 
 WITN.             Anar Khalil:  Customer Rep 
 WITN.           Murad Guliyev:  Customer Rep 2 
 WOBA.klb                13.00:  WOB Avg 
 WOBX.klb                25.00:  WOB Max 
 YP  .lhf2               32.00:  Yield Point 
~Curve Information Block
#MNEM.UNIT                 API CODE     Curve Description
#---------               -----------    ---------------------------
 TIME.HHMMSS            00 000 000 000:  GT Time & Date
 GTDEPTH.m              00 000 000 000:  GT Depth
 GTPQH.psia             00 000 000 000:  GT HR Quartz Pressure
 GTTQ.degC              00 000 000 000:  GT Quartz Temperature
 GTTN.NONE              00 000 000 000:  GT Test Number
 GTET.sec               00 000 000 000:  GT Elapsed Test Time
 GTTVD.m                00 000 000 000:  GT True Vertical Depth
#Other Information
#
#WARRANTY: Halliburton will use its best efforts to furnish customers with 
#accurate information and interpretations that are part of, and incident to, the services 
#provided.  However, Halliburton cannot and does not warrant the accuracy 
#or correctness of such information and interpretations.  Under no circumstances should any 
#such information or interpretation be relied upon as the sole basis for any drilling, 
#completion, production, or financial decision or any procedure involving any risk to the 
#safety of any drilling venture, drilling rig or its crew or any other third party.  The 
#Customer has full responsibility for all drilling, completion and production operation.  
#Halliburton makes no representations or warranties, either expressed or 
#implied, including, but not limited to, the implied warranties of merchantability or fitness 
#for a particular purpose, with respect to the services rendered.  In no event will 
#Halliburton be liable for failure to obtain any particular results or for 
#any damages, including, but not limited to, indirect, special or consequential damages, 
#resulting from the use of any information or interpretation provided by Halliburton.
#
~A           TIME           GTDEPTH  GTPQH  GTTQ  GTTN   GTET   GTTVD  
# ...
   09:10:12.357.28-May-2021 3286.00 3993.79 82.12 15.00 271.24 2493.81
   09:10:12.557.28-May-2021 3286.00 4012.09 82.12 15.00 271.44 2493.81
   09:10:12.757.28-May-2021 3286.00 4013.78 82.12 15.00 271.64 2493.81
   09:10:12.957.28-May-2021 3286.00 4014.65 82.12 15.00 271.84 2493.81
   09:10:13.157.28-May-2021 3286.00 4014.75 82.12 15.00 272.04 2493.81
   09:10:13.357.28-May-2021 3286.00 4014.75 82.12 15.00 272.24 2493.81
   09:10:13.557.28-May-2021 3286.00 4015.97 82.12 15.00 272.44 2493.81
   09:10:13.757.28-May-2021 3286.00 4016.05 82.12 15.00 272.64 2493.81
   09:10:13.957.28-May-2021 3286.00 4016.07 82.12 15.00 272.84 2493.81
   09:10:14.157.28-May-2021 3286.00 4015.86 82.12 15.00 273.04 2493.81
   09:10:14.357.28-May-2021 3286.00 4015.86 82.12 15.00 273.24 2493.81
   09:10:14.557.28-May-2021 3286.00 4016.73 82.12 15.00 273.44 2493.81
   09:10:14.757.28-May-2021 3286.00 4016.75 82.12 15.00 273.64 2493.81
   09:10:14.957.28-May-2021 3286.00 4016.71 82.12 15.00 273.84 2493.81
   09:10:15.157.28-May-2021 3286.00 4016.71 82.12 15.00 274.04 2493.81
   09:10:15.357.28-May-2021 3286.00 4016.71 82.12 15.00 274.24 2493.81
   09:10:15.557.28-May-2021 3286.00 4016.71 82.12 15.00 274.44 2493.81
   09:10:15.757.28-May-2021 3286.00 4016.68 82.12 15.00 274.64 2493.81
   09:10:15.957.28-May-2021 3286.00 4016.67 82.12 15.00 274.84 2493.81
   09:10:16.157.28-May-2021 3286.00 4016.67 82.12 15.00 275.04 2493.81
   09:10:16.357.28-May-2021 3286.00 4016.67 82.12 15.00 275.24 2493.81
   09:10:16.557.28-May-2021 3286.00 4016.69 82.12 15.00 275.44 2493.81
   09:10:16.757.28-May-2021 3286.00 4016.46 82.12 15.00 275.64 2493.81
   09:10:16.957.28-May-2021 3286.00 4017.40 82.12 15.00 275.84 2493.81
   09:10:17.157.28-May-2021 3286.00 4017.27 82.12 15.00 276.04 2493.81
   09:10:17.357.28-May-2021 3286.00 4017.27 82.12 15.00 276.24 2493.81
   09:10:17.557.28-May-2021 3286.00 4017.21 82.12 15.00 276.44 2493.81
   09:10:17.757.28-May-2021 3286.00 4017.16 82.12 15.00 276.64 2493.81
   09:10:17.957.28-May-2021 3286.00 4017.15 82.12 15.00 276.84 2493.81
   09:10:18.157.28-May-2021 3286.00 4017.12 82.12 15.00 277.04 2493.81
   09:10:18.357.28-May-2021 3286.00 4017.12 82.12 15.00 277.24 2493.81
   09:10:18.557.28-May-2021 3286.00 4017.09 82.12 15.00 277.44 2493.81
   09:10:18.757.28-May-2021 3286.00 4017.08 82.12 15.00 277.64 2493.81
   09:10:18.957.28-May-2021 3286.00 4017.05 82.12 15.00 277.84 2493.81
   09:10:19.158.28-May-2021 3286.00 4017.04 82.12 15.00 278.04 2493.81
   09:10:19.358.28-May-2021 3286.00 4017.04 82.12 15.00 278.24 2493.81
   09:10:19.558.28-May-2021 3286.00 4016.43 82.12 15.00 278.44 2493.81
   09:10:19.758.28-May-2021 3286.00 4017.48 82.12 15.00 278.64 2493.81
   09:10:19.958.28-May-2021 3286.00 4017.46 82.12 15.00 278.84 2493.81
   09:10:20.158.28-May-2021 3286.00 4017.39 82.12 15.00 279.04 2493.81
   09:10:20.358.28-May-2021 3286.00 4017.39 82.12 15.00 279.24 2493.81
   09:10:20.558.28-May-2021 3286.00 4016.67 82.12 15.00 279.44 2493.81
   09:10:20.758.28-May-2021 3286.00 4017.87 82.12 15.00 279.64 2493.81
   09:10:20.958.28-May-2021 3286.00 4017.57 82.12 15.00 279.84 2493.81
   09:10:21.158.28-May-2021 3286.00 4017.56 82.12 15.00 280.04 2493.81
   09:10:21.358.28-May-2021 3286.00 4017.56 82.12 15.00 280.24 2493.81
   09:10:21.558.28-May-2021 3286.00 4017.72 82.12 15.00 280.44 2493.81
   09:10:21.758.28-May-2021 3286.00 4017.60 82.12 15.00 280.64 2493.81
   09:10:21.958.28-May-2021 3286.00 4017.59 82.12 15.00 280.84 2493.81
   09:10:22.158.28-May-2021 3286.00 4017.06 82.12 15.00 281.04 2493.81
   09:10:22.358.28-May-2021 3286.00 4017.06 82.12 15.00 281.24 2493.81
   09:10:22.558.28-May-2021 3286.00 4017.64 82.12 15.00 281.44 2493.81
   09:10:22.758.28-May-2021 3286.00 4017.60 82.12 15.00 281.64 2493.81
   09:10:22.958.28-May-2021 3286.00 4017.59 82.12 15.00 281.84 2493.81
   09:10:23.158.28-May-2021 3286.00 4017.54 82.12 15.00 282.04 2493.81
   09:10:23.358.28-May-2021 3286.00 4017.54 82.12 15.00 282.24 2493.81
   09:10:23.558.28-May-2021 3286.00 4017.53 82.12 15.00 282.44 2493.81
   09:10:23.758.28-May-2021 3286.00 4017.48 82.12 15.00 282.64 2493.81
   09:10:23.958.28-May-2021 3286.00 4017.48 82.12 15.00 282.84 2493.81
   09:10:24.158.28-May-2021 3286.00 4017.47 82.12 15.00 283.04 2493.81
   09:10:24.358.28-May-2021 3286.00 4017.47 82.12 15.00 283.24 2493.81
   09:10:24.558.28-May-2021 3286.00 4017.45 82.12 15.00 283.44 2493.81
   09:10:24.758.28-May-2021 3286.00 4016.74 82.12 15.00 283.64 2493.81
   09:10:24.958.28-May-2021 3286.00 4017.98 82.12 15.00 283.84 2493.81
   09:10:25.158.28-May-2021 3286.00 4017.68 82.12 15.00 284.04 2493.81
   09:10:25.358.28-May-2021 3286.00 4017.68 82.12 15.00 284.24 2493.81
   09:10:25.558.28-May-2021 3286.00 4017.59 82.12 15.00 284.44 2493.81
   09:10:25.758.28-May-2021 3286.00 4017.58 82.12 15.00 284.64 2493.81
   09:10:25.958.28-May-2021 3286.00 4017.55 82.12 15.00 284.84 2493.81
   09:10:26.158.28-May-2021 3286.00 4017.54 82.12 15.00 285.04 2493.81
   09:10:26.358.28-May-2021 3286.00 4017.54 82.12 15.00 285.24 2493.81
   09:10:26.559.28-May-2021 3286.00 4017.50 82.12 15.00 285.44 2493.81
   09:10:26.759.28-May-2021 3286.00 4017.49 82.12 15.00 285.64 2493.81
   09:10:26.959.28-May-2021 3286.00 4017.49 82.12 15.00 285.84 2493.81
   09:10:27.159.28-May-2021 3286.00 4017.47 82.12 15.00 286.04 2493.81
   09:10:27.359.28-May-2021 3286.00 4017.47 82.12 15.00 286.24 2493.81
   09:10:27.559.28-May-2021 3286.00 4016.65 82.12 15.00 286.44 2493.81
   09:10:27.759.28-May-2021 3286.00 4017.72 82.12 15.00 286.64 2493.81
   09:10:27.959.28-May-2021 3286.00 4017.67 82.12 15.00 286.84 2493.81
   09:10:28.159.28-May-2021 3286.00 4017.61 82.12 15.00 287.04 2493.81
   09:10:28.359.28-May-2021 3286.00 4017.61 82.12 15.00 287.24 2493.81
   09:10:28.559.28-May-2021 3286.00 4017.42 82.12 15.00 287.44 2493.81
   09:10:28.759.28-May-2021 3286.00 4017.81 82.12 15.00 287.64 2493.81
   09:10:28.959.28-May-2021 3286.00 4017.68 82.12 15.00 287.84 2493.81
   09:10:29.159.28-May-2021 3286.00 4017.41 82.12 15.00 288.04 2493.81
   09:10:29.359.28-May-2021 3286.00 4017.41 82.12 15.00 288.24 2493.81
   09:10:29.559.28-May-2021 3286.00 4017.82 82.12 15.00 288.44 2493.81
   09:10:29.759.28-May-2021 3286.00 4017.71 82.12 15.00 288.64 2493.81
   09:10:29.959.28-May-2021 3286.00 4017.71 82.12 15.00 288.84 2493.81
   09:10:30.159.28-May-2021 3286.00 4017.39 82.12 15.00 289.04 2493.81
   09:10:30.359.28-May-2021 3286.00 4017.39 82.12 15.00 289.24 2493.81
   09:10:30.559.28-May-2021 3286.00 4017.82 82.12 15.00 289.44 2493.81
   09:10:30.759.28-May-2021 3286.00 4017.70 82.12 15.00 289.64 2493.81
   09:10:30.959.28-May-2021 3286.00 4017.72 82.12 15.00 289.84 2493.81
   09:10:31.159.28-May-2021 3286.00 4017.68 82.12 15.00 290.04 2493.81
   09:10:31.359.28-May-2021 3286.00 4017.68 82.12 15.00 290.24 2493.81
   09:10:31.559.28-May-2021 3286.00 4017.65 82.12 15.00 290.44 2493.81
   09:10:31.759.28-May-2021 3286.00 4017.61 82.12 15.00 290.64 2493.81
   09:10:31.959.28-May-2021 3286.00 4017.60 82.12 15.00 290.84 2493.81
   09:10:32.159.28-May-2021 3286.00 4017.60 82.12 15.00 291.04 2493.81
   09:10:32.359.28-May-2021 3286.00 4017.60 82.12 15.00 291.24 2493.81
   09:10:32.559.28-May-2021 3286.00 4017.58 82.12 15.00 291.44 2493.81
   09:10:32.759.28-May-2021 3286.00 4017.57 82.12 15.00 291.64 2493.81
   09:10:32.959.28-May-2021 3286.00 4017.10 82.12 15.00 291.84 2493.81
   09:10:33.159.28-May-2021 3286.00 4017.84 82.12 15.00 292.04 2493.81
   09:10:33.359.28-May-2021 3286.00 4017.84 82.12 15.00 292.24 2493.81
   09:10:33.559.28-May-2021 3286.00 4017.71 82.12 15.00 292.44 2493.81
   09:10:33.759.28-May-2021 3286.00 4017.68 82.12 15.00 292.64 2493.81
   09:10:33.960.28-May-2021 3286.00 4017.65 82.12 15.00 292.84 2493.81
   09:10:34.160.28-May-2021 3286.00 4017.64 82.12 15.00 293.04 2493.81
   09:10:34.360.28-May-2021 3286.00 4017.64 82.12 15.00 293.24 2493.81
   09:10:34.560.28-May-2021 3286.00 4017.60 82.12 15.00 293.44 2493.81
   09:10:34.760.28-May-2021 3286.00 4017.61 82.12 15.00 293.64 2493.81
