~Version Information
 VERS.                  2.0:   CWLS log ASCII Standard -VERSION 2.0
 WRAP.                   NO:   One line per depth step
~Well Information Block
#MNEM.UNIT     VALUE/NAME     DESCRIPTION
#---------     -----------    ---------------------------
 STRT.S             05:48:37 28-May-21: START TIME 05:48:37 28-May-21
 STOP.S             05:55:44 28-May-21: STOP TIME  05:55:44 28-May-21
 STEP.S                   0.00: STEP TIME
 NULL.                 -999.25: NULL VALUE
 UWI .                     N/A:  UNIQUE WELL IDENTIFIER
 API .                     N/A:  API NUMBER
 UNIT.                     N/A:  LOGGING EQUIPMENT ID
 DCON.         Sperry Drilling:  DIRECTNL CONTR
 DOE .                     N/A:  DOE NUMBER
 MWDS.                    Baku:  MWD SHOP
 SRVC.     Turan Drilling and Engineering:  CONTRACTOR
 CTRY.              Azerbaijan:  COUNTRY NAME
 PROV.                    Baku:  PROVINCE
 STAT.                    Baku:  STATE NAME
 REGN.                   EESSA:  REGION
 BASE.              Azerbaijan:  LOGGING EQUIPMENT BASE LOCATION
 WTYP.                Deviated:  WELL TYPE
 RIG .              East Azeri:  RIG NAME
 WELL.                    D02y:  WELL NAME
 FLD .                     ACG:  FIELD NAME
 COMP.     BP Exploration (Caspian Sea) Ltd.:  COMPANY
 PDAT.          Mean Sea Level:  PERMANENT DATUM
 MDS .        Operator Entered:  MAG DATA SOURCE
 SON .        AZ-XX-0906997291:  JOB NUMBER
 FTOP.          Formation Tops:  FORM TOPS DESC
 ILTD.               Lithology:  INTERP LTH DESC
 SVYD.                  Survey:  SURVEY DESC
 DMOD.             Drill Model:  DRILL MOD DESC
 HPTY.       Minimum Curvature:  HOLE POS TYPE
 NREF.                    Grid:  NORTH REFERENCE
 SPUD.               05-May-21:  SPUD DATE
 DATE.      09.27.28 12-Jun-21:  END TIME
 STIM.      09.27.28 12-May-21:  START TIME
 DMF .             Drill Floor:  DRILL MEAS FROM
 DFST.                        :  DIST FSL TEXT
 DFWT.                        :  DIST FWL TEXT
 CNTY.                        :  COUNTY
 LOC .                        :  LOCATION
 LMF .             Drill Floor:  LOG MEASURED FROM
 DEP .m                2806.40:  DEPTH
 AGAP.m                  43.60:  AIR GAP
 VSNS.m                  -4.42:  VERT SEC N/S
 VSEW.m                  -7.31:  VERT SEC E/W
 APD .m                  43.60:  DEPTH ABOVE PD
 WDMS.m                 151.80:  WD ELEV
 EGL .m                   0.00:  GROUND ELEVATION
 EPD .m                   0.00:  ELEVATION
 AZTC.deg                 6.18:  AZM TOTAL CORR
 GRDC.deg                 0.29:  GRID CORRECTION
 MDEC.deg                 6.47:  MAGNETIC DECL
 MDIP.deg                59.50:  MAGNETIC DIP
 MFLD.nT              50350.00:  MAGNETIC FIELD
 GVFD.g                   1.00:  GRAVITY FIELD
 VSDR.deg               179.08:  VERT SEC DIRECT
 TDD .m                4300.00:  TOTAL DEPTH (DRILLER)
 SDEP.m                2800.00:  START DEPTH
 DFSL.m                   0.00:  DISTANCE FSL
 DFWL.m                   0.00:  DISTANCE FWL
 UTMY.m             4431871.34:  UTM Y
 UTMX.m              538762.90:  UTM X
 WHEW.m                  -7.31:  WELL HEAD E/W
 WHNS.m                  -4.42:  WELL HEAD N/S
 LONG.deg                51.45:  LONGITUDE
 LATI.deg                40.02:  LATITUDE
 TVDS.m                  43.60:  TVDSS CORRECTN
 EKB .m                  43.60:  KB ELEVATION
 EDF .m                  43.60:  DF ELEVATION
 TDL .m                 806.00:  TOTAL DEPTH (LOGGER)
 MAGU.                 1851231:  MAGUTM CHECKSUM
 VSC .                       0:  VS TO CLOSURE
~Parameter Information Block
#MNEM.UNIT       Value        Description
#---------     -----------    ---------------------------
 AV  .mps                 1.60:  Ann Velocity 
 AVMX.mps                 2.00:  Max Ann Veloc 
 AZIF.deg               140.24:  Azm, Final 
 BHAT.        Rotary Steerable:  BHA Type 
 BROT.°/30m               0.50:  Build Rotating 
 BS  .in                  8.50:  Bit Size 
 BTPL.psig              619.00:  Bit Press Loss 
 CABU.                     Yes:  Customer Abuse 
 CGEO.          Ilgar Gurbanov:  Customer Geo 
 COMM.                     dAY:  Run Comments 1 
 TCS .hr                 85.88:  Time Ciculation Ended 
 CV  .mps                 3.30:  Crit Velocity 
 CVMX.mps                 3.50:  Max Crit Veloc 
 DD1 .           Hamid Axmedov:  Direct Drillr 1 
 DD2 .           Teymur Aliyev:  Direct Drillr 2 
 DDSV.               Geo-Pilot:  DD Service 
 DEFF.%                 100.00:  % Det Eff 
 DLRX.°/30m               0.00:  Dogleg Rot Max 
 DLSO.°/30m               1.80:  Dogleg Oriented 
 DLSX.°/30m               3.34:  Dogleg Str Max 
 DRET.      11.50.00 27-May-21:  Drill End Time 
 DRST.      21.13.00 24-May-21:  Drill Start Tim 
 DTIM.hr                 45.11:  Time Drilling 
 EDEP.m                4054.00:  End Depth 
 ENG1.         Almaz Almadatov:  Engineer 1 
 ENG2.           Amrah Tahirov:  Engineer 2 
 ENG3.      Bakhtiyar Jabbarli:  Engineer 3 
 ENG4.          Nazrin Asgarli:  Engineer 4 
 ETIM.      10.00.00 30-May-21:  End Time 
 FLOI.gpm               530.00:  Flow In 
 FLON.gpm               400.00:  Flow In Min 
 FLOS.cptm                0.00:  Fluid Loss 
 FLOX.gpm               560.00:  Flow In Max 
 DFT .        Mineral Oil Base:  Mud Type 
 FTRO.       Formation Presure:  FTWD Run Obj 
 HFLO.                      No:  High Flow 
 HPRE.                      No:  High Pressure 
 HTEM.                      No:  High Temp 
 HYDO.m                   1.80:  Hydro Offset 
 IFIN.deg                73.83:  Inc, Final 
 IMAX.deg                73.83:  Inc Max 
 IMIN.deg                57.86:  Inc Min 
 IMND.m                3259.27:  Inc Min Depth 
 IMXD.m                4045.58:  Inc Max Depth 
 JARR.                     Yes:  Jarring 
 LETM.      11.50.00 27-May-21:  Log End Time 
 LOST.hr                     0:  Lost Rig Time 
 LSTM.      21.13.00 24-May-21:  Log Start Time 
 MDCL.ppm             42500.00:  Mud Chlorides 
 MDES.     Inversion Oil/Synthetic:  Mud Desc 
 DFD .sg                  1.52:  Mud Density 
 MDMN.sg                  1.52:  Dens Mud Min 
 MDMX.sg                  1.52:  Dens Mud Max 
 MOIL.                      70:  Run Mud Oil % 
 MOWR.                   70:30:  Run Mud OWR 
 MSND.                     0.2:  Run Mud Sand % 
 MSOL.                      22:  Run Mud Solids% 
 DFV .spqt               77.00:  Mud Viscosity 
 MWOD.in                  6.75:  MWD Tool OD 
 MWSI.                      No:  Serv Intrp, MWD 
 OTIM.hr                151.01:  Time Operating 
 PCON.          Wear / Scratch:  Pad Condition 
 PMAX.psia            11296.93:  Press Op, Max 
 PV  .cP                 37.00:  Mud PV 
 RUN .                     500:  Run Number 
 ROPA.m/hr               25.00:  ROP Avg 
 ROPN.m/hr                9.00:  ROP Min 
 ROPX.m/hr               28.00:  ROP Max 
 RPMA.rpm               140.00:  RPM Surface Avg 
 RPMN.rpm                90.00:  RPM Surface Min 
 RPMX.rpm               140.00:  RPM Surface Max 
 RRUN.                    0500:  Rig Run Number 
 SAZI.deg               172.17:  Azm, Start 
 SDEP.m                3248.00:  Start Depth 
 SIDD.                      No:  Serv Intrp, DD 
 SINC.deg                57.86:  Inc, Start 
 SPPA.psig             5620.00:  SPP Avg 
 SPPN.psig             5190.00:  SPP Min 
 SPPX.psig             6050.00:  SPP Max 
 STIM.      16.00.00 23-May-21:  Start Time 
 SVCS.                 DD, MWD:  Services 
 SVER.                    9.20:  Sperry Version 
 TDAT.m                 806.00:  Tot Depth Attmp 
 TDDF.                      No:  Trip for DD 
 TDLG.m                 806.00:  Tot Depth Loggd 
 TFF .                      No:  Trip for Fail 
 TQAA.f-kp               12.00:  Torque Abs Avg 
 TQAN.f-kp                8.00:  Torque Abs Min 
 TQAX.f-kp               15.00:  Torque Abs Max 
 TRRT.°/30m               0.30:  Turn Rotating 
 MRT .                  EWR-M5:  Maximum Recorded Temperature 
 TTMX.degC               93.00:  Max Tool Temp 
 VS01.                90649155:  Virtual Str1 SN 
 VS02.                90642264:  Virtual Str2 SN 
 VS03.                90642266:  Virtual Str3 SN 
 VS04.                90642261:  Virtual Str4 SN 
 WBMN.klb                 0.00:  WOB Min 
 WITN.             Anar Khalil:  Customer Rep 
 WITN.           Murad Guliyev:  Customer Rep 2 
 WOBA.klb                13.00:  WOB Avg 
 WOBX.klb                25.00:  WOB Max 
 YP  .lhf2               32.00:  Yield Point 
~Curve Information Block
#MNEM.UNIT                 API CODE     Curve Description
#---------               -----------    ---------------------------
 TIME.HHMMSS            00 000 000 000:  GT Time & Date
 GTDEPTH.m              00 000 000 000:  GT Depth
 GTPQH.psia             00 000 000 000:  GT HR Quartz Pressure
 GTTQ.degC              00 000 000 000:  GT Quartz Temperature
 GTTN.NONE              00 000 000 000:  GT Test Number
 GTET.sec               00 000 000 000:  GT Elapsed Test Time
 GTTVD.m                00 000 000 000:  GT True Vertical Depth
#Other Information
#
#WARRANTY: Halliburton will use its best efforts to furnish customers with 
#accurate information and interpretations that are part of, and incident to, the services 
#provided.  However, Halliburton cannot and does not warrant the accuracy 
#or correctness of such information and interpretations.  Under no circumstances should any 
#such information or interpretation be relied upon as the sole basis for any drilling, 
#completion, production, or financial decision or any procedure involving any risk to the 
#safety of any drilling venture, drilling rig or its crew or any other third party.  The 
#Customer has full responsibility for all drilling, completion and production operation.  
#Halliburton makes no representations or warranties, either expressed or 
#implied, including, but not limited to, the implied warranties of merchantability or fitness 
#for a particular purpose, with respect to the services rendered.  In no event will 
#Halliburton be liable for failure to obtain any particular results or for 
#any damages, including, but not limited to, indirect, special or consequential damages, 
#resulting from the use of any information or interpretation provided by Halliburton.
#
~A           TIME           GTDEPTH  GTPQH  GTTQ  GTTN   GTET   GTTVD  
# ...
   05:50:08.216.28-May-2021 3439.00 5124.54 82.94 11.00  90.44 2568.67
   05:50:08.416.28-May-2021 3439.00 5125.02 82.94 11.00  90.64 2568.67
   05:50:08.616.28-May-2021 3439.00 5125.17 82.94 11.00  90.84 2568.67
   05:50:08.816.28-May-2021 3439.00 5125.33 82.94 11.00  91.04 2568.67
   05:50:09.016.28-May-2021 3439.00 5125.33 82.94 11.00  91.24 2568.67
   05:50:09.216.28-May-2021 3439.00 5122.84 82.94 11.00  91.44 2568.67
   05:50:09.416.28-May-2021 3439.00 5125.88 82.94 11.00  91.64 2568.67
   05:50:09.616.28-May-2021 3439.00 5125.62 82.94 11.00  91.84 2568.67
   05:50:09.817.28-May-2021 3439.00 5123.19 82.94 11.00  92.04 2568.67
   05:50:10.017.28-May-2021 3439.00 5123.19 82.94 11.00  92.24 2568.67
   05:50:10.217.28-May-2021 3439.00 5125.85 82.94 11.00  92.44 2568.67
   05:50:10.417.28-May-2021 3439.00 5126.06 82.94 11.00  92.64 2568.67
   05:50:10.617.28-May-2021 3439.00 5126.07 82.94 11.00  92.84 2568.67
   05:50:10.817.28-May-2021 3439.00 5126.23 82.94 11.00  93.04 2568.67
   05:50:11.017.28-May-2021 3439.00 5126.23 82.94 11.00  93.24 2568.67
   05:50:11.217.28-May-2021 3439.00 5126.43 82.94 11.00  93.44 2568.67
   05:50:11.417.28-May-2021 3439.00 5126.49 82.94 11.00  93.64 2568.67
   05:50:11.617.28-May-2021 3439.00 5126.60 82.94 11.00  93.84 2568.67
   05:50:11.817.28-May-2021 3439.00 5126.69 82.94 11.00  94.04 2568.67
   05:50:12.017.28-May-2021 3439.00 5126.69 82.94 11.00  94.24 2568.67
   05:50:12.218.28-May-2021 3439.00 5126.88 82.94 11.00  94.44 2568.67
   05:50:12.418.28-May-2021 3439.00 5124.73 82.94 11.00  94.64 2568.67
   05:50:12.618.28-May-2021 3439.00 5127.11 82.94 11.00  94.84 2568.67
   05:50:12.818.28-May-2021 3439.00 5127.08 82.94 11.00  95.04 2568.67
   05:50:13.018.28-May-2021 3439.00 5127.08 82.94 11.00  95.24 2568.67
   05:50:13.218.28-May-2021 3439.00 5127.38 82.94 11.00  95.44 2568.67
   05:50:13.418.28-May-2021 3439.00 5127.51 82.94 11.00  95.64 2568.67
   05:50:13.618.28-May-2021 3439.00 5127.57 82.94 11.00  95.84 2568.67
   05:50:13.818.28-May-2021 3439.00 5127.68 82.94 11.00  96.04 2568.67
   05:50:14.018.28-May-2021 3439.00 5127.68 82.94 11.00  96.24 2568.67
   05:50:14.218.28-May-2021 3439.00 5127.83 82.94 11.00  96.44 2568.67
   05:50:14.418.28-May-2021 3439.00 5127.92 82.94 11.00  96.64 2568.67
   05:50:14.619.28-May-2021 3439.00 5128.01 82.94 11.00  96.84 2568.67
   05:50:14.819.28-May-2021 3439.00 5128.08 82.94 11.00  97.04 2568.67
   05:50:15.019.28-May-2021 3439.00 5128.08 82.94 11.00  97.24 2568.67
   05:50:15.219.28-May-2021 3439.00 5127.06 82.94 11.00  97.44 2568.67
   05:50:15.419.28-May-2021 3439.00 5128.33 82.94 11.00  97.64 2568.67
   05:50:15.619.28-May-2021 3439.00 5128.33 82.94 11.00  97.84 2568.67
   05:50:15.819.28-May-2021 3439.00 5126.40 82.94 11.00  98.04 2568.67
   05:50:16.019.28-May-2021 3439.00 5126.40 82.94 11.00  98.24 2568.67
   05:50:16.219.28-May-2021 3439.00 5128.59 82.94 11.00  98.44 2568.67
   05:50:16.419.28-May-2021 3439.00 5126.59 82.94 11.00  98.64 2568.67
   05:50:16.619.28-May-2021 3439.00 5128.92 82.94 11.00  98.84 2568.67
   05:50:16.819.28-May-2021 3439.00 5128.95 82.94 11.00  99.04 2568.67
   05:50:17.020.28-May-2021 3439.00 5128.95 82.94 11.00  99.24 2568.67
   05:50:17.220.28-May-2021 3439.00 5129.14 82.94 11.00  99.44 2568.67
   05:50:17.420.28-May-2021 3439.00 5127.44 82.94 11.00  99.64 2568.67
   05:50:17.620.28-May-2021 3439.00 5128.92 82.94 11.00  99.84 2568.67
   05:50:17.820.28-May-2021 3439.00 5129.43 82.94 11.00 100.04 2568.67
   05:50:18.020.28-May-2021 3439.00 5129.43 82.94 11.00 100.24 2568.67
   05:50:18.220.28-May-2021 3439.00 5129.75 82.94 11.00 100.44 2568.67
   05:50:18.420.28-May-2021 3439.00 5129.75 82.94 11.00 100.64 2568.67
   05:50:18.620.28-May-2021 3439.00 5129.90 82.94 11.00 100.84 2568.67
   05:50:18.820.28-May-2021 3439.00 5129.96 82.94 11.00 101.04 2568.67
   05:50:19.020.28-May-2021 3439.00 5129.96 82.94 11.00 101.24 2568.67
   05:50:19.220.28-May-2021 3439.00 5130.19 82.94 11.00 101.44 2568.67
   05:50:19.421.28-May-2021 3439.00 5130.27 82.94 11.00 101.64 2568.67
   05:50:19.621.28-May-2021 3439.00 5130.32 82.94 11.00 101.84 2568.67
   05:50:19.821.28-May-2021 3439.00 5130.41 82.94 11.00 102.04 2568.67
   05:50:20.021.28-May-2021 3439.00 5130.41 82.94 11.00 102.24 2568.67
   05:50:20.221.28-May-2021 3439.00 5130.69 82.94 11.00 102.44 2568.67
   05:50:20.421.28-May-2021 3439.00 5130.64 82.94 11.00 102.64 2568.67
   05:50:20.621.28-May-2021 3439.00 5130.87 82.94 11.00 102.84 2568.67
   05:50:20.821.28-May-2021 3439.00 5130.82 82.94 11.00 103.04 2568.67
   05:50:21.021.28-May-2021 3439.00 5130.82 82.94 11.00 103.24 2568.67
   05:50:21.221.28-May-2021 3439.00 5131.03 82.94 11.00 103.44 2568.67
   05:50:21.421.28-May-2021 3439.00 5131.12 82.94 11.00 103.64 2568.67
   05:50:21.621.28-May-2021 3439.00 5131.23 82.94 11.00 103.84 2568.67
   05:50:21.822.28-May-2021 3439.00 5131.32 82.94 11.00 104.04 2568.67
   05:50:22.022.28-May-2021 3439.00 5131.32 82.94 11.00 104.24 2568.67
   05:50:22.222.28-May-2021 3439.00 5131.48 82.94 11.00 104.44 2568.67
   05:50:22.422.28-May-2021 3439.00 5131.57 82.94 11.00 104.64 2568.67
   05:50:22.622.28-May-2021 3439.00 5131.61 82.94 11.00 104.84 2568.67
   05:50:22.822.28-May-2021 3439.00 5129.46 82.94 11.00 105.04 2568.67
   05:50:23.022.28-May-2021 3439.00 5129.46 82.94 11.00 105.24 2568.67
   05:50:23.222.28-May-2021 3439.00 5131.73 82.94 11.00 105.44 2568.67
   05:50:23.422.28-May-2021 3439.00 5129.73 82.94 11.00 105.64 2568.67
   05:50:23.622.28-May-2021 3439.00 5132.05 82.94 11.00 105.84 2568.67
   05:50:23.822.28-May-2021 3439.00 5132.03 82.94 11.00 106.04 2568.67
   05:50:24.022.28-May-2021 3439.00 5132.03 82.94 11.00 106.24 2568.67
   05:50:24.223.28-May-2021 3439.00 5131.76 82.94 11.00 106.44 2568.67
   05:50:24.423.28-May-2021 3439.00 5132.27 82.94 11.00 106.64 2568.67
   05:50:24.623.28-May-2021 3439.00 5132.43 82.94 11.00 106.84 2568.67
   05:50:24.823.28-May-2021 3439.00 5132.57 82.94 11.00 107.04 2568.67
   05:50:25.023.28-May-2021 3439.00 5132.57 82.94 11.00 107.24 2568.67
   05:50:25.223.28-May-2021 3439.00 5132.25 82.94 11.00 107.44 2568.67
   05:50:25.423.28-May-2021 3439.00 5132.74 82.94 11.00 107.64 2568.67
   05:50:25.623.28-May-2021 3439.00 5132.88 82.94 11.00 107.85 2568.67
   05:50:25.823.28-May-2021 3439.00 5133.04 82.94 11.00 108.05 2568.67
   05:50:26.023.28-May-2021 3439.00 5133.04 82.94 11.00 108.25 2568.67
   05:50:26.223.28-May-2021 3439.00 5133.19 82.94 11.00 108.45 2568.67
   05:50:26.423.28-May-2021 3439.00 5133.23 82.94 11.00 108.65 2568.67
   05:50:26.624.28-May-2021 3439.00 5133.35 82.94 11.00 108.85 2568.67
   05:50:26.824.28-May-2021 3439.00 5133.44 82.94 11.00 109.05 2568.67
   05:50:27.024.28-May-2021 3439.00 5133.44 82.94 11.00 109.25 2568.67
   05:50:27.224.28-May-2021 3439.00 5133.58 82.94 11.00 109.45 2568.67
   05:50:27.424.28-May-2021 3439.00 5133.67 82.94 11.00 109.65 2568.67
   05:50:27.624.28-May-2021 3439.00 5131.41 82.94 11.00 109.85 2568.67
   05:50:27.824.28-May-2021 3439.00 5133.89 82.94 11.00 110.05 2568.67
   05:50:28.024.28-May-2021 3439.00 5133.89 82.94 11.00 110.25 2568.67
   05:50:28.224.28-May-2021 3439.00 5134.10 82.94 11.00 110.45 2568.67
   05:50:28.424.28-May-2021 3439.00 5134.06 82.94 11.00 110.65 2568.67
   05:50:28.624.28-May-2021 3439.00 5134.18 82.94 11.00 110.85 2568.67
   05:50:28.824.28-May-2021 3439.00 5134.29 82.94 11.00 111.05 2568.67
   05:50:29.025.28-May-2021 3439.00 5134.29 82.94 11.00 111.25 2568.67
   05:50:29.225.28-May-2021 3439.00 5134.43 82.94 11.00 111.45 2568.67
   05:50:29.425.28-May-2021 3439.00 5134.57 82.94 11.00 111.65 2568.67
   05:50:29.625.28-May-2021 3439.00 5134.60 82.94 11.00 111.85 2568.67
   05:50:29.825.28-May-2021 3439.00 5134.66 82.94 11.00 112.05 2568.67
   05:50:30.025.28-May-2021 3439.00 5134.66 82.94 11.00 112.25 2568.67
   05:50:30.225.28-May-2021 3439.00 5134.80 82.94 11.00 112.45 2568.67
   05:50:30.425.28-May-2021 3439.00 5132.65 82.94 11.00 112.65 2568.67
   05:50:30.625.28-May-2021 3439.00 5134.97 82.94 11.00 112.85 2568.67
