~Version Information
 VERS.                  2.0:   CWLS log ASCII Standard -VERSION 2.0
 WRAP.                   NO:   One line per depth step
~Well Information Block
#MNEM.UNIT     VALUE/NAME     DESCRIPTION
#---------     -----------    ---------------------------
 STRT.S             00:59:34 28-May-21: START TIME 00:59:34 28-May-21
 STOP.S             01:06:40 28-May-21: STOP TIME  01:06:40 28-May-21
 STEP.S                   0.00: STEP TIME
 NULL.                 -999.25: NULL VALUE
 UWI .                     N/A:  UNIQUE WELL IDENTIFIER
 API .                     N/A:  API NUMBER
 UNIT.                     N/A:  LOGGING EQUIPMENT ID
 DCON.         Sperry Drilling:  DIRECTNL CONTR
 DOE .                     N/A:  DOE NUMBER
 MWDS.                    Baku:  MWD SHOP
 SRVC.     Turan Drilling and Engineering:  CONTRACTOR
 CTRY.              Azerbaijan:  COUNTRY NAME
 PROV.                    Baku:  PROVINCE
 STAT.                    Baku:  STATE NAME
 REGN.                   EESSA:  REGION
 BASE.              Azerbaijan:  LOGGING EQUIPMENT BASE LOCATION
 WTYP.                Deviated:  WELL TYPE
 RIG .              East Azeri:  RIG NAME
 WELL.                    D02y:  WELL NAME
 FLD .                     ACG:  FIELD NAME
 COMP.     BP Exploration (Caspian Sea) Ltd.:  COMPANY
 PDAT.          Mean Sea Level:  PERMANENT DATUM
 MDS .        Operator Entered:  MAG DATA SOURCE
 SON .        AZ-XX-0906997291:  JOB NUMBER
 FTOP.          Formation Tops:  FORM TOPS DESC
 ILTD.               Lithology:  INTERP LTH DESC
 SVYD.                  Survey:  SURVEY DESC
 DMOD.             Drill Model:  DRILL MOD DESC
 HPTY.       Minimum Curvature:  HOLE POS TYPE
 NREF.                    Grid:  NORTH REFERENCE
 SPUD.               05-May-21:  SPUD DATE
 DATE.      09.27.28 12-Jun-21:  END TIME
 STIM.      09.27.28 12-May-21:  START TIME
 DMF .             Drill Floor:  DRILL MEAS FROM
 DFST.                        :  DIST FSL TEXT
 DFWT.                        :  DIST FWL TEXT
 CNTY.                        :  COUNTY
 LOC .                        :  LOCATION
 LMF .             Drill Floor:  LOG MEASURED FROM
 DEP .m                2806.40:  DEPTH
 AGAP.m                  43.60:  AIR GAP
 VSNS.m                  -4.42:  VERT SEC N/S
 VSEW.m                  -7.31:  VERT SEC E/W
 APD .m                  43.60:  DEPTH ABOVE PD
 WDMS.m                 151.80:  WD ELEV
 EGL .m                   0.00:  GROUND ELEVATION
 EPD .m                   0.00:  ELEVATION
 AZTC.deg                 6.18:  AZM TOTAL CORR
 GRDC.deg                 0.29:  GRID CORRECTION
 MDEC.deg                 6.47:  MAGNETIC DECL
 MDIP.deg                59.50:  MAGNETIC DIP
 MFLD.nT              50350.00:  MAGNETIC FIELD
 GVFD.g                   1.00:  GRAVITY FIELD
 VSDR.deg               179.08:  VERT SEC DIRECT
 TDD .m                4300.00:  TOTAL DEPTH (DRILLER)
 SDEP.m                2800.00:  START DEPTH
 DFSL.m                   0.00:  DISTANCE FSL
 DFWL.m                   0.00:  DISTANCE FWL
 UTMY.m             4431871.34:  UTM Y
 UTMX.m              538762.90:  UTM X
 WHEW.m                  -7.31:  WELL HEAD E/W
 WHNS.m                  -4.42:  WELL HEAD N/S
 LONG.deg                51.45:  LONGITUDE
 LATI.deg                40.02:  LATITUDE
 TVDS.m                  43.60:  TVDSS CORRECTN
 EKB .m                  43.60:  KB ELEVATION
 EDF .m                  43.60:  DF ELEVATION
 TDL .m                 806.00:  TOTAL DEPTH (LOGGER)
 MAGU.                 1851231:  MAGUTM CHECKSUM
 VSC .                       0:  VS TO CLOSURE
~Parameter Information Block
#MNEM.UNIT       Value        Description
#---------     -----------    ---------------------------
 AV  .mps                 1.60:  Ann Velocity 
 AVMX.mps                 2.00:  Max Ann Veloc 
 AZIF.deg               140.24:  Azm, Final 
 BHAT.        Rotary Steerable:  BHA Type 
 BROT.°/30m               0.50:  Build Rotating 
 BS  .in                  8.50:  Bit Size 
 BTPL.psig              619.00:  Bit Press Loss 
 CABU.                     Yes:  Customer Abuse 
 CGEO.          Ilgar Gurbanov:  Customer Geo 
 COMM.                     ô:r:  Run Comments 1 
 TCS .hr                 85.88:  Time Ciculation Ended 
 CV  .mps                 3.30:  Crit Velocity 
 CVMX.mps                 3.50:  Max Crit Veloc 
 DD1 .           Hamid Axmedov:  Direct Drillr 1 
 DD2 .           Teymur Aliyev:  Direct Drillr 2 
 DDSV.               Geo-Pilot:  DD Service 
 DEFF.%                 100.00:  % Det Eff 
 DLRX.°/30m               0.00:  Dogleg Rot Max 
 DLSO.°/30m               1.80:  Dogleg Oriented 
 DLSX.°/30m               3.34:  Dogleg Str Max 
 DRET.      11.50.00 27-May-21:  Drill End Time 
 DRST.      21.13.00 24-May-21:  Drill Start Tim 
 DTIM.hr                 45.11:  Time Drilling 
 EDEP.m                4054.00:  End Depth 
 ENG1.         Almaz Almadatov:  Engineer 1 
 ENG2.           Amrah Tahirov:  Engineer 2 
 ENG3.      Bakhtiyar Jabbarli:  Engineer 3 
 ENG4.          Nazrin Asgarli:  Engineer 4 
 ETIM.      10.00.00 30-May-21:  End Time 
 FLOI.gpm               530.00:  Flow In 
 FLON.gpm               400.00:  Flow In Min 
 FLOS.cptm                0.00:  Fluid Loss 
 FLOX.gpm               560.00:  Flow In Max 
 DFT .        Mineral Oil Base:  Mud Type 
 FTRO.       Formation Presure:  FTWD Run Obj 
 HFLO.                      No:  High Flow 
 HPRE.                      No:  High Pressure 
 HTEM.                      No:  High Temp 
 HYDO.m                   1.80:  Hydro Offset 
 IFIN.deg                73.83:  Inc, Final 
 IMAX.deg                73.83:  Inc Max 
 IMIN.deg                57.86:  Inc Min 
 IMND.m                3259.27:  Inc Min Depth 
 IMXD.m                4045.58:  Inc Max Depth 
 JARR.                     Yes:  Jarring 
 LETM.      11.50.00 27-May-21:  Log End Time 
 LOST.hr                     0:  Lost Rig Time 
 LSTM.      21.13.00 24-May-21:  Log Start Time 
 MDCL.ppm             42500.00:  Mud Chlorides 
 MDES.     Inversion Oil/Synthetic:  Mud Desc 
 DFD .sg                  1.52:  Mud Density 
 MDMN.sg                  1.52:  Dens Mud Min 
 MDMX.sg                  1.52:  Dens Mud Max 
 MOIL.                      70:  Run Mud Oil % 
 MOWR.                   70:30:  Run Mud OWR 
 MSND.                     0.2:  Run Mud Sand % 
 MSOL.                      22:  Run Mud Solids% 
 DFV .spqt               77.00:  Mud Viscosity 
 MWOD.in                  6.75:  MWD Tool OD 
 MWSI.                      No:  Serv Intrp, MWD 
 OTIM.hr                151.01:  Time Operating 
 PCON.          Wear / Scratch:  Pad Condition 
 PMAX.psia            11296.93:  Press Op, Max 
 PV  .cP                 37.00:  Mud PV 
 RUN .                     500:  Run Number 
 ROPA.m/hr               25.00:  ROP Avg 
 ROPN.m/hr                9.00:  ROP Min 
 ROPX.m/hr               28.00:  ROP Max 
 RPMA.rpm               140.00:  RPM Surface Avg 
 RPMN.rpm                90.00:  RPM Surface Min 
 RPMX.rpm               140.00:  RPM Surface Max 
 RRUN.                    0500:  Rig Run Number 
 SAZI.deg               172.17:  Azm, Start 
 SDEP.m                3248.00:  Start Depth 
 SIDD.                      No:  Serv Intrp, DD 
 SINC.deg                57.86:  Inc, Start 
 SPPA.psig             5620.00:  SPP Avg 
 SPPN.psig             5190.00:  SPP Min 
 SPPX.psig             6050.00:  SPP Max 
 STIM.      16.00.00 23-May-21:  Start Time 
 SVCS.                 DD, MWD:  Services 
 SVER.                    9.20:  Sperry Version 
 TDAT.m                 806.00:  Tot Depth Attmp 
 TDDF.                      No:  Trip for DD 
 TDLG.m                 806.00:  Tot Depth Loggd 
 TFF .                      No:  Trip for Fail 
 TQAA.f-kp               12.00:  Torque Abs Avg 
 TQAN.f-kp                8.00:  Torque Abs Min 
 TQAX.f-kp               15.00:  Torque Abs Max 
 TRRT.°/30m               0.30:  Turn Rotating 
 MRT .                  EWR-M5:  Maximum Recorded Temperature 
 TTMX.degC               93.00:  Max Tool Temp 
 VS01.                90649155:  Virtual Str1 SN 
 VS02.                90642264:  Virtual Str2 SN 
 VS03.                90642266:  Virtual Str3 SN 
 VS04.                90642261:  Virtual Str4 SN 
 WBMN.klb                 0.00:  WOB Min 
 WITN.             Anar Khalil:  Customer Rep 
 WITN.           Murad Guliyev:  Customer Rep 2 
 WOBA.klb                13.00:  WOB Avg 
 WOBX.klb                25.00:  WOB Max 
 YP  .lhf2               32.00:  Yield Point 
~Curve Information Block
#MNEM.UNIT                 API CODE     Curve Description
#---------               -----------    ---------------------------
 TIME.HHMMSS            00 000 000 000:  GT Time & Date
 GTDEPTH.m              00 000 000 000:  GT Depth
 GTPQH.psia             00 000 000 000:  GT HR Quartz Pressure
 GTTQ.degC              00 000 000 000:  GT Quartz Temperature
 GTTN.NONE              00 000 000 000:  GT Test Number
 GTET.sec               00 000 000 000:  GT Elapsed Test Time
 GTTVD.m                00 000 000 000:  GT True Vertical Depth
#Other Information
#
#WARRANTY: Halliburton will use its best efforts to furnish customers with 
#accurate information and interpretations that are part of, and incident to, the services 
#provided.  However, Halliburton cannot and does not warrant the accuracy 
#or correctness of such information and interpretations.  Under no circumstances should any 
#such information or interpretation be relied upon as the sole basis for any drilling, 
#completion, production, or financial decision or any procedure involving any risk to the 
#safety of any drilling venture, drilling rig or its crew or any other third party.  The 
#Customer has full responsibility for all drilling, completion and production operation.  
#Halliburton makes no representations or warranties, either expressed or 
#implied, including, but not limited to, the implied warranties of merchantability or fitness 
#for a particular purpose, with respect to the services rendered.  In no event will 
#Halliburton be liable for failure to obtain any particular results or for 
#any damages, including, but not limited to, indirect, special or consequential damages, 
#resulting from the use of any information or interpretation provided by Halliburton.
#
~A           TIME           GTDEPTH  GTPQH  GTTQ  GTTN  GTET   GTTVD  
# ...
   01:03:02.167.28-May-2021 3649.00 3165.54 84.94 5.00 207.22 2653.32
   01:03:02.367.28-May-2021 3649.00 3165.54 84.94 5.00 207.42 2653.32
   01:03:02.567.28-May-2021 3649.00 3165.54 84.94 5.00 207.62 2653.32
   01:03:02.768.28-May-2021 3649.00 3165.54 84.94 5.00 207.82 2653.32
   01:03:02.968.28-May-2021 3649.00 3165.53 84.94 5.00 208.02 2653.32
   01:03:03.168.28-May-2021 3649.00 3165.54 84.94 5.00 208.22 2653.32
   01:03:03.368.28-May-2021 3649.00 3165.54 84.94 5.00 208.42 2653.32
   01:03:03.568.28-May-2021 3649.00 3165.53 84.94 5.00 208.62 2653.32
   01:03:03.769.28-May-2021 3649.00 3165.54 84.94 5.00 208.82 2653.32
   01:03:03.969.28-May-2021 3649.00 3165.53 84.94 5.00 209.02 2653.32
   01:03:04.169.28-May-2021 3649.00 3165.54 84.94 5.00 209.22 2653.32
   01:03:04.369.28-May-2021 3649.00 3165.54 84.94 5.00 209.42 2653.32
   01:03:04.569.28-May-2021 3649.00 3165.54 84.94 5.00 209.62 2653.32
   01:03:04.770.28-May-2021 3649.00 3165.52 84.94 5.00 209.82 2653.32
   01:03:04.970.28-May-2021 3649.00 3165.56 84.93 5.00 210.02 2653.32
   01:03:05.170.28-May-2021 3649.00 3165.54 84.94 5.00 210.22 2653.32
   01:03:05.370.28-May-2021 3649.00 3165.54 84.94 5.00 210.42 2653.32
   01:03:05.570.28-May-2021 3649.00 3165.53 84.93 5.00 210.62 2653.32
   01:03:05.771.28-May-2021 3649.00 3165.55 84.93 5.00 210.82 2653.32
   01:03:05.971.28-May-2021 3649.00 3165.53 84.93 5.00 211.02 2653.32
   01:03:06.171.28-May-2021 3649.00 3165.54 84.93 5.00 211.22 2653.32
   01:03:06.371.28-May-2021 3649.00 3165.54 84.93 5.00 211.42 2653.32
   01:03:06.571.28-May-2021 3649.00 3165.53 84.93 5.00 211.62 2653.32
   01:03:06.772.28-May-2021 3649.00 3165.55 84.93 5.00 211.82 2653.32
   01:03:06.972.28-May-2021 3649.00 3165.54 84.93 5.00 212.02 2653.32
   01:03:07.172.28-May-2021 3649.00 3165.54 84.93 5.00 212.22 2653.32
   01:03:07.372.28-May-2021 3649.00 3165.54 84.93 5.00 212.42 2653.32
   01:03:07.573.28-May-2021 3649.00 3165.55 84.93 5.00 212.62 2653.32
   01:03:07.773.28-May-2021 3649.00 3165.54 84.93 5.00 212.82 2653.32
   01:03:07.973.28-May-2021 3649.00 3165.54 84.93 5.00 213.02 2653.32
   01:03:08.173.28-May-2021 3649.00 3165.53 84.93 5.00 213.22 2653.32
   01:03:08.373.28-May-2021 3649.00 3165.53 84.93 5.00 213.42 2653.32
   01:03:08.574.28-May-2021 3649.00 3165.54 84.93 5.00 213.62 2653.32
   01:03:08.774.28-May-2021 3649.00 3165.54 84.93 5.00 213.82 2653.32
   01:03:08.974.28-May-2021 3649.00 3165.54 84.93 5.00 214.02 2653.32
   01:03:09.174.28-May-2021 3649.00 3165.54 84.93 5.00 214.22 2653.32
   01:03:09.374.28-May-2021 3649.00 3165.54 84.93 5.00 214.42 2653.32
   01:03:09.575.28-May-2021 3649.00 3165.55 84.93 5.00 214.62 2653.32
   01:03:09.775.28-May-2021 3649.00 3165.54 84.93 5.00 214.82 2653.32
   01:03:09.975.28-May-2021 3649.00 3165.53 84.93 5.00 215.02 2653.32
   01:03:10.175.28-May-2021 3649.00 3165.56 84.93 5.00 215.22 2653.32
   01:03:10.375.28-May-2021 3649.00 3165.56 84.93 5.00 215.42 2653.32
   01:03:10.576.28-May-2021 3649.00 3165.53 84.93 5.00 215.62 2653.32
   01:03:10.776.28-May-2021 3649.00 3165.54 84.93 5.00 215.82 2653.32
   01:03:10.976.28-May-2021 3649.00 3165.53 84.93 5.00 216.02 2653.32
   01:03:11.176.28-May-2021 3649.00 3165.53 84.93 5.00 216.22 2653.32
   01:03:11.376.28-May-2021 3649.00 3165.53 84.93 5.00 216.43 2653.32
   01:03:11.577.28-May-2021 3649.00 3165.54 84.93 5.00 216.63 2653.32
   01:03:11.777.28-May-2021 3649.00 3165.53 84.93 5.00 216.83 2653.32
   01:03:11.977.28-May-2021 3649.00 3165.53 84.93 5.00 217.03 2653.32
   01:03:12.177.28-May-2021 3649.00 3165.53 84.93 5.00 217.23 2653.32
   01:03:12.378.28-May-2021 3649.00 3165.53 84.93 5.00 217.43 2653.32
   01:03:12.578.28-May-2021 3649.00 3165.54 84.93 5.00 217.63 2653.32
   01:03:12.778.28-May-2021 3649.00 3165.54 84.93 5.00 217.83 2653.32
   01:03:12.978.28-May-2021 3649.00 3165.51 84.93 5.00 218.03 2653.32
   01:03:13.178.28-May-2021 3649.00 3165.55 84.93 5.00 218.23 2653.32
   01:03:13.379.28-May-2021 3649.00 3165.55 84.93 5.00 218.43 2653.32
   01:03:13.579.28-May-2021 3649.00 3165.54 84.93 5.00 218.63 2653.32
   01:03:13.779.28-May-2021 3649.00 3165.53 84.93 5.00 218.83 2653.32
   01:03:13.979.28-May-2021 3649.00 3165.53 84.93 5.00 219.03 2653.32
   01:03:14.179.28-May-2021 3649.00 3165.54 84.93 5.00 219.23 2653.32
   01:03:14.380.28-May-2021 3649.00 3165.54 84.93 5.00 219.43 2653.32
   01:03:14.580.28-May-2021 3649.00 3165.53 84.93 5.00 219.63 2653.32
   01:03:14.780.28-May-2021 3649.00 3165.54 84.93 5.00 219.83 2653.32
   01:03:14.980.28-May-2021 3649.00 3165.53 84.93 5.00 220.03 2653.32
   01:03:15.180.28-May-2021 3649.00 3165.54 84.93 5.00 220.23 2653.32
   01:03:15.381.28-May-2021 3649.00 3165.54 84.93 5.00 220.43 2653.32
   01:03:15.581.28-May-2021 3649.00 3165.52 84.93 5.00 220.63 2653.32
   01:03:15.781.28-May-2021 3649.00 3165.55 84.93 5.00 220.83 2653.32
   01:03:15.981.28-May-2021 3649.00 3165.52 84.93 5.00 221.03 2653.32
   01:03:16.181.28-May-2021 3649.00 3165.54 84.93 5.00 221.23 2653.32
   01:03:16.382.28-May-2021 3649.00 3165.54 84.93 5.00 221.43 2653.32
   01:03:16.582.28-May-2021 3649.00 3165.54 84.93 5.00 221.63 2653.32
   01:03:16.782.28-May-2021 3649.00 3165.53 84.93 5.00 221.83 2653.32
   01:03:16.982.28-May-2021 3649.00 3165.53 84.93 5.00 222.03 2653.32
   01:03:17.183.28-May-2021 3649.00 3165.53 84.93 5.00 222.23 2653.32
   01:03:17.383.28-May-2021 3649.00 3165.53 84.93 5.00 222.43 2653.32
   01:03:17.583.28-May-2021 3649.00 3165.54 84.93 5.00 222.63 2653.32
   01:03:17.783.28-May-2021 3649.00 3165.53 84.93 5.00 222.83 2653.32
   01:03:17.983.28-May-2021 3649.00 3165.53 84.93 5.00 223.03 2653.32
   01:03:18.184.28-May-2021 3649.00 3165.52 84.93 5.00 223.23 2653.32
   01:03:18.384.28-May-2021 3649.00 3165.52 84.93 5.00 223.43 2653.32
   01:03:18.584.28-May-2021 3649.00 3165.53 84.93 5.00 223.63 2653.32
   01:03:18.784.28-May-2021 3649.00 3165.53 84.93 5.00 223.83 2653.32
   01:03:18.984.28-May-2021 3649.00 3165.53 84.93 5.00 224.03 2653.32
   01:03:19.185.28-May-2021 3649.00 3165.53 84.93 5.00 224.23 2653.32
   01:03:19.385.28-May-2021 3649.00 3165.53 84.93 5.00 224.43 2653.32
   01:03:19.585.28-May-2021 3649.00 3165.53 84.93 5.00 224.63 2653.32
   01:03:19.785.28-May-2021 3649.00 3165.53 84.93 5.00 224.83 2653.32
   01:03:19.985.28-May-2021 3649.00 3165.53 84.93 5.00 225.03 2653.32
   01:03:20.186.28-May-2021 3649.00 3165.54 84.93 5.00 225.23 2653.32
   01:03:20.386.28-May-2021 3649.00 3165.54 84.93 5.00 225.43 2653.32
   01:03:20.586.28-May-2021 3649.00 3165.52 84.93 5.00 225.63 2653.32
   01:03:20.786.28-May-2021 3649.00 3165.54 84.93 5.00 225.83 2653.32
   01:03:20.986.28-May-2021 3649.00 3165.54 84.93 5.00 226.04 2653.32
   01:03:21.187.28-May-2021 3649.00 3165.51 84.93 5.00 226.24 2653.32
   01:03:21.387.28-May-2021 3649.00 3165.51 84.93 5.00 226.44 2653.32
   01:03:21.587.28-May-2021 3649.00 3165.53 84.93 5.00 226.64 2653.32
   01:03:21.787.28-May-2021 3649.00 3165.53 84.93 5.00 226.84 2653.32
   01:03:21.988.28-May-2021 3649.00 3165.52 84.93 5.00 227.04 2653.32
   01:03:22.188.28-May-2021 3649.00 3165.53 84.93 5.00 227.24 2653.32
   01:03:22.388.28-May-2021 3649.00 3165.53 84.93 5.00 227.44 2653.32
   01:03:22.588.28-May-2021 3649.00 3165.53 84.93 5.00 227.64 2653.32
   01:03:22.788.28-May-2021 3649.00 3165.53 84.93 5.00 227.84 2653.32
   01:03:22.989.28-May-2021 3649.00 3165.53 84.93 5.00 228.04 2653.32
   01:03:23.189.28-May-2021 3649.00 3165.53 84.93 5.00 228.24 2653.32
   01:03:23.389.28-May-2021 3649.00 3165.53 84.93 5.00 228.44 2653.32
   01:03:23.589.28-May-2021 3649.00 3165.52 84.93 5.00 228.64 2653.32
   01:03:23.789.28-May-2021 3649.00 3165.52 84.93 5.00 228.84 2653.32
   01:03:23.990.28-May-2021 3649.00 3165.54 84.93 5.00 229.04 2653.32
   01:03:24.190.28-May-2021 3649.00 3165.52 84.93 5.00 229.24 2653.32
   01:03:24.390.28-May-2021 3649.00 3165.52 84.93 5.00 229.44 2653.32
   01:03:24.590.28-May-2021 3649.00 3165.52 84.93 5.00 229.64 2653.32
   01:03:24.790.28-May-2021 3649.00 3165.52 84.93 5.00 229.84 2653.32
   01:03:24.991.28-May-2021 3649.00 3165.53 84.93 5.00 230.04 2653.32
