~Version Information
 VERS.                  2.0:   CWLS log ASCII Standard -VERSION 2.0
 WRAP.                   NO:   One line per depth step
~Well Information Block
#MNEM.UNIT     VALUE/NAME     DESCRIPTION
#---------     -----------    ---------------------------
 STRT.S             22:21:57 27-May-21: START TIME 22:21:57 27-May-21
 STOP.S             22:28:58 27-May-21: STOP TIME  22:28:58 27-May-21
 STEP.S                   0.00: STEP TIME
 NULL.                 -999.25: NULL VALUE
 UWI .                     N/A:  UNIQUE WELL IDENTIFIER
 API .                     N/A:  API NUMBER
 UNIT.                     N/A:  LOGGING EQUIPMENT ID
 DCON.         Sperry Drilling:  DIRECTNL CONTR
 DOE .                     N/A:  DOE NUMBER
 MWDS.                    Baku:  MWD SHOP
 SRVC.     Turan Drilling and Engineering:  CONTRACTOR
 CTRY.              Azerbaijan:  COUNTRY NAME
 PROV.                    Baku:  PROVINCE
 STAT.                    Baku:  STATE NAME
 REGN.                   EESSA:  REGION
 BASE.              Azerbaijan:  LOGGING EQUIPMENT BASE LOCATION
 WTYP.                Deviated:  WELL TYPE
 RIG .              East Azeri:  RIG NAME
 WELL.                    D02y:  WELL NAME
 FLD .                     ACG:  FIELD NAME
 COMP.     BP Exploration (Caspian Sea) Ltd.:  COMPANY
 PDAT.          Mean Sea Level:  PERMANENT DATUM
 MDS .        Operator Entered:  MAG DATA SOURCE
 SON .        AZ-XX-0906997291:  JOB NUMBER
 FTOP.          Formation Tops:  FORM TOPS DESC
 ILTD.               Lithology:  INTERP LTH DESC
 SVYD.                  Survey:  SURVEY DESC
 DMOD.             Drill Model:  DRILL MOD DESC
 HPTY.       Minimum Curvature:  HOLE POS TYPE
 NREF.                    Grid:  NORTH REFERENCE
 SPUD.               05-May-21:  SPUD DATE
 DATE.      09.27.28 12-Jun-21:  END TIME
 STIM.      09.27.28 12-May-21:  START TIME
 DMF .             Drill Floor:  DRILL MEAS FROM
 DFST.                        :  DIST FSL TEXT
 DFWT.                        :  DIST FWL TEXT
 CNTY.                        :  COUNTY
 LOC .                        :  LOCATION
 LMF .             Drill Floor:  LOG MEASURED FROM
 DEP .m                2806.40:  DEPTH
 AGAP.m                  43.60:  AIR GAP
 VSNS.m                  -4.42:  VERT SEC N/S
 VSEW.m                  -7.31:  VERT SEC E/W
 APD .m                  43.60:  DEPTH ABOVE PD
 WDMS.m                 151.80:  WD ELEV
 EGL .m                   0.00:  GROUND ELEVATION
 EPD .m                   0.00:  ELEVATION
 AZTC.deg                 6.18:  AZM TOTAL CORR
 GRDC.deg                 0.29:  GRID CORRECTION
 MDEC.deg                 6.47:  MAGNETIC DECL
 MDIP.deg                59.50:  MAGNETIC DIP
 MFLD.nT              50350.00:  MAGNETIC FIELD
 GVFD.g                   1.00:  GRAVITY FIELD
 VSDR.deg               179.08:  VERT SEC DIRECT
 TDD .m                4300.00:  TOTAL DEPTH (DRILLER)
 SDEP.m                2800.00:  START DEPTH
 DFSL.m                   0.00:  DISTANCE FSL
 DFWL.m                   0.00:  DISTANCE FWL
 UTMY.m             4431871.34:  UTM Y
 UTMX.m              538762.90:  UTM X
 WHEW.m                  -7.31:  WELL HEAD E/W
 WHNS.m                  -4.42:  WELL HEAD N/S
 LONG.deg                51.45:  LONGITUDE
 LATI.deg                40.02:  LATITUDE
 TVDS.m                  43.60:  TVDSS CORRECTN
 EKB .m                  43.60:  KB ELEVATION
 EDF .m                  43.60:  DF ELEVATION
 TDL .m                 806.00:  TOTAL DEPTH (LOGGER)
 MAGU.                 1851231:  MAGUTM CHECKSUM
 VSC .                       0:  VS TO CLOSURE
~Parameter Information Block
#MNEM.UNIT       Value        Description
#---------     -----------    ---------------------------
 AV  .mps                 1.60:  Ann Velocity 
 AVMX.mps                 2.00:  Max Ann Veloc 
 AZIF.deg               140.24:  Azm, Final 
 BHAT.        Rotary Steerable:  BHA Type 
 BROT.°/30m               0.50:  Build Rotating 
 BS  .in                  8.50:  Bit Size 
 BTPL.psig              619.00:  Bit Press Loss 
 CABU.                     Yes:  Customer Abuse 
 CGEO.          Ilgar Gurbanov:  Customer Geo 
 COMM.                     ¼ƒj:  Run Comments 1 
 TCS .hr                 85.88:  Time Ciculation Ended 
 CV  .mps                 3.30:  Crit Velocity 
 CVMX.mps                 3.50:  Max Crit Veloc 
 DD1 .           Hamid Axmedov:  Direct Drillr 1 
 DD2 .           Teymur Aliyev:  Direct Drillr 2 
 DDSV.               Geo-Pilot:  DD Service 
 DEFF.%                 100.00:  % Det Eff 
 DLRX.°/30m               0.00:  Dogleg Rot Max 
 DLSO.°/30m               1.80:  Dogleg Oriented 
 DLSX.°/30m               3.34:  Dogleg Str Max 
 DRET.      11.50.00 27-May-21:  Drill End Time 
 DRST.      21.13.00 24-May-21:  Drill Start Tim 
 DTIM.hr                 45.11:  Time Drilling 
 EDEP.m                4054.00:  End Depth 
 ENG1.         Almaz Almadatov:  Engineer 1 
 ENG2.           Amrah Tahirov:  Engineer 2 
 ENG3.      Bakhtiyar Jabbarli:  Engineer 3 
 ENG4.          Nazrin Asgarli:  Engineer 4 
 ETIM.      10.00.00 30-May-21:  End Time 
 FLOI.gpm               530.00:  Flow In 
 FLON.gpm               400.00:  Flow In Min 
 FLOS.cptm                0.00:  Fluid Loss 
 FLOX.gpm               560.00:  Flow In Max 
 DFT .        Mineral Oil Base:  Mud Type 
 FTRO.       Formation Presure:  FTWD Run Obj 
 HFLO.                      No:  High Flow 
 HPRE.                      No:  High Pressure 
 HTEM.                      No:  High Temp 
 HYDO.m                   1.80:  Hydro Offset 
 IFIN.deg                73.83:  Inc, Final 
 IMAX.deg                73.83:  Inc Max 
 IMIN.deg                57.86:  Inc Min 
 IMND.m                3259.27:  Inc Min Depth 
 IMXD.m                4045.58:  Inc Max Depth 
 JARR.                     Yes:  Jarring 
 LETM.      11.50.00 27-May-21:  Log End Time 
 LOST.hr                     0:  Lost Rig Time 
 LSTM.      21.13.00 24-May-21:  Log Start Time 
 MDCL.ppm             42500.00:  Mud Chlorides 
 MDES.     Inversion Oil/Synthetic:  Mud Desc 
 DFD .sg                  1.52:  Mud Density 
 MDMN.sg                  1.52:  Dens Mud Min 
 MDMX.sg                  1.52:  Dens Mud Max 
 MOIL.                      70:  Run Mud Oil % 
 MOWR.                   70:30:  Run Mud OWR 
 MSND.                     0.2:  Run Mud Sand % 
 MSOL.                      22:  Run Mud Solids% 
 DFV .spqt               77.00:  Mud Viscosity 
 MWOD.in                  6.75:  MWD Tool OD 
 MWSI.                      No:  Serv Intrp, MWD 
 OTIM.hr                151.01:  Time Operating 
 PCON.          Wear / Scratch:  Pad Condition 
 PMAX.psia            11296.93:  Press Op, Max 
 PV  .cP                 37.00:  Mud PV 
 RUN .                     500:  Run Number 
 ROPA.m/hr               25.00:  ROP Avg 
 ROPN.m/hr                9.00:  ROP Min 
 ROPX.m/hr               28.00:  ROP Max 
 RPMA.rpm               140.00:  RPM Surface Avg 
 RPMN.rpm                90.00:  RPM Surface Min 
 RPMX.rpm               140.00:  RPM Surface Max 
 RRUN.                    0500:  Rig Run Number 
 SAZI.deg               172.17:  Azm, Start 
 SDEP.m                3248.00:  Start Depth 
 SIDD.                      No:  Serv Intrp, DD 
 SINC.deg                57.86:  Inc, Start 
 SPPA.psig             5620.00:  SPP Avg 
 SPPN.psig             5190.00:  SPP Min 
 SPPX.psig             6050.00:  SPP Max 
 STIM.      16.00.00 23-May-21:  Start Time 
 SVCS.                 DD, MWD:  Services 
 SVER.                    9.20:  Sperry Version 
 TDAT.m                 806.00:  Tot Depth Attmp 
 TDDF.                      No:  Trip for DD 
 TDLG.m                 806.00:  Tot Depth Loggd 
 TFF .                      No:  Trip for Fail 
 TQAA.f-kp               12.00:  Torque Abs Avg 
 TQAN.f-kp                8.00:  Torque Abs Min 
 TQAX.f-kp               15.00:  Torque Abs Max 
 TRRT.°/30m               0.30:  Turn Rotating 
 MRT .                  EWR-M5:  Maximum Recorded Temperature 
 TTMX.degC               93.00:  Max Tool Temp 
 VS01.                90649155:  Virtual Str1 SN 
 VS02.                90642264:  Virtual Str2 SN 
 VS03.                90642266:  Virtual Str3 SN 
 VS04.                90642261:  Virtual Str4 SN 
 WBMN.klb                 0.00:  WOB Min 
 WITN.             Anar Khalil:  Customer Rep 
 WITN.           Murad Guliyev:  Customer Rep 2 
 WOBA.klb                13.00:  WOB Avg 
 WOBX.klb                25.00:  WOB Max 
 YP  .lhf2               32.00:  Yield Point 
~Curve Information Block
#MNEM.UNIT                 API CODE     Curve Description
#---------               -----------    ---------------------------
 TIME.HHMMSS            00 000 000 000:  GT Time & Date
 GTDEPTH.m              00 000 000 000:  GT Depth
 GTPQH.psia             00 000 000 000:  GT HR Quartz Pressure
 GTTQ.degC              00 000 000 000:  GT Quartz Temperature
 GTTN.NONE              00 000 000 000:  GT Test Number
 GTET.sec               00 000 000 000:  GT Elapsed Test Time
 GTTVD.m                00 000 000 000:  GT True Vertical Depth
#Other Information
#
#WARRANTY: Halliburton will use its best efforts to furnish customers with 
#accurate information and interpretations that are part of, and incident to, the services 
#provided.  However, Halliburton cannot and does not warrant the accuracy 
#or correctness of such information and interpretations.  Under no circumstances should any 
#such information or interpretation be relied upon as the sole basis for any drilling, 
#completion, production, or financial decision or any procedure involving any risk to the 
#safety of any drilling venture, drilling rig or its crew or any other third party.  The 
#Customer has full responsibility for all drilling, completion and production operation.  
#Halliburton makes no representations or warranties, either expressed or 
#implied, including, but not limited to, the implied warranties of merchantability or fitness 
#for a particular purpose, with respect to the services rendered.  In no event will 
#Halliburton be liable for failure to obtain any particular results or for 
#any damages, including, but not limited to, indirect, special or consequential damages, 
#resulting from the use of any information or interpretation provided by Halliburton.
#
~A           TIME           GTDEPTH  GTPQH  GTTQ  GTTN  GTET   GTTVD  
# ...
   22:25:24.738.27-May-2021 3723.00 3141.45 84.31 1.00 207.03 2680.40
   22:25:24.938.27-May-2021 3723.00 3141.45 84.31 1.00 207.23 2680.40
   22:25:25.138.27-May-2021 3723.00 3141.46 84.31 1.00 207.43 2680.40
   22:25:25.338.27-May-2021 3723.00 3141.46 84.31 1.00 207.63 2680.40
   22:25:25.538.27-May-2021 3723.00 3141.46 84.31 1.00 207.83 2680.40
   22:25:25.738.27-May-2021 3723.00 3141.46 84.31 1.00 208.03 2680.40
   22:25:25.938.27-May-2021 3723.00 3141.46 84.31 1.00 208.23 2680.40
   22:25:26.139.27-May-2021 3723.00 3141.46 84.31 1.00 208.43 2680.40
   22:25:26.339.27-May-2021 3723.00 3141.32 84.31 1.00 208.63 2680.40
   22:25:26.539.27-May-2021 3723.00 3141.59 84.31 1.00 208.83 2680.40
   22:25:26.739.27-May-2021 3723.00 3141.45 84.31 1.00 209.03 2680.40
   22:25:26.939.27-May-2021 3723.00 3141.45 84.31 1.00 209.23 2680.40
   22:25:27.139.27-May-2021 3723.00 3141.60 84.31 1.00 209.43 2680.40
   22:25:27.339.27-May-2021 3723.00 3141.44 84.31 1.00 209.63 2680.40
   22:25:27.539.27-May-2021 3723.00 3141.45 84.31 1.00 209.83 2680.40
   22:25:27.739.27-May-2021 3723.00 3141.46 84.31 1.00 210.03 2680.40
   22:25:27.939.27-May-2021 3723.00 3141.46 84.31 1.00 210.23 2680.40
   22:25:28.139.27-May-2021 3723.00 3141.44 84.31 1.00 210.43 2680.40
   22:25:28.339.27-May-2021 3723.00 3141.45 84.31 1.00 210.63 2680.40
   22:25:28.539.27-May-2021 3723.00 3141.44 84.31 1.00 210.83 2680.40
   22:25:28.739.27-May-2021 3723.00 3141.45 84.31 1.00 211.03 2680.40
   22:25:28.939.27-May-2021 3723.00 3141.45 84.31 1.00 211.23 2680.40
   22:25:29.139.27-May-2021 3723.00 3141.34 84.31 1.00 211.43 2680.40
   22:25:29.339.27-May-2021 3723.00 3141.56 84.31 1.00 211.63 2680.40
   22:25:29.539.27-May-2021 3723.00 3141.45 84.31 1.00 211.83 2680.40
   22:25:29.739.27-May-2021 3723.00 3141.46 84.31 1.00 212.03 2680.40
   22:25:29.939.27-May-2021 3723.00 3141.46 84.31 1.00 212.23 2680.40
   22:25:30.139.27-May-2021 3723.00 3141.45 84.31 1.00 212.43 2680.40
   22:25:30.339.27-May-2021 3723.00 3141.44 84.31 1.00 212.63 2680.40
   22:25:30.539.27-May-2021 3723.00 3141.44 84.31 1.00 212.83 2680.40
   22:25:30.739.27-May-2021 3723.00 3141.45 84.31 1.00 213.03 2680.40
   22:25:30.939.27-May-2021 3723.00 3141.45 84.31 1.00 213.23 2680.40
   22:25:31.139.27-May-2021 3723.00 3141.45 84.31 1.00 213.43 2680.40
   22:25:31.339.27-May-2021 3723.00 3141.45 84.31 1.00 213.63 2680.40
   22:25:31.539.27-May-2021 3723.00 3141.44 84.31 1.00 213.83 2680.40
   22:25:31.739.27-May-2021 3723.00 3141.33 84.31 1.00 214.03 2680.40
   22:25:31.939.27-May-2021 3723.00 3141.33 84.31 1.00 214.23 2680.40
   22:25:32.139.27-May-2021 3723.00 3141.43 84.31 1.00 214.43 2680.40
   22:25:32.340.27-May-2021 3723.00 3141.46 84.31 1.00 214.63 2680.40
   22:25:32.540.27-May-2021 3723.00 3141.43 84.31 1.00 214.83 2680.40
   22:25:32.740.27-May-2021 3723.00 3141.44 84.31 1.00 215.03 2680.40
   22:25:32.940.27-May-2021 3723.00 3141.44 84.31 1.00 215.24 2680.40
   22:25:33.140.27-May-2021 3723.00 3141.44 84.31 1.00 215.44 2680.40
   22:25:33.340.27-May-2021 3723.00 3141.45 84.31 1.00 215.64 2680.40
   22:25:33.540.27-May-2021 3723.00 3141.44 84.31 1.00 215.84 2680.40
   22:25:33.740.27-May-2021 3723.00 3141.44 84.31 1.00 216.04 2680.40
   22:25:33.940.27-May-2021 3723.00 3141.44 84.31 1.00 216.24 2680.40
   22:25:34.140.27-May-2021 3723.00 3141.44 84.31 1.00 216.44 2680.40
   22:25:34.340.27-May-2021 3723.00 3141.32 84.31 1.00 216.64 2680.40
   22:25:34.540.27-May-2021 3723.00 3141.56 84.31 1.00 216.84 2680.40
   22:25:34.740.27-May-2021 3723.00 3141.44 84.31 1.00 217.04 2680.40
   22:25:34.940.27-May-2021 3723.00 3141.44 84.31 1.00 217.24 2680.40
   22:25:35.140.27-May-2021 3723.00 3141.55 84.31 1.00 217.44 2680.40
   22:25:35.340.27-May-2021 3723.00 3141.43 84.31 1.00 217.64 2680.40
   22:25:35.540.27-May-2021 3723.00 3141.44 84.31 1.00 217.84 2680.40
   22:25:35.740.27-May-2021 3723.00 3141.43 84.31 1.00 218.04 2680.40
   22:25:35.940.27-May-2021 3723.00 3141.43 84.31 1.00 218.24 2680.40
   22:25:36.140.27-May-2021 3723.00 3141.57 84.31 1.00 218.44 2680.40
   22:25:36.340.27-May-2021 3723.00 3141.43 84.31 1.00 218.64 2680.40
   22:25:36.540.27-May-2021 3723.00 3141.43 84.31 1.00 218.84 2680.40
   22:25:36.740.27-May-2021 3723.00 3141.44 84.31 1.00 219.04 2680.40
   22:25:36.940.27-May-2021 3723.00 3141.44 84.31 1.00 219.24 2680.40
   22:25:37.140.27-May-2021 3723.00 3141.31 84.31 1.00 219.44 2680.40
   22:25:37.340.27-May-2021 3723.00 3141.55 84.31 1.00 219.64 2680.40
   22:25:37.540.27-May-2021 3723.00 3141.44 84.31 1.00 219.84 2680.40
   22:25:37.740.27-May-2021 3723.00 3141.44 84.31 1.00 220.04 2680.40
   22:25:37.940.27-May-2021 3723.00 3141.44 84.31 1.00 220.24 2680.40
   22:25:38.140.27-May-2021 3723.00 3141.43 84.31 1.00 220.44 2680.40
   22:25:38.340.27-May-2021 3723.00 3141.43 84.31 1.00 220.64 2680.40
   22:25:38.541.27-May-2021 3723.00 3141.43 84.31 1.00 220.84 2680.40
   22:25:38.741.27-May-2021 3723.00 3141.44 84.31 1.00 221.04 2680.40
   22:25:38.941.27-May-2021 3723.00 3141.44 84.31 1.00 221.24 2680.40
   22:25:39.141.27-May-2021 3723.00 3141.43 84.31 1.00 221.44 2680.40
   22:25:39.341.27-May-2021 3723.00 3141.43 84.31 1.00 221.64 2680.40
   22:25:39.541.27-May-2021 3723.00 3141.43 84.31 1.00 221.84 2680.40
   22:25:39.741.27-May-2021 3723.00 3141.32 84.31 1.00 222.04 2680.40
   22:25:39.941.27-May-2021 3723.00 3141.32 84.31 1.00 222.24 2680.40
   22:25:40.141.27-May-2021 3723.00 3141.42 84.31 1.00 222.44 2680.40
   22:25:40.341.27-May-2021 3723.00 3141.45 84.31 1.00 222.64 2680.40
   22:25:40.541.27-May-2021 3723.00 3141.41 84.31 1.00 222.84 2680.40
   22:25:40.741.27-May-2021 3723.00 3141.43 84.31 1.00 223.04 2680.40
   22:25:40.941.27-May-2021 3723.00 3141.43 84.31 1.00 223.24 2680.40
   22:25:41.141.27-May-2021 3723.00 3141.43 84.31 1.00 223.44 2680.40
   22:25:41.341.27-May-2021 3723.00 3141.44 84.31 1.00 223.64 2680.40
   22:25:41.541.27-May-2021 3723.00 3141.43 84.31 1.00 223.84 2680.40
   22:25:41.741.27-May-2021 3723.00 3141.43 84.31 1.00 224.04 2680.40
   22:25:41.941.27-May-2021 3723.00 3141.43 84.31 1.00 224.24 2680.40
   22:25:42.141.27-May-2021 3723.00 3141.44 84.31 1.00 224.44 2680.40
   22:25:42.341.27-May-2021 3723.00 3141.31 84.31 1.00 224.64 2680.40
   22:25:42.541.27-May-2021 3723.00 3141.54 84.31 1.00 224.84 2680.40
   22:25:42.741.27-May-2021 3723.00 3141.43 84.31 1.00 225.04 2680.40
   22:25:42.941.27-May-2021 3723.00 3141.43 84.31 1.00 225.24 2680.40
   22:25:43.141.27-May-2021 3723.00 3141.53 84.31 1.00 225.44 2680.40
   22:25:43.341.27-May-2021 3723.00 3141.42 84.31 1.00 225.64 2680.40
   22:25:43.541.27-May-2021 3723.00 3141.43 84.31 1.00 225.84 2680.40
   22:25:43.741.27-May-2021 3723.00 3141.42 84.31 1.00 226.04 2680.40
   22:25:43.941.27-May-2021 3723.00 3141.42 84.31 1.00 226.24 2680.40
   22:25:44.141.27-May-2021 3723.00 3141.53 84.31 1.00 226.44 2680.40
   22:25:44.341.27-May-2021 3723.00 3141.43 84.31 1.00 226.64 2680.40
   22:25:44.542.27-May-2021 3723.00 3141.43 84.31 1.00 226.84 2680.40
   22:25:44.742.27-May-2021 3723.00 3141.42 84.31 1.00 227.04 2680.40
   22:25:44.942.27-May-2021 3723.00 3141.42 84.31 1.00 227.24 2680.40
   22:25:45.142.27-May-2021 3723.00 3141.45 84.31 1.00 227.44 2680.40
   22:25:45.342.27-May-2021 3723.00 3141.39 84.31 1.00 227.64 2680.40
   22:25:45.542.27-May-2021 3723.00 3141.42 84.31 1.00 227.84 2680.40
   22:25:45.742.27-May-2021 3723.00 3141.41 84.31 1.00 228.04 2680.40
   22:25:45.942.27-May-2021 3723.00 3141.41 84.31 1.00 228.24 2680.40
   22:25:46.142.27-May-2021 3723.00 3141.42 84.31 1.00 228.44 2680.40
   22:25:46.342.27-May-2021 3723.00 3141.41 84.31 1.00 228.64 2680.40
   22:25:46.542.27-May-2021 3723.00 3141.42 84.31 1.00 228.84 2680.40
   22:25:46.742.27-May-2021 3723.00 3141.42 84.31 1.00 229.04 2680.40
   22:25:46.942.27-May-2021 3723.00 3141.42 84.31 1.00 229.24 2680.40
   22:25:47.142.27-May-2021 3723.00 3141.43 84.31 1.00 229.44 2680.40
   22:25:47.342.27-May-2021 3723.00 3141.41 84.31 1.00 229.64 2680.40
   22:25:47.542.27-May-2021 3723.00 3141.42 84.31 1.00 229.84 2680.40
