~Version Information
 VERS.                  2.0:   CWLS log ASCII Standard -VERSION 2.0
 WRAP.                   NO:   One line per depth step
~Well Information Block
#MNEM.UNIT     VALUE/NAME     DESCRIPTION
#---------     -----------    ---------------------------
 STRT.S             06:06:39 28-May-21: START TIME 06:06:39 28-May-21
 STOP.S             06:13:42 28-May-21: STOP TIME  06:13:42 28-May-21
 STEP.S                   0.00: STEP TIME
 NULL.                 -999.25: NULL VALUE
 UWI .                     N/A:  UNIQUE WELL IDENTIFIER
 API .                     N/A:  API NUMBER
 UNIT.                     N/A:  LOGGING EQUIPMENT ID
 DCON.         Sperry Drilling:  DIRECTNL CONTR
 DOE .                     N/A:  DOE NUMBER
 MWDS.                    Baku:  MWD SHOP
 SRVC.     Turan Drilling and Engineering:  CONTRACTOR
 CTRY.              Azerbaijan:  COUNTRY NAME
 PROV.                    Baku:  PROVINCE
 STAT.                    Baku:  STATE NAME
 REGN.                   EESSA:  REGION
 BASE.              Azerbaijan:  LOGGING EQUIPMENT BASE LOCATION
 WTYP.                Deviated:  WELL TYPE
 RIG .              East Azeri:  RIG NAME
 WELL.                    D02y:  WELL NAME
 FLD .                     ACG:  FIELD NAME
 COMP.     BP Exploration (Caspian Sea) Ltd.:  COMPANY
 PDAT.          Mean Sea Level:  PERMANENT DATUM
 MDS .        Operator Entered:  MAG DATA SOURCE
 SON .        AZ-XX-0906997291:  JOB NUMBER
 FTOP.          Formation Tops:  FORM TOPS DESC
 ILTD.               Lithology:  INTERP LTH DESC
 SVYD.                  Survey:  SURVEY DESC
 DMOD.             Drill Model:  DRILL MOD DESC
 HPTY.       Minimum Curvature:  HOLE POS TYPE
 NREF.                    Grid:  NORTH REFERENCE
 SPUD.               05-May-21:  SPUD DATE
 DATE.      09.27.28 12-Jun-21:  END TIME
 STIM.      09.27.28 12-May-21:  START TIME
 DMF .             Drill Floor:  DRILL MEAS FROM
 DFST.                        :  DIST FSL TEXT
 DFWT.                        :  DIST FWL TEXT
 CNTY.                        :  COUNTY
 LOC .                        :  LOCATION
 LMF .             Drill Floor:  LOG MEASURED FROM
 DEP .m                2806.40:  DEPTH
 AGAP.m                  43.60:  AIR GAP
 VSNS.m                  -4.42:  VERT SEC N/S
 VSEW.m                  -7.31:  VERT SEC E/W
 APD .m                  43.60:  DEPTH ABOVE PD
 WDMS.m                 151.80:  WD ELEV
 EGL .m                   0.00:  GROUND ELEVATION
 EPD .m                   0.00:  ELEVATION
 AZTC.deg                 6.18:  AZM TOTAL CORR
 GRDC.deg                 0.29:  GRID CORRECTION
 MDEC.deg                 6.47:  MAGNETIC DECL
 MDIP.deg                59.50:  MAGNETIC DIP
 MFLD.nT              50350.00:  MAGNETIC FIELD
 GVFD.g                   1.00:  GRAVITY FIELD
 VSDR.deg               179.08:  VERT SEC DIRECT
 TDD .m                4300.00:  TOTAL DEPTH (DRILLER)
 SDEP.m                2800.00:  START DEPTH
 DFSL.m                   0.00:  DISTANCE FSL
 DFWL.m                   0.00:  DISTANCE FWL
 UTMY.m             4431871.34:  UTM Y
 UTMX.m              538762.90:  UTM X
 WHEW.m                  -7.31:  WELL HEAD E/W
 WHNS.m                  -4.42:  WELL HEAD N/S
 LONG.deg                51.45:  LONGITUDE
 LATI.deg                40.02:  LATITUDE
 TVDS.m                  43.60:  TVDSS CORRECTN
 EKB .m                  43.60:  KB ELEVATION
 EDF .m                  43.60:  DF ELEVATION
 TDL .m                 806.00:  TOTAL DEPTH (LOGGER)
 MAGU.                 1851231:  MAGUTM CHECKSUM
 VSC .                       0:  VS TO CLOSURE
~Parameter Information Block
#MNEM.UNIT       Value        Description
#---------     -----------    ---------------------------
 AV  .mps                 1.60:  Ann Velocity 
 AVMX.mps                 2.00:  Max Ann Veloc 
 AZIF.deg               140.24:  Azm, Final 
 BHAT.        Rotary Steerable:  BHA Type 
 BROT.°/30m               0.50:  Build Rotating 
 BS  .in                  8.50:  Bit Size 
 BTPL.psig              619.00:  Bit Press Loss 
 CABU.                     Yes:  Customer Abuse 
 CGEO.          Ilgar Gurbanov:  Customer Geo 
 COMM.                     ´.T:  Run Comments 1 
 TCS .hr                 85.88:  Time Ciculation Ended 
 CV  .mps                 3.30:  Crit Velocity 
 CVMX.mps                 3.50:  Max Crit Veloc 
 DD1 .           Hamid Axmedov:  Direct Drillr 1 
 DD2 .           Teymur Aliyev:  Direct Drillr 2 
 DDSV.               Geo-Pilot:  DD Service 
 DEFF.%                 100.00:  % Det Eff 
 DLRX.°/30m               0.00:  Dogleg Rot Max 
 DLSO.°/30m               1.80:  Dogleg Oriented 
 DLSX.°/30m               3.34:  Dogleg Str Max 
 DRET.      11.50.00 27-May-21:  Drill End Time 
 DRST.      21.13.00 24-May-21:  Drill Start Tim 
 DTIM.hr                 45.11:  Time Drilling 
 EDEP.m                4054.00:  End Depth 
 ENG1.         Almaz Almadatov:  Engineer 1 
 ENG2.           Amrah Tahirov:  Engineer 2 
 ENG3.      Bakhtiyar Jabbarli:  Engineer 3 
 ENG4.          Nazrin Asgarli:  Engineer 4 
 ETIM.      10.00.00 30-May-21:  End Time 
 FLOI.gpm               530.00:  Flow In 
 FLON.gpm               400.00:  Flow In Min 
 FLOS.cptm                0.00:  Fluid Loss 
 FLOX.gpm               560.00:  Flow In Max 
 DFT .        Mineral Oil Base:  Mud Type 
 FTRO.       Formation Presure:  FTWD Run Obj 
 HFLO.                      No:  High Flow 
 HPRE.                      No:  High Pressure 
 HTEM.                      No:  High Temp 
 HYDO.m                   1.80:  Hydro Offset 
 IFIN.deg                73.83:  Inc, Final 
 IMAX.deg                73.83:  Inc Max 
 IMIN.deg                57.86:  Inc Min 
 IMND.m                3259.27:  Inc Min Depth 
 IMXD.m                4045.58:  Inc Max Depth 
 JARR.                     Yes:  Jarring 
 LETM.      11.50.00 27-May-21:  Log End Time 
 LOST.hr                     0:  Lost Rig Time 
 LSTM.      21.13.00 24-May-21:  Log Start Time 
 MDCL.ppm             42500.00:  Mud Chlorides 
 MDES.     Inversion Oil/Synthetic:  Mud Desc 
 DFD .sg                  1.52:  Mud Density 
 MDMN.sg                  1.52:  Dens Mud Min 
 MDMX.sg                  1.52:  Dens Mud Max 
 MOIL.                      70:  Run Mud Oil % 
 MOWR.                   70:30:  Run Mud OWR 
 MSND.                     0.2:  Run Mud Sand % 
 MSOL.                      22:  Run Mud Solids% 
 DFV .spqt               77.00:  Mud Viscosity 
 MWOD.in                  6.75:  MWD Tool OD 
 MWSI.                      No:  Serv Intrp, MWD 
 OTIM.hr                151.01:  Time Operating 
 PCON.          Wear / Scratch:  Pad Condition 
 PMAX.psia            11296.93:  Press Op, Max 
 PV  .cP                 37.00:  Mud PV 
 RUN .                     500:  Run Number 
 ROPA.m/hr               25.00:  ROP Avg 
 ROPN.m/hr                9.00:  ROP Min 
 ROPX.m/hr               28.00:  ROP Max 
 RPMA.rpm               140.00:  RPM Surface Avg 
 RPMN.rpm                90.00:  RPM Surface Min 
 RPMX.rpm               140.00:  RPM Surface Max 
 RRUN.                    0500:  Rig Run Number 
 SAZI.deg               172.17:  Azm, Start 
 SDEP.m                3248.00:  Start Depth 
 SIDD.                      No:  Serv Intrp, DD 
 SINC.deg                57.86:  Inc, Start 
 SPPA.psig             5620.00:  SPP Avg 
 SPPN.psig             5190.00:  SPP Min 
 SPPX.psig             6050.00:  SPP Max 
 STIM.      16.00.00 23-May-21:  Start Time 
 SVCS.                 DD, MWD:  Services 
 SVER.                    9.20:  Sperry Version 
 TDAT.m                 806.00:  Tot Depth Attmp 
 TDDF.                      No:  Trip for DD 
 TDLG.m                 806.00:  Tot Depth Loggd 
 TFF .                      No:  Trip for Fail 
 TQAA.f-kp               12.00:  Torque Abs Avg 
 TQAN.f-kp                8.00:  Torque Abs Min 
 TQAX.f-kp               15.00:  Torque Abs Max 
 TRRT.°/30m               0.30:  Turn Rotating 
 MRT .                  EWR-M5:  Maximum Recorded Temperature 
 TTMX.degC               93.00:  Max Tool Temp 
 VS01.                90649155:  Virtual Str1 SN 
 VS02.                90642264:  Virtual Str2 SN 
 VS03.                90642266:  Virtual Str3 SN 
 VS04.                90642261:  Virtual Str4 SN 
 WBMN.klb                 0.00:  WOB Min 
 WITN.             Anar Khalil:  Customer Rep 
 WITN.           Murad Guliyev:  Customer Rep 2 
 WOBA.klb                13.00:  WOB Avg 
 WOBX.klb                25.00:  WOB Max 
 YP  .lhf2               32.00:  Yield Point 
~Curve Information Block
#MNEM.UNIT                 API CODE     Curve Description
#---------               -----------    ---------------------------
 TIME.HHMMSS            00 000 000 000:  GT Time & Date
 GTDEPTH.m              00 000 000 000:  GT Depth
 GTPQH.psia             00 000 000 000:  GT HR Quartz Pressure
 GTTQ.degC              00 000 000 000:  GT Quartz Temperature
 GTTN.NONE              00 000 000 000:  GT Test Number
 GTET.sec               00 000 000 000:  GT Elapsed Test Time
 GTTVD.m                00 000 000 000:  GT True Vertical Depth
#Other Information
#
#WARRANTY: Halliburton will use its best efforts to furnish customers with 
#accurate information and interpretations that are part of, and incident to, the services 
#provided.  However, Halliburton cannot and does not warrant the accuracy 
#or correctness of such information and interpretations.  Under no circumstances should any 
#such information or interpretation be relied upon as the sole basis for any drilling, 
#completion, production, or financial decision or any procedure involving any risk to the 
#safety of any drilling venture, drilling rig or its crew or any other third party.  The 
#Customer has full responsibility for all drilling, completion and production operation.  
#Halliburton makes no representations or warranties, either expressed or 
#implied, including, but not limited to, the implied warranties of merchantability or fitness 
#for a particular purpose, with respect to the services rendered.  In no event will 
#Halliburton be liable for failure to obtain any particular results or for 
#any damages, including, but not limited to, indirect, special or consequential damages, 
#resulting from the use of any information or interpretation provided by Halliburton.
#
~A           TIME           GTDEPTH  GTPQH  GTTQ  GTTN   GTET   GTTVD  
# ...
   06:11:10.543.28-May-2021 3440.00 4240.83 83.28 12.00 271.31 2569.12
   06:11:10.744.28-May-2021 3440.00 4241.61 83.28 12.00 271.51 2569.12
   06:11:10.944.28-May-2021 3440.00 4241.56 83.28 12.00 271.71 2569.12
   06:11:11.144.28-May-2021 3440.00 4241.55 83.28 12.00 271.91 2569.12
   06:11:11.344.28-May-2021 3440.00 4241.63 83.29 12.00 272.11 2569.12
   06:11:11.544.28-May-2021 3440.00 4241.63 83.29 12.00 272.31 2569.12
   06:11:11.744.28-May-2021 3440.00 4241.24 83.29 12.00 272.51 2569.12
   06:11:11.944.28-May-2021 3440.00 4242.25 83.29 12.00 272.71 2569.12
   06:11:12.144.28-May-2021 3440.00 4241.85 83.29 12.00 272.91 2569.12
   06:11:12.344.28-May-2021 3440.00 4241.47 83.29 12.00 273.11 2569.12
   06:11:12.544.28-May-2021 3440.00 4241.47 83.29 12.00 273.31 2569.12
   06:11:12.744.28-May-2021 3440.00 4242.35 83.29 12.00 273.51 2569.12
   06:11:12.944.28-May-2021 3440.00 4241.97 83.29 12.00 273.71 2569.12
   06:11:13.145.28-May-2021 3440.00 4241.67 83.29 12.00 273.91 2569.12
   06:11:13.345.28-May-2021 3440.00 4242.28 83.29 12.00 274.11 2569.12
   06:11:13.545.28-May-2021 3440.00 4242.28 83.29 12.00 274.31 2569.12
   06:11:13.745.28-May-2021 3440.00 4242.04 83.29 12.00 274.51 2569.12
   06:11:13.945.28-May-2021 3440.00 4242.08 83.29 12.00 274.71 2569.12
   06:11:14.145.28-May-2021 3440.00 4242.05 83.29 12.00 274.91 2569.12
   06:11:14.345.28-May-2021 3440.00 4242.08 83.29 12.00 275.11 2569.12
   06:11:14.545.28-May-2021 3440.00 4242.08 83.29 12.00 275.32 2569.12
   06:11:14.745.28-May-2021 3440.00 4242.07 83.29 12.00 275.52 2569.12
   06:11:14.945.28-May-2021 3440.00 4242.07 83.29 12.00 275.72 2569.12
   06:11:15.145.28-May-2021 3440.00 4242.07 83.29 12.00 275.92 2569.12
   06:11:15.345.28-May-2021 3440.00 4242.07 83.29 12.00 276.12 2569.12
   06:11:15.546.28-May-2021 3440.00 4242.07 83.29 12.00 276.32 2569.12
   06:11:15.746.28-May-2021 3440.00 4241.67 83.29 12.00 276.52 2569.12
   06:11:15.946.28-May-2021 3440.00 4242.61 83.29 12.00 276.72 2569.12
   06:11:16.146.28-May-2021 3440.00 4242.20 83.29 12.00 276.92 2569.12
   06:11:16.346.28-May-2021 3440.00 4242.20 83.29 12.00 277.12 2569.12
   06:11:16.546.28-May-2021 3440.00 4242.20 83.29 12.00 277.32 2569.12
   06:11:16.746.28-May-2021 3440.00 4242.19 83.29 12.00 277.52 2569.12
   06:11:16.946.28-May-2021 3440.00 4242.19 83.29 12.00 277.72 2569.12
   06:11:17.146.28-May-2021 3440.00 4242.20 83.29 12.00 277.92 2569.12
   06:11:17.346.28-May-2021 3440.00 4242.20 83.29 12.00 278.12 2569.12
   06:11:17.546.28-May-2021 3440.00 4242.20 83.29 12.00 278.32 2569.12
   06:11:17.746.28-May-2021 3440.00 4242.20 83.29 12.00 278.52 2569.12
   06:11:17.947.28-May-2021 3440.00 4242.20 83.29 12.00 278.72 2569.12
   06:11:18.147.28-May-2021 3440.00 4242.19 83.29 12.00 278.92 2569.12
   06:11:18.347.28-May-2021 3440.00 4241.92 83.29 12.00 279.12 2569.12
   06:11:18.547.28-May-2021 3440.00 4241.92 83.29 12.00 279.32 2569.12
   06:11:18.747.28-May-2021 3440.00 4242.28 83.29 12.00 279.52 2569.12
   06:11:18.947.28-May-2021 3440.00 4242.28 83.29 12.00 279.72 2569.12
   06:11:19.147.28-May-2021 3440.00 4242.30 83.29 12.00 279.92 2569.12
   06:11:19.347.28-May-2021 3440.00 4242.26 83.29 12.00 280.12 2569.12
   06:11:19.547.28-May-2021 3440.00 4242.26 83.29 12.00 280.32 2569.12
   06:11:19.747.28-May-2021 3440.00 4242.33 83.29 12.00 280.52 2569.12
   06:11:19.947.28-May-2021 3440.00 4242.28 83.29 12.00 280.72 2569.12
   06:11:20.147.28-May-2021 3440.00 4241.92 83.29 12.00 280.92 2569.12
   06:11:20.348.28-May-2021 3440.00 4242.75 83.29 12.00 281.12 2569.12
   06:11:20.548.28-May-2021 3440.00 4242.75 83.29 12.00 281.32 2569.12
   06:11:20.748.28-May-2021 3440.00 4241.95 83.29 12.00 281.52 2569.12
   06:11:20.948.28-May-2021 3440.00 4242.75 83.29 12.00 281.72 2569.12
   06:11:21.148.28-May-2021 3440.00 4242.32 83.29 12.00 281.92 2569.12
   06:11:21.348.28-May-2021 3440.00 4242.37 83.29 12.00 282.12 2569.12
   06:11:21.548.28-May-2021 3440.00 4242.37 83.29 12.00 282.32 2569.12
   06:11:21.748.28-May-2021 3440.00 4242.32 83.29 12.00 282.52 2569.12
   06:11:21.948.28-May-2021 3440.00 4242.37 83.29 12.00 282.72 2569.12
   06:11:22.148.28-May-2021 3440.00 4242.34 83.29 12.00 282.92 2569.12
   06:11:22.348.28-May-2021 3440.00 4242.35 83.30 12.00 283.12 2569.12
   06:11:22.548.28-May-2021 3440.00 4242.35 83.30 12.00 283.32 2569.12
   06:11:22.749.28-May-2021 3440.00 4242.34 83.30 12.00 283.52 2569.12
   06:11:22.949.28-May-2021 3440.00 4242.36 83.30 12.00 283.72 2569.12
   06:11:23.149.28-May-2021 3440.00 4242.35 83.30 12.00 283.92 2569.12
   06:11:23.349.28-May-2021 3440.00 4242.22 83.30 12.00 284.12 2569.12
   06:11:23.549.28-May-2021 3440.00 4242.22 83.30 12.00 284.32 2569.12
   06:11:23.749.28-May-2021 3440.00 4242.38 83.30 12.00 284.52 2569.12
   06:11:23.949.28-May-2021 3440.00 4242.38 83.30 12.00 284.72 2569.12
   06:11:24.149.28-May-2021 3440.00 4242.36 83.30 12.00 284.92 2569.12
   06:11:24.349.28-May-2021 3440.00 4242.38 83.30 12.00 285.12 2569.12
   06:11:24.549.28-May-2021 3440.00 4242.38 83.30 12.00 285.32 2569.12
   06:11:24.749.28-May-2021 3440.00 4242.38 83.30 12.00 285.52 2569.12
   06:11:24.949.28-May-2021 3440.00 4242.39 83.30 12.00 285.72 2569.12
   06:11:25.150.28-May-2021 3440.00 4242.38 83.30 12.00 285.92 2569.12
   06:11:25.350.28-May-2021 3440.00 4242.39 83.30 12.00 286.12 2569.12
   06:11:25.550.28-May-2021 3440.00 4242.39 83.30 12.00 286.32 2569.12
   06:11:25.750.28-May-2021 3440.00 4242.37 83.30 12.00 286.52 2569.12
   06:11:25.950.28-May-2021 3440.00 4241.95 83.30 12.00 286.72 2569.12
   06:11:26.150.28-May-2021 3440.00 4242.84 83.30 12.00 286.92 2569.12
   06:11:26.350.28-May-2021 3440.00 4242.38 83.30 12.00 287.12 2569.12
   06:11:26.550.28-May-2021 3440.00 4242.38 83.30 12.00 287.32 2569.12
   06:11:26.750.28-May-2021 3440.00 4242.41 83.30 12.00 287.52 2569.12
   06:11:26.950.28-May-2021 3440.00 4241.93 83.30 12.00 287.72 2569.12
   06:11:27.150.28-May-2021 3440.00 4242.87 83.30 12.00 287.92 2569.12
   06:11:27.350.28-May-2021 3440.00 4242.43 83.30 12.00 288.12 2569.12
   06:11:27.551.28-May-2021 3440.00 4242.43 83.30 12.00 288.32 2569.12
   06:11:27.751.28-May-2021 3440.00 4242.27 83.30 12.00 288.52 2569.12
   06:11:27.951.28-May-2021 3440.00 4242.54 83.30 12.00 288.72 2569.12
   06:11:28.151.28-May-2021 3440.00 4242.41 83.30 12.00 288.92 2569.12
   06:11:28.351.28-May-2021 3440.00 4242.45 83.30 12.00 289.12 2569.12
   06:11:28.551.28-May-2021 3440.00 4242.45 83.30 12.00 289.32 2569.12
   06:11:28.751.28-May-2021 3440.00 4242.54 83.30 12.00 289.52 2569.12
   06:11:28.951.28-May-2021 3440.00 4242.43 83.30 12.00 289.72 2569.12
   06:11:29.151.28-May-2021 3440.00 4242.46 83.30 12.00 289.92 2569.12
   06:11:29.351.28-May-2021 3440.00 4242.39 83.30 12.00 290.12 2569.12
   06:11:29.551.28-May-2021 3440.00 4242.39 83.30 12.00 290.32 2569.12
   06:11:29.751.28-May-2021 3440.00 4242.43 83.30 12.00 290.52 2569.12
   06:11:29.952.28-May-2021 3440.00 4242.43 83.30 12.00 290.72 2569.12
   06:11:30.152.28-May-2021 3440.00 4242.44 83.30 12.00 290.92 2569.12
   06:11:30.352.28-May-2021 3440.00 4242.44 83.30 12.00 291.12 2569.12
   06:11:30.552.28-May-2021 3440.00 4242.44 83.30 12.00 291.32 2569.12
   06:11:30.752.28-May-2021 3440.00 4242.44 83.30 12.00 291.52 2569.12
   06:11:30.952.28-May-2021 3440.00 4242.14 83.30 12.00 291.72 2569.12
   06:11:31.152.28-May-2021 3440.00 4242.72 83.30 12.00 291.92 2569.12
   06:11:31.352.28-May-2021 3440.00 4242.48 83.30 12.00 292.12 2569.12
   06:11:31.552.28-May-2021 3440.00 4242.48 83.30 12.00 292.32 2569.12
   06:11:31.752.28-May-2021 3440.00 4242.45 83.30 12.00 292.52 2569.12
   06:11:31.952.28-May-2021 3440.00 4242.44 83.30 12.00 292.72 2569.12
   06:11:32.152.28-May-2021 3440.00 4242.45 83.30 12.00 292.92 2569.12
   06:11:32.353.28-May-2021 3440.00 4242.44 83.30 12.00 293.12 2569.12
   06:11:32.553.28-May-2021 3440.00 4242.44 83.30 12.00 293.32 2569.12
   06:11:32.753.28-May-2021 3440.00 4242.44 83.30 12.00 293.52 2569.12
   06:11:32.953.28-May-2021 3440.00 4242.45 83.30 12.00 293.72 2569.12
