~Version Information
 VERS.                  2.0:   CWLS log ASCII Standard -VERSION 2.0
 WRAP.                   NO:   One line per depth step
~Well Information Block
#MNEM.UNIT     VALUE/NAME     DESCRIPTION
#---------     -----------    ---------------------------
 STRT.S             06:06:39 28-May-21: START TIME 06:06:39 28-May-21
 STOP.S             06:13:42 28-May-21: STOP TIME  06:13:42 28-May-21
 STEP.S                   0.00: STEP TIME
 NULL.                 -999.25: NULL VALUE
 UWI .                     N/A:  UNIQUE WELL IDENTIFIER
 API .                     N/A:  API NUMBER
 UNIT.                     N/A:  LOGGING EQUIPMENT ID
 DCON.         Sperry Drilling:  DIRECTNL CONTR
 DOE .                     N/A:  DOE NUMBER
 MWDS.                    Baku:  MWD SHOP
 SRVC.     Turan Drilling and Engineering:  CONTRACTOR
 CTRY.              Azerbaijan:  COUNTRY NAME
 PROV.                    Baku:  PROVINCE
 STAT.                    Baku:  STATE NAME
 REGN.                   EESSA:  REGION
 BASE.              Azerbaijan:  LOGGING EQUIPMENT BASE LOCATION
 WTYP.                Deviated:  WELL TYPE
 RIG .              East Azeri:  RIG NAME
 WELL.                    D02y:  WELL NAME
 FLD .                     ACG:  FIELD NAME
 COMP.     BP Exploration (Caspian Sea) Ltd.:  COMPANY
 PDAT.          Mean Sea Level:  PERMANENT DATUM
 MDS .        Operator Entered:  MAG DATA SOURCE
 SON .        AZ-XX-0906997291:  JOB NUMBER
 FTOP.          Formation Tops:  FORM TOPS DESC
 ILTD.               Lithology:  INTERP LTH DESC
 SVYD.                  Survey:  SURVEY DESC
 DMOD.             Drill Model:  DRILL MOD DESC
 HPTY.       Minimum Curvature:  HOLE POS TYPE
 NREF.                    Grid:  NORTH REFERENCE
 SPUD.               05-May-21:  SPUD DATE
 DATE.      09.27.28 12-Jun-21:  END TIME
 STIM.      09.27.28 12-May-21:  START TIME
 DMF .             Drill Floor:  DRILL MEAS FROM
 DFST.                        :  DIST FSL TEXT
 DFWT.                        :  DIST FWL TEXT
 CNTY.                        :  COUNTY
 LOC .                        :  LOCATION
 LMF .             Drill Floor:  LOG MEASURED FROM
 DEP .m                2806.40:  DEPTH
 AGAP.m                  43.60:  AIR GAP
 VSNS.m                  -4.42:  VERT SEC N/S
 VSEW.m                  -7.31:  VERT SEC E/W
 APD .m                  43.60:  DEPTH ABOVE PD
 WDMS.m                 151.80:  WD ELEV
 EGL .m                   0.00:  GROUND ELEVATION
 EPD .m                   0.00:  ELEVATION
 AZTC.deg                 6.18:  AZM TOTAL CORR
 GRDC.deg                 0.29:  GRID CORRECTION
 MDEC.deg                 6.47:  MAGNETIC DECL
 MDIP.deg                59.50:  MAGNETIC DIP
 MFLD.nT              50350.00:  MAGNETIC FIELD
 GVFD.g                   1.00:  GRAVITY FIELD
 VSDR.deg               179.08:  VERT SEC DIRECT
 TDD .m                4300.00:  TOTAL DEPTH (DRILLER)
 SDEP.m                2800.00:  START DEPTH
 DFSL.m                   0.00:  DISTANCE FSL
 DFWL.m                   0.00:  DISTANCE FWL
 UTMY.m             4431871.34:  UTM Y
 UTMX.m              538762.90:  UTM X
 WHEW.m                  -7.31:  WELL HEAD E/W
 WHNS.m                  -4.42:  WELL HEAD N/S
 LONG.deg                51.45:  LONGITUDE
 LATI.deg                40.02:  LATITUDE
 TVDS.m                  43.60:  TVDSS CORRECTN
 EKB .m                  43.60:  KB ELEVATION
 EDF .m                  43.60:  DF ELEVATION
 TDL .m                 806.00:  TOTAL DEPTH (LOGGER)
 MAGU.                 1851231:  MAGUTM CHECKSUM
 VSC .                       0:  VS TO CLOSURE
~Parameter Information Block
#MNEM.UNIT       Value        Description
#---------     -----------    ---------------------------
 AV  .mps                 1.60:  Ann Velocity 
 AVMX.mps                 2.00:  Max Ann Veloc 
 AZIF.deg               140.24:  Azm, Final 
 BHAT.        Rotary Steerable:  BHA Type 
 BROT.°/30m               0.50:  Build Rotating 
 BS  .in                  8.50:  Bit Size 
 BTPL.psig              619.00:  Bit Press Loss 
 CABU.                     Yes:  Customer Abuse 
 CGEO.          Ilgar Gurbanov:  Customer Geo 
 COMM.                     ´.T:  Run Comments 1 
 TCS .hr                 85.88:  Time Ciculation Ended 
 CV  .mps                 3.30:  Crit Velocity 
 CVMX.mps                 3.50:  Max Crit Veloc 
 DD1 .           Hamid Axmedov:  Direct Drillr 1 
 DD2 .           Teymur Aliyev:  Direct Drillr 2 
 DDSV.               Geo-Pilot:  DD Service 
 DEFF.%                 100.00:  % Det Eff 
 DLRX.°/30m               0.00:  Dogleg Rot Max 
 DLSO.°/30m               1.80:  Dogleg Oriented 
 DLSX.°/30m               3.34:  Dogleg Str Max 
 DRET.      11.50.00 27-May-21:  Drill End Time 
 DRST.      21.13.00 24-May-21:  Drill Start Tim 
 DTIM.hr                 45.11:  Time Drilling 
 EDEP.m                4054.00:  End Depth 
 ENG1.         Almaz Almadatov:  Engineer 1 
 ENG2.           Amrah Tahirov:  Engineer 2 
 ENG3.      Bakhtiyar Jabbarli:  Engineer 3 
 ENG4.          Nazrin Asgarli:  Engineer 4 
 ETIM.      10.00.00 30-May-21:  End Time 
 FLOI.gpm               530.00:  Flow In 
 FLON.gpm               400.00:  Flow In Min 
 FLOS.cptm                0.00:  Fluid Loss 
 FLOX.gpm               560.00:  Flow In Max 
 DFT .        Mineral Oil Base:  Mud Type 
 FTRO.       Formation Presure:  FTWD Run Obj 
 HFLO.                      No:  High Flow 
 HPRE.                      No:  High Pressure 
 HTEM.                      No:  High Temp 
 HYDO.m                   1.80:  Hydro Offset 
 IFIN.deg                73.83:  Inc, Final 
 IMAX.deg                73.83:  Inc Max 
 IMIN.deg                57.86:  Inc Min 
 IMND.m                3259.27:  Inc Min Depth 
 IMXD.m                4045.58:  Inc Max Depth 
 JARR.                     Yes:  Jarring 
 LETM.      11.50.00 27-May-21:  Log End Time 
 LOST.hr                     0:  Lost Rig Time 
 LSTM.      21.13.00 24-May-21:  Log Start Time 
 MDCL.ppm             42500.00:  Mud Chlorides 
 MDES.     Inversion Oil/Synthetic:  Mud Desc 
 DFD .sg                  1.52:  Mud Density 
 MDMN.sg                  1.52:  Dens Mud Min 
 MDMX.sg                  1.52:  Dens Mud Max 
 MOIL.                      70:  Run Mud Oil % 
 MOWR.                   70:30:  Run Mud OWR 
 MSND.                     0.2:  Run Mud Sand % 
 MSOL.                      22:  Run Mud Solids% 
 DFV .spqt               77.00:  Mud Viscosity 
 MWOD.in                  6.75:  MWD Tool OD 
 MWSI.                      No:  Serv Intrp, MWD 
 OTIM.hr                151.01:  Time Operating 
 PCON.          Wear / Scratch:  Pad Condition 
 PMAX.psia            11296.93:  Press Op, Max 
 PV  .cP                 37.00:  Mud PV 
 RUN .                     500:  Run Number 
 ROPA.m/hr               25.00:  ROP Avg 
 ROPN.m/hr                9.00:  ROP Min 
 ROPX.m/hr               28.00:  ROP Max 
 RPMA.rpm               140.00:  RPM Surface Avg 
 RPMN.rpm                90.00:  RPM Surface Min 
 RPMX.rpm               140.00:  RPM Surface Max 
 RRUN.                    0500:  Rig Run Number 
 SAZI.deg               172.17:  Azm, Start 
 SDEP.m                3248.00:  Start Depth 
 SIDD.                      No:  Serv Intrp, DD 
 SINC.deg                57.86:  Inc, Start 
 SPPA.psig             5620.00:  SPP Avg 
 SPPN.psig             5190.00:  SPP Min 
 SPPX.psig             6050.00:  SPP Max 
 STIM.      16.00.00 23-May-21:  Start Time 
 SVCS.                 DD, MWD:  Services 
 SVER.                    9.20:  Sperry Version 
 TDAT.m                 806.00:  Tot Depth Attmp 
 TDDF.                      No:  Trip for DD 
 TDLG.m                 806.00:  Tot Depth Loggd 
 TFF .                      No:  Trip for Fail 
 TQAA.f-kp               12.00:  Torque Abs Avg 
 TQAN.f-kp                8.00:  Torque Abs Min 
 TQAX.f-kp               15.00:  Torque Abs Max 
 TRRT.°/30m               0.30:  Turn Rotating 
 MRT .                  EWR-M5:  Maximum Recorded Temperature 
 TTMX.degC               93.00:  Max Tool Temp 
 VS01.                90649155:  Virtual Str1 SN 
 VS02.                90642264:  Virtual Str2 SN 
 VS03.                90642266:  Virtual Str3 SN 
 VS04.                90642261:  Virtual Str4 SN 
 WBMN.klb                 0.00:  WOB Min 
 WITN.             Anar Khalil:  Customer Rep 
 WITN.           Murad Guliyev:  Customer Rep 2 
 WOBA.klb                13.00:  WOB Avg 
 WOBX.klb                25.00:  WOB Max 
 YP  .lhf2               32.00:  Yield Point 
~Curve Information Block
#MNEM.UNIT                 API CODE     Curve Description
#---------               -----------    ---------------------------
 TIME.HHMMSS            00 000 000 000:  GT Time & Date
 GTDEPTH.m              00 000 000 000:  GT Depth
 GTPQH.psia             00 000 000 000:  GT HR Quartz Pressure
 GTTQ.degC              00 000 000 000:  GT Quartz Temperature
 GTTN.NONE              00 000 000 000:  GT Test Number
 GTET.sec               00 000 000 000:  GT Elapsed Test Time
 GTTVD.m                00 000 000 000:  GT True Vertical Depth
#Other Information
#
#WARRANTY: Halliburton will use its best efforts to furnish customers with 
#accurate information and interpretations that are part of, and incident to, the services 
#provided.  However, Halliburton cannot and does not warrant the accuracy 
#or correctness of such information and interpretations.  Under no circumstances should any 
#such information or interpretation be relied upon as the sole basis for any drilling, 
#completion, production, or financial decision or any procedure involving any risk to the 
#safety of any drilling venture, drilling rig or its crew or any other third party.  The 
#Customer has full responsibility for all drilling, completion and production operation.  
#Halliburton makes no representations or warranties, either expressed or 
#implied, including, but not limited to, the implied warranties of merchantability or fitness 
#for a particular purpose, with respect to the services rendered.  In no event will 
#Halliburton be liable for failure to obtain any particular results or for 
#any damages, including, but not limited to, indirect, special or consequential damages, 
#resulting from the use of any information or interpretation provided by Halliburton.
#
~A           TIME           GTDEPTH  GTPQH  GTTQ  GTTN   GTET   GTTVD  
# ...
   06:11:55.762.28-May-2021 3440.00 4242.52 83.31 12.00 316.53 2569.12
   06:11:55.962.28-May-2021 3440.00 4242.54 83.31 12.00 316.73 2569.12
   06:11:56.162.28-May-2021 3440.00 4242.52 83.31 12.00 316.93 2569.12
   06:11:56.363.28-May-2021 3440.00 4242.51 83.31 12.00 317.13 2569.12
   06:11:56.563.28-May-2021 3440.00 4242.51 83.31 12.00 317.33 2569.12
   06:11:56.763.28-May-2021 3440.00 4242.53 83.31 12.00 317.53 2569.12
   06:11:56.963.28-May-2021 3440.00 4242.50 83.31 12.00 317.73 2569.12
   06:11:57.163.28-May-2021 3440.00 4242.54 83.31 12.00 317.93 2569.12
   06:11:57.363.28-May-2021 3440.00 4242.49 83.31 12.00 318.13 2569.12
   06:11:57.563.28-May-2021 3440.00 4242.49 83.31 12.00 318.33 2569.12
   06:11:57.763.28-May-2021 3440.00 4242.22 83.31 12.00 318.53 2569.12
   06:11:57.963.28-May-2021 3440.00 4242.81 83.31 12.00 318.73 2569.12
   06:11:58.163.28-May-2021 3440.00 4242.52 83.31 12.00 318.93 2569.12
   06:11:58.363.28-May-2021 3440.00 4242.52 83.31 12.00 319.13 2569.12
   06:11:58.563.28-May-2021 3440.00 4242.52 83.31 12.00 319.33 2569.12
   06:11:58.764.28-May-2021 3440.00 4242.91 83.31 12.00 319.53 2569.12
   06:11:58.964.28-May-2021 3440.00 4242.54 83.31 12.00 319.73 2569.12
   06:11:59.164.28-May-2021 3440.00 4242.51 83.31 12.00 319.93 2569.12
   06:11:59.364.28-May-2021 3440.00 4242.10 83.31 12.00 320.13 2569.12
   06:11:59.564.28-May-2021 3440.00 4242.10 83.31 12.00 320.33 2569.12
   06:11:59.764.28-May-2021 3440.00 4242.52 83.31 12.00 320.53 2569.12
   06:11:59.964.28-May-2021 3440.00 4242.52 83.31 12.00 320.73 2569.12
   06:12:00.164.28-May-2021 3440.00 4242.53 83.31 12.00 320.93 2569.12
   06:12:00.364.28-May-2021 3440.00 4242.49 83.31 12.00 321.13 2569.12
   06:12:00.564.28-May-2021 3440.00 4242.49 83.31 12.00 321.33 2569.12
   06:12:00.764.28-May-2021 3440.00 4242.53 83.31 12.00 321.53 2569.12
   06:12:00.964.28-May-2021 3440.00 4242.52 83.31 12.00 321.73 2569.12
   06:12:01.165.28-May-2021 3440.00 4242.52 83.31 12.00 321.93 2569.12
   06:12:01.365.28-May-2021 3440.00 4242.54 83.31 12.00 322.13 2569.12
   06:12:01.565.28-May-2021 3440.00 4242.54 83.31 12.00 322.33 2569.12
   06:12:01.765.28-May-2021 3440.00 4242.52 83.31 12.00 322.53 2569.12
   06:12:01.965.28-May-2021 3440.00 4242.43 83.31 12.00 322.73 2569.12
   06:12:02.165.28-May-2021 3440.00 4242.64 83.31 12.00 322.93 2569.12
   06:12:02.365.28-May-2021 3440.00 4242.50 83.31 12.00 323.14 2569.12
   06:12:02.565.28-May-2021 3440.00 4242.50 83.31 12.00 323.34 2569.12
   06:12:02.765.28-May-2021 3440.00 4242.50 83.31 12.00 323.54 2569.12
   06:12:02.965.28-May-2021 3440.00 4242.51 83.31 12.00 323.74 2569.12
   06:12:03.165.28-May-2021 3440.00 4242.53 83.31 12.00 323.94 2569.12
   06:12:03.365.28-May-2021 3440.00 4242.52 83.31 12.00 324.14 2569.12
   06:12:03.566.28-May-2021 3440.00 4242.52 83.31 12.00 324.34 2569.12
   06:12:03.766.28-May-2021 3440.00 4242.53 83.31 12.00 324.54 2569.12
   06:12:03.966.28-May-2021 3440.00 4242.52 83.31 12.00 324.74 2569.12
   06:12:04.166.28-May-2021 3440.00 4242.54 83.31 12.00 324.94 2569.12
   06:12:04.366.28-May-2021 3440.00 4242.53 83.31 12.00 325.14 2569.12
   06:12:04.566.28-May-2021 3440.00 4242.53 83.31 12.00 325.34 2569.12
   06:12:04.766.28-May-2021 3440.00 4242.97 83.31 12.00 325.54 2569.12
   06:12:04.966.28-May-2021 3440.00 4242.52 83.31 12.00 325.74 2569.12
   06:12:05.166.28-May-2021 3440.00 4242.52 83.31 12.00 325.94 2569.12
   06:12:05.366.28-May-2021 3440.00 4242.53 83.31 12.00 326.14 2569.12
   06:12:05.566.28-May-2021 3440.00 4242.53 83.31 12.00 326.34 2569.12
   06:12:05.766.28-May-2021 3440.00 4242.96 83.31 12.00 326.54 2569.12
   06:12:05.967.28-May-2021 3440.00 4242.54 83.31 12.00 326.74 2569.12
   06:12:06.167.28-May-2021 3440.00 4242.55 83.31 12.00 326.94 2569.12
   06:12:06.367.28-May-2021 3440.00 4242.36 83.31 12.00 327.14 2569.12
   06:12:06.567.28-May-2021 3440.00 4242.36 83.31 12.00 327.34 2569.12
   06:12:06.767.28-May-2021 3440.00 4242.52 83.32 12.00 327.54 2569.12
   06:12:06.967.28-May-2021 3440.00 4242.54 83.32 12.00 327.74 2569.12
   06:12:07.167.28-May-2021 3440.00 4242.41 83.32 12.00 327.94 2569.12
   06:12:07.367.28-May-2021 3440.00 4242.65 83.32 12.00 328.14 2569.12
   06:12:07.567.28-May-2021 3440.00 4242.65 83.32 12.00 328.34 2569.12
   06:12:07.767.28-May-2021 3440.00 4242.56 83.32 12.00 328.54 2569.12
   06:12:07.967.28-May-2021 3440.00 4242.51 83.32 12.00 328.74 2569.12
   06:12:08.168.28-May-2021 3440.00 4242.51 83.32 12.00 328.94 2569.12
   06:12:08.368.28-May-2021 3440.00 4242.54 83.32 12.00 329.14 2569.12
   06:12:08.568.28-May-2021 3440.00 4242.54 83.32 12.00 329.34 2569.12
   06:12:08.768.28-May-2021 3440.00 4242.53 83.32 12.00 329.54 2569.12
   06:12:08.968.28-May-2021 3440.00 4242.54 83.32 12.00 329.74 2569.12
   06:12:09.168.28-May-2021 3440.00 4242.53 83.32 12.00 329.94 2569.12
   06:12:09.368.28-May-2021 3440.00 4242.52 83.32 12.00 330.14 2569.12
   06:12:09.568.28-May-2021 3440.00 4242.52 83.32 12.00 330.34 2569.12
   06:12:09.768.28-May-2021 3440.00 4242.81 83.32 12.00 330.54 2569.12
   06:12:09.968.28-May-2021 3440.00 4242.56 83.32 12.00 330.74 2569.12
   06:12:10.168.28-May-2021 3440.00 4242.51 83.32 12.00 330.94 2569.12
   06:12:10.368.28-May-2021 3440.00 4242.54 83.32 12.00 331.14 2569.12
   06:12:10.569.28-May-2021 3440.00 4242.54 83.32 12.00 331.34 2569.12
   06:12:10.769.28-May-2021 3440.00 4242.56 83.32 12.00 331.54 2569.12
   06:12:10.969.28-May-2021 3440.00 4242.52 83.32 12.00 331.74 2569.12
   06:12:11.169.28-May-2021 3440.00 4242.55 83.32 12.00 331.94 2569.12
   06:12:11.369.28-May-2021 3440.00 4242.55 83.32 12.00 332.14 2569.12
   06:12:11.569.28-May-2021 3440.00 4242.55 83.32 12.00 332.34 2569.12
   06:12:11.769.28-May-2021 3440.00 4242.55 83.32 12.00 332.54 2569.12
   06:12:11.969.28-May-2021 3440.00 4242.54 83.32 12.00 332.74 2569.12
   06:12:12.169.28-May-2021 3440.00 4242.54 83.32 12.00 332.94 2569.12
   06:12:12.369.28-May-2021 3440.00 4242.43 83.32 12.00 333.14 2569.12
   06:12:12.569.28-May-2021 3440.00 4242.43 83.32 12.00 333.34 2569.12
   06:12:12.769.28-May-2021 3440.00 4242.51 83.32 12.00 333.54 2569.12
   06:12:12.970.28-May-2021 3440.00 4242.56 83.32 12.00 333.74 2569.12
   06:12:13.170.28-May-2021 3440.00 4242.52 83.32 12.00 333.94 2569.12
   06:12:13.370.28-May-2021 3440.00 4242.52 83.32 12.00 334.14 2569.12
   06:12:13.570.28-May-2021 3440.00 4242.52 83.32 12.00 334.34 2569.12
   06:12:13.770.28-May-2021 3440.00 4242.52 83.32 12.00 334.54 2569.12
   06:12:13.970.28-May-2021 3440.00 4242.25 83.32 12.00 334.74 2569.12
   06:12:14.170.28-May-2021 3440.00 4242.85 83.32 12.00 334.94 2569.12
   06:12:14.370.28-May-2021 3440.00 4242.56 83.32 12.00 335.14 2569.12
   06:12:14.570.28-May-2021 3440.00 4242.56 83.32 12.00 335.34 2569.12
   06:12:14.770.28-May-2021 3440.00 4242.28 83.32 12.00 335.54 2569.12
   06:12:14.970.28-May-2021 3440.00 4242.82 83.32 12.00 335.74 2569.12
   06:12:15.170.28-May-2021 3440.00 4242.56 83.32 12.00 335.94 2569.12
   06:12:15.371.28-May-2021 3440.00 4242.52 83.32 12.00 336.14 2569.12
   06:12:15.571.28-May-2021 3440.00 4242.52 83.32 12.00 336.34 2569.12
   06:12:15.771.28-May-2021 3440.00 4242.51 83.32 12.00 336.54 2569.12
   06:12:15.971.28-May-2021 3440.00 4242.56 83.32 12.00 336.74 2569.12
   06:12:16.171.28-May-2021 3440.00 4242.54 83.32 12.00 336.94 2569.12
   06:12:16.371.28-May-2021 3440.00 4242.55 83.32 12.00 337.14 2569.12
   06:12:16.571.28-May-2021 3440.00 4242.55 83.32 12.00 337.34 2569.12
   06:12:16.771.28-May-2021 3440.00 4242.56 83.32 12.00 337.54 2569.12
   06:12:16.971.28-May-2021 3440.00 4242.54 83.32 12.00 337.74 2569.12
   06:12:17.171.28-May-2021 3440.00 4242.55 83.32 12.00 337.94 2569.12
   06:12:17.371.28-May-2021 3440.00 4242.13 83.32 12.00 338.14 2569.12
   06:12:17.571.28-May-2021 3440.00 4242.13 83.32 12.00 338.34 2569.12
   06:12:17.772.28-May-2021 3440.00 4242.54 83.32 12.00 338.54 2569.12
   06:12:17.972.28-May-2021 3440.00 4242.57 83.32 12.00 338.74 2569.12
   06:12:18.172.28-May-2021 3440.00 4242.51 83.32 12.00 338.94 2569.12
