~Version Information
 VERS.                  2.0:   CWLS log ASCII Standard -VERSION 2.0
 WRAP.                   NO:   One line per depth step
~Well Information Block
#MNEM.UNIT     VALUE/NAME     DESCRIPTION
#---------     -----------    ---------------------------
 STRT.S             23:52:35 27-May-21: START TIME 23:52:35 27-May-21
 STOP.S             23:59:20 27-May-21: STOP TIME  23:59:20 27-May-21
 STEP.S                   0.00: STEP TIME
 NULL.                 -999.25: NULL VALUE
 UWI .                     N/A:  UNIQUE WELL IDENTIFIER
 API .                     N/A:  API NUMBER
 UNIT.                     N/A:  LOGGING EQUIPMENT ID
 DCON.         Sperry Drilling:  DIRECTNL CONTR
 DOE .                     N/A:  DOE NUMBER
 MWDS.                    Baku:  MWD SHOP
 SRVC.     Turan Drilling and Engineering:  CONTRACTOR
 CTRY.              Azerbaijan:  COUNTRY NAME
 PROV.                    Baku:  PROVINCE
 STAT.                    Baku:  STATE NAME
 REGN.                   EESSA:  REGION
 BASE.              Azerbaijan:  LOGGING EQUIPMENT BASE LOCATION
 WTYP.                Deviated:  WELL TYPE
 RIG .              East Azeri:  RIG NAME
 WELL.                    D02y:  WELL NAME
 FLD .                     ACG:  FIELD NAME
 COMP.     BP Exploration (Caspian Sea) Ltd.:  COMPANY
 PDAT.          Mean Sea Level:  PERMANENT DATUM
 MDS .        Operator Entered:  MAG DATA SOURCE
 SON .        AZ-XX-0906997291:  JOB NUMBER
 FTOP.          Formation Tops:  FORM TOPS DESC
 ILTD.               Lithology:  INTERP LTH DESC
 SVYD.                  Survey:  SURVEY DESC
 DMOD.             Drill Model:  DRILL MOD DESC
 HPTY.       Minimum Curvature:  HOLE POS TYPE
 NREF.                    Grid:  NORTH REFERENCE
 SPUD.               05-May-21:  SPUD DATE
 DATE.      09.27.28 12-Jun-21:  END TIME
 STIM.      09.27.28 12-May-21:  START TIME
 DMF .             Drill Floor:  DRILL MEAS FROM
 DFST.                        :  DIST FSL TEXT
 DFWT.                        :  DIST FWL TEXT
 CNTY.                        :  COUNTY
 LOC .                        :  LOCATION
 LMF .             Drill Floor:  LOG MEASURED FROM
 DEP .m                2806.40:  DEPTH
 AGAP.m                  43.60:  AIR GAP
 VSNS.m                  -4.42:  VERT SEC N/S
 VSEW.m                  -7.31:  VERT SEC E/W
 APD .m                  43.60:  DEPTH ABOVE PD
 WDMS.m                 151.80:  WD ELEV
 EGL .m                   0.00:  GROUND ELEVATION
 EPD .m                   0.00:  ELEVATION
 AZTC.deg                 6.18:  AZM TOTAL CORR
 GRDC.deg                 0.29:  GRID CORRECTION
 MDEC.deg                 6.47:  MAGNETIC DECL
 MDIP.deg                59.50:  MAGNETIC DIP
 MFLD.nT              50350.00:  MAGNETIC FIELD
 GVFD.g                   1.00:  GRAVITY FIELD
 VSDR.deg               179.08:  VERT SEC DIRECT
 TDD .m                4300.00:  TOTAL DEPTH (DRILLER)
 SDEP.m                2800.00:  START DEPTH
 DFSL.m                   0.00:  DISTANCE FSL
 DFWL.m                   0.00:  DISTANCE FWL
 UTMY.m             4431871.34:  UTM Y
 UTMX.m              538762.90:  UTM X
 WHEW.m                  -7.31:  WELL HEAD E/W
 WHNS.m                  -4.42:  WELL HEAD N/S
 LONG.deg                51.45:  LONGITUDE
 LATI.deg                40.02:  LATITUDE
 TVDS.m                  43.60:  TVDSS CORRECTN
 EKB .m                  43.60:  KB ELEVATION
 EDF .m                  43.60:  DF ELEVATION
 TDL .m                 806.00:  TOTAL DEPTH (LOGGER)
 MAGU.                 1851231:  MAGUTM CHECKSUM
 VSC .                       0:  VS TO CLOSURE
~Parameter Information Block
#MNEM.UNIT       Value        Description
#---------     -----------    ---------------------------
 AV  .mps                 1.60:  Ann Velocity 
 AVMX.mps                 2.00:  Max Ann Veloc 
 AZIF.deg               140.24:  Azm, Final 
 BHAT.        Rotary Steerable:  BHA Type 
 BROT.°/30m               0.50:  Build Rotating 
 BS  .in                  8.50:  Bit Size 
 BTPL.psig              619.00:  Bit Press Loss 
 CABU.                     Yes:  Customer Abuse 
 CGEO.          Ilgar Gurbanov:  Customer Geo 
 COMM.                     t\L:  Run Comments 1 
 TCS .hr                 85.88:  Time Ciculation Ended 
 CV  .mps                 3.30:  Crit Velocity 
 CVMX.mps                 3.50:  Max Crit Veloc 
 DD1 .           Hamid Axmedov:  Direct Drillr 1 
 DD2 .           Teymur Aliyev:  Direct Drillr 2 
 DDSV.               Geo-Pilot:  DD Service 
 DEFF.%                 100.00:  % Det Eff 
 DLRX.°/30m               0.00:  Dogleg Rot Max 
 DLSO.°/30m               1.80:  Dogleg Oriented 
 DLSX.°/30m               3.34:  Dogleg Str Max 
 DRET.      11.50.00 27-May-21:  Drill End Time 
 DRST.      21.13.00 24-May-21:  Drill Start Tim 
 DTIM.hr                 45.11:  Time Drilling 
 EDEP.m                4054.00:  End Depth 
 ENG1.         Almaz Almadatov:  Engineer 1 
 ENG2.           Amrah Tahirov:  Engineer 2 
 ENG3.      Bakhtiyar Jabbarli:  Engineer 3 
 ENG4.          Nazrin Asgarli:  Engineer 4 
 ETIM.      10.00.00 30-May-21:  End Time 
 FLOI.gpm               530.00:  Flow In 
 FLON.gpm               400.00:  Flow In Min 
 FLOS.cptm                0.00:  Fluid Loss 
 FLOX.gpm               560.00:  Flow In Max 
 DFT .        Mineral Oil Base:  Mud Type 
 FTRO.       Formation Presure:  FTWD Run Obj 
 HFLO.                      No:  High Flow 
 HPRE.                      No:  High Pressure 
 HTEM.                      No:  High Temp 
 HYDO.m                   1.80:  Hydro Offset 
 IFIN.deg                73.83:  Inc, Final 
 IMAX.deg                73.83:  Inc Max 
 IMIN.deg                57.86:  Inc Min 
 IMND.m                3259.27:  Inc Min Depth 
 IMXD.m                4045.58:  Inc Max Depth 
 JARR.                     Yes:  Jarring 
 LETM.      11.50.00 27-May-21:  Log End Time 
 LOST.hr                     0:  Lost Rig Time 
 LSTM.      21.13.00 24-May-21:  Log Start Time 
 MDCL.ppm             42500.00:  Mud Chlorides 
 MDES.     Inversion Oil/Synthetic:  Mud Desc 
 DFD .sg                  1.52:  Mud Density 
 MDMN.sg                  1.52:  Dens Mud Min 
 MDMX.sg                  1.52:  Dens Mud Max 
 MOIL.                      70:  Run Mud Oil % 
 MOWR.                   70:30:  Run Mud OWR 
 MSND.                     0.2:  Run Mud Sand % 
 MSOL.                      22:  Run Mud Solids% 
 DFV .spqt               77.00:  Mud Viscosity 
 MWOD.in                  6.75:  MWD Tool OD 
 MWSI.                      No:  Serv Intrp, MWD 
 OTIM.hr                151.01:  Time Operating 
 PCON.          Wear / Scratch:  Pad Condition 
 PMAX.psia            11296.93:  Press Op, Max 
 PV  .cP                 37.00:  Mud PV 
 RUN .                     500:  Run Number 
 ROPA.m/hr               25.00:  ROP Avg 
 ROPN.m/hr                9.00:  ROP Min 
 ROPX.m/hr               28.00:  ROP Max 
 RPMA.rpm               140.00:  RPM Surface Avg 
 RPMN.rpm                90.00:  RPM Surface Min 
 RPMX.rpm               140.00:  RPM Surface Max 
 RRUN.                    0500:  Rig Run Number 
 SAZI.deg               172.17:  Azm, Start 
 SDEP.m                3248.00:  Start Depth 
 SIDD.                      No:  Serv Intrp, DD 
 SINC.deg                57.86:  Inc, Start 
 SPPA.psig             5620.00:  SPP Avg 
 SPPN.psig             5190.00:  SPP Min 
 SPPX.psig             6050.00:  SPP Max 
 STIM.      16.00.00 23-May-21:  Start Time 
 SVCS.                 DD, MWD:  Services 
 SVER.                    9.20:  Sperry Version 
 TDAT.m                 806.00:  Tot Depth Attmp 
 TDDF.                      No:  Trip for DD 
 TDLG.m                 806.00:  Tot Depth Loggd 
 TFF .                      No:  Trip for Fail 
 TQAA.f-kp               12.00:  Torque Abs Avg 
 TQAN.f-kp                8.00:  Torque Abs Min 
 TQAX.f-kp               15.00:  Torque Abs Max 
 TRRT.°/30m               0.30:  Turn Rotating 
 MRT .                  EWR-M5:  Maximum Recorded Temperature 
 TTMX.degC               93.00:  Max Tool Temp 
 VS01.                90649155:  Virtual Str1 SN 
 VS02.                90642264:  Virtual Str2 SN 
 VS03.                90642266:  Virtual Str3 SN 
 VS04.                90642261:  Virtual Str4 SN 
 WBMN.klb                 0.00:  WOB Min 
 WITN.             Anar Khalil:  Customer Rep 
 WITN.           Murad Guliyev:  Customer Rep 2 
 WOBA.klb                13.00:  WOB Avg 
 WOBX.klb                25.00:  WOB Max 
 YP  .lhf2               32.00:  Yield Point 
~Curve Information Block
#MNEM.UNIT                 API CODE     Curve Description
#---------               -----------    ---------------------------
 TIME.HHMMSS            00 000 000 000:  GT Time & Date
 GTDEPTH.m              00 000 000 000:  GT Depth
 GTPQH.psia             00 000 000 000:  GT HR Quartz Pressure
 GTTQ.degC              00 000 000 000:  GT Quartz Temperature
 GTTN.NONE              00 000 000 000:  GT Test Number
 GTET.sec               00 000 000 000:  GT Elapsed Test Time
 GTTVD.m                00 000 000 000:  GT True Vertical Depth
#Other Information
#
#WARRANTY: Halliburton will use its best efforts to furnish customers with 
#accurate information and interpretations that are part of, and incident to, the services 
#provided.  However, Halliburton cannot and does not warrant the accuracy 
#or correctness of such information and interpretations.  Under no circumstances should any 
#such information or interpretation be relied upon as the sole basis for any drilling, 
#completion, production, or financial decision or any procedure involving any risk to the 
#safety of any drilling venture, drilling rig or its crew or any other third party.  The 
#Customer has full responsibility for all drilling, completion and production operation.  
#Halliburton makes no representations or warranties, either expressed or 
#implied, including, but not limited to, the implied warranties of merchantability or fitness 
#for a particular purpose, with respect to the services rendered.  In no event will 
#Halliburton be liable for failure to obtain any particular results or for 
#any damages, including, but not limited to, indirect, special or consequential damages, 
#resulting from the use of any information or interpretation provided by Halliburton.
#
~A           TIME           GTDEPTH  GTPQH  GTTQ  GTTN  GTET   GTTVD  
# ...
   23:58:20.000.27-May-2021 3671.50   61.01 84.34 3.00 345.00 2661.54
   23:58:20.200.27-May-2021 3671.50   61.01 84.34 3.00 345.20 2661.54
   23:58:20.400.27-May-2021 3671.50   61.01 84.34 3.00 345.40 2661.54
   23:58:20.600.27-May-2021 3671.50   61.00 84.34 3.00 345.60 2661.54
   23:58:20.800.27-May-2021 3671.50   61.02 84.34 3.00 345.80 2661.54
   23:58:21.000.27-May-2021 3671.50   61.02 84.34 3.00 346.00 2661.54
   23:58:21.200.27-May-2021 3671.50   61.02 84.34 3.00 346.20 2661.54
   23:58:21.400.27-May-2021 3671.50   61.02 84.34 3.00 346.40 2661.54
   23:58:21.600.27-May-2021 3671.50   61.03 84.34 3.00 346.60 2661.54
   23:58:21.800.27-May-2021 3671.50   61.05 84.34 3.00 346.80 2661.54
   23:58:22.000.27-May-2021 3671.50   61.05 84.34 3.00 347.00 2661.54
   23:58:22.200.27-May-2021 3671.50   61.05 84.34 3.00 347.20 2661.54
   23:58:22.400.27-May-2021 3671.50   61.06 84.34 3.00 347.40 2661.54
   23:58:22.600.27-May-2021 3671.50   61.05 84.34 3.00 347.60 2661.54
   23:58:22.800.27-May-2021 3671.50   61.07 84.34 3.00 347.80 2661.54
   23:58:23.000.27-May-2021 3671.50   61.07 84.34 3.00 348.00 2661.54
   23:58:23.200.27-May-2021 3671.50   61.07 84.34 3.00 348.20 2661.54
   23:58:23.400.27-May-2021 3671.50   61.08 84.34 3.00 348.40 2661.54
   23:58:23.600.27-May-2021 3671.50   61.09 84.34 3.00 348.60 2661.54
   23:58:23.800.27-May-2021 3671.50   61.09 84.34 3.00 348.80 2661.54
   23:58:24.000.27-May-2021 3671.50   61.09 84.34 3.00 349.00 2661.54
   23:58:24.200.27-May-2021 3671.50   61.09 84.34 3.00 349.20 2661.54
   23:58:24.400.27-May-2021 3671.50   61.11 84.34 3.00 349.40 2661.54
   23:58:24.600.27-May-2021 3671.50   61.11 84.34 3.00 349.60 2661.54
   23:58:24.800.27-May-2021 3671.50   61.12 84.34 3.00 349.80 2661.54
   23:58:25.000.27-May-2021 3671.50   61.11 84.34 3.00 350.00 2661.54
   23:58:25.200.27-May-2021 3671.50   61.11 84.34 3.00 350.20 2661.54
   23:58:25.400.27-May-2021 3671.50   61.13 84.34 3.00 350.40 2661.54
   23:58:25.600.27-May-2021 3671.50   61.13 84.34 3.00 350.60 2661.54
   23:58:25.800.27-May-2021 3671.50   61.14 84.34 3.00 350.80 2661.54
   23:58:26.000.27-May-2021 3671.50   61.14 84.34 3.00 351.00 2661.54
   23:58:26.200.27-May-2021 3671.50   61.14 84.34 3.00 351.20 2661.54
   23:58:26.400.27-May-2021 3671.50   61.15 84.34 3.00 351.40 2661.54
   23:58:26.600.27-May-2021 3671.50   61.16 84.34 3.00 351.60 2661.54
   23:58:26.800.27-May-2021 3671.50   61.16 84.34 3.00 351.80 2661.54
   23:58:27.000.27-May-2021 3671.50   61.16 84.34 3.00 352.00 2661.54
   23:58:27.200.27-May-2021 3671.50   61.16 84.34 3.00 352.20 2661.54
   23:58:27.400.27-May-2021 3671.50   61.17 84.34 3.00 352.40 2661.54
   23:58:27.600.27-May-2021 3671.50   61.16 84.34 3.00 352.60 2661.54
   23:58:27.800.27-May-2021 3671.50   61.18 84.34 3.00 352.80 2661.54
   23:58:28.000.27-May-2021 3671.50   61.18 84.34 3.00 353.00 2661.54
   23:58:28.200.27-May-2021 3671.50   61.18 84.34 3.00 353.20 2661.54
   23:58:28.400.27-May-2021 3671.50   61.18 84.34 3.00 353.40 2661.54
   23:58:28.600.27-May-2021 3671.50   61.19 84.34 3.00 353.60 2661.54
   23:58:28.800.27-May-2021 3671.50   61.20 84.34 3.00 353.80 2661.54
   23:58:29.000.27-May-2021 3671.50   61.20 84.34 3.00 354.00 2661.54
   23:58:29.200.27-May-2021 3671.50   61.20 84.34 3.00 354.20 2661.54
   23:58:29.400.27-May-2021 3671.50   61.21 84.34 3.00 354.40 2661.54
   23:58:29.600.27-May-2021 3671.50   61.23 84.34 3.00 354.60 2661.54
   23:58:29.800.27-May-2021 3671.50   61.23 84.34 3.00 354.80 2661.54
   23:58:30.000.27-May-2021 3671.50   61.24 84.34 3.00 355.00 2661.54
   23:58:30.200.27-May-2021 3671.50   61.24 84.34 3.00 355.20 2661.54
   23:58:30.400.27-May-2021 3671.50   61.22 84.34 3.00 355.40 2661.54
   23:58:30.600.27-May-2021 3671.50   61.25 84.34 3.00 355.60 2661.54
   23:58:30.800.27-May-2021 3671.50   61.26 84.34 3.00 355.80 2661.54
   23:58:31.000.27-May-2021 3671.50   61.26 84.34 3.00 356.00 2661.54
   23:58:31.200.27-May-2021 3671.50   61.26 84.34 3.00 356.20 2661.54
   23:58:31.400.27-May-2021 3671.50   61.27 84.34 3.00 356.40 2661.54
   23:58:31.600.27-May-2021 3671.50   61.27 84.34 3.00 356.60 2661.54
   23:58:31.800.27-May-2021 3671.50   61.27 84.34 3.00 356.80 2661.54
   23:58:32.000.27-May-2021 3671.50   61.29 84.34 3.00 357.00 2661.54
   23:58:32.200.27-May-2021 3671.50   61.29 84.34 3.00 357.20 2661.54
   23:58:32.400.27-May-2021 3671.50   61.29 84.34 3.00 357.40 2661.54
   23:58:32.600.27-May-2021 3671.50   61.30 84.34 3.00 357.60 2661.54
   23:58:32.800.27-May-2021 3671.50   61.30 84.34 3.00 357.80 2661.54
   23:58:33.000.27-May-2021 3671.50   61.30 84.34 3.00 358.00 2661.54
   23:58:33.200.27-May-2021 3671.50   61.30 84.34 3.00 358.20 2661.54
   23:58:33.400.27-May-2021 3671.50   61.31 84.34 3.00 358.40 2661.54
   23:58:33.600.27-May-2021 3671.50   61.32 84.34 3.00 358.60 2661.54
   23:58:33.800.27-May-2021 3671.50   61.32 84.34 3.00 358.80 2661.54
   23:58:34.000.27-May-2021 3671.50   61.33 84.34 3.00 359.00 2661.54
   23:58:34.200.27-May-2021 3671.50   61.33 84.34 3.00 359.20 2661.54
   23:58:34.400.27-May-2021 3671.50   61.34 84.34 3.00 359.40 2661.54
   23:58:34.600.27-May-2021 3671.50   61.34 84.34 3.00 359.60 2661.54
   23:58:34.800.27-May-2021 3671.50   61.35 84.34 3.00 359.80 2661.54
   23:58:35.000.27-May-2021 3671.50   61.35 84.34 3.00 360.00 2661.54
   23:58:35.200.27-May-2021 3671.50   61.35 84.34 3.00 360.20 2661.54
   23:58:35.400.27-May-2021 3671.50   61.34 84.34 3.00 360.40 2661.54
   23:58:35.600.27-May-2021 3671.50   61.37 84.34 3.00 360.60 2661.54
   23:58:35.800.27-May-2021 3671.50   61.37 84.34 3.00 360.80 2661.54
   23:58:36.000.27-May-2021 3671.50   61.37 84.34 3.00 361.00 2661.54
   23:58:36.200.27-May-2021 3671.50   61.37 84.34 3.00 361.20 2661.54
   23:58:36.400.27-May-2021 3671.50   61.38 84.34 3.00 361.40 2661.54
   23:58:36.600.27-May-2021 3671.50   61.38 84.34 3.00 361.60 2661.54
   23:58:36.800.27-May-2021 3671.50   61.38 84.34 3.00 361.80 2661.54
   23:58:37.000.27-May-2021 3671.50   61.39 84.34 3.00 362.00 2661.54
   23:58:37.200.27-May-2021 3671.50   61.39 84.34 3.00 362.20 2661.54
   23:58:37.400.27-May-2021 3671.50   61.41 84.34 3.00 362.40 2661.54
   23:58:37.600.27-May-2021 3671.50   61.41 84.34 3.00 362.60 2661.54
   23:58:37.800.27-May-2021 3671.50   61.42 84.34 3.00 362.80 2661.54
   23:58:38.000.27-May-2021 3671.50   61.41 84.34 3.00 363.00 2661.54
   23:58:38.200.27-May-2021 3671.50   61.41 84.34 3.00 363.20 2661.54
   23:58:38.400.27-May-2021 3671.50   61.41 84.34 3.00 363.40 2661.54
   23:58:38.600.27-May-2021 3671.50   61.43 84.34 3.00 363.60 2661.54
   23:58:38.800.27-May-2021 3671.50   61.43 84.34 3.00 363.80 2661.54
   23:58:39.000.27-May-2021 3671.50   61.44 84.34 3.00 364.00 2661.54
   23:58:39.200.27-May-2021 3671.50   61.44 84.34 3.00 364.20 2661.54
   23:58:39.400.27-May-2021 3671.50   61.45 84.34 3.00 364.40 2661.54
   23:58:39.600.27-May-2021 3671.50   61.45 84.34 3.00 364.60 2661.54
   23:58:39.800.27-May-2021 3671.50   61.45 84.34 3.00 364.80 2661.54
   23:58:40.000.27-May-2021 3671.50   61.46 84.34 3.00 365.00 2661.54
   23:58:40.200.27-May-2021 3671.50   61.46 84.34 3.00 365.20 2661.54
   23:58:40.400.27-May-2021 3671.50   61.47 84.34 3.00 365.40 2661.54
   23:58:40.600.27-May-2021 3671.50   61.47 84.34 3.00 365.60 2661.54
   23:58:40.800.27-May-2021 3671.50   61.46 84.34 3.00 365.80 2661.54
   23:58:41.000.27-May-2021 3671.50   61.50 84.34 3.00 366.00 2661.54
   23:58:41.200.27-May-2021 3671.50   61.50 84.34 3.00 366.20 2661.54
   23:58:41.400.27-May-2021 3671.50 2809.70 84.34 3.00 366.40 2661.54
   23:58:41.600.27-May-2021 3671.50 6214.27 84.34 3.00 366.60 2661.54
   23:58:41.800.27-May-2021 3671.50 6210.12 84.34 3.00 366.80 2661.54
   23:58:42.000.27-May-2021 3671.50 6207.77 84.34 3.00 367.00 2661.54
   23:58:42.200.27-May-2021 3671.50 6207.77 84.34 3.00 367.20 2661.54
   23:58:42.400.27-May-2021 3671.50 6208.74 84.34 3.00 367.40 2661.54
   23:58:42.600.27-May-2021 3671.50 6209.86 84.35 3.00 367.60 2661.54
   23:58:42.800.27-May-2021 3671.50 6211.62 84.35 3.00 367.80 2661.54
