~Version Information
 VERS.                  2.0:   CWLS log ASCII Standard -VERSION 2.0
 WRAP.                   NO:   One line per depth step
~Well Information Block
#MNEM.UNIT     VALUE/NAME     DESCRIPTION
#---------     -----------    ---------------------------
 STRT.S             00:59:34 28-May-21: START TIME 00:59:34 28-May-21
 STOP.S             01:06:40 28-May-21: STOP TIME  01:06:40 28-May-21
 STEP.S                   0.00: STEP TIME
 NULL.                 -999.25: NULL VALUE
 UWI .                     N/A:  UNIQUE WELL IDENTIFIER
 API .                     N/A:  API NUMBER
 UNIT.                     N/A:  LOGGING EQUIPMENT ID
 DCON.         Sperry Drilling:  DIRECTNL CONTR
 DOE .                     N/A:  DOE NUMBER
 MWDS.                    Baku:  MWD SHOP
 SRVC.     Turan Drilling and Engineering:  CONTRACTOR
 CTRY.              Azerbaijan:  COUNTRY NAME
 PROV.                    Baku:  PROVINCE
 STAT.                    Baku:  STATE NAME
 REGN.                   EESSA:  REGION
 BASE.              Azerbaijan:  LOGGING EQUIPMENT BASE LOCATION
 WTYP.                Deviated:  WELL TYPE
 RIG .              East Azeri:  RIG NAME
 WELL.                    D02y:  WELL NAME
 FLD .                     ACG:  FIELD NAME
 COMP.     BP Exploration (Caspian Sea) Ltd.:  COMPANY
 PDAT.          Mean Sea Level:  PERMANENT DATUM
 MDS .        Operator Entered:  MAG DATA SOURCE
 SON .        AZ-XX-0906997291:  JOB NUMBER
 FTOP.          Formation Tops:  FORM TOPS DESC
 ILTD.               Lithology:  INTERP LTH DESC
 SVYD.                  Survey:  SURVEY DESC
 DMOD.             Drill Model:  DRILL MOD DESC
 HPTY.       Minimum Curvature:  HOLE POS TYPE
 NREF.                    Grid:  NORTH REFERENCE
 SPUD.               05-May-21:  SPUD DATE
 DATE.      09.27.28 12-Jun-21:  END TIME
 STIM.      09.27.28 12-May-21:  START TIME
 DMF .             Drill Floor:  DRILL MEAS FROM
 DFST.                        :  DIST FSL TEXT
 DFWT.                        :  DIST FWL TEXT
 CNTY.                        :  COUNTY
 LOC .                        :  LOCATION
 LMF .             Drill Floor:  LOG MEASURED FROM
 DEP .m                2806.40:  DEPTH
 AGAP.m                  43.60:  AIR GAP
 VSNS.m                  -4.42:  VERT SEC N/S
 VSEW.m                  -7.31:  VERT SEC E/W
 APD .m                  43.60:  DEPTH ABOVE PD
 WDMS.m                 151.80:  WD ELEV
 EGL .m                   0.00:  GROUND ELEVATION
 EPD .m                   0.00:  ELEVATION
 AZTC.deg                 6.18:  AZM TOTAL CORR
 GRDC.deg                 0.29:  GRID CORRECTION
 MDEC.deg                 6.47:  MAGNETIC DECL
 MDIP.deg                59.50:  MAGNETIC DIP
 MFLD.nT              50350.00:  MAGNETIC FIELD
 GVFD.g                   1.00:  GRAVITY FIELD
 VSDR.deg               179.08:  VERT SEC DIRECT
 TDD .m                4300.00:  TOTAL DEPTH (DRILLER)
 SDEP.m                2800.00:  START DEPTH
 DFSL.m                   0.00:  DISTANCE FSL
 DFWL.m                   0.00:  DISTANCE FWL
 UTMY.m             4431871.34:  UTM Y
 UTMX.m              538762.90:  UTM X
 WHEW.m                  -7.31:  WELL HEAD E/W
 WHNS.m                  -4.42:  WELL HEAD N/S
 LONG.deg                51.45:  LONGITUDE
 LATI.deg                40.02:  LATITUDE
 TVDS.m                  43.60:  TVDSS CORRECTN
 EKB .m                  43.60:  KB ELEVATION
 EDF .m                  43.60:  DF ELEVATION
 TDL .m                 806.00:  TOTAL DEPTH (LOGGER)
 MAGU.                 1851231:  MAGUTM CHECKSUM
 VSC .                       0:  VS TO CLOSURE
~Parameter Information Block
#MNEM.UNIT       Value        Description
#---------     -----------    ---------------------------
 AV  .mps                 1.60:  Ann Velocity 
 AVMX.mps                 2.00:  Max Ann Veloc 
 AZIF.deg               140.24:  Azm, Final 
 BHAT.        Rotary Steerable:  BHA Type 
 BROT.°/30m               0.50:  Build Rotating 
 BS  .in                  8.50:  Bit Size 
 BTPL.psig              619.00:  Bit Press Loss 
 CABU.                     Yes:  Customer Abuse 
 CGEO.          Ilgar Gurbanov:  Customer Geo 
 COMM.                     ô:r:  Run Comments 1 
 TCS .hr                 85.88:  Time Ciculation Ended 
 CV  .mps                 3.30:  Crit Velocity 
 CVMX.mps                 3.50:  Max Crit Veloc 
 DD1 .           Hamid Axmedov:  Direct Drillr 1 
 DD2 .           Teymur Aliyev:  Direct Drillr 2 
 DDSV.               Geo-Pilot:  DD Service 
 DEFF.%                 100.00:  % Det Eff 
 DLRX.°/30m               0.00:  Dogleg Rot Max 
 DLSO.°/30m               1.80:  Dogleg Oriented 
 DLSX.°/30m               3.34:  Dogleg Str Max 
 DRET.      11.50.00 27-May-21:  Drill End Time 
 DRST.      21.13.00 24-May-21:  Drill Start Tim 
 DTIM.hr                 45.11:  Time Drilling 
 EDEP.m                4054.00:  End Depth 
 ENG1.         Almaz Almadatov:  Engineer 1 
 ENG2.           Amrah Tahirov:  Engineer 2 
 ENG3.      Bakhtiyar Jabbarli:  Engineer 3 
 ENG4.          Nazrin Asgarli:  Engineer 4 
 ETIM.      10.00.00 30-May-21:  End Time 
 FLOI.gpm               530.00:  Flow In 
 FLON.gpm               400.00:  Flow In Min 
 FLOS.cptm                0.00:  Fluid Loss 
 FLOX.gpm               560.00:  Flow In Max 
 DFT .        Mineral Oil Base:  Mud Type 
 FTRO.       Formation Presure:  FTWD Run Obj 
 HFLO.                      No:  High Flow 
 HPRE.                      No:  High Pressure 
 HTEM.                      No:  High Temp 
 HYDO.m                   1.80:  Hydro Offset 
 IFIN.deg                73.83:  Inc, Final 
 IMAX.deg                73.83:  Inc Max 
 IMIN.deg                57.86:  Inc Min 
 IMND.m                3259.27:  Inc Min Depth 
 IMXD.m                4045.58:  Inc Max Depth 
 JARR.                     Yes:  Jarring 
 LETM.      11.50.00 27-May-21:  Log End Time 
 LOST.hr                     0:  Lost Rig Time 
 LSTM.      21.13.00 24-May-21:  Log Start Time 
 MDCL.ppm             42500.00:  Mud Chlorides 
 MDES.     Inversion Oil/Synthetic:  Mud Desc 
 DFD .sg                  1.52:  Mud Density 
 MDMN.sg                  1.52:  Dens Mud Min 
 MDMX.sg                  1.52:  Dens Mud Max 
 MOIL.                      70:  Run Mud Oil % 
 MOWR.                   70:30:  Run Mud OWR 
 MSND.                     0.2:  Run Mud Sand % 
 MSOL.                      22:  Run Mud Solids% 
 DFV .spqt               77.00:  Mud Viscosity 
 MWOD.in                  6.75:  MWD Tool OD 
 MWSI.                      No:  Serv Intrp, MWD 
 OTIM.hr                151.01:  Time Operating 
 PCON.          Wear / Scratch:  Pad Condition 
 PMAX.psia            11296.93:  Press Op, Max 
 PV  .cP                 37.00:  Mud PV 
 RUN .                     500:  Run Number 
 ROPA.m/hr               25.00:  ROP Avg 
 ROPN.m/hr                9.00:  ROP Min 
 ROPX.m/hr               28.00:  ROP Max 
 RPMA.rpm               140.00:  RPM Surface Avg 
 RPMN.rpm                90.00:  RPM Surface Min 
 RPMX.rpm               140.00:  RPM Surface Max 
 RRUN.                    0500:  Rig Run Number 
 SAZI.deg               172.17:  Azm, Start 
 SDEP.m                3248.00:  Start Depth 
 SIDD.                      No:  Serv Intrp, DD 
 SINC.deg                57.86:  Inc, Start 
 SPPA.psig             5620.00:  SPP Avg 
 SPPN.psig             5190.00:  SPP Min 
 SPPX.psig             6050.00:  SPP Max 
 STIM.      16.00.00 23-May-21:  Start Time 
 SVCS.                 DD, MWD:  Services 
 SVER.                    9.20:  Sperry Version 
 TDAT.m                 806.00:  Tot Depth Attmp 
 TDDF.                      No:  Trip for DD 
 TDLG.m                 806.00:  Tot Depth Loggd 
 TFF .                      No:  Trip for Fail 
 TQAA.f-kp               12.00:  Torque Abs Avg 
 TQAN.f-kp                8.00:  Torque Abs Min 
 TQAX.f-kp               15.00:  Torque Abs Max 
 TRRT.°/30m               0.30:  Turn Rotating 
 MRT .                  EWR-M5:  Maximum Recorded Temperature 
 TTMX.degC               93.00:  Max Tool Temp 
 VS01.                90649155:  Virtual Str1 SN 
 VS02.                90642264:  Virtual Str2 SN 
 VS03.                90642266:  Virtual Str3 SN 
 VS04.                90642261:  Virtual Str4 SN 
 WBMN.klb                 0.00:  WOB Min 
 WITN.             Anar Khalil:  Customer Rep 
 WITN.           Murad Guliyev:  Customer Rep 2 
 WOBA.klb                13.00:  WOB Avg 
 WOBX.klb                25.00:  WOB Max 
 YP  .lhf2               32.00:  Yield Point 
~Curve Information Block
#MNEM.UNIT                 API CODE     Curve Description
#---------               -----------    ---------------------------
 TIME.HHMMSS            00 000 000 000:  GT Time & Date
 GTDEPTH.m              00 000 000 000:  GT Depth
 GTPQH.psia             00 000 000 000:  GT HR Quartz Pressure
 GTTQ.degC              00 000 000 000:  GT Quartz Temperature
 GTTN.NONE              00 000 000 000:  GT Test Number
 GTET.sec               00 000 000 000:  GT Elapsed Test Time
 GTTVD.m                00 000 000 000:  GT True Vertical Depth
#Other Information
#
#WARRANTY: Halliburton will use its best efforts to furnish customers with 
#accurate information and interpretations that are part of, and incident to, the services 
#provided.  However, Halliburton cannot and does not warrant the accuracy 
#or correctness of such information and interpretations.  Under no circumstances should any 
#such information or interpretation be relied upon as the sole basis for any drilling, 
#completion, production, or financial decision or any procedure involving any risk to the 
#safety of any drilling venture, drilling rig or its crew or any other third party.  The 
#Customer has full responsibility for all drilling, completion and production operation.  
#Halliburton makes no representations or warranties, either expressed or 
#implied, including, but not limited to, the implied warranties of merchantability or fitness 
#for a particular purpose, with respect to the services rendered.  In no event will 
#Halliburton be liable for failure to obtain any particular results or for 
#any damages, including, but not limited to, indirect, special or consequential damages, 
#resulting from the use of any information or interpretation provided by Halliburton.
#
~A           TIME           GTDEPTH  GTPQH  GTTQ  GTTN  GTET   GTTVD  
# ...
   00:59:57.975.28-May-2021 3649.00 6202.97 85.04 5.00  23.02 2653.32
   00:59:58.175.28-May-2021 3649.00 6202.97 85.04 5.00  23.22 2653.32
   00:59:58.376.28-May-2021 3649.00 6195.92 85.04 5.00  23.42 2653.32
   00:59:58.576.28-May-2021 3649.00 6195.86 85.04 5.00  23.62 2653.32
   00:59:58.776.28-May-2021 3649.00 6195.78 85.04 5.00  23.82 2653.32
   00:59:58.976.28-May-2021 3649.00 6195.82 85.04 5.00  24.02 2653.32
   00:59:59.177.28-May-2021 3649.00 6195.82 85.04 5.00  24.23 2653.32
   00:59:59.377.28-May-2021 3649.00 6196.07 85.04 5.00  24.43 2653.32
   00:59:59.577.28-May-2021 3649.00 6196.61 85.04 5.00  24.63 2653.32
   00:59:59.777.28-May-2021 3649.00 6196.87 85.04 5.00  24.83 2653.32
   00:59:59.977.28-May-2021 3649.00 6197.44 85.04 5.00  25.03 2653.32
   01:00:00.178.28-May-2021 3649.00 6197.44 85.04 5.00  25.23 2653.32
   01:00:00.378.28-May-2021 3649.00 6197.64 85.04 5.00  25.43 2653.32
   01:00:00.578.28-May-2021 3649.00 6199.10 85.04 5.00  25.63 2653.32
   01:00:00.778.28-May-2021 3649.00 6200.66 85.04 5.00  25.83 2653.32
   01:00:00.978.28-May-2021 3649.00 6197.69 85.04 5.00  26.03 2653.32
   01:00:01.179.28-May-2021 3649.00 6197.69 85.04 5.00  26.23 2653.32
   01:00:01.379.28-May-2021 3649.00 6197.90 85.04 5.00  26.43 2653.32
   01:00:01.579.28-May-2021 3649.00 6204.30 85.04 5.00  26.63 2653.32
   01:00:01.779.28-May-2021 3649.00 6194.42 85.04 5.00  26.83 2653.32
   01:00:01.979.28-May-2021 3649.00 6197.61 85.04 5.00  27.03 2653.32
   01:00:02.180.28-May-2021 3649.00 6197.61 85.04 5.00  27.23 2653.32
   01:00:02.380.28-May-2021 3649.00 6196.71 85.04 5.00  27.43 2653.32
   01:00:02.580.28-May-2021 3649.00 6198.10 85.04 5.00  27.63 2653.32
   01:00:02.780.28-May-2021 3649.00 6203.21 85.04 5.00  27.83 2653.32
   01:00:02.980.28-May-2021 3649.00 6197.78 85.04 5.00  28.03 2653.32
   01:00:03.181.28-May-2021 3649.00 6197.78 85.04 5.00  28.23 2653.32
   01:00:03.381.28-May-2021 3649.00 6198.01 85.04 5.00  28.43 2653.32
   01:00:03.581.28-May-2021 3649.00 6199.00 85.04 5.00  28.63 2653.32
   01:00:03.781.28-May-2021 3649.00 6198.88 85.04 5.00  28.83 2653.32
   01:00:03.982.28-May-2021 3649.00 6198.40 85.04 5.00  29.03 2653.32
   01:00:04.182.28-May-2021 3649.00 6198.40 85.04 5.00  29.23 2653.32
   01:00:04.382.28-May-2021 3649.00 6199.29 85.04 5.00  29.43 2653.32
   01:00:04.582.28-May-2021 3649.00 6199.15 85.04 5.00  29.63 2653.32
   01:00:04.782.28-May-2021 3649.00 6199.74 85.04 5.00  29.83 2653.32
   01:00:04.983.28-May-2021 3649.00 6199.76 85.04 5.00  30.03 2653.32
   01:00:05.183.28-May-2021 3649.00 6199.76 85.04 5.00  30.23 2653.32
   01:00:05.383.28-May-2021 3649.00 6204.79 85.04 5.00  30.43 2653.32
   01:00:05.583.28-May-2021 3649.00 6199.18 85.04 5.00  30.63 2653.32
   01:00:05.783.28-May-2021 3649.00 6199.98 85.04 5.00  30.83 2653.32
   01:00:05.984.28-May-2021 3649.00 6199.51 85.04 5.00  31.03 2653.32
   01:00:06.184.28-May-2021 3649.00 6199.51 85.04 5.00  31.23 2653.32
   01:00:06.384.28-May-2021 3649.00 6199.49 85.04 5.00  31.43 2653.32
   01:00:06.584.28-May-2021 3649.00 6199.42 85.04 5.00  31.63 2653.32
   01:00:06.784.28-May-2021 3649.00 6199.65 85.04 5.00  31.83 2653.32
   01:00:06.985.28-May-2021 3649.00 6199.92 85.04 5.00  32.03 2653.32
   01:00:07.185.28-May-2021 3649.00 6199.92 85.04 5.00  32.23 2653.32
   01:00:07.385.28-May-2021 3649.00 6200.74 85.04 5.00  32.43 2653.32
   01:00:07.585.28-May-2021 3649.00 6201.05 85.04 5.00  32.63 2653.32
   01:00:07.785.28-May-2021 3649.00 6201.17 85.04 5.00  32.83 2653.32
   01:00:07.986.28-May-2021 3649.00 6201.11 85.04 5.00  33.03 2653.32
   01:00:08.186.28-May-2021 3649.00 6201.11 85.04 5.00  33.23 2653.32
   01:00:08.386.28-May-2021 3649.00 6200.87 85.04 5.00  33.43 2653.32
   01:00:08.586.28-May-2021 3649.00 6200.78 85.04 5.00  33.63 2653.32
   01:00:08.787.28-May-2021 3649.00 6201.16 85.04 5.00  33.84 2653.32
   01:00:08.987.28-May-2021 3649.00 6207.51 85.04 5.00  34.04 2653.32
   01:00:09.187.28-May-2021 3649.00 6207.51 85.04 5.00  34.24 2653.32
   01:00:09.387.28-May-2021 3649.00 6201.02 85.04 5.00  34.44 2653.32
   01:00:09.587.28-May-2021 3649.00 6200.62 85.04 5.00  34.64 2653.32
   01:00:09.788.28-May-2021 3649.00 6208.00 85.04 5.00  34.84 2653.32
   01:00:09.988.28-May-2021 3649.00 6198.45 85.03 5.00  35.04 2653.32
   01:00:10.188.28-May-2021 3649.00 6198.45 85.03 5.00  35.24 2653.32
   01:00:10.388.28-May-2021 3649.00 6201.42 85.03 5.00  35.44 2653.32
   01:00:10.588.28-May-2021 3649.00 6201.18 85.03 5.00  35.64 2653.32
   01:00:10.789.28-May-2021 3649.00 6205.97 85.03 5.00  35.84 2653.32
   01:00:10.989.28-May-2021 3649.00 6201.12 85.03 5.00  36.04 2653.32
   01:00:11.189.28-May-2021 3649.00 6201.12 85.03 5.00  36.24 2653.32
   01:00:11.389.28-May-2021 3649.00 6201.63 85.03 5.00  36.44 2653.32
   01:00:11.589.28-May-2021 3649.00 6202.05 85.03 5.00  36.64 2653.32
   01:00:11.790.28-May-2021 3649.00 6202.38 85.03 5.00  36.84 2653.32
   01:00:11.990.28-May-2021 3649.00 6202.02 85.03 5.00  37.04 2653.32
   01:00:12.190.28-May-2021 3649.00 6202.02 85.03 5.00  37.24 2653.32
   01:00:12.390.28-May-2021 3649.00 6202.44 85.03 5.00  37.44 2653.32
   01:00:12.590.28-May-2021 3649.00 6202.63 85.03 5.00  37.64 2653.32
   01:00:12.791.28-May-2021 3649.00 6203.03 85.03 5.00  37.84 2653.32
   01:00:12.991.28-May-2021 3649.00 6203.52 85.03 5.00  38.04 2653.32
   01:00:13.191.28-May-2021 3649.00 6203.52 85.03 5.00  38.24 2653.32
   01:00:13.391.28-May-2021 3649.00 6203.11 85.03 5.00  38.44 2653.32
   01:00:13.592.28-May-2021 3649.00 6204.32 85.03 5.00  38.64 2653.32
   01:00:13.792.28-May-2021 3649.00 6205.88 85.03 5.00  38.84 2653.32
   01:00:13.992.28-May-2021 3649.00 6203.25 85.03 5.00  39.04 2653.32
   01:00:14.192.28-May-2021 3649.00 6203.25 85.03 5.00  39.24 2653.32
   01:00:14.392.28-May-2021 3649.00 6203.58 85.03 5.00  39.44 2653.32
   01:00:14.593.28-May-2021 3649.00 6202.97 85.03 5.00  39.64 2653.32
   01:00:14.793.28-May-2021 3649.00 6202.85 85.03 5.00  39.84 2653.32
   01:00:14.993.28-May-2021 3649.00 6203.19 85.03 5.00  40.04 2653.32
   01:00:15.193.28-May-2021 3649.00 6203.19 85.03 5.00  40.24 2653.32
   01:00:15.393.28-May-2021 3649.00 6203.41 85.03 5.00  40.44 2653.32
   01:00:15.594.28-May-2021 3649.00 6203.76 85.03 5.00  40.64 2653.32
   01:00:15.794.28-May-2021 3649.00 6190.28 85.03 5.00  40.84 2653.32
   01:00:15.994.28-May-2021 3649.00 6128.12 85.03 5.00  41.04 2653.32
   01:00:16.194.28-May-2021 3649.00 6128.12 85.03 5.00  41.24 2653.32
   01:00:16.394.28-May-2021 3649.00 6586.74 85.03 5.00  41.44 2653.32
   01:00:16.595.28-May-2021 3649.00 6634.29 85.03 5.00  41.64 2653.32
   01:00:16.795.28-May-2021 3649.00 6638.07 85.03 5.00  41.84 2653.32
   01:00:16.995.28-May-2021 3649.00 6658.06 85.03 5.00  42.04 2653.32
   01:00:17.195.28-May-2021 3649.00 6658.06 85.03 5.00  42.24 2653.32
   01:00:17.395.28-May-2021 3649.00 6721.81 85.03 5.00  42.44 2653.32
   01:00:17.596.28-May-2021 3649.00 6730.30 85.03 5.00  42.64 2653.32
   01:00:17.796.28-May-2021 3649.00 6765.65 85.03 5.00  42.84 2653.32
   01:00:17.996.28-May-2021 3649.00 6783.69 85.03 5.00  43.04 2653.32
   01:00:18.196.28-May-2021 3649.00 6783.69 85.03 5.00  43.24 2653.32
   01:00:18.397.28-May-2021 3649.00 6683.50 85.03 5.00  43.45 2653.32
   01:00:18.597.28-May-2021 3649.00 6624.77 85.03 5.00  43.65 2653.32
   01:00:18.797.28-May-2021 3649.00 6594.41 85.03 5.00  43.85 2653.32
   01:00:18.997.28-May-2021 3649.00 6625.76 85.03 5.00  44.05 2653.32
   01:00:19.197.28-May-2021 3649.00 6625.76 85.03 5.00  44.25 2653.32
   01:00:19.398.28-May-2021 3649.00 6649.17 85.03 5.00  44.45 2653.32
   01:00:19.598.28-May-2021 3649.00 6651.21 85.03 5.00  44.65 2653.32
   01:00:19.798.28-May-2021 3649.00 6652.83 85.03 5.00  44.85 2653.32
   01:00:19.998.28-May-2021 3649.00 6658.60 85.03 5.00  45.05 2653.32
   01:00:20.198.28-May-2021 3649.00 6658.60 85.03 5.00  45.25 2653.32
   01:00:20.399.28-May-2021 3649.00 6657.49 85.03 5.00  45.45 2653.32
   01:00:20.599.28-May-2021 3649.00 6650.58 85.03 5.00  45.65 2653.32
   01:00:20.799.28-May-2021 3649.00 6653.25 85.03 5.00  45.85 2653.32
