~Version Information
 VERS.                  2.0:   CWLS log ASCII Standard -VERSION 2.0
 WRAP.                   NO:   One line per depth step
~Well Information Block
#MNEM.UNIT     VALUE/NAME     DESCRIPTION
#---------     -----------    ---------------------------
 STRT.S             04:49:06 28-May-21: START TIME 04:49:06 28-May-21
 STOP.S             04:56:13 28-May-21: STOP TIME  04:56:13 28-May-21
 STEP.S                   0.00: STEP TIME
 NULL.                 -999.25: NULL VALUE
 UWI .                     N/A:  UNIQUE WELL IDENTIFIER
 API .                     N/A:  API NUMBER
 UNIT.                     N/A:  LOGGING EQUIPMENT ID
 DCON.         Sperry Drilling:  DIRECTNL CONTR
 DOE .                     N/A:  DOE NUMBER
 MWDS.                    Baku:  MWD SHOP
 SRVC.     Turan Drilling and Engineering:  CONTRACTOR
 CTRY.              Azerbaijan:  COUNTRY NAME
 PROV.                    Baku:  PROVINCE
 STAT.                    Baku:  STATE NAME
 REGN.                   EESSA:  REGION
 BASE.              Azerbaijan:  LOGGING EQUIPMENT BASE LOCATION
 WTYP.                Deviated:  WELL TYPE
 RIG .              East Azeri:  RIG NAME
 WELL.                    D02y:  WELL NAME
 FLD .                     ACG:  FIELD NAME
 COMP.     BP Exploration (Caspian Sea) Ltd.:  COMPANY
 PDAT.          Mean Sea Level:  PERMANENT DATUM
 MDS .        Operator Entered:  MAG DATA SOURCE
 SON .        AZ-XX-0906997291:  JOB NUMBER
 FTOP.          Formation Tops:  FORM TOPS DESC
 ILTD.               Lithology:  INTERP LTH DESC
 SVYD.                  Survey:  SURVEY DESC
 DMOD.             Drill Model:  DRILL MOD DESC
 HPTY.       Minimum Curvature:  HOLE POS TYPE
 NREF.                    Grid:  NORTH REFERENCE
 SPUD.               05-May-21:  SPUD DATE
 DATE.      09.27.28 12-Jun-21:  END TIME
 STIM.      09.27.28 12-May-21:  START TIME
 DMF .             Drill Floor:  DRILL MEAS FROM
 DFST.                        :  DIST FSL TEXT
 DFWT.                        :  DIST FWL TEXT
 CNTY.                        :  COUNTY
 LOC .                        :  LOCATION
 LMF .             Drill Floor:  LOG MEASURED FROM
 DEP .m                2806.40:  DEPTH
 AGAP.m                  43.60:  AIR GAP
 VSNS.m                  -4.42:  VERT SEC N/S
 VSEW.m                  -7.31:  VERT SEC E/W
 APD .m                  43.60:  DEPTH ABOVE PD
 WDMS.m                 151.80:  WD ELEV
 EGL .m                   0.00:  GROUND ELEVATION
 EPD .m                   0.00:  ELEVATION
 AZTC.deg                 6.18:  AZM TOTAL CORR
 GRDC.deg                 0.29:  GRID CORRECTION
 MDEC.deg                 6.47:  MAGNETIC DECL
 MDIP.deg                59.50:  MAGNETIC DIP
 MFLD.nT              50350.00:  MAGNETIC FIELD
 GVFD.g                   1.00:  GRAVITY FIELD
 VSDR.deg               179.08:  VERT SEC DIRECT
 TDD .m                4300.00:  TOTAL DEPTH (DRILLER)
 SDEP.m                2800.00:  START DEPTH
 DFSL.m                   0.00:  DISTANCE FSL
 DFWL.m                   0.00:  DISTANCE FWL
 UTMY.m             4431871.34:  UTM Y
 UTMX.m              538762.90:  UTM X
 WHEW.m                  -7.31:  WELL HEAD E/W
 WHNS.m                  -4.42:  WELL HEAD N/S
 LONG.deg                51.45:  LONGITUDE
 LATI.deg                40.02:  LATITUDE
 TVDS.m                  43.60:  TVDSS CORRECTN
 EKB .m                  43.60:  KB ELEVATION
 EDF .m                  43.60:  DF ELEVATION
 TDL .m                 806.00:  TOTAL DEPTH (LOGGER)
 MAGU.                 1851231:  MAGUTM CHECKSUM
 VSC .                       0:  VS TO CLOSURE
~Parameter Information Block
#MNEM.UNIT       Value        Description
#---------     -----------    ---------------------------
 AV  .mps                 1.60:  Ann Velocity 
 AVMX.mps                 2.00:  Max Ann Veloc 
 AZIF.deg               140.24:  Azm, Final 
 BHAT.        Rotary Steerable:  BHA Type 
 BROT.°/30m               0.50:  Build Rotating 
 BS  .in                  8.50:  Bit Size 
 BTPL.psig              619.00:  Bit Press Loss 
 CABU.                     Yes:  Customer Abuse 
 CGEO.          Ilgar Gurbanov:  Customer Geo 
 COMM.                     Lñv:  Run Comments 1 
 TCS .hr                 85.88:  Time Ciculation Ended 
 CV  .mps                 3.30:  Crit Velocity 
 CVMX.mps                 3.50:  Max Crit Veloc 
 DD1 .           Hamid Axmedov:  Direct Drillr 1 
 DD2 .           Teymur Aliyev:  Direct Drillr 2 
 DDSV.               Geo-Pilot:  DD Service 
 DEFF.%                 100.00:  % Det Eff 
 DLRX.°/30m               0.00:  Dogleg Rot Max 
 DLSO.°/30m               1.80:  Dogleg Oriented 
 DLSX.°/30m               3.34:  Dogleg Str Max 
 DRET.      11.50.00 27-May-21:  Drill End Time 
 DRST.      21.13.00 24-May-21:  Drill Start Tim 
 DTIM.hr                 45.11:  Time Drilling 
 EDEP.m                4054.00:  End Depth 
 ENG1.         Almaz Almadatov:  Engineer 1 
 ENG2.           Amrah Tahirov:  Engineer 2 
 ENG3.      Bakhtiyar Jabbarli:  Engineer 3 
 ENG4.          Nazrin Asgarli:  Engineer 4 
 ETIM.      10.00.00 30-May-21:  End Time 
 FLOI.gpm               530.00:  Flow In 
 FLON.gpm               400.00:  Flow In Min 
 FLOS.cptm                0.00:  Fluid Loss 
 FLOX.gpm               560.00:  Flow In Max 
 DFT .        Mineral Oil Base:  Mud Type 
 FTRO.       Formation Presure:  FTWD Run Obj 
 HFLO.                      No:  High Flow 
 HPRE.                      No:  High Pressure 
 HTEM.                      No:  High Temp 
 HYDO.m                   1.80:  Hydro Offset 
 IFIN.deg                73.83:  Inc, Final 
 IMAX.deg                73.83:  Inc Max 
 IMIN.deg                57.86:  Inc Min 
 IMND.m                3259.27:  Inc Min Depth 
 IMXD.m                4045.58:  Inc Max Depth 
 JARR.                     Yes:  Jarring 
 LETM.      11.50.00 27-May-21:  Log End Time 
 LOST.hr                     0:  Lost Rig Time 
 LSTM.      21.13.00 24-May-21:  Log Start Time 
 MDCL.ppm             42500.00:  Mud Chlorides 
 MDES.     Inversion Oil/Synthetic:  Mud Desc 
 DFD .sg                  1.52:  Mud Density 
 MDMN.sg                  1.52:  Dens Mud Min 
 MDMX.sg                  1.52:  Dens Mud Max 
 MOIL.                      70:  Run Mud Oil % 
 MOWR.                   70:30:  Run Mud OWR 
 MSND.                     0.2:  Run Mud Sand % 
 MSOL.                      22:  Run Mud Solids% 
 DFV .spqt               77.00:  Mud Viscosity 
 MWOD.in                  6.75:  MWD Tool OD 
 MWSI.                      No:  Serv Intrp, MWD 
 OTIM.hr                151.01:  Time Operating 
 PCON.          Wear / Scratch:  Pad Condition 
 PMAX.psia            11296.93:  Press Op, Max 
 PV  .cP                 37.00:  Mud PV 
 RUN .                     500:  Run Number 
 ROPA.m/hr               25.00:  ROP Avg 
 ROPN.m/hr                9.00:  ROP Min 
 ROPX.m/hr               28.00:  ROP Max 
 RPMA.rpm               140.00:  RPM Surface Avg 
 RPMN.rpm                90.00:  RPM Surface Min 
 RPMX.rpm               140.00:  RPM Surface Max 
 RRUN.                    0500:  Rig Run Number 
 SAZI.deg               172.17:  Azm, Start 
 SDEP.m                3248.00:  Start Depth 
 SIDD.                      No:  Serv Intrp, DD 
 SINC.deg                57.86:  Inc, Start 
 SPPA.psig             5620.00:  SPP Avg 
 SPPN.psig             5190.00:  SPP Min 
 SPPX.psig             6050.00:  SPP Max 
 STIM.      16.00.00 23-May-21:  Start Time 
 SVCS.                 DD, MWD:  Services 
 SVER.                    9.20:  Sperry Version 
 TDAT.m                 806.00:  Tot Depth Attmp 
 TDDF.                      No:  Trip for DD 
 TDLG.m                 806.00:  Tot Depth Loggd 
 TFF .                      No:  Trip for Fail 
 TQAA.f-kp               12.00:  Torque Abs Avg 
 TQAN.f-kp                8.00:  Torque Abs Min 
 TQAX.f-kp               15.00:  Torque Abs Max 
 TRRT.°/30m               0.30:  Turn Rotating 
 MRT .                  EWR-M5:  Maximum Recorded Temperature 
 TTMX.degC               93.00:  Max Tool Temp 
 VS01.                90649155:  Virtual Str1 SN 
 VS02.                90642264:  Virtual Str2 SN 
 VS03.                90642266:  Virtual Str3 SN 
 VS04.                90642261:  Virtual Str4 SN 
 WBMN.klb                 0.00:  WOB Min 
 WITN.             Anar Khalil:  Customer Rep 
 WITN.           Murad Guliyev:  Customer Rep 2 
 WOBA.klb                13.00:  WOB Avg 
 WOBX.klb                25.00:  WOB Max 
 YP  .lhf2               32.00:  Yield Point 
~Curve Information Block
#MNEM.UNIT                 API CODE     Curve Description
#---------               -----------    ---------------------------
 TIME.HHMMSS            00 000 000 000:  GT Time & Date
 GTDEPTH.m              00 000 000 000:  GT Depth
 GTPQH.psia             00 000 000 000:  GT HR Quartz Pressure
 GTTQ.degC              00 000 000 000:  GT Quartz Temperature
 GTTN.NONE              00 000 000 000:  GT Test Number
 GTET.sec               00 000 000 000:  GT Elapsed Test Time
 GTTVD.m                00 000 000 000:  GT True Vertical Depth
#Other Information
#
#WARRANTY: Halliburton will use its best efforts to furnish customers with 
#accurate information and interpretations that are part of, and incident to, the services 
#provided.  However, Halliburton cannot and does not warrant the accuracy 
#or correctness of such information and interpretations.  Under no circumstances should any 
#such information or interpretation be relied upon as the sole basis for any drilling, 
#completion, production, or financial decision or any procedure involving any risk to the 
#safety of any drilling venture, drilling rig or its crew or any other third party.  The 
#Customer has full responsibility for all drilling, completion and production operation.  
#Halliburton makes no representations or warranties, either expressed or 
#implied, including, but not limited to, the implied warranties of merchantability or fitness 
#for a particular purpose, with respect to the services rendered.  In no event will 
#Halliburton be liable for failure to obtain any particular results or for 
#any damages, including, but not limited to, indirect, special or consequential damages, 
#resulting from the use of any information or interpretation provided by Halliburton.
#
~A           TIME           GTDEPTH  GTPQH  GTTQ  GTTN  GTET   GTTVD  
# ...
   04:49:52.000.28-May-2021 3472.00 6752.72 82.98 9.00  46.00 2583.20
   04:49:52.200.28-May-2021 3472.00 6752.72 82.98 9.00  46.20 2583.20
   04:49:52.400.28-May-2021 3472.00 6741.13 82.98 9.00  46.40 2583.20
   04:49:52.600.28-May-2021 3472.00 6739.84 82.98 9.00  46.60 2583.20
   04:49:52.800.28-May-2021 3472.00 6735.63 82.98 9.00  46.80 2583.20
   04:49:53.000.28-May-2021 3472.00 6728.95 82.98 9.00  47.00 2583.20
   04:49:53.200.28-May-2021 3472.00 6728.95 82.98 9.00  47.20 2583.20
   04:49:53.400.28-May-2021 3472.00 6724.98 82.98 9.00  47.40 2583.20
   04:49:53.600.28-May-2021 3472.00 6721.68 82.98 9.00  47.60 2583.20
   04:49:53.800.28-May-2021 3472.00 6717.96 82.98 9.00  47.80 2583.20
   04:49:54.000.28-May-2021 3472.00 6713.30 82.98 9.00  48.00 2583.20
   04:49:54.200.28-May-2021 3472.00 6713.30 82.98 9.00  48.20 2583.20
   04:49:54.400.28-May-2021 3472.00 6708.48 82.98 9.00  48.40 2583.20
   04:49:54.600.28-May-2021 3472.00 6705.34 82.98 9.00  48.60 2583.20
   04:49:54.800.28-May-2021 3472.00 6695.32 82.98 9.00  48.80 2583.20
   04:49:55.000.28-May-2021 3472.00 6683.44 82.98 9.00  49.00 2583.20
   04:49:55.200.28-May-2021 3472.00 6683.44 82.98 9.00  49.20 2583.20
   04:49:55.400.28-May-2021 3472.00 6678.06 82.98 9.00  49.40 2583.20
   04:49:55.600.28-May-2021 3472.00 6675.32 82.98 9.00  49.60 2583.20
   04:49:55.800.28-May-2021 3472.00 6672.76 82.98 9.00  49.80 2583.20
   04:49:56.000.28-May-2021 3472.00 6289.43 82.98 9.00  50.00 2583.20
   04:49:56.200.28-May-2021 3472.00 6289.43 82.98 9.00  50.20 2583.20
   04:49:56.400.28-May-2021 3472.00 5388.07 82.98 9.00  50.40 2583.20
   04:49:56.600.28-May-2021 3472.00 4729.68 82.98 9.00  50.60 2583.20
   04:49:56.800.28-May-2021 3472.00 4086.75 82.98 9.00  50.80 2583.20
   04:49:57.000.28-May-2021 3472.00 3973.16 82.98 9.00  51.00 2583.20
   04:49:57.200.28-May-2021 3472.00 3973.16 82.98 9.00  51.20 2583.20
   04:49:57.400.28-May-2021 3472.00 3801.05 82.98 9.00  51.40 2583.20
   04:49:57.600.28-May-2021 3472.00 3818.09 82.98 9.00  51.60 2583.20
   04:49:57.800.28-May-2021 3472.00 3848.63 82.98 9.00  51.80 2583.20
   04:49:58.000.28-May-2021 3472.00 3862.58 82.98 9.00  52.00 2583.20
   04:49:58.200.28-May-2021 3472.00 3862.58 82.98 9.00  52.20 2583.20
   04:49:58.400.28-May-2021 3472.00 3875.95 82.97 9.00  52.40 2583.20
   04:49:58.600.28-May-2021 3472.00 3876.86 82.97 9.00  52.60 2583.20
   04:49:58.800.28-May-2021 3472.00 3881.48 82.97 9.00  52.80 2583.20
   04:49:59.000.28-May-2021 3472.00 3882.16 82.97 9.00  53.00 2583.20
   04:49:59.200.28-May-2021 3472.00 3882.16 82.97 9.00  53.20 2583.20
   04:49:59.400.28-May-2021 3472.00 3886.65 82.96 9.00  53.40 2583.20
   04:49:59.600.28-May-2021 3472.00 3887.18 82.96 9.00  53.60 2583.20
   04:49:59.800.28-May-2021 3472.00 3891.59 82.96 9.00  53.80 2583.20
   04:50:00.000.28-May-2021 3472.00 3890.77 82.96 9.00  54.00 2583.20
   04:50:00.200.28-May-2021 3472.00 3890.77 82.96 9.00  54.20 2583.20
   04:50:00.400.28-May-2021 3472.00 3890.05 82.95 9.00  54.40 2583.20
   04:50:00.600.28-May-2021 3472.00 3889.77 82.95 9.00  54.60 2583.20
   04:50:00.800.28-May-2021 3472.00 3889.26 82.95 9.00  54.80 2583.20
   04:50:01.000.28-May-2021 3472.00 3893.57 82.95 9.00  55.00 2583.20
   04:50:01.200.28-May-2021 3472.00 3893.57 82.95 9.00  55.20 2583.20
   04:50:01.400.28-May-2021 3472.00 3890.65 82.94 9.00  55.40 2583.20
   04:50:01.600.28-May-2021 3472.00 3895.21 82.94 9.00  55.60 2583.20
   04:50:01.800.28-May-2021 3472.00 3896.32 82.94 9.00  55.80 2583.20
   04:50:02.000.28-May-2021 3472.00 3889.45 82.94 9.00  56.00 2583.20
   04:50:02.200.28-May-2021 3472.00 3889.45 82.94 9.00  56.20 2583.20
   04:50:02.400.28-May-2021 3472.00 3891.87 82.93 9.00  56.40 2583.20
   04:50:02.600.28-May-2021 3472.00 3894.57 82.93 9.00  56.60 2583.20
   04:50:02.800.28-May-2021 3472.00 3895.49 82.93 9.00  56.80 2583.20
   04:50:03.000.28-May-2021 3472.00 3896.75 82.93 9.00  57.00 2583.20
   04:50:03.200.28-May-2021 3472.00 3896.75 82.93 9.00  57.20 2583.20
   04:50:03.400.28-May-2021 3472.00 3895.29 82.93 9.00  57.40 2583.20
   04:50:03.600.28-May-2021 3472.00 3895.31 82.93 9.00  57.60 2583.20
   04:50:03.800.28-May-2021 3472.00 3898.29 82.92 9.00  57.80 2583.20
   04:50:04.000.28-May-2021 3472.00 3898.18 82.92 9.00  58.00 2583.20
   04:50:04.200.28-May-2021 3472.00 3898.18 82.92 9.00  58.20 2583.20
   04:50:04.400.28-May-2021 3472.00 3894.97 82.92 9.00  58.40 2583.20
   04:50:04.600.28-May-2021 3472.00 3897.26 82.92 9.00  58.60 2583.20
   04:50:04.800.28-May-2021 3472.00 3899.06 82.92 9.00  58.80 2583.20
   04:50:05.000.28-May-2021 3472.00 3896.25 82.92 9.00  59.00 2583.20
   04:50:05.200.28-May-2021 3472.00 3896.25 82.92 9.00  59.20 2583.20
   04:50:05.400.28-May-2021 3472.00 3895.36 82.92 9.00  59.40 2583.20
   04:50:05.600.28-May-2021 3472.00 3899.29 82.92 9.00  59.60 2583.20
   04:50:05.800.28-May-2021 3472.00 3919.07 82.91 9.00  59.80 2583.20
   04:50:06.000.28-May-2021 3472.00 4141.05 82.91 9.00  60.00 2583.20
   04:50:06.200.28-May-2021 3472.00 4141.05 82.91 9.00  60.20 2583.20
   04:50:06.400.28-May-2021 3472.00 4225.85 82.91 9.00  60.40 2583.20
   04:50:06.600.28-May-2021 3472.00 4227.63 82.91 9.00  60.60 2583.20
   04:50:06.800.28-May-2021 3472.00 4228.21 82.91 9.00  60.80 2583.20
   04:50:07.000.28-May-2021 3472.00 4228.59 82.91 9.00  61.00 2583.20
   04:50:07.200.28-May-2021 3472.00 4228.59 82.91 9.00  61.20 2583.20
   04:50:07.400.28-May-2021 3472.00 4228.57 82.91 9.00  61.40 2583.20
   04:50:07.600.28-May-2021 3472.00 4230.74 82.91 9.00  61.60 2583.20
   04:50:07.800.28-May-2021 3472.00 4229.87 82.91 9.00  61.80 2583.20
   04:50:08.000.28-May-2021 3472.00 4229.93 82.91 9.00  62.00 2583.20
   04:50:08.200.28-May-2021 3472.00 4229.93 82.91 9.00  62.20 2583.20
   04:50:08.400.28-May-2021 3472.00 4230.07 82.91 9.00  62.40 2583.20
   04:50:08.600.28-May-2021 3472.00 4230.17 82.91 9.00  62.60 2583.20
   04:50:08.800.28-May-2021 3472.00 4230.13 82.91 9.00  62.80 2583.20
   04:50:09.000.28-May-2021 3472.00 4229.67 82.91 9.00  63.00 2583.20
   04:50:09.200.28-May-2021 3472.00 4229.67 82.91 9.00  63.20 2583.20
   04:50:09.400.28-May-2021 3472.00 4230.20 82.91 9.00  63.40 2583.20
   04:50:09.600.28-May-2021 3472.00 4230.33 82.91 9.00  63.60 2583.20
   04:50:09.800.28-May-2021 3472.00 4230.29 82.91 9.00  63.80 2583.20
   04:50:10.000.28-May-2021 3472.00 4230.40 82.91 9.00  64.00 2583.20
   04:50:10.200.28-May-2021 3472.00 4230.40 82.91 9.00  64.20 2583.20
   04:50:10.400.28-May-2021 3472.00 4230.27 82.91 9.00  64.40 2583.20
   04:50:10.600.28-May-2021 3472.00 4230.41 82.91 9.00  64.60 2583.20
   04:50:10.800.28-May-2021 3472.00 4230.42 82.91 9.00  64.80 2583.20
   04:50:11.000.28-May-2021 3472.00 4230.42 82.91 9.00  65.00 2583.20
   04:50:11.200.28-May-2021 3472.00 4230.42 82.91 9.00  65.20 2583.20
   04:50:11.400.28-May-2021 3472.00 4230.52 82.91 9.00  65.40 2583.20
   04:50:11.600.28-May-2021 3472.00 4230.52 82.91 9.00  65.60 2583.20
   04:50:11.800.28-May-2021 3472.00 4230.57 82.91 9.00  65.80 2583.20
   04:50:12.000.28-May-2021 3472.00 4230.55 82.91 9.00  66.00 2583.20
   04:50:12.200.28-May-2021 3472.00 4230.55 82.91 9.00  66.20 2583.20
   04:50:12.400.28-May-2021 3472.00 4230.60 82.91 9.00  66.40 2583.20
   04:50:12.600.28-May-2021 3472.00 4230.51 82.91 9.00  66.60 2583.20
   04:50:12.800.28-May-2021 3472.00 4230.61 82.91 9.00  66.80 2583.20
   04:50:13.000.28-May-2021 3472.00 4230.44 82.91 9.00  67.00 2583.20
   04:50:13.200.28-May-2021 3472.00 4230.44 82.91 9.00  67.20 2583.20
   04:50:13.400.28-May-2021 3472.00 4230.48 82.91 9.00  67.40 2583.20
   04:50:13.600.28-May-2021 3472.00 4230.55 82.91 9.00  67.60 2583.20
   04:50:13.800.28-May-2021 3472.00 4230.58 82.91 9.00  67.80 2583.20
   04:50:14.000.28-May-2021 3472.00 4230.61 82.91 9.00  68.00 2583.20
   04:50:14.200.28-May-2021 3472.00 4230.61 82.91 9.00  68.20 2583.20
   04:50:14.400.28-May-2021 3472.00 4230.62 82.91 9.00  68.40 2583.20
   04:50:14.600.28-May-2021 3472.00 4230.65 82.91 9.00  68.60 2583.20
   04:50:14.800.28-May-2021 3472.00 4230.68 82.91 9.00  68.80 2583.20
