~Version Information
 VERS.                  2.0:   CWLS log ASCII Standard -VERSION 2.0
 WRAP.                   NO:   One line per depth step
~Well Information Block
#MNEM.UNIT     VALUE/NAME     DESCRIPTION
#---------     -----------    ---------------------------
 STRT.S             09:05:41 28-May-21: START TIME 09:05:41 28-May-21
 STOP.S             09:12:44 28-May-21: STOP TIME  09:12:44 28-May-21
 STEP.S                   0.00: STEP TIME
 NULL.                 -999.25: NULL VALUE
 UWI .                     N/A:  UNIQUE WELL IDENTIFIER
 API .                     N/A:  API NUMBER
 UNIT.                     N/A:  LOGGING EQUIPMENT ID
 DCON.         Sperry Drilling:  DIRECTNL CONTR
 DOE .                     N/A:  DOE NUMBER
 MWDS.                    Baku:  MWD SHOP
 SRVC.     Turan Drilling and Engineering:  CONTRACTOR
 CTRY.              Azerbaijan:  COUNTRY NAME
 PROV.                    Baku:  PROVINCE
 STAT.                    Baku:  STATE NAME
 REGN.                   EESSA:  REGION
 BASE.              Azerbaijan:  LOGGING EQUIPMENT BASE LOCATION
 WTYP.                Deviated:  WELL TYPE
 RIG .              East Azeri:  RIG NAME
 WELL.                    D02y:  WELL NAME
 FLD .                     ACG:  FIELD NAME
 COMP.     BP Exploration (Caspian Sea) Ltd.:  COMPANY
 PDAT.          Mean Sea Level:  PERMANENT DATUM
 MDS .        Operator Entered:  MAG DATA SOURCE
 SON .        AZ-XX-0906997291:  JOB NUMBER
 FTOP.          Formation Tops:  FORM TOPS DESC
 ILTD.               Lithology:  INTERP LTH DESC
 SVYD.                  Survey:  SURVEY DESC
 DMOD.             Drill Model:  DRILL MOD DESC
 HPTY.       Minimum Curvature:  HOLE POS TYPE
 NREF.                    Grid:  NORTH REFERENCE
 SPUD.               05-May-21:  SPUD DATE
 DATE.      09.27.28 12-Jun-21:  END TIME
 STIM.      09.27.28 12-May-21:  START TIME
 DMF .             Drill Floor:  DRILL MEAS FROM
 DFST.                        :  DIST FSL TEXT
 DFWT.                        :  DIST FWL TEXT
 CNTY.                        :  COUNTY
 LOC .                        :  LOCATION
 LMF .             Drill Floor:  LOG MEASURED FROM
 DEP .m                2806.40:  DEPTH
 AGAP.m                  43.60:  AIR GAP
 VSNS.m                  -4.42:  VERT SEC N/S
 VSEW.m                  -7.31:  VERT SEC E/W
 APD .m                  43.60:  DEPTH ABOVE PD
 WDMS.m                 151.80:  WD ELEV
 EGL .m                   0.00:  GROUND ELEVATION
 EPD .m                   0.00:  ELEVATION
 AZTC.deg                 6.18:  AZM TOTAL CORR
 GRDC.deg                 0.29:  GRID CORRECTION
 MDEC.deg                 6.47:  MAGNETIC DECL
 MDIP.deg                59.50:  MAGNETIC DIP
 MFLD.nT              50350.00:  MAGNETIC FIELD
 GVFD.g                   1.00:  GRAVITY FIELD
 VSDR.deg               179.08:  VERT SEC DIRECT
 TDD .m                4300.00:  TOTAL DEPTH (DRILLER)
 SDEP.m                2800.00:  START DEPTH
 DFSL.m                   0.00:  DISTANCE FSL
 DFWL.m                   0.00:  DISTANCE FWL
 UTMY.m             4431871.34:  UTM Y
 UTMX.m              538762.90:  UTM X
 WHEW.m                  -7.31:  WELL HEAD E/W
 WHNS.m                  -4.42:  WELL HEAD N/S
 LONG.deg                51.45:  LONGITUDE
 LATI.deg                40.02:  LATITUDE
 TVDS.m                  43.60:  TVDSS CORRECTN
 EKB .m                  43.60:  KB ELEVATION
 EDF .m                  43.60:  DF ELEVATION
 TDL .m                 806.00:  TOTAL DEPTH (LOGGER)
 MAGU.                 1851231:  MAGUTM CHECKSUM
 VSC .                       0:  VS TO CLOSURE
~Parameter Information Block
#MNEM.UNIT       Value        Description
#---------     -----------    ---------------------------
 AV  .mps                 1.60:  Ann Velocity 
 AVMX.mps                 2.00:  Max Ann Veloc 
 AZIF.deg               140.24:  Azm, Final 
 BHAT.        Rotary Steerable:  BHA Type 
 BROT.°/30m               0.50:  Build Rotating 
 BS  .in                  8.50:  Bit Size 
 BTPL.psig              619.00:  Bit Press Loss 
 CABU.                     Yes:  Customer Abuse 
 CGEO.          Ilgar Gurbanov:  Customer Geo 
 COMM.                     ÜøQ:  Run Comments 1 
 TCS .hr                 85.88:  Time Ciculation Ended 
 CV  .mps                 3.30:  Crit Velocity 
 CVMX.mps                 3.50:  Max Crit Veloc 
 DD1 .           Hamid Axmedov:  Direct Drillr 1 
 DD2 .           Teymur Aliyev:  Direct Drillr 2 
 DDSV.               Geo-Pilot:  DD Service 
 DEFF.%                 100.00:  % Det Eff 
 DLRX.°/30m               0.00:  Dogleg Rot Max 
 DLSO.°/30m               1.80:  Dogleg Oriented 
 DLSX.°/30m               3.34:  Dogleg Str Max 
 DRET.      11.50.00 27-May-21:  Drill End Time 
 DRST.      21.13.00 24-May-21:  Drill Start Tim 
 DTIM.hr                 45.11:  Time Drilling 
 EDEP.m                4054.00:  End Depth 
 ENG1.         Almaz Almadatov:  Engineer 1 
 ENG2.           Amrah Tahirov:  Engineer 2 
 ENG3.      Bakhtiyar Jabbarli:  Engineer 3 
 ENG4.          Nazrin Asgarli:  Engineer 4 
 ETIM.      10.00.00 30-May-21:  End Time 
 FLOI.gpm               530.00:  Flow In 
 FLON.gpm               400.00:  Flow In Min 
 FLOS.cptm                0.00:  Fluid Loss 
 FLOX.gpm               560.00:  Flow In Max 
 DFT .        Mineral Oil Base:  Mud Type 
 FTRO.       Formation Presure:  FTWD Run Obj 
 HFLO.                      No:  High Flow 
 HPRE.                      No:  High Pressure 
 HTEM.                      No:  High Temp 
 HYDO.m                   1.80:  Hydro Offset 
 IFIN.deg                73.83:  Inc, Final 
 IMAX.deg                73.83:  Inc Max 
 IMIN.deg                57.86:  Inc Min 
 IMND.m                3259.27:  Inc Min Depth 
 IMXD.m                4045.58:  Inc Max Depth 
 JARR.                     Yes:  Jarring 
 LETM.      11.50.00 27-May-21:  Log End Time 
 LOST.hr                     0:  Lost Rig Time 
 LSTM.      21.13.00 24-May-21:  Log Start Time 
 MDCL.ppm             42500.00:  Mud Chlorides 
 MDES.     Inversion Oil/Synthetic:  Mud Desc 
 DFD .sg                  1.52:  Mud Density 
 MDMN.sg                  1.52:  Dens Mud Min 
 MDMX.sg                  1.52:  Dens Mud Max 
 MOIL.                      70:  Run Mud Oil % 
 MOWR.                   70:30:  Run Mud OWR 
 MSND.                     0.2:  Run Mud Sand % 
 MSOL.                      22:  Run Mud Solids% 
 DFV .spqt               77.00:  Mud Viscosity 
 MWOD.in                  6.75:  MWD Tool OD 
 MWSI.                      No:  Serv Intrp, MWD 
 OTIM.hr                151.01:  Time Operating 
 PCON.          Wear / Scratch:  Pad Condition 
 PMAX.psia            11296.93:  Press Op, Max 
 PV  .cP                 37.00:  Mud PV 
 RUN .                     500:  Run Number 
 ROPA.m/hr               25.00:  ROP Avg 
 ROPN.m/hr                9.00:  ROP Min 
 ROPX.m/hr               28.00:  ROP Max 
 RPMA.rpm               140.00:  RPM Surface Avg 
 RPMN.rpm                90.00:  RPM Surface Min 
 RPMX.rpm               140.00:  RPM Surface Max 
 RRUN.                    0500:  Rig Run Number 
 SAZI.deg               172.17:  Azm, Start 
 SDEP.m                3248.00:  Start Depth 
 SIDD.                      No:  Serv Intrp, DD 
 SINC.deg                57.86:  Inc, Start 
 SPPA.psig             5620.00:  SPP Avg 
 SPPN.psig             5190.00:  SPP Min 
 SPPX.psig             6050.00:  SPP Max 
 STIM.      16.00.00 23-May-21:  Start Time 
 SVCS.                 DD, MWD:  Services 
 SVER.                    9.20:  Sperry Version 
 TDAT.m                 806.00:  Tot Depth Attmp 
 TDDF.                      No:  Trip for DD 
 TDLG.m                 806.00:  Tot Depth Loggd 
 TFF .                      No:  Trip for Fail 
 TQAA.f-kp               12.00:  Torque Abs Avg 
 TQAN.f-kp                8.00:  Torque Abs Min 
 TQAX.f-kp               15.00:  Torque Abs Max 
 TRRT.°/30m               0.30:  Turn Rotating 
 MRT .                  EWR-M5:  Maximum Recorded Temperature 
 TTMX.degC               93.00:  Max Tool Temp 
 VS01.                90649155:  Virtual Str1 SN 
 VS02.                90642264:  Virtual Str2 SN 
 VS03.                90642266:  Virtual Str3 SN 
 VS04.                90642261:  Virtual Str4 SN 
 WBMN.klb                 0.00:  WOB Min 
 WITN.             Anar Khalil:  Customer Rep 
 WITN.           Murad Guliyev:  Customer Rep 2 
 WOBA.klb                13.00:  WOB Avg 
 WOBX.klb                25.00:  WOB Max 
 YP  .lhf2               32.00:  Yield Point 
~Curve Information Block
#MNEM.UNIT                 API CODE     Curve Description
#---------               -----------    ---------------------------
 TIME.HHMMSS            00 000 000 000:  GT Time & Date
 GTDEPTH.m              00 000 000 000:  GT Depth
 GTPQH.psia             00 000 000 000:  GT HR Quartz Pressure
 GTTQ.degC              00 000 000 000:  GT Quartz Temperature
 GTTN.NONE              00 000 000 000:  GT Test Number
 GTET.sec               00 000 000 000:  GT Elapsed Test Time
 GTTVD.m                00 000 000 000:  GT True Vertical Depth
#Other Information
#
#WARRANTY: Halliburton will use its best efforts to furnish customers with 
#accurate information and interpretations that are part of, and incident to, the services 
#provided.  However, Halliburton cannot and does not warrant the accuracy 
#or correctness of such information and interpretations.  Under no circumstances should any 
#such information or interpretation be relied upon as the sole basis for any drilling, 
#completion, production, or financial decision or any procedure involving any risk to the 
#safety of any drilling venture, drilling rig or its crew or any other third party.  The 
#Customer has full responsibility for all drilling, completion and production operation.  
#Halliburton makes no representations or warranties, either expressed or 
#implied, including, but not limited to, the implied warranties of merchantability or fitness 
#for a particular purpose, with respect to the services rendered.  In no event will 
#Halliburton be liable for failure to obtain any particular results or for 
#any damages, including, but not limited to, indirect, special or consequential damages, 
#resulting from the use of any information or interpretation provided by Halliburton.
#
~A           TIME           GTDEPTH  GTPQH  GTTQ  GTTN   GTET   GTTVD  
# ...
   09:12:27.975.28-May-2021 3286.00 5814.90 82.10 15.00 406.85 2493.81
   09:12:28.175.28-May-2021 3286.00 5814.74 82.10 15.00 407.05 2493.81
   09:12:28.375.28-May-2021 3286.00 5814.74 82.10 15.00 407.25 2493.81
   09:12:28.575.28-May-2021 3286.00 5814.50 82.10 15.00 407.45 2493.81
   09:12:28.775.28-May-2021 3286.00 5814.37 82.10 15.00 407.65 2493.81
   09:12:28.975.28-May-2021 3286.00 5814.31 82.10 15.00 407.86 2493.81
   09:12:29.175.28-May-2021 3286.00 5814.15 82.10 15.00 408.06 2493.81
   09:12:29.375.28-May-2021 3286.00 5814.15 82.10 15.00 408.26 2493.81
   09:12:29.575.28-May-2021 3286.00 5816.08 82.10 15.00 408.46 2493.81
   09:12:29.775.28-May-2021 3286.00 5814.81 82.10 15.00 408.66 2493.81
   09:12:29.975.28-May-2021 3286.00 5813.89 82.09 15.00 408.86 2493.81
   09:12:30.175.28-May-2021 3286.00 5815.27 82.09 15.00 409.06 2493.81
   09:12:30.375.28-May-2021 3286.00 5815.27 82.09 15.00 409.26 2493.81
   09:12:30.575.28-May-2021 3286.00 5822.01 82.09 15.00 409.46 2493.81
   09:12:30.775.28-May-2021 3286.00 5810.56 82.09 15.00 409.66 2493.81
   09:12:30.975.28-May-2021 3286.00 5814.90 82.09 15.00 409.86 2493.81
   09:12:31.175.28-May-2021 3286.00 5813.66 82.09 15.00 410.06 2493.81
   09:12:31.375.28-May-2021 3286.00 5813.66 82.09 15.00 410.26 2493.81
   09:12:31.575.28-May-2021 3286.00 5812.81 82.09 15.00 410.46 2493.81
   09:12:31.775.28-May-2021 3286.00 5815.35 82.09 15.00 410.66 2493.81
   09:12:31.975.28-May-2021 3286.00 5818.84 82.09 15.00 410.86 2493.81
   09:12:32.175.28-May-2021 3286.00 5813.62 82.09 15.00 411.06 2493.81
   09:12:32.375.28-May-2021 3286.00 5813.62 82.09 15.00 411.26 2493.81
   09:12:32.576.28-May-2021 3286.00 5814.51 82.09 15.00 411.46 2493.81
   09:12:32.776.28-May-2021 3286.00 5815.51 82.09 15.00 411.66 2493.81
   09:12:32.976.28-May-2021 3286.00 5814.55 82.09 15.00 411.86 2493.81
   09:12:33.176.28-May-2021 3286.00 5815.30 82.09 15.00 412.06 2493.81
   09:12:33.376.28-May-2021 3286.00 5815.30 82.09 15.00 412.26 2493.81
   09:12:33.576.28-May-2021 3286.00 5814.64 82.09 15.00 412.46 2493.81
   09:12:33.776.28-May-2021 3286.00 5814.41 82.09 15.00 412.66 2493.81
   09:12:33.976.28-May-2021 3286.00 5814.07 82.09 15.00 412.86 2493.81
   09:12:34.176.28-May-2021 3286.00 5813.94 82.09 15.00 413.06 2493.81
   09:12:34.376.28-May-2021 3286.00 5813.94 82.09 15.00 413.26 2493.81
   09:12:34.576.28-May-2021 3286.00 5821.17 82.09 15.00 413.46 2493.81
   09:12:34.776.28-May-2021 3286.00 5810.59 82.09 15.00 413.66 2493.81
   09:12:34.976.28-May-2021 3286.00 5814.94 82.09 15.00 413.86 2493.81
   09:12:35.176.28-May-2021 3286.00 5813.88 82.09 15.00 414.06 2493.81
   09:12:35.376.28-May-2021 3286.00 5813.88 82.09 15.00 414.26 2493.81
   09:12:35.576.28-May-2021 3286.00 5813.88 82.09 15.00 414.46 2493.81
   09:12:35.776.28-May-2021 3286.00 5814.89 82.09 15.00 414.66 2493.81
   09:12:35.976.28-May-2021 3286.00 5814.59 82.09 15.00 414.86 2493.81
   09:12:36.176.28-May-2021 3286.00 5814.57 82.09 15.00 415.06 2493.81
   09:12:36.376.28-May-2021 3286.00 5814.57 82.09 15.00 415.26 2493.81
   09:12:36.576.28-May-2021 3286.00 5814.43 82.09 15.00 415.46 2493.81
   09:12:36.776.28-May-2021 3286.00 5814.28 82.09 15.00 415.66 2493.81
   09:12:36.976.28-May-2021 3286.00 5814.24 82.09 15.00 415.86 2493.81
   09:12:37.176.28-May-2021 3286.00 5814.09 82.09 15.00 416.06 2493.81
   09:12:37.376.28-May-2021 3286.00 5814.09 82.09 15.00 416.26 2493.81
   09:12:37.576.28-May-2021 3286.00 5811.33 82.09 15.00 416.46 2493.81
   09:12:37.776.28-May-2021 3286.00 5814.63 82.09 15.00 416.66 2493.81
   09:12:37.976.28-May-2021 3286.00 5814.31 82.09 15.00 416.86 2493.81
   09:12:38.176.28-May-2021 3286.00 5814.33 82.09 15.00 417.06 2493.81
   09:12:38.376.28-May-2021 3286.00 5814.33 82.09 15.00 417.26 2493.81
   09:12:38.576.28-May-2021 3286.00 5816.19 82.09 15.00 417.46 2493.81
   09:12:38.776.28-May-2021 3286.00 5814.62 82.09 15.00 417.66 2493.81
   09:12:38.976.28-May-2021 3286.00 5813.81 82.09 15.00 417.86 2493.81
   09:12:39.176.28-May-2021 3286.00 5815.23 82.09 15.00 418.06 2493.81
   09:12:39.376.28-May-2021 3286.00 5815.23 82.09 15.00 418.26 2493.81
   09:12:39.576.28-May-2021 3286.00 5814.65 82.09 15.00 418.46 2493.81
   09:12:39.776.28-May-2021 3286.00 5814.49 82.09 15.00 418.66 2493.81
   09:12:39.977.28-May-2021 3286.00 5819.47 82.09 15.00 418.86 2493.81
   09:12:40.177.28-May-2021 3286.00 5813.98 82.09 15.00 419.06 2493.81
   09:12:40.377.28-May-2021 3286.00 5813.98 82.09 15.00 419.26 2493.81
   09:12:40.577.28-May-2021 3286.00 5815.84 82.09 15.00 419.46 2493.81
   09:12:40.777.28-May-2021 3286.00 5814.68 82.09 15.00 419.66 2493.81
   09:12:40.977.28-May-2021 3286.00 5815.72 82.09 15.00 419.86 2493.81
   09:12:41.177.28-May-2021 3286.00 5815.32 82.09 15.00 420.06 2493.81
   09:12:41.377.28-May-2021 3286.00 5815.32 82.09 15.00 420.26 2493.81
   09:12:41.577.28-May-2021 3286.00 5815.00 82.09 15.00 420.46 2493.81
   09:12:41.777.28-May-2021 3286.00 5814.67 82.09 15.00 420.66 2493.81
   09:12:41.977.28-May-2021 3286.00 5814.58 82.09 15.00 420.86 2493.81
   09:12:42.177.28-May-2021 3286.00 5814.53 82.09 15.00 421.06 2493.81
   09:12:42.377.28-May-2021 3286.00 5814.53 82.09 15.00 421.26 2493.81
   09:12:42.577.28-May-2021 3286.00 5816.04 82.09 15.00 421.46 2493.81
   09:12:42.777.28-May-2021 3286.00 5814.60 82.09 15.00 421.66 2493.81
   09:12:42.977.28-May-2021 3286.00 5813.97 82.09 15.00 421.86 2493.81
   09:12:43.177.28-May-2021 3286.00 5815.27 82.09 15.00 422.06 2493.81
   09:12:43.377.28-May-2021 3286.00 5815.27 82.09 15.00 422.26 2493.81
   09:12:43.577.28-May-2021 3286.00 5815.10 82.08 15.00 422.46 2493.81
   09:12:43.777.28-May-2021 3286.00 5814.49 82.08 15.00 422.66 2493.81
   09:12:43.977.28-May-2021 3286.00 5814.50 82.08 15.00 422.86 2493.81
   09:12:44.177.28-May-2021 3286.00 5814.60 82.08 15.00 423.06 2493.81
   09:12:44.377.28-May-2021 3286.00 5814.60 82.08 15.00 423.26 2493.81
   09:12:44.577.28-May-2021 3286.00 5814.13 82.08 15.00 423.46 2493.81
   09:12:44.777.28-May-2021 3286.00 5814.06 82.08 15.00 423.66 2493.81
   09:12:44.977.28-May-2021 3286.00 5813.96 82.08 15.00 423.86 2493.81
