~Version Information
 VERS.                  2.0:   CWLS log ASCII Standard -VERSION 2.0
 WRAP.                   NO:   One line per depth step
~Well Information Block
#MNEM.UNIT     VALUE/NAME     DESCRIPTION
#---------     -----------    ---------------------------
 STRT.S             05:48:37 28-May-21: START TIME 05:48:37 28-May-21
 STOP.S             05:55:44 28-May-21: STOP TIME  05:55:44 28-May-21
 STEP.S                   0.00: STEP TIME
 NULL.                 -999.25: NULL VALUE
 UWI .                     N/A:  UNIQUE WELL IDENTIFIER
 API .                     N/A:  API NUMBER
 UNIT.                     N/A:  LOGGING EQUIPMENT ID
 DCON.         Sperry Drilling:  DIRECTNL CONTR
 DOE .                     N/A:  DOE NUMBER
 MWDS.                    Baku:  MWD SHOP
 SRVC.     Turan Drilling and Engineering:  CONTRACTOR
 CTRY.              Azerbaijan:  COUNTRY NAME
 PROV.                    Baku:  PROVINCE
 STAT.                    Baku:  STATE NAME
 REGN.                   EESSA:  REGION
 BASE.              Azerbaijan:  LOGGING EQUIPMENT BASE LOCATION
 WTYP.                Deviated:  WELL TYPE
 RIG .              East Azeri:  RIG NAME
 WELL.                    D02y:  WELL NAME
 FLD .                     ACG:  FIELD NAME
 COMP.     BP Exploration (Caspian Sea) Ltd.:  COMPANY
 PDAT.          Mean Sea Level:  PERMANENT DATUM
 MDS .        Operator Entered:  MAG DATA SOURCE
 SON .        AZ-XX-0906997291:  JOB NUMBER
 FTOP.          Formation Tops:  FORM TOPS DESC
 ILTD.               Lithology:  INTERP LTH DESC
 SVYD.                  Survey:  SURVEY DESC
 DMOD.             Drill Model:  DRILL MOD DESC
 HPTY.       Minimum Curvature:  HOLE POS TYPE
 NREF.                    Grid:  NORTH REFERENCE
 SPUD.               05-May-21:  SPUD DATE
 DATE.      09.27.28 12-Jun-21:  END TIME
 STIM.      09.27.28 12-May-21:  START TIME
 DMF .             Drill Floor:  DRILL MEAS FROM
 DFST.                        :  DIST FSL TEXT
 DFWT.                        :  DIST FWL TEXT
 CNTY.                        :  COUNTY
 LOC .                        :  LOCATION
 LMF .             Drill Floor:  LOG MEASURED FROM
 DEP .m                2806.40:  DEPTH
 AGAP.m                  43.60:  AIR GAP
 VSNS.m                  -4.42:  VERT SEC N/S
 VSEW.m                  -7.31:  VERT SEC E/W
 APD .m                  43.60:  DEPTH ABOVE PD
 WDMS.m                 151.80:  WD ELEV
 EGL .m                   0.00:  GROUND ELEVATION
 EPD .m                   0.00:  ELEVATION
 AZTC.deg                 6.18:  AZM TOTAL CORR
 GRDC.deg                 0.29:  GRID CORRECTION
 MDEC.deg                 6.47:  MAGNETIC DECL
 MDIP.deg                59.50:  MAGNETIC DIP
 MFLD.nT              50350.00:  MAGNETIC FIELD
 GVFD.g                   1.00:  GRAVITY FIELD
 VSDR.deg               179.08:  VERT SEC DIRECT
 TDD .m                4300.00:  TOTAL DEPTH (DRILLER)
 SDEP.m                2800.00:  START DEPTH
 DFSL.m                   0.00:  DISTANCE FSL
 DFWL.m                   0.00:  DISTANCE FWL
 UTMY.m             4431871.34:  UTM Y
 UTMX.m              538762.90:  UTM X
 WHEW.m                  -7.31:  WELL HEAD E/W
 WHNS.m                  -4.42:  WELL HEAD N/S
 LONG.deg                51.45:  LONGITUDE
 LATI.deg                40.02:  LATITUDE
 TVDS.m                  43.60:  TVDSS CORRECTN
 EKB .m                  43.60:  KB ELEVATION
 EDF .m                  43.60:  DF ELEVATION
 TDL .m                 806.00:  TOTAL DEPTH (LOGGER)
 MAGU.                 1851231:  MAGUTM CHECKSUM
 VSC .                       0:  VS TO CLOSURE
~Parameter Information Block
#MNEM.UNIT       Value        Description
#---------     -----------    ---------------------------
 AV  .mps                 1.60:  Ann Velocity 
 AVMX.mps                 2.00:  Max Ann Veloc 
 AZIF.deg               140.24:  Azm, Final 
 BHAT.        Rotary Steerable:  BHA Type 
 BROT.°/30m               0.50:  Build Rotating 
 BS  .in                  8.50:  Bit Size 
 BTPL.psig              619.00:  Bit Press Loss 
 CABU.                     Yes:  Customer Abuse 
 CGEO.          Ilgar Gurbanov:  Customer Geo 
 COMM.                     dAY:  Run Comments 1 
 TCS .hr                 85.88:  Time Ciculation Ended 
 CV  .mps                 3.30:  Crit Velocity 
 CVMX.mps                 3.50:  Max Crit Veloc 
 DD1 .           Hamid Axmedov:  Direct Drillr 1 
 DD2 .           Teymur Aliyev:  Direct Drillr 2 
 DDSV.               Geo-Pilot:  DD Service 
 DEFF.%                 100.00:  % Det Eff 
 DLRX.°/30m               0.00:  Dogleg Rot Max 
 DLSO.°/30m               1.80:  Dogleg Oriented 
 DLSX.°/30m               3.34:  Dogleg Str Max 
 DRET.      11.50.00 27-May-21:  Drill End Time 
 DRST.      21.13.00 24-May-21:  Drill Start Tim 
 DTIM.hr                 45.11:  Time Drilling 
 EDEP.m                4054.00:  End Depth 
 ENG1.         Almaz Almadatov:  Engineer 1 
 ENG2.           Amrah Tahirov:  Engineer 2 
 ENG3.      Bakhtiyar Jabbarli:  Engineer 3 
 ENG4.          Nazrin Asgarli:  Engineer 4 
 ETIM.      10.00.00 30-May-21:  End Time 
 FLOI.gpm               530.00:  Flow In 
 FLON.gpm               400.00:  Flow In Min 
 FLOS.cptm                0.00:  Fluid Loss 
 FLOX.gpm               560.00:  Flow In Max 
 DFT .        Mineral Oil Base:  Mud Type 
 FTRO.       Formation Presure:  FTWD Run Obj 
 HFLO.                      No:  High Flow 
 HPRE.                      No:  High Pressure 
 HTEM.                      No:  High Temp 
 HYDO.m                   1.80:  Hydro Offset 
 IFIN.deg                73.83:  Inc, Final 
 IMAX.deg                73.83:  Inc Max 
 IMIN.deg                57.86:  Inc Min 
 IMND.m                3259.27:  Inc Min Depth 
 IMXD.m                4045.58:  Inc Max Depth 
 JARR.                     Yes:  Jarring 
 LETM.      11.50.00 27-May-21:  Log End Time 
 LOST.hr                     0:  Lost Rig Time 
 LSTM.      21.13.00 24-May-21:  Log Start Time 
 MDCL.ppm             42500.00:  Mud Chlorides 
 MDES.     Inversion Oil/Synthetic:  Mud Desc 
 DFD .sg                  1.52:  Mud Density 
 MDMN.sg                  1.52:  Dens Mud Min 
 MDMX.sg                  1.52:  Dens Mud Max 
 MOIL.                      70:  Run Mud Oil % 
 MOWR.                   70:30:  Run Mud OWR 
 MSND.                     0.2:  Run Mud Sand % 
 MSOL.                      22:  Run Mud Solids% 
 DFV .spqt               77.00:  Mud Viscosity 
 MWOD.in                  6.75:  MWD Tool OD 
 MWSI.                      No:  Serv Intrp, MWD 
 OTIM.hr                151.01:  Time Operating 
 PCON.          Wear / Scratch:  Pad Condition 
 PMAX.psia            11296.93:  Press Op, Max 
 PV  .cP                 37.00:  Mud PV 
 RUN .                     500:  Run Number 
 ROPA.m/hr               25.00:  ROP Avg 
 ROPN.m/hr                9.00:  ROP Min 
 ROPX.m/hr               28.00:  ROP Max 
 RPMA.rpm               140.00:  RPM Surface Avg 
 RPMN.rpm                90.00:  RPM Surface Min 
 RPMX.rpm               140.00:  RPM Surface Max 
 RRUN.                    0500:  Rig Run Number 
 SAZI.deg               172.17:  Azm, Start 
 SDEP.m                3248.00:  Start Depth 
 SIDD.                      No:  Serv Intrp, DD 
 SINC.deg                57.86:  Inc, Start 
 SPPA.psig             5620.00:  SPP Avg 
 SPPN.psig             5190.00:  SPP Min 
 SPPX.psig             6050.00:  SPP Max 
 STIM.      16.00.00 23-May-21:  Start Time 
 SVCS.                 DD, MWD:  Services 
 SVER.                    9.20:  Sperry Version 
 TDAT.m                 806.00:  Tot Depth Attmp 
 TDDF.                      No:  Trip for DD 
 TDLG.m                 806.00:  Tot Depth Loggd 
 TFF .                      No:  Trip for Fail 
 TQAA.f-kp               12.00:  Torque Abs Avg 
 TQAN.f-kp                8.00:  Torque Abs Min 
 TQAX.f-kp               15.00:  Torque Abs Max 
 TRRT.°/30m               0.30:  Turn Rotating 
 MRT .                  EWR-M5:  Maximum Recorded Temperature 
 TTMX.degC               93.00:  Max Tool Temp 
 VS01.                90649155:  Virtual Str1 SN 
 VS02.                90642264:  Virtual Str2 SN 
 VS03.                90642266:  Virtual Str3 SN 
 VS04.                90642261:  Virtual Str4 SN 
 WBMN.klb                 0.00:  WOB Min 
 WITN.             Anar Khalil:  Customer Rep 
 WITN.           Murad Guliyev:  Customer Rep 2 
 WOBA.klb                13.00:  WOB Avg 
 WOBX.klb                25.00:  WOB Max 
 YP  .lhf2               32.00:  Yield Point 
~Curve Information Block
#MNEM.UNIT                 API CODE     Curve Description
#---------               -----------    ---------------------------
 TIME.HHMMSS            00 000 000 000:  GT Time & Date
 GTDEPTH.m              00 000 000 000:  GT Depth
 GTPQH.psia             00 000 000 000:  GT HR Quartz Pressure
 GTTQ.degC              00 000 000 000:  GT Quartz Temperature
 GTTN.NONE              00 000 000 000:  GT Test Number
 GTET.sec               00 000 000 000:  GT Elapsed Test Time
 GTTVD.m                00 000 000 000:  GT True Vertical Depth
#Other Information
#
#WARRANTY: Halliburton will use its best efforts to furnish customers with 
#accurate information and interpretations that are part of, and incident to, the services 
#provided.  However, Halliburton cannot and does not warrant the accuracy 
#or correctness of such information and interpretations.  Under no circumstances should any 
#such information or interpretation be relied upon as the sole basis for any drilling, 
#completion, production, or financial decision or any procedure involving any risk to the 
#safety of any drilling venture, drilling rig or its crew or any other third party.  The 
#Customer has full responsibility for all drilling, completion and production operation.  
#Halliburton makes no representations or warranties, either expressed or 
#implied, including, but not limited to, the implied warranties of merchantability or fitness 
#for a particular purpose, with respect to the services rendered.  In no event will 
#Halliburton be liable for failure to obtain any particular results or for 
#any damages, including, but not limited to, indirect, special or consequential damages, 
#resulting from the use of any information or interpretation provided by Halliburton.
#
~A           TIME           GTDEPTH  GTPQH  GTTQ  GTTN   GTET   GTTVD  
# ...
   05:51:38.654.28-May-2021 3439.00 4143.78 82.92 11.00 180.88 2568.67
   05:51:38.854.28-May-2021 3439.00 4143.79 82.92 11.00 181.08 2568.67
   05:51:39.054.28-May-2021 3439.00 4143.79 82.92 11.00 181.28 2568.67
   05:51:39.254.28-May-2021 3439.00 4143.64 82.92 11.00 181.48 2568.67
   05:51:39.454.28-May-2021 3439.00 4143.65 82.92 11.00 181.68 2568.67
   05:51:39.654.28-May-2021 3439.00 4143.26 82.92 11.00 181.88 2568.67
   05:51:39.854.28-May-2021 3439.00 4143.02 82.92 11.00 182.08 2568.67
   05:51:40.054.28-May-2021 3439.00 4143.02 82.92 11.00 182.28 2568.67
   05:51:40.254.28-May-2021 3439.00 4143.70 82.92 11.00 182.48 2568.67
   05:51:40.454.28-May-2021 3439.00 4142.90 82.92 11.00 182.68 2568.67
   05:51:40.654.28-May-2021 3439.00 4143.53 82.92 11.00 182.88 2568.67
   05:51:40.855.28-May-2021 3439.00 4143.85 82.92 11.00 183.08 2568.67
   05:51:41.055.28-May-2021 3439.00 4143.85 82.92 11.00 183.28 2568.67
   05:51:41.255.28-May-2021 3439.00 4142.69 82.92 11.00 183.48 2568.67
   05:51:41.455.28-May-2021 3439.00 4143.87 82.92 11.00 183.68 2568.67
   05:51:41.655.28-May-2021 3439.00 4143.91 82.92 11.00 183.88 2568.67
   05:51:41.855.28-May-2021 3439.00 4144.10 82.92 11.00 184.08 2568.67
   05:51:42.055.28-May-2021 3439.00 4144.10 82.92 11.00 184.28 2568.67
   05:51:42.255.28-May-2021 3439.00 4144.14 82.92 11.00 184.48 2568.67
   05:51:42.455.28-May-2021 3439.00 4144.16 82.92 11.00 184.68 2568.67
   05:51:42.655.28-May-2021 3439.00 4144.23 82.92 11.00 184.88 2568.67
   05:51:42.855.28-May-2021 3439.00 4144.27 82.92 11.00 185.08 2568.67
   05:51:43.055.28-May-2021 3439.00 4144.27 82.92 11.00 185.28 2568.67
   05:51:43.256.28-May-2021 3439.00 4144.37 82.92 11.00 185.48 2568.67
   05:51:43.456.28-May-2021 3439.00 4144.41 82.92 11.00 185.68 2568.67
   05:51:43.656.28-May-2021 3439.00 4143.43 82.92 11.00 185.88 2568.67
   05:51:43.856.28-May-2021 3439.00 4144.12 82.92 11.00 186.08 2568.67
   05:51:44.056.28-May-2021 3439.00 4144.12 82.92 11.00 186.28 2568.67
   05:51:44.256.28-May-2021 3439.00 4144.44 82.92 11.00 186.48 2568.67
   05:51:44.456.28-May-2021 3439.00 4144.55 82.92 11.00 186.68 2568.67
   05:51:44.656.28-May-2021 3439.00 4144.54 82.92 11.00 186.88 2568.67
   05:51:44.856.28-May-2021 3439.00 4144.61 82.92 11.00 187.08 2568.67
   05:51:45.056.28-May-2021 3439.00 4144.61 82.92 11.00 187.28 2568.67
   05:51:45.256.28-May-2021 3439.00 4144.72 82.92 11.00 187.48 2568.67
   05:51:45.456.28-May-2021 3439.00 4144.75 82.92 11.00 187.68 2568.67
   05:51:45.657.28-May-2021 3439.00 4144.82 82.92 11.00 187.88 2568.67
   05:51:45.857.28-May-2021 3439.00 4144.84 82.92 11.00 188.08 2568.67
   05:51:46.057.28-May-2021 3439.00 4144.84 82.92 11.00 188.28 2568.67
   05:51:46.257.28-May-2021 3439.00 4144.94 82.92 11.00 188.48 2568.67
   05:51:46.457.28-May-2021 3439.00 4143.70 82.93 11.00 188.68 2568.67
   05:51:46.657.28-May-2021 3439.00 4144.87 82.92 11.00 188.88 2568.67
   05:51:46.857.28-May-2021 3439.00 4144.88 82.93 11.00 189.08 2568.67
   05:51:47.057.28-May-2021 3439.00 4144.88 82.93 11.00 189.28 2568.67
   05:51:47.257.28-May-2021 3439.00 4143.55 82.93 11.00 189.48 2568.67
   05:51:47.457.28-May-2021 3439.00 4145.21 82.93 11.00 189.68 2568.67
   05:51:47.657.28-May-2021 3439.00 4145.05 82.93 11.00 189.88 2568.67
   05:51:47.857.28-May-2021 3439.00 4144.61 82.93 11.00 190.08 2568.67
   05:51:48.058.28-May-2021 3439.00 4144.61 82.93 11.00 190.28 2568.67
   05:51:48.258.28-May-2021 3439.00 4144.37 82.93 11.00 190.48 2568.67
   05:51:48.458.28-May-2021 3439.00 4145.12 82.93 11.00 190.68 2568.67
   05:51:48.658.28-May-2021 3439.00 4144.01 82.93 11.00 190.88 2568.67
   05:51:48.858.28-May-2021 3439.00 4145.20 82.93 11.00 191.08 2568.67
   05:51:49.058.28-May-2021 3439.00 4145.20 82.93 11.00 191.28 2568.67
   05:51:49.258.28-May-2021 3439.00 4145.36 82.93 11.00 191.48 2568.67
   05:51:49.458.28-May-2021 3439.00 4145.34 82.93 11.00 191.68 2568.67
   05:51:49.658.28-May-2021 3439.00 4145.42 82.93 11.00 191.88 2568.67
   05:51:49.858.28-May-2021 3439.00 4145.47 82.93 11.00 192.08 2568.67
   05:51:50.058.28-May-2021 3439.00 4145.47 82.93 11.00 192.28 2568.67
   05:51:50.258.28-May-2021 3439.00 4145.58 82.93 11.00 192.48 2568.67
   05:51:50.459.28-May-2021 3439.00 4145.62 82.93 11.00 192.68 2568.67
   05:51:50.659.28-May-2021 3439.00 4145.67 82.93 11.00 192.88 2568.67
   05:51:50.859.28-May-2021 3439.00 4145.72 82.93 11.00 193.08 2568.67
   05:51:51.059.28-May-2021 3439.00 4145.72 82.93 11.00 193.28 2568.67
   05:51:51.259.28-May-2021 3439.00 4145.03 82.93 11.00 193.48 2568.67
   05:51:51.459.28-May-2021 3439.00 4145.73 82.93 11.00 193.68 2568.67
   05:51:51.659.28-May-2021 3439.00 4145.71 82.93 11.00 193.88 2568.67
   05:51:51.859.28-May-2021 3439.00 4145.92 82.93 11.00 194.08 2568.67
   05:51:52.059.28-May-2021 3439.00 4145.92 82.93 11.00 194.28 2568.67
   05:51:52.259.28-May-2021 3439.00 4145.95 82.93 11.00 194.48 2568.67
   05:51:52.459.28-May-2021 3439.00 4145.99 82.93 11.00 194.68 2568.67
   05:51:52.659.28-May-2021 3439.00 4146.05 82.93 11.00 194.88 2568.67
   05:51:52.860.28-May-2021 3439.00 4146.09 82.93 11.00 195.08 2568.67
   05:51:53.060.28-May-2021 3439.00 4146.09 82.93 11.00 195.28 2568.67
   05:51:53.260.28-May-2021 3439.00 4146.19 82.93 11.00 195.48 2568.67
   05:51:53.460.28-May-2021 3439.00 4146.24 82.93 11.00 195.68 2568.67
   05:51:53.660.28-May-2021 3439.00 4146.26 82.93 11.00 195.88 2568.67
   05:51:53.860.28-May-2021 3439.00 4145.02 82.93 11.00 196.08 2568.67
   05:51:54.060.28-May-2021 3439.00 4145.02 82.93 11.00 196.28 2568.67
   05:51:54.260.28-May-2021 3439.00 4146.25 82.93 11.00 196.48 2568.67
   05:51:54.460.28-May-2021 3439.00 4146.38 82.93 11.00 196.68 2568.67
   05:51:54.660.28-May-2021 3439.00 4145.07 82.93 11.00 196.88 2568.67
   05:51:54.860.28-May-2021 3439.00 4146.31 82.93 11.00 197.08 2568.67
   05:51:55.060.28-May-2021 3439.00 4146.31 82.93 11.00 197.28 2568.67
   05:51:55.261.28-May-2021 3439.00 4145.97 82.93 11.00 197.48 2568.67
   05:51:55.461.28-May-2021 3439.00 4145.70 82.93 11.00 197.68 2568.67
   05:51:55.661.28-May-2021 3439.00 4146.50 82.93 11.00 197.88 2568.67
   05:51:55.861.28-May-2021 3439.00 4146.48 82.93 11.00 198.08 2568.67
   05:51:56.061.28-May-2021 3439.00 4146.48 82.93 11.00 198.28 2568.67
   05:51:56.261.28-May-2021 3439.00 4146.61 82.93 11.00 198.48 2568.67
   05:51:56.461.28-May-2021 3439.00 4146.67 82.93 11.00 198.68 2568.67
   05:51:56.661.28-May-2021 3439.00 4146.81 82.93 11.00 198.88 2568.67
   05:51:56.861.28-May-2021 3439.00 4146.80 82.93 11.00 199.08 2568.67
   05:51:57.061.28-May-2021 3439.00 4146.80 82.93 11.00 199.28 2568.67
   05:51:57.261.28-May-2021 3439.00 4146.92 82.93 11.00 199.48 2568.67
   05:51:57.461.28-May-2021 3439.00 4147.01 82.93 11.00 199.68 2568.67
   05:51:57.662.28-May-2021 3439.00 4147.06 82.93 11.00 199.88 2568.67
   05:51:57.862.28-May-2021 3439.00 4147.12 82.93 11.00 200.08 2568.67
   05:51:58.062.28-May-2021 3439.00 4147.12 82.93 11.00 200.28 2568.67
   05:51:58.262.28-May-2021 3439.00 4147.23 82.93 11.00 200.48 2568.67
   05:51:58.462.28-May-2021 3439.00 4146.64 82.93 11.00 200.68 2568.67
   05:51:58.662.28-May-2021 3439.00 4146.45 82.93 11.00 200.88 2568.67
   05:51:58.862.28-May-2021 3439.00 4147.34 82.93 11.00 201.08 2568.67
   05:51:59.062.28-May-2021 3439.00 4147.34 82.93 11.00 201.28 2568.67
   05:51:59.262.28-May-2021 3439.00 4147.51 82.93 11.00 201.48 2568.67
   05:51:59.462.28-May-2021 3439.00 4147.46 82.93 11.00 201.68 2568.67
   05:51:59.662.28-May-2021 3439.00 4147.57 82.93 11.00 201.88 2568.67
   05:51:59.862.28-May-2021 3439.00 4147.61 82.93 11.00 202.08 2568.67
   05:52:00.063.28-May-2021 3439.00 4147.61 82.93 11.00 202.28 2568.67
   05:52:00.263.28-May-2021 3439.00 4147.69 82.93 11.00 202.48 2568.67
   05:52:00.463.28-May-2021 3439.00 4147.79 82.93 11.00 202.68 2568.67
   05:52:00.663.28-May-2021 3439.00 4147.82 82.93 11.00 202.88 2568.67
   05:52:00.863.28-May-2021 3439.00 4147.86 82.93 11.00 203.08 2568.67
   05:52:01.063.28-May-2021 3439.00 4147.86 82.93 11.00 203.28 2568.67
