~Version Information
 VERS.                  2.0:   CWLS log ASCII Standard -VERSION 2.0
 WRAP.                   NO:   One line per depth step
~Well Information Block
#MNEM.UNIT     VALUE/NAME     DESCRIPTION
#---------     -----------    ---------------------------
 STRT.S             23:03:24 27-May-21: START TIME 23:03:24 27-May-21
 STOP.S             23:10:28 27-May-21: STOP TIME  23:10:28 27-May-21
 STEP.S                   0.00: STEP TIME
 NULL.                 -999.25: NULL VALUE
 UWI .                     N/A:  UNIQUE WELL IDENTIFIER
 API .                     N/A:  API NUMBER
 UNIT.                     N/A:  LOGGING EQUIPMENT ID
 DCON.         Sperry Drilling:  DIRECTNL CONTR
 DOE .                     N/A:  DOE NUMBER
 MWDS.                    Baku:  MWD SHOP
 SRVC.     Turan Drilling and Engineering:  CONTRACTOR
 CTRY.              Azerbaijan:  COUNTRY NAME
 PROV.                    Baku:  PROVINCE
 STAT.                    Baku:  STATE NAME
 REGN.                   EESSA:  REGION
 BASE.              Azerbaijan:  LOGGING EQUIPMENT BASE LOCATION
 WTYP.                Deviated:  WELL TYPE
 RIG .              East Azeri:  RIG NAME
 WELL.                    D02y:  WELL NAME
 FLD .                     ACG:  FIELD NAME
 COMP.     BP Exploration (Caspian Sea) Ltd.:  COMPANY
 PDAT.          Mean Sea Level:  PERMANENT DATUM
 MDS .        Operator Entered:  MAG DATA SOURCE
 SON .        AZ-XX-0906997291:  JOB NUMBER
 FTOP.          Formation Tops:  FORM TOPS DESC
 ILTD.               Lithology:  INTERP LTH DESC
 SVYD.                  Survey:  SURVEY DESC
 DMOD.             Drill Model:  DRILL MOD DESC
 HPTY.       Minimum Curvature:  HOLE POS TYPE
 NREF.                    Grid:  NORTH REFERENCE
 SPUD.               05-May-21:  SPUD DATE
 DATE.      09.27.28 12-Jun-21:  END TIME
 STIM.      09.27.28 12-May-21:  START TIME
 DMF .             Drill Floor:  DRILL MEAS FROM
 DFST.                        :  DIST FSL TEXT
 DFWT.                        :  DIST FWL TEXT
 CNTY.                        :  COUNTY
 LOC .                        :  LOCATION
 LMF .             Drill Floor:  LOG MEASURED FROM
 DEP .m                2806.40:  DEPTH
 AGAP.m                  43.60:  AIR GAP
 VSNS.m                  -4.42:  VERT SEC N/S
 VSEW.m                  -7.31:  VERT SEC E/W
 APD .m                  43.60:  DEPTH ABOVE PD
 WDMS.m                 151.80:  WD ELEV
 EGL .m                   0.00:  GROUND ELEVATION
 EPD .m                   0.00:  ELEVATION
 AZTC.deg                 6.18:  AZM TOTAL CORR
 GRDC.deg                 0.29:  GRID CORRECTION
 MDEC.deg                 6.47:  MAGNETIC DECL
 MDIP.deg                59.50:  MAGNETIC DIP
 MFLD.nT              50350.00:  MAGNETIC FIELD
 GVFD.g                   1.00:  GRAVITY FIELD
 VSDR.deg               179.08:  VERT SEC DIRECT
 TDD .m                4300.00:  TOTAL DEPTH (DRILLER)
 SDEP.m                2800.00:  START DEPTH
 DFSL.m                   0.00:  DISTANCE FSL
 DFWL.m                   0.00:  DISTANCE FWL
 UTMY.m             4431871.34:  UTM Y
 UTMX.m              538762.90:  UTM X
 WHEW.m                  -7.31:  WELL HEAD E/W
 WHNS.m                  -4.42:  WELL HEAD N/S
 LONG.deg                51.45:  LONGITUDE
 LATI.deg                40.02:  LATITUDE
 TVDS.m                  43.60:  TVDSS CORRECTN
 EKB .m                  43.60:  KB ELEVATION
 EDF .m                  43.60:  DF ELEVATION
 TDL .m                 806.00:  TOTAL DEPTH (LOGGER)
 MAGU.                 1851231:  MAGUTM CHECKSUM
 VSC .                       0:  VS TO CLOSURE
~Parameter Information Block
#MNEM.UNIT       Value        Description
#---------     -----------    ---------------------------
 AV  .mps                 1.60:  Ann Velocity 
 AVMX.mps                 2.00:  Max Ann Veloc 
 AZIF.deg               140.24:  Azm, Final 
 BHAT.        Rotary Steerable:  BHA Type 
 BROT.°/30m               0.50:  Build Rotating 
 BS  .in                  8.50:  Bit Size 
 BTPL.psig              619.00:  Bit Press Loss 
 CABU.                     Yes:  Customer Abuse 
 CGEO.          Ilgar Gurbanov:  Customer Geo 
 COMM.                     |¡U:  Run Comments 1 
 TCS .hr                 85.88:  Time Ciculation Ended 
 CV  .mps                 3.30:  Crit Velocity 
 CVMX.mps                 3.50:  Max Crit Veloc 
 DD1 .           Hamid Axmedov:  Direct Drillr 1 
 DD2 .           Teymur Aliyev:  Direct Drillr 2 
 DDSV.               Geo-Pilot:  DD Service 
 DEFF.%                 100.00:  % Det Eff 
 DLRX.°/30m               0.00:  Dogleg Rot Max 
 DLSO.°/30m               1.80:  Dogleg Oriented 
 DLSX.°/30m               3.34:  Dogleg Str Max 
 DRET.      11.50.00 27-May-21:  Drill End Time 
 DRST.      21.13.00 24-May-21:  Drill Start Tim 
 DTIM.hr                 45.11:  Time Drilling 
 EDEP.m                4054.00:  End Depth 
 ENG1.         Almaz Almadatov:  Engineer 1 
 ENG2.           Amrah Tahirov:  Engineer 2 
 ENG3.      Bakhtiyar Jabbarli:  Engineer 3 
 ENG4.          Nazrin Asgarli:  Engineer 4 
 ETIM.      10.00.00 30-May-21:  End Time 
 FLOI.gpm               530.00:  Flow In 
 FLON.gpm               400.00:  Flow In Min 
 FLOS.cptm                0.00:  Fluid Loss 
 FLOX.gpm               560.00:  Flow In Max 
 DFT .        Mineral Oil Base:  Mud Type 
 FTRO.       Formation Presure:  FTWD Run Obj 
 HFLO.                      No:  High Flow 
 HPRE.                      No:  High Pressure 
 HTEM.                      No:  High Temp 
 HYDO.m                   1.80:  Hydro Offset 
 IFIN.deg                73.83:  Inc, Final 
 IMAX.deg                73.83:  Inc Max 
 IMIN.deg                57.86:  Inc Min 
 IMND.m                3259.27:  Inc Min Depth 
 IMXD.m                4045.58:  Inc Max Depth 
 JARR.                     Yes:  Jarring 
 LETM.      11.50.00 27-May-21:  Log End Time 
 LOST.hr                     0:  Lost Rig Time 
 LSTM.      21.13.00 24-May-21:  Log Start Time 
 MDCL.ppm             42500.00:  Mud Chlorides 
 MDES.     Inversion Oil/Synthetic:  Mud Desc 
 DFD .sg                  1.52:  Mud Density 
 MDMN.sg                  1.52:  Dens Mud Min 
 MDMX.sg                  1.52:  Dens Mud Max 
 MOIL.                      70:  Run Mud Oil % 
 MOWR.                   70:30:  Run Mud OWR 
 MSND.                     0.2:  Run Mud Sand % 
 MSOL.                      22:  Run Mud Solids% 
 DFV .spqt               77.00:  Mud Viscosity 
 MWOD.in                  6.75:  MWD Tool OD 
 MWSI.                      No:  Serv Intrp, MWD 
 OTIM.hr                151.01:  Time Operating 
 PCON.          Wear / Scratch:  Pad Condition 
 PMAX.psia            11296.93:  Press Op, Max 
 PV  .cP                 37.00:  Mud PV 
 RUN .                     500:  Run Number 
 ROPA.m/hr               25.00:  ROP Avg 
 ROPN.m/hr                9.00:  ROP Min 
 ROPX.m/hr               28.00:  ROP Max 
 RPMA.rpm               140.00:  RPM Surface Avg 
 RPMN.rpm                90.00:  RPM Surface Min 
 RPMX.rpm               140.00:  RPM Surface Max 
 RRUN.                    0500:  Rig Run Number 
 SAZI.deg               172.17:  Azm, Start 
 SDEP.m                3248.00:  Start Depth 
 SIDD.                      No:  Serv Intrp, DD 
 SINC.deg                57.86:  Inc, Start 
 SPPA.psig             5620.00:  SPP Avg 
 SPPN.psig             5190.00:  SPP Min 
 SPPX.psig             6050.00:  SPP Max 
 STIM.      16.00.00 23-May-21:  Start Time 
 SVCS.                 DD, MWD:  Services 
 SVER.                    9.20:  Sperry Version 
 TDAT.m                 806.00:  Tot Depth Attmp 
 TDDF.                      No:  Trip for DD 
 TDLG.m                 806.00:  Tot Depth Loggd 
 TFF .                      No:  Trip for Fail 
 TQAA.f-kp               12.00:  Torque Abs Avg 
 TQAN.f-kp                8.00:  Torque Abs Min 
 TQAX.f-kp               15.00:  Torque Abs Max 
 TRRT.°/30m               0.30:  Turn Rotating 
 MRT .                  EWR-M5:  Maximum Recorded Temperature 
 TTMX.degC               93.00:  Max Tool Temp 
 VS01.                90649155:  Virtual Str1 SN 
 VS02.                90642264:  Virtual Str2 SN 
 VS03.                90642266:  Virtual Str3 SN 
 VS04.                90642261:  Virtual Str4 SN 
 WBMN.klb                 0.00:  WOB Min 
 WITN.             Anar Khalil:  Customer Rep 
 WITN.           Murad Guliyev:  Customer Rep 2 
 WOBA.klb                13.00:  WOB Avg 
 WOBX.klb                25.00:  WOB Max 
 YP  .lhf2               32.00:  Yield Point 
~Curve Information Block
#MNEM.UNIT                 API CODE     Curve Description
#---------               -----------    ---------------------------
 TIME.HHMMSS            00 000 000 000:  GT Time & Date
 GTDEPTH.m              00 000 000 000:  GT Depth
 GTPQH.psia             00 000 000 000:  GT HR Quartz Pressure
 GTTQ.degC              00 000 000 000:  GT Quartz Temperature
 GTTN.NONE              00 000 000 000:  GT Test Number
 GTET.sec               00 000 000 000:  GT Elapsed Test Time
 GTTVD.m                00 000 000 000:  GT True Vertical Depth
#Other Information
#
#WARRANTY: Halliburton will use its best efforts to furnish customers with 
#accurate information and interpretations that are part of, and incident to, the services 
#provided.  However, Halliburton cannot and does not warrant the accuracy 
#or correctness of such information and interpretations.  Under no circumstances should any 
#such information or interpretation be relied upon as the sole basis for any drilling, 
#completion, production, or financial decision or any procedure involving any risk to the 
#safety of any drilling venture, drilling rig or its crew or any other third party.  The 
#Customer has full responsibility for all drilling, completion and production operation.  
#Halliburton makes no representations or warranties, either expressed or 
#implied, including, but not limited to, the implied warranties of merchantability or fitness 
#for a particular purpose, with respect to the services rendered.  In no event will 
#Halliburton be liable for failure to obtain any particular results or for 
#any damages, including, but not limited to, indirect, special or consequential damages, 
#resulting from the use of any information or interpretation provided by Halliburton.
#
~A           TIME           GTDEPTH  GTPQH  GTTQ  GTTN  GTET   GTTVD  
# ...
   23:06:51.344.27-May-2021 3710.50 3139.56 84.61 2.00 207.08 2675.83
   23:06:51.545.27-May-2021 3710.50 3139.56 84.61 2.00 207.28 2675.83
   23:06:51.745.27-May-2021 3710.50 3139.69 84.61 2.00 207.48 2675.83
   23:06:51.945.27-May-2021 3710.50 3139.55 84.61 2.00 207.68 2675.83
   23:06:52.145.27-May-2021 3710.50 3139.56 84.61 2.00 207.88 2675.83
   23:06:52.345.27-May-2021 3710.50 3139.57 84.61 2.00 208.08 2675.83
   23:06:52.545.27-May-2021 3710.50 3139.57 84.61 2.00 208.28 2675.83
   23:06:52.745.27-May-2021 3710.50 3139.65 84.61 2.00 208.48 2675.83
   23:06:52.945.27-May-2021 3710.50 3139.57 84.61 2.00 208.68 2675.83
   23:06:53.145.27-May-2021 3710.50 3139.56 84.61 2.00 208.88 2675.83
   23:06:53.345.27-May-2021 3710.50 3139.56 84.61 2.00 209.08 2675.83
   23:06:53.545.27-May-2021 3710.50 3139.56 84.61 2.00 209.28 2675.83
   23:06:53.745.27-May-2021 3710.50 3139.59 84.61 2.00 209.48 2675.83
   23:06:53.945.27-May-2021 3710.50 3139.52 84.61 2.00 209.68 2675.83
   23:06:54.146.27-May-2021 3710.50 3139.55 84.61 2.00 209.88 2675.83
   23:06:54.346.27-May-2021 3710.50 3139.56 84.61 2.00 210.08 2675.83
   23:06:54.546.27-May-2021 3710.50 3139.56 84.61 2.00 210.28 2675.83
   23:06:54.746.27-May-2021 3710.50 3139.56 84.61 2.00 210.48 2675.83
   23:06:54.946.27-May-2021 3710.50 3139.55 84.61 2.00 210.68 2675.83
   23:06:55.146.27-May-2021 3710.50 3139.56 84.61 2.00 210.88 2675.83
   23:06:55.346.27-May-2021 3710.50 3139.56 84.61 2.00 211.08 2675.83
   23:06:55.546.27-May-2021 3710.50 3139.56 84.61 2.00 211.28 2675.83
   23:06:55.746.27-May-2021 3710.50 3139.55 84.61 2.00 211.48 2675.83
   23:06:55.946.27-May-2021 3710.50 3139.56 84.61 2.00 211.68 2675.83
   23:06:56.146.27-May-2021 3710.50 3139.56 84.61 2.00 211.88 2675.83
   23:06:56.346.27-May-2021 3710.50 3139.59 84.61 2.00 212.08 2675.83
   23:06:56.546.27-May-2021 3710.50 3139.59 84.61 2.00 212.28 2675.83
   23:06:56.747.27-May-2021 3710.50 3139.55 84.61 2.00 212.48 2675.83
   23:06:56.947.27-May-2021 3710.50 3139.55 84.61 2.00 212.68 2675.83
   23:06:57.147.27-May-2021 3710.50 3139.56 84.61 2.00 212.88 2675.83
   23:06:57.347.27-May-2021 3710.50 3139.55 84.61 2.00 213.08 2675.83
   23:06:57.547.27-May-2021 3710.50 3139.55 84.61 2.00 213.28 2675.83
   23:06:57.747.27-May-2021 3710.50 3139.55 84.61 2.00 213.48 2675.83
   23:06:57.947.27-May-2021 3710.50 3139.56 84.61 2.00 213.68 2675.83
   23:06:58.147.27-May-2021 3710.50 3139.56 84.61 2.00 213.88 2675.83
   23:06:58.347.27-May-2021 3710.50 3139.55 84.61 2.00 214.08 2675.83
   23:06:58.547.27-May-2021 3710.50 3139.55 84.61 2.00 214.28 2675.83
   23:06:58.747.27-May-2021 3710.50 3139.55 84.61 2.00 214.48 2675.83
   23:06:58.947.27-May-2021 3710.50 3139.59 84.61 2.00 214.68 2675.83
   23:06:59.148.27-May-2021 3710.50 3139.51 84.61 2.00 214.88 2675.83
   23:06:59.348.27-May-2021 3710.50 3139.55 84.61 2.00 215.08 2675.83
   23:06:59.548.27-May-2021 3710.50 3139.55 84.61 2.00 215.28 2675.83
   23:06:59.748.27-May-2021 3710.50 3139.63 84.61 2.00 215.48 2675.83
   23:06:59.948.27-May-2021 3710.50 3139.55 84.61 2.00 215.68 2675.83
   23:07:00.148.27-May-2021 3710.50 3139.55 84.61 2.00 215.88 2675.83
   23:07:00.348.27-May-2021 3710.50 3139.54 84.61 2.00 216.08 2675.83
   23:07:00.548.27-May-2021 3710.50 3139.54 84.61 2.00 216.28 2675.83
   23:07:00.748.27-May-2021 3710.50 3139.50 84.61 2.00 216.48 2675.83
   23:07:00.948.27-May-2021 3710.50 3139.54 84.61 2.00 216.68 2675.83
   23:07:01.148.27-May-2021 3710.50 3139.55 84.61 2.00 216.88 2675.83
   23:07:01.348.27-May-2021 3710.50 3139.55 84.61 2.00 217.08 2675.83
   23:07:01.548.27-May-2021 3710.50 3139.55 84.61 2.00 217.29 2675.83
   23:07:01.749.27-May-2021 3710.50 3139.69 84.61 2.00 217.49 2675.83
   23:07:01.949.27-May-2021 3710.50 3139.55 84.61 2.00 217.69 2675.83
   23:07:02.149.27-May-2021 3710.50 3139.56 84.61 2.00 217.89 2675.83
   23:07:02.349.27-May-2021 3710.50 3139.56 84.61 2.00 218.09 2675.83
   23:07:02.549.27-May-2021 3710.50 3139.56 84.61 2.00 218.29 2675.83
   23:07:02.749.27-May-2021 3710.50 3139.55 84.61 2.00 218.49 2675.83
   23:07:02.949.27-May-2021 3710.50 3139.56 84.61 2.00 218.69 2675.83
   23:07:03.149.27-May-2021 3710.50 3139.55 84.61 2.00 218.89 2675.83
   23:07:03.349.27-May-2021 3710.50 3139.55 84.61 2.00 219.09 2675.83
   23:07:03.549.27-May-2021 3710.50 3139.55 84.61 2.00 219.29 2675.83
   23:07:03.749.27-May-2021 3710.50 3139.55 84.61 2.00 219.49 2675.83
   23:07:03.949.27-May-2021 3710.50 3139.56 84.61 2.00 219.69 2675.83
   23:07:04.149.27-May-2021 3710.50 3139.41 84.61 2.00 219.89 2675.83
   23:07:04.350.27-May-2021 3710.50 3139.68 84.61 2.00 220.09 2675.83
   23:07:04.550.27-May-2021 3710.50 3139.68 84.61 2.00 220.29 2675.83
   23:07:04.750.27-May-2021 3710.50 3139.56 84.61 2.00 220.49 2675.83
   23:07:04.950.27-May-2021 3710.50 3139.55 84.61 2.00 220.69 2675.83
   23:07:05.150.27-May-2021 3710.50 3139.56 84.61 2.00 220.89 2675.83
   23:07:05.350.27-May-2021 3710.50 3139.54 84.61 2.00 221.09 2675.83
   23:07:05.550.27-May-2021 3710.50 3139.54 84.61 2.00 221.29 2675.83
   23:07:05.750.27-May-2021 3710.50 3139.55 84.61 2.00 221.49 2675.83
   23:07:05.950.27-May-2021 3710.50 3139.56 84.61 2.00 221.69 2675.83
   23:07:06.150.27-May-2021 3710.50 3139.55 84.61 2.00 221.89 2675.83
   23:07:06.350.27-May-2021 3710.50 3139.56 84.61 2.00 222.09 2675.83
   23:07:06.550.27-May-2021 3710.50 3139.56 84.61 2.00 222.29 2675.83
   23:07:06.750.27-May-2021 3710.50 3139.41 84.61 2.00 222.49 2675.83
   23:07:06.951.27-May-2021 3710.50 3139.69 84.61 2.00 222.69 2675.83
   23:07:07.151.27-May-2021 3710.50 3139.54 84.61 2.00 222.89 2675.83
   23:07:07.351.27-May-2021 3710.50 3139.54 84.61 2.00 223.09 2675.83
   23:07:07.551.27-May-2021 3710.50 3139.54 84.61 2.00 223.29 2675.83
   23:07:07.751.27-May-2021 3710.50 3139.56 84.61 2.00 223.49 2675.83
   23:07:07.951.27-May-2021 3710.50 3139.53 84.61 2.00 223.69 2675.83
   23:07:08.151.27-May-2021 3710.50 3139.56 84.61 2.00 223.89 2675.83
   23:07:08.351.27-May-2021 3710.50 3139.39 84.61 2.00 224.09 2675.83
   23:07:08.551.27-May-2021 3710.50 3139.39 84.61 2.00 224.29 2675.83
   23:07:08.751.27-May-2021 3710.50 3139.55 84.61 2.00 224.49 2675.83
   23:07:08.951.27-May-2021 3710.50 3139.56 84.61 2.00 224.69 2675.83
   23:07:09.151.27-May-2021 3710.50 3139.55 84.61 2.00 224.89 2675.83
   23:07:09.351.27-May-2021 3710.50 3139.55 84.61 2.00 225.09 2675.83
   23:07:09.552.27-May-2021 3710.50 3139.55 84.61 2.00 225.29 2675.83
   23:07:09.752.27-May-2021 3710.50 3139.63 84.61 2.00 225.49 2675.83
   23:07:09.952.27-May-2021 3710.50 3139.55 84.61 2.00 225.69 2675.83
   23:07:10.152.27-May-2021 3710.50 3139.55 84.61 2.00 225.89 2675.83
   23:07:10.352.27-May-2021 3710.50 3139.55 84.61 2.00 226.09 2675.83
   23:07:10.552.27-May-2021 3710.50 3139.55 84.61 2.00 226.29 2675.83
   23:07:10.752.27-May-2021 3710.50 3139.54 84.61 2.00 226.49 2675.83
   23:07:10.952.27-May-2021 3710.50 3139.55 84.61 2.00 226.69 2675.83
   23:07:11.152.27-May-2021 3710.50 3139.55 84.61 2.00 226.89 2675.83
   23:07:11.352.27-May-2021 3710.50 3139.55 84.61 2.00 227.09 2675.83
   23:07:11.552.27-May-2021 3710.50 3139.55 84.61 2.00 227.29 2675.83
   23:07:11.752.27-May-2021 3710.50 3139.55 84.61 2.00 227.49 2675.83
   23:07:11.953.27-May-2021 3710.50 3139.55 84.61 2.00 227.69 2675.83
   23:07:12.153.27-May-2021 3710.50 3139.47 84.61 2.00 227.89 2675.83
   23:07:12.353.27-May-2021 3710.50 3139.62 84.61 2.00 228.09 2675.83
   23:07:12.553.27-May-2021 3710.50 3139.62 84.61 2.00 228.29 2675.83
   23:07:12.753.27-May-2021 3710.50 3139.56 84.61 2.00 228.49 2675.83
   23:07:12.953.27-May-2021 3710.50 3139.54 84.61 2.00 228.69 2675.83
   23:07:13.153.27-May-2021 3710.50 3139.54 84.61 2.00 228.89 2675.83
   23:07:13.353.27-May-2021 3710.50 3139.55 84.61 2.00 229.09 2675.83
   23:07:13.553.27-May-2021 3710.50 3139.55 84.61 2.00 229.29 2675.83
   23:07:13.753.27-May-2021 3710.50 3139.55 84.61 2.00 229.49 2675.83
   23:07:13.953.27-May-2021 3710.50 3139.55 84.61 2.00 229.69 2675.83
   23:07:14.153.27-May-2021 3710.50 3139.55 84.61 2.00 229.89 2675.83
