~Version Information
 VERS.                  2.0:   CWLS log ASCII Standard -VERSION 2.0
 WRAP.                   NO:   One line per depth step
~Well Information Block
#MNEM.UNIT     VALUE/NAME     DESCRIPTION
#---------     -----------    ---------------------------
 STRT.S             04:01:58 28-May-21: START TIME 04:01:58 28-May-21
 STOP.S             04:09:02 28-May-21: STOP TIME  04:09:02 28-May-21
 STEP.S                   0.00: STEP TIME
 NULL.                 -999.25: NULL VALUE
 UWI .                     N/A:  UNIQUE WELL IDENTIFIER
 API .                     N/A:  API NUMBER
 UNIT.                     N/A:  LOGGING EQUIPMENT ID
 DCON.         Sperry Drilling:  DIRECTNL CONTR
 DOE .                     N/A:  DOE NUMBER
 MWDS.                    Baku:  MWD SHOP
 SRVC.     Turan Drilling and Engineering:  CONTRACTOR
 CTRY.              Azerbaijan:  COUNTRY NAME
 PROV.                    Baku:  PROVINCE
 STAT.                    Baku:  STATE NAME
 REGN.                   EESSA:  REGION
 BASE.              Azerbaijan:  LOGGING EQUIPMENT BASE LOCATION
 WTYP.                Deviated:  WELL TYPE
 RIG .              East Azeri:  RIG NAME
 WELL.                    D02y:  WELL NAME
 FLD .                     ACG:  FIELD NAME
 COMP.     BP Exploration (Caspian Sea) Ltd.:  COMPANY
 PDAT.          Mean Sea Level:  PERMANENT DATUM
 MDS .        Operator Entered:  MAG DATA SOURCE
 SON .        AZ-XX-0906997291:  JOB NUMBER
 FTOP.          Formation Tops:  FORM TOPS DESC
 ILTD.               Lithology:  INTERP LTH DESC
 SVYD.                  Survey:  SURVEY DESC
 DMOD.             Drill Model:  DRILL MOD DESC
 HPTY.       Minimum Curvature:  HOLE POS TYPE
 NREF.                    Grid:  NORTH REFERENCE
 SPUD.               05-May-21:  SPUD DATE
 DATE.      09.27.28 12-Jun-21:  END TIME
 STIM.      09.27.28 12-May-21:  START TIME
 DMF .             Drill Floor:  DRILL MEAS FROM
 DFST.                        :  DIST FSL TEXT
 DFWT.                        :  DIST FWL TEXT
 CNTY.                        :  COUNTY
 LOC .                        :  LOCATION
 LMF .             Drill Floor:  LOG MEASURED FROM
 DEP .m                2806.40:  DEPTH
 AGAP.m                  43.60:  AIR GAP
 VSNS.m                  -4.42:  VERT SEC N/S
 VSEW.m                  -7.31:  VERT SEC E/W
 APD .m                  43.60:  DEPTH ABOVE PD
 WDMS.m                 151.80:  WD ELEV
 EGL .m                   0.00:  GROUND ELEVATION
 EPD .m                   0.00:  ELEVATION
 AZTC.deg                 6.18:  AZM TOTAL CORR
 GRDC.deg                 0.29:  GRID CORRECTION
 MDEC.deg                 6.47:  MAGNETIC DECL
 MDIP.deg                59.50:  MAGNETIC DIP
 MFLD.nT              50350.00:  MAGNETIC FIELD
 GVFD.g                   1.00:  GRAVITY FIELD
 VSDR.deg               179.08:  VERT SEC DIRECT
 TDD .m                4300.00:  TOTAL DEPTH (DRILLER)
 SDEP.m                2800.00:  START DEPTH
 DFSL.m                   0.00:  DISTANCE FSL
 DFWL.m                   0.00:  DISTANCE FWL
 UTMY.m             4431871.34:  UTM Y
 UTMX.m              538762.90:  UTM X
 WHEW.m                  -7.31:  WELL HEAD E/W
 WHNS.m                  -4.42:  WELL HEAD N/S
 LONG.deg                51.45:  LONGITUDE
 LATI.deg                40.02:  LATITUDE
 TVDS.m                  43.60:  TVDSS CORRECTN
 EKB .m                  43.60:  KB ELEVATION
 EDF .m                  43.60:  DF ELEVATION
 TDL .m                 806.00:  TOTAL DEPTH (LOGGER)
 MAGU.                 1851231:  MAGUTM CHECKSUM
 VSC .                       0:  VS TO CLOSURE
~Parameter Information Block
#MNEM.UNIT       Value        Description
#---------     -----------    ---------------------------
 AV  .mps                 1.60:  Ann Velocity 
 AVMX.mps                 2.00:  Max Ann Veloc 
 AZIF.deg               140.24:  Azm, Final 
 BHAT.        Rotary Steerable:  BHA Type 
 BROT.°/30m               0.50:  Build Rotating 
 BS  .in                  8.50:  Bit Size 
 BTPL.psig              619.00:  Bit Press Loss 
 CABU.                     Yes:  Customer Abuse 
 CGEO.          Ilgar Gurbanov:  Customer Geo 
 COMM.                     4`:  Run Comments 1 
 TCS .hr                 85.88:  Time Ciculation Ended 
 CV  .mps                 3.30:  Crit Velocity 
 CVMX.mps                 3.50:  Max Crit Veloc 
 DD1 .           Hamid Axmedov:  Direct Drillr 1 
 DD2 .           Teymur Aliyev:  Direct Drillr 2 
 DDSV.               Geo-Pilot:  DD Service 
 DEFF.%                 100.00:  % Det Eff 
 DLRX.°/30m               0.00:  Dogleg Rot Max 
 DLSO.°/30m               1.80:  Dogleg Oriented 
 DLSX.°/30m               3.34:  Dogleg Str Max 
 DRET.      11.50.00 27-May-21:  Drill End Time 
 DRST.      21.13.00 24-May-21:  Drill Start Tim 
 DTIM.hr                 45.11:  Time Drilling 
 EDEP.m                4054.00:  End Depth 
 ENG1.         Almaz Almadatov:  Engineer 1 
 ENG2.           Amrah Tahirov:  Engineer 2 
 ENG3.      Bakhtiyar Jabbarli:  Engineer 3 
 ENG4.          Nazrin Asgarli:  Engineer 4 
 ETIM.      10.00.00 30-May-21:  End Time 
 FLOI.gpm               530.00:  Flow In 
 FLON.gpm               400.00:  Flow In Min 
 FLOS.cptm                0.00:  Fluid Loss 
 FLOX.gpm               560.00:  Flow In Max 
 DFT .        Mineral Oil Base:  Mud Type 
 FTRO.       Formation Presure:  FTWD Run Obj 
 HFLO.                      No:  High Flow 
 HPRE.                      No:  High Pressure 
 HTEM.                      No:  High Temp 
 HYDO.m                   1.80:  Hydro Offset 
 IFIN.deg                73.83:  Inc, Final 
 IMAX.deg                73.83:  Inc Max 
 IMIN.deg                57.86:  Inc Min 
 IMND.m                3259.27:  Inc Min Depth 
 IMXD.m                4045.58:  Inc Max Depth 
 JARR.                     Yes:  Jarring 
 LETM.      11.50.00 27-May-21:  Log End Time 
 LOST.hr                     0:  Lost Rig Time 
 LSTM.      21.13.00 24-May-21:  Log Start Time 
 MDCL.ppm             42500.00:  Mud Chlorides 
 MDES.     Inversion Oil/Synthetic:  Mud Desc 
 DFD .sg                  1.52:  Mud Density 
 MDMN.sg                  1.52:  Dens Mud Min 
 MDMX.sg                  1.52:  Dens Mud Max 
 MOIL.                      70:  Run Mud Oil % 
 MOWR.                   70:30:  Run Mud OWR 
 MSND.                     0.2:  Run Mud Sand % 
 MSOL.                      22:  Run Mud Solids% 
 DFV .spqt               77.00:  Mud Viscosity 
 MWOD.in                  6.75:  MWD Tool OD 
 MWSI.                      No:  Serv Intrp, MWD 
 OTIM.hr                151.01:  Time Operating 
 PCON.          Wear / Scratch:  Pad Condition 
 PMAX.psia            11296.93:  Press Op, Max 
 PV  .cP                 37.00:  Mud PV 
 RUN .                     500:  Run Number 
 ROPA.m/hr               25.00:  ROP Avg 
 ROPN.m/hr                9.00:  ROP Min 
 ROPX.m/hr               28.00:  ROP Max 
 RPMA.rpm               140.00:  RPM Surface Avg 
 RPMN.rpm                90.00:  RPM Surface Min 
 RPMX.rpm               140.00:  RPM Surface Max 
 RRUN.                    0500:  Rig Run Number 
 SAZI.deg               172.17:  Azm, Start 
 SDEP.m                3248.00:  Start Depth 
 SIDD.                      No:  Serv Intrp, DD 
 SINC.deg                57.86:  Inc, Start 
 SPPA.psig             5620.00:  SPP Avg 
 SPPN.psig             5190.00:  SPP Min 
 SPPX.psig             6050.00:  SPP Max 
 STIM.      16.00.00 23-May-21:  Start Time 
 SVCS.                 DD, MWD:  Services 
 SVER.                    9.20:  Sperry Version 
 TDAT.m                 806.00:  Tot Depth Attmp 
 TDDF.                      No:  Trip for DD 
 TDLG.m                 806.00:  Tot Depth Loggd 
 TFF .                      No:  Trip for Fail 
 TQAA.f-kp               12.00:  Torque Abs Avg 
 TQAN.f-kp                8.00:  Torque Abs Min 
 TQAX.f-kp               15.00:  Torque Abs Max 
 TRRT.°/30m               0.30:  Turn Rotating 
 MRT .                  EWR-M5:  Maximum Recorded Temperature 
 TTMX.degC               93.00:  Max Tool Temp 
 VS01.                90649155:  Virtual Str1 SN 
 VS02.                90642264:  Virtual Str2 SN 
 VS03.                90642266:  Virtual Str3 SN 
 VS04.                90642261:  Virtual Str4 SN 
 WBMN.klb                 0.00:  WOB Min 
 WITN.             Anar Khalil:  Customer Rep 
 WITN.           Murad Guliyev:  Customer Rep 2 
 WOBA.klb                13.00:  WOB Avg 
 WOBX.klb                25.00:  WOB Max 
 YP  .lhf2               32.00:  Yield Point 
~Curve Information Block
#MNEM.UNIT                 API CODE     Curve Description
#---------               -----------    ---------------------------
 TIME.HHMMSS            00 000 000 000:  GT Time & Date
 GTDEPTH.m              00 000 000 000:  GT Depth
 GTPQH.psia             00 000 000 000:  GT HR Quartz Pressure
 GTTQ.degC              00 000 000 000:  GT Quartz Temperature
 GTTN.NONE              00 000 000 000:  GT Test Number
 GTET.sec               00 000 000 000:  GT Elapsed Test Time
 GTTVD.m                00 000 000 000:  GT True Vertical Depth
#Other Information
#
#WARRANTY: Halliburton will use its best efforts to furnish customers with 
#accurate information and interpretations that are part of, and incident to, the services 
#provided.  However, Halliburton cannot and does not warrant the accuracy 
#or correctness of such information and interpretations.  Under no circumstances should any 
#such information or interpretation be relied upon as the sole basis for any drilling, 
#completion, production, or financial decision or any procedure involving any risk to the 
#safety of any drilling venture, drilling rig or its crew or any other third party.  The 
#Customer has full responsibility for all drilling, completion and production operation.  
#Halliburton makes no representations or warranties, either expressed or 
#implied, including, but not limited to, the implied warranties of merchantability or fitness 
#for a particular purpose, with respect to the services rendered.  In no event will 
#Halliburton be liable for failure to obtain any particular results or for 
#any damages, including, but not limited to, indirect, special or consequential damages, 
#resulting from the use of any information or interpretation provided by Halliburton.
#
~A           TIME           GTDEPTH  GTPQH  GTTQ  GTTN  GTET   GTTVD  
# ...
   04:05:02.405.28-May-2021 3493.50 4216.89 83.11 8.00 184.06 2592.27
   04:05:02.605.28-May-2021 3493.50 4216.89 83.11 8.00 184.26 2592.27
   04:05:02.805.28-May-2021 3493.50 4216.86 83.11 8.00 184.46 2592.27
   04:05:03.005.28-May-2021 3493.50 4216.88 83.11 8.00 184.66 2592.27
   04:05:03.205.28-May-2021 3493.50 4216.87 83.11 8.00 184.86 2592.27
   04:05:03.405.28-May-2021 3493.50 4216.87 83.11 8.00 185.06 2592.27
   04:05:03.605.28-May-2021 3493.50 4216.87 83.11 8.00 185.26 2592.27
   04:05:03.805.28-May-2021 3493.50 4216.86 83.11 8.00 185.46 2592.27
   04:05:04.005.28-May-2021 3493.50 4216.86 83.11 8.00 185.66 2592.27
   04:05:04.206.28-May-2021 3493.50 4216.86 83.11 8.00 185.86 2592.27
   04:05:04.406.28-May-2021 3493.50 4216.86 83.11 8.00 186.06 2592.27
   04:05:04.606.28-May-2021 3493.50 4216.86 83.11 8.00 186.26 2592.27
   04:05:04.806.28-May-2021 3493.50 4216.94 83.11 8.00 186.46 2592.27
   04:05:05.006.28-May-2021 3493.50 4216.85 83.11 8.00 186.66 2592.27
   04:05:05.206.28-May-2021 3493.50 4216.88 83.11 8.00 186.86 2592.27
   04:05:05.406.28-May-2021 3493.50 4216.88 83.11 8.00 187.06 2592.27
   04:05:05.606.28-May-2021 3493.50 4216.88 83.11 8.00 187.26 2592.27
   04:05:05.806.28-May-2021 3493.50 4216.87 83.11 8.00 187.46 2592.27
   04:05:06.006.28-May-2021 3493.50 4216.87 83.11 8.00 187.66 2592.27
   04:05:06.206.28-May-2021 3493.50 4216.87 83.11 8.00 187.86 2592.27
   04:05:06.406.28-May-2021 3493.50 4216.86 83.11 8.00 188.06 2592.27
   04:05:06.606.28-May-2021 3493.50 4216.86 83.11 8.00 188.26 2592.27
   04:05:06.806.28-May-2021 3493.50 4216.85 83.11 8.00 188.46 2592.27
   04:05:07.006.28-May-2021 3493.50 4216.87 83.11 8.00 188.66 2592.27
   04:05:07.207.28-May-2021 3493.50 4216.58 83.11 8.00 188.86 2592.27
   04:05:07.407.28-May-2021 3493.50 4217.11 83.11 8.00 189.06 2592.27
   04:05:07.607.28-May-2021 3493.50 4217.11 83.11 8.00 189.26 2592.27
   04:05:07.807.28-May-2021 3493.50 4216.89 83.11 8.00 189.46 2592.27
   04:05:08.007.28-May-2021 3493.50 4216.53 83.11 8.00 189.66 2592.27
   04:05:08.207.28-May-2021 3493.50 4217.18 83.11 8.00 189.86 2592.27
   04:05:08.407.28-May-2021 3493.50 4216.88 83.11 8.00 190.06 2592.27
   04:05:08.607.28-May-2021 3493.50 4216.88 83.11 8.00 190.26 2592.27
   04:05:08.807.28-May-2021 3493.50 4216.88 83.11 8.00 190.46 2592.27
   04:05:09.007.28-May-2021 3493.50 4216.88 83.11 8.00 190.66 2592.27
   04:05:09.207.28-May-2021 3493.50 4216.70 83.11 8.00 190.86 2592.27
   04:05:09.407.28-May-2021 3493.50 4217.04 83.11 8.00 191.06 2592.27
   04:05:09.607.28-May-2021 3493.50 4217.04 83.11 8.00 191.26 2592.27
   04:05:09.807.28-May-2021 3493.50 4216.91 83.11 8.00 191.46 2592.27
   04:05:10.007.28-May-2021 3493.50 4216.86 83.11 8.00 191.66 2592.27
   04:05:10.207.28-May-2021 3493.50 4216.95 83.11 8.00 191.86 2592.27
   04:05:10.408.28-May-2021 3493.50 4216.79 83.11 8.00 192.06 2592.27
   04:05:10.608.28-May-2021 3493.50 4216.79 83.11 8.00 192.26 2592.27
   04:05:10.808.28-May-2021 3493.50 4216.88 83.11 8.00 192.46 2592.27
   04:05:11.008.28-May-2021 3493.50 4216.88 83.11 8.00 192.66 2592.27
   04:05:11.208.28-May-2021 3493.50 4216.87 83.11 8.00 192.86 2592.27
   04:05:11.408.28-May-2021 3493.50 4216.87 83.11 8.00 193.06 2592.27
   04:05:11.608.28-May-2021 3493.50 4216.87 83.11 8.00 193.26 2592.27
   04:05:11.808.28-May-2021 3493.50 4216.86 83.11 8.00 193.46 2592.27
   04:05:12.008.28-May-2021 3493.50 4216.88 83.11 8.00 193.66 2592.27
   04:05:12.208.28-May-2021 3493.50 4216.85 83.11 8.00 193.86 2592.27
   04:05:12.408.28-May-2021 3493.50 4216.86 83.11 8.00 194.06 2592.27
   04:05:12.608.28-May-2021 3493.50 4216.86 83.11 8.00 194.26 2592.27
   04:05:12.808.28-May-2021 3493.50 4216.86 83.11 8.00 194.46 2592.27
   04:05:13.008.28-May-2021 3493.50 4216.87 83.11 8.00 194.66 2592.27
   04:05:13.208.28-May-2021 3493.50 4216.89 83.11 8.00 194.86 2592.27
   04:05:13.409.28-May-2021 3493.50 4216.87 83.11 8.00 195.06 2592.27
   04:05:13.609.28-May-2021 3493.50 4216.87 83.11 8.00 195.26 2592.27
   04:05:13.809.28-May-2021 3493.50 4216.88 83.11 8.00 195.46 2592.27
   04:05:14.009.28-May-2021 3493.50 4216.88 83.10 8.00 195.66 2592.27
   04:05:14.209.28-May-2021 3493.50 4216.88 83.10 8.00 195.86 2592.27
   04:05:14.409.28-May-2021 3493.50 4216.88 83.10 8.00 196.06 2592.27
   04:05:14.609.28-May-2021 3493.50 4216.88 83.10 8.00 196.26 2592.27
   04:05:14.809.28-May-2021 3493.50 4216.87 83.10 8.00 196.46 2592.27
   04:05:15.009.28-May-2021 3493.50 4216.86 83.10 8.00 196.66 2592.27
   04:05:15.209.28-May-2021 3493.50 4216.85 83.10 8.00 196.86 2592.27
   04:05:15.409.28-May-2021 3493.50 4216.95 83.10 8.00 197.06 2592.27
   04:05:15.609.28-May-2021 3493.50 4216.95 83.10 8.00 197.26 2592.27
   04:05:15.809.28-May-2021 3493.50 4216.86 83.10 8.00 197.46 2592.27
   04:05:16.009.28-May-2021 3493.50 4216.88 83.10 8.00 197.66 2592.27
   04:05:16.209.28-May-2021 3493.50 4216.70 83.10 8.00 197.86 2592.27
   04:05:16.409.28-May-2021 3493.50 4217.03 83.10 8.00 198.06 2592.27
   04:05:16.610.28-May-2021 3493.50 4217.03 83.10 8.00 198.26 2592.27
   04:05:16.810.28-May-2021 3493.50 4216.89 83.10 8.00 198.46 2592.27
   04:05:17.010.28-May-2021 3493.50 4216.85 83.10 8.00 198.66 2592.27
   04:05:17.210.28-May-2021 3493.50 4216.55 83.10 8.00 198.86 2592.27
   04:05:17.410.28-May-2021 3493.50 4217.19 83.10 8.00 199.06 2592.27
   04:05:17.610.28-May-2021 3493.50 4217.19 83.10 8.00 199.26 2592.27
   04:05:17.810.28-May-2021 3493.50 4216.89 83.10 8.00 199.46 2592.27
   04:05:18.010.28-May-2021 3493.50 4216.86 83.10 8.00 199.66 2592.27
   04:05:18.210.28-May-2021 3493.50 4216.80 83.10 8.00 199.86 2592.27
   04:05:18.410.28-May-2021 3493.50 4216.94 83.10 8.00 200.06 2592.27
   04:05:18.610.28-May-2021 3493.50 4216.94 83.10 8.00 200.26 2592.27
   04:05:18.810.28-May-2021 3493.50 4216.87 83.10 8.00 200.46 2592.27
   04:05:19.010.28-May-2021 3493.50 4216.89 83.10 8.00 200.66 2592.27
   04:05:19.210.28-May-2021 3493.50 4216.87 83.10 8.00 200.86 2592.27
   04:05:19.410.28-May-2021 3493.50 4216.87 83.10 8.00 201.06 2592.27
   04:05:19.611.28-May-2021 3493.50 4216.87 83.10 8.00 201.26 2592.27
   04:05:19.811.28-May-2021 3493.50 4216.87 83.10 8.00 201.46 2592.27
   04:05:20.011.28-May-2021 3493.50 4216.88 83.10 8.00 201.66 2592.27
   04:05:20.211.28-May-2021 3493.50 4216.87 83.10 8.00 201.86 2592.27
   04:05:20.411.28-May-2021 3493.50 4216.87 83.10 8.00 202.07 2592.27
   04:05:20.611.28-May-2021 3493.50 4216.87 83.10 8.00 202.27 2592.27
   04:05:20.811.28-May-2021 3493.50 4216.61 83.10 8.00 202.47 2592.27
   04:05:21.011.28-May-2021 3493.50 4217.11 83.10 8.00 202.67 2592.27
   04:05:21.211.28-May-2021 3493.50 4216.88 83.10 8.00 202.87 2592.27
   04:05:21.411.28-May-2021 3493.50 4216.90 83.10 8.00 203.07 2592.27
   04:05:21.611.28-May-2021 3493.50 4216.90 83.10 8.00 203.27 2592.27
   04:05:21.811.28-May-2021 3493.50 4216.87 83.10 8.00 203.47 2592.27
   04:05:22.011.28-May-2021 3493.50 4216.87 83.10 8.00 203.67 2592.27
   04:05:22.211.28-May-2021 3493.50 4216.86 83.10 8.00 203.87 2592.27
   04:05:22.411.28-May-2021 3493.50 4216.87 83.10 8.00 204.07 2592.27
   04:05:22.611.28-May-2021 3493.50 4216.87 83.10 8.00 204.27 2592.27
   04:05:22.812.28-May-2021 3493.50 4216.87 83.10 8.00 204.47 2592.27
   04:05:23.012.28-May-2021 3493.50 4216.85 83.10 8.00 204.67 2592.27
   04:05:23.212.28-May-2021 3493.50 4216.85 83.10 8.00 204.87 2592.27
   04:05:23.412.28-May-2021 3493.50 4216.79 83.10 8.00 205.07 2592.27
   04:05:23.612.28-May-2021 3493.50 4216.79 83.10 8.00 205.27 2592.27
   04:05:23.812.28-May-2021 3493.50 4216.86 83.10 8.00 205.47 2592.27
   04:05:24.012.28-May-2021 3493.50 4216.85 83.10 8.00 205.67 2592.27
   04:05:24.212.28-May-2021 3493.50 4216.87 83.10 8.00 205.87 2592.27
   04:05:24.412.28-May-2021 3493.50 4216.95 83.10 8.00 206.07 2592.27
   04:05:24.612.28-May-2021 3493.50 4216.95 83.10 8.00 206.27 2592.27
   04:05:24.812.28-May-2021 3493.50 4216.86 83.10 8.00 206.47 2592.27
   04:05:25.012.28-May-2021 3493.50 4216.87 83.10 8.00 206.67 2592.27
   04:05:25.212.28-May-2021 3493.50 4216.87 83.10 8.00 206.87 2592.27
