~Version Information
 VERS.                  2.0:   CWLS log ASCII Standard -VERSION 2.0
 WRAP.                   NO:   One line per depth step
~Well Information Block
#MNEM.UNIT     VALUE/NAME     DESCRIPTION
#---------     -----------    ---------------------------
 STRT.S             06:06:39 28-May-21: START TIME 06:06:39 28-May-21
 STOP.S             06:13:42 28-May-21: STOP TIME  06:13:42 28-May-21
 STEP.S                   0.00: STEP TIME
 NULL.                 -999.25: NULL VALUE
 UWI .                     N/A:  UNIQUE WELL IDENTIFIER
 API .                     N/A:  API NUMBER
 UNIT.                     N/A:  LOGGING EQUIPMENT ID
 DCON.         Sperry Drilling:  DIRECTNL CONTR
 DOE .                     N/A:  DOE NUMBER
 MWDS.                    Baku:  MWD SHOP
 SRVC.     Turan Drilling and Engineering:  CONTRACTOR
 CTRY.              Azerbaijan:  COUNTRY NAME
 PROV.                    Baku:  PROVINCE
 STAT.                    Baku:  STATE NAME
 REGN.                   EESSA:  REGION
 BASE.              Azerbaijan:  LOGGING EQUIPMENT BASE LOCATION
 WTYP.                Deviated:  WELL TYPE
 RIG .              East Azeri:  RIG NAME
 WELL.                    D02y:  WELL NAME
 FLD .                     ACG:  FIELD NAME
 COMP.     BP Exploration (Caspian Sea) Ltd.:  COMPANY
 PDAT.          Mean Sea Level:  PERMANENT DATUM
 MDS .        Operator Entered:  MAG DATA SOURCE
 SON .        AZ-XX-0906997291:  JOB NUMBER
 FTOP.          Formation Tops:  FORM TOPS DESC
 ILTD.               Lithology:  INTERP LTH DESC
 SVYD.                  Survey:  SURVEY DESC
 DMOD.             Drill Model:  DRILL MOD DESC
 HPTY.       Minimum Curvature:  HOLE POS TYPE
 NREF.                    Grid:  NORTH REFERENCE
 SPUD.               05-May-21:  SPUD DATE
 DATE.      09.27.28 12-Jun-21:  END TIME
 STIM.      09.27.28 12-May-21:  START TIME
 DMF .             Drill Floor:  DRILL MEAS FROM
 DFST.                        :  DIST FSL TEXT
 DFWT.                        :  DIST FWL TEXT
 CNTY.                        :  COUNTY
 LOC .                        :  LOCATION
 LMF .             Drill Floor:  LOG MEASURED FROM
 DEP .m                2806.40:  DEPTH
 AGAP.m                  43.60:  AIR GAP
 VSNS.m                  -4.42:  VERT SEC N/S
 VSEW.m                  -7.31:  VERT SEC E/W
 APD .m                  43.60:  DEPTH ABOVE PD
 WDMS.m                 151.80:  WD ELEV
 EGL .m                   0.00:  GROUND ELEVATION
 EPD .m                   0.00:  ELEVATION
 AZTC.deg                 6.18:  AZM TOTAL CORR
 GRDC.deg                 0.29:  GRID CORRECTION
 MDEC.deg                 6.47:  MAGNETIC DECL
 MDIP.deg                59.50:  MAGNETIC DIP
 MFLD.nT              50350.00:  MAGNETIC FIELD
 GVFD.g                   1.00:  GRAVITY FIELD
 VSDR.deg               179.08:  VERT SEC DIRECT
 TDD .m                4300.00:  TOTAL DEPTH (DRILLER)
 SDEP.m                2800.00:  START DEPTH
 DFSL.m                   0.00:  DISTANCE FSL
 DFWL.m                   0.00:  DISTANCE FWL
 UTMY.m             4431871.34:  UTM Y
 UTMX.m              538762.90:  UTM X
 WHEW.m                  -7.31:  WELL HEAD E/W
 WHNS.m                  -4.42:  WELL HEAD N/S
 LONG.deg                51.45:  LONGITUDE
 LATI.deg                40.02:  LATITUDE
 TVDS.m                  43.60:  TVDSS CORRECTN
 EKB .m                  43.60:  KB ELEVATION
 EDF .m                  43.60:  DF ELEVATION
 TDL .m                 806.00:  TOTAL DEPTH (LOGGER)
 MAGU.                 1851231:  MAGUTM CHECKSUM
 VSC .                       0:  VS TO CLOSURE
~Parameter Information Block
#MNEM.UNIT       Value        Description
#---------     -----------    ---------------------------
 AV  .mps                 1.60:  Ann Velocity 
 AVMX.mps                 2.00:  Max Ann Veloc 
 AZIF.deg               140.24:  Azm, Final 
 BHAT.        Rotary Steerable:  BHA Type 
 BROT.°/30m               0.50:  Build Rotating 
 BS  .in                  8.50:  Bit Size 
 BTPL.psig              619.00:  Bit Press Loss 
 CABU.                     Yes:  Customer Abuse 
 CGEO.          Ilgar Gurbanov:  Customer Geo 
 COMM.                     ´.T:  Run Comments 1 
 TCS .hr                 85.88:  Time Ciculation Ended 
 CV  .mps                 3.30:  Crit Velocity 
 CVMX.mps                 3.50:  Max Crit Veloc 
 DD1 .           Hamid Axmedov:  Direct Drillr 1 
 DD2 .           Teymur Aliyev:  Direct Drillr 2 
 DDSV.               Geo-Pilot:  DD Service 
 DEFF.%                 100.00:  % Det Eff 
 DLRX.°/30m               0.00:  Dogleg Rot Max 
 DLSO.°/30m               1.80:  Dogleg Oriented 
 DLSX.°/30m               3.34:  Dogleg Str Max 
 DRET.      11.50.00 27-May-21:  Drill End Time 
 DRST.      21.13.00 24-May-21:  Drill Start Tim 
 DTIM.hr                 45.11:  Time Drilling 
 EDEP.m                4054.00:  End Depth 
 ENG1.         Almaz Almadatov:  Engineer 1 
 ENG2.           Amrah Tahirov:  Engineer 2 
 ENG3.      Bakhtiyar Jabbarli:  Engineer 3 
 ENG4.          Nazrin Asgarli:  Engineer 4 
 ETIM.      10.00.00 30-May-21:  End Time 
 FLOI.gpm               530.00:  Flow In 
 FLON.gpm               400.00:  Flow In Min 
 FLOS.cptm                0.00:  Fluid Loss 
 FLOX.gpm               560.00:  Flow In Max 
 DFT .        Mineral Oil Base:  Mud Type 
 FTRO.       Formation Presure:  FTWD Run Obj 
 HFLO.                      No:  High Flow 
 HPRE.                      No:  High Pressure 
 HTEM.                      No:  High Temp 
 HYDO.m                   1.80:  Hydro Offset 
 IFIN.deg                73.83:  Inc, Final 
 IMAX.deg                73.83:  Inc Max 
 IMIN.deg                57.86:  Inc Min 
 IMND.m                3259.27:  Inc Min Depth 
 IMXD.m                4045.58:  Inc Max Depth 
 JARR.                     Yes:  Jarring 
 LETM.      11.50.00 27-May-21:  Log End Time 
 LOST.hr                     0:  Lost Rig Time 
 LSTM.      21.13.00 24-May-21:  Log Start Time 
 MDCL.ppm             42500.00:  Mud Chlorides 
 MDES.     Inversion Oil/Synthetic:  Mud Desc 
 DFD .sg                  1.52:  Mud Density 
 MDMN.sg                  1.52:  Dens Mud Min 
 MDMX.sg                  1.52:  Dens Mud Max 
 MOIL.                      70:  Run Mud Oil % 
 MOWR.                   70:30:  Run Mud OWR 
 MSND.                     0.2:  Run Mud Sand % 
 MSOL.                      22:  Run Mud Solids% 
 DFV .spqt               77.00:  Mud Viscosity 
 MWOD.in                  6.75:  MWD Tool OD 
 MWSI.                      No:  Serv Intrp, MWD 
 OTIM.hr                151.01:  Time Operating 
 PCON.          Wear / Scratch:  Pad Condition 
 PMAX.psia            11296.93:  Press Op, Max 
 PV  .cP                 37.00:  Mud PV 
 RUN .                     500:  Run Number 
 ROPA.m/hr               25.00:  ROP Avg 
 ROPN.m/hr                9.00:  ROP Min 
 ROPX.m/hr               28.00:  ROP Max 
 RPMA.rpm               140.00:  RPM Surface Avg 
 RPMN.rpm                90.00:  RPM Surface Min 
 RPMX.rpm               140.00:  RPM Surface Max 
 RRUN.                    0500:  Rig Run Number 
 SAZI.deg               172.17:  Azm, Start 
 SDEP.m                3248.00:  Start Depth 
 SIDD.                      No:  Serv Intrp, DD 
 SINC.deg                57.86:  Inc, Start 
 SPPA.psig             5620.00:  SPP Avg 
 SPPN.psig             5190.00:  SPP Min 
 SPPX.psig             6050.00:  SPP Max 
 STIM.      16.00.00 23-May-21:  Start Time 
 SVCS.                 DD, MWD:  Services 
 SVER.                    9.20:  Sperry Version 
 TDAT.m                 806.00:  Tot Depth Attmp 
 TDDF.                      No:  Trip for DD 
 TDLG.m                 806.00:  Tot Depth Loggd 
 TFF .                      No:  Trip for Fail 
 TQAA.f-kp               12.00:  Torque Abs Avg 
 TQAN.f-kp                8.00:  Torque Abs Min 
 TQAX.f-kp               15.00:  Torque Abs Max 
 TRRT.°/30m               0.30:  Turn Rotating 
 MRT .                  EWR-M5:  Maximum Recorded Temperature 
 TTMX.degC               93.00:  Max Tool Temp 
 VS01.                90649155:  Virtual Str1 SN 
 VS02.                90642264:  Virtual Str2 SN 
 VS03.                90642266:  Virtual Str3 SN 
 VS04.                90642261:  Virtual Str4 SN 
 WBMN.klb                 0.00:  WOB Min 
 WITN.             Anar Khalil:  Customer Rep 
 WITN.           Murad Guliyev:  Customer Rep 2 
 WOBA.klb                13.00:  WOB Avg 
 WOBX.klb                25.00:  WOB Max 
 YP  .lhf2               32.00:  Yield Point 
~Curve Information Block
#MNEM.UNIT                 API CODE     Curve Description
#---------               -----------    ---------------------------
 TIME.HHMMSS            00 000 000 000:  GT Time & Date
 GTDEPTH.m              00 000 000 000:  GT Depth
 GTPQH.psia             00 000 000 000:  GT HR Quartz Pressure
 GTTQ.degC              00 000 000 000:  GT Quartz Temperature
 GTTN.NONE              00 000 000 000:  GT Test Number
 GTET.sec               00 000 000 000:  GT Elapsed Test Time
 GTTVD.m                00 000 000 000:  GT True Vertical Depth
#Other Information
#
#WARRANTY: Halliburton will use its best efforts to furnish customers with 
#accurate information and interpretations that are part of, and incident to, the services 
#provided.  However, Halliburton cannot and does not warrant the accuracy 
#or correctness of such information and interpretations.  Under no circumstances should any 
#such information or interpretation be relied upon as the sole basis for any drilling, 
#completion, production, or financial decision or any procedure involving any risk to the 
#safety of any drilling venture, drilling rig or its crew or any other third party.  The 
#Customer has full responsibility for all drilling, completion and production operation.  
#Halliburton makes no representations or warranties, either expressed or 
#implied, including, but not limited to, the implied warranties of merchantability or fitness 
#for a particular purpose, with respect to the services rendered.  In no event will 
#Halliburton be liable for failure to obtain any particular results or for 
#any damages, including, but not limited to, indirect, special or consequential damages, 
#resulting from the use of any information or interpretation provided by Halliburton.
#
~A           TIME           GTDEPTH  GTPQH  GTTQ  GTTN   GTET   GTTVD  
# ...
   06:13:26.200.28-May-2021 3440.00 6009.68 83.39 12.00 406.97 2569.12
   06:13:26.400.28-May-2021 3440.00 6009.98 83.39 12.00 407.17 2569.12
   06:13:26.600.28-May-2021 3440.00 6009.98 83.39 12.00 407.37 2569.12
   06:13:26.800.28-May-2021 3440.00 6009.83 83.39 12.00 407.57 2569.12
   06:13:27.000.28-May-2021 3440.00 6009.53 83.39 12.00 407.77 2569.12
   06:13:27.201.28-May-2021 3440.00 6009.85 83.39 12.00 407.97 2569.12
   06:13:27.401.28-May-2021 3440.00 6009.70 83.39 12.00 408.17 2569.12
   06:13:27.601.28-May-2021 3440.00 6009.70 83.39 12.00 408.37 2569.12
   06:13:27.801.28-May-2021 3440.00 6009.42 83.39 12.00 408.57 2569.12
   06:13:28.001.28-May-2021 3440.00 6009.27 83.39 12.00 408.77 2569.12
   06:13:28.201.28-May-2021 3440.00 6014.20 83.39 12.00 408.97 2569.12
   06:13:28.401.28-May-2021 3440.00 6008.55 83.39 12.00 409.17 2569.12
   06:13:28.601.28-May-2021 3440.00 6008.55 83.39 12.00 409.37 2569.12
   06:13:28.801.28-May-2021 3440.00 6009.22 83.39 12.00 409.57 2569.12
   06:13:29.001.28-May-2021 3440.00 6009.99 83.39 12.00 409.77 2569.12
   06:13:29.201.28-May-2021 3440.00 6008.95 83.39 12.00 409.97 2569.12
   06:13:29.401.28-May-2021 3440.00 6009.76 83.39 12.00 410.17 2569.12
   06:13:29.602.28-May-2021 3440.00 6009.76 83.39 12.00 410.37 2569.12
   06:13:29.802.28-May-2021 3440.00 6009.96 83.39 12.00 410.57 2569.12
   06:13:30.002.28-May-2021 3440.00 6009.83 83.39 12.00 410.77 2569.12
   06:13:30.202.28-May-2021 3440.00 6009.99 83.39 12.00 410.97 2569.12
   06:13:30.402.28-May-2021 3440.00 6009.79 83.39 12.00 411.17 2569.12
   06:13:30.602.28-May-2021 3440.00 6009.79 83.39 12.00 411.37 2569.12
   06:13:30.802.28-May-2021 3440.00 6009.24 83.39 12.00 411.57 2569.12
   06:13:31.002.28-May-2021 3440.00 6014.15 83.39 12.00 411.77 2569.12
   06:13:31.202.28-May-2021 3440.00 6008.64 83.39 12.00 411.97 2569.12
   06:13:31.402.28-May-2021 3440.00 6009.31 83.39 12.00 412.17 2569.12
   06:13:31.602.28-May-2021 3440.00 6009.31 83.39 12.00 412.37 2569.12
   06:13:31.802.28-May-2021 3440.00 6012.04 83.39 12.00 412.57 2569.12
   06:13:32.003.28-May-2021 3440.00 6011.03 83.39 12.00 412.77 2569.12
   06:13:32.203.28-May-2021 3440.00 6010.19 83.39 12.00 412.97 2569.12
   06:13:32.403.28-May-2021 3440.00 6009.39 83.39 12.00 413.17 2569.12
   06:13:32.603.28-May-2021 3440.00 6009.39 83.39 12.00 413.37 2569.12
   06:13:32.803.28-May-2021 3440.00 6009.11 83.39 12.00 413.57 2569.12
   06:13:33.003.28-May-2021 3440.00 6016.24 83.39 12.00 413.77 2569.12
   06:13:33.203.28-May-2021 3440.00 6007.09 83.39 12.00 413.97 2569.12
   06:13:33.403.28-May-2021 3440.00 6009.91 83.39 12.00 414.17 2569.12
   06:13:33.603.28-May-2021 3440.00 6009.91 83.39 12.00 414.37 2569.12
   06:13:33.803.28-May-2021 3440.00 6009.20 83.39 12.00 414.57 2569.12
   06:13:34.003.28-May-2021 3440.00 6009.53 83.39 12.00 414.77 2569.12
   06:13:34.203.28-May-2021 3440.00 6009.62 83.39 12.00 414.97 2569.12
   06:13:34.404.28-May-2021 3440.00 6010.40 83.39 12.00 415.17 2569.12
   06:13:34.604.28-May-2021 3440.00 6010.40 83.39 12.00 415.37 2569.12
   06:13:34.804.28-May-2021 3440.00 6010.31 83.39 12.00 415.57 2569.12
   06:13:35.004.28-May-2021 3440.00 6010.04 83.39 12.00 415.77 2569.12
   06:13:35.204.28-May-2021 3440.00 6010.44 83.39 12.00 415.97 2569.12
   06:13:35.404.28-May-2021 3440.00 6010.26 83.39 12.00 416.17 2569.12
   06:13:35.604.28-May-2021 3440.00 6010.26 83.39 12.00 416.37 2569.12
   06:13:35.804.28-May-2021 3440.00 6010.13 83.39 12.00 416.57 2569.12
   06:13:36.004.28-May-2021 3440.00 6010.07 83.39 12.00 416.77 2569.12
   06:13:36.204.28-May-2021 3440.00 6016.37 83.39 12.00 416.97 2569.12
   06:13:36.404.28-May-2021 3440.00 6007.60 83.39 12.00 417.17 2569.12
   06:13:36.604.28-May-2021 3440.00 6007.60 83.39 12.00 417.37 2569.12
   06:13:36.805.28-May-2021 3440.00 6009.86 83.39 12.00 417.57 2569.12
   06:13:37.005.28-May-2021 3440.00 6010.38 83.39 12.00 417.77 2569.12
   06:13:37.205.28-May-2021 3440.00 6009.65 83.39 12.00 417.97 2569.12
   06:13:37.405.28-May-2021 3440.00 6010.21 83.39 12.00 418.17 2569.12
   06:13:37.605.28-May-2021 3440.00 6010.21 83.39 12.00 418.37 2569.12
   06:13:37.805.28-May-2021 3440.00 6010.59 83.39 12.00 418.57 2569.12
   06:13:38.005.28-May-2021 3440.00 6010.55 83.39 12.00 418.78 2569.12
   06:13:38.205.28-May-2021 3440.00 6010.60 83.39 12.00 418.98 2569.12
   06:13:38.405.28-May-2021 3440.00 6010.43 83.39 12.00 419.18 2569.12
   06:13:38.605.28-May-2021 3440.00 6010.43 83.39 12.00 419.38 2569.12
   06:13:38.805.28-May-2021 3440.00 6009.90 83.39 12.00 419.58 2569.12
   06:13:39.005.28-May-2021 3440.00 6016.31 83.39 12.00 419.78 2569.12
   06:13:39.206.28-May-2021 3440.00 6007.27 83.39 12.00 419.98 2569.12
   06:13:39.406.28-May-2021 3440.00 6009.52 83.39 12.00 420.18 2569.12
   06:13:39.606.28-May-2021 3440.00 6009.52 83.39 12.00 420.38 2569.12
   06:13:39.806.28-May-2021 3440.00 6014.78 83.39 12.00 420.58 2569.12
   06:13:40.006.28-May-2021 3440.00 6008.63 83.39 12.00 420.78 2569.12
   06:13:40.206.28-May-2021 3440.00 6010.01 83.39 12.00 420.98 2569.12
   06:13:40.406.28-May-2021 3440.00 6009.34 83.39 12.00 421.18 2569.12
   06:13:40.606.28-May-2021 3440.00 6009.34 83.39 12.00 421.38 2569.12
   06:13:40.806.28-May-2021 3440.00 6009.05 83.39 12.00 421.58 2569.12
   06:13:41.006.28-May-2021 3440.00 6013.85 83.39 12.00 421.78 2569.12
   06:13:41.206.28-May-2021 3440.00 6009.32 83.39 12.00 421.98 2569.12
   06:13:41.406.28-May-2021 3440.00 6009.66 83.39 12.00 422.18 2569.12
   06:13:41.607.28-May-2021 3440.00 6009.66 83.39 12.00 422.38 2569.12
   06:13:41.807.28-May-2021 3440.00 6008.52 83.39 12.00 422.58 2569.12
   06:13:42.007.28-May-2021 3440.00 6009.84 83.39 12.00 422.78 2569.12
   06:13:42.207.28-May-2021 3440.00 6009.06 83.39 12.00 422.98 2569.12
