~Version Information
 VERS.                  2.0:   CWLS log ASCII Standard -VERSION 2.0
 WRAP.                   NO:   One line per depth step
~Well Information Block
#MNEM.UNIT     VALUE/NAME     DESCRIPTION
#---------     -----------    ---------------------------
 STRT.S             23:03:24 27-May-21: START TIME 23:03:24 27-May-21
 STOP.S             23:10:28 27-May-21: STOP TIME  23:10:28 27-May-21
 STEP.S                   0.00: STEP TIME
 NULL.                 -999.25: NULL VALUE
 UWI .                     N/A:  UNIQUE WELL IDENTIFIER
 API .                     N/A:  API NUMBER
 UNIT.                     N/A:  LOGGING EQUIPMENT ID
 DCON.         Sperry Drilling:  DIRECTNL CONTR
 DOE .                     N/A:  DOE NUMBER
 MWDS.                    Baku:  MWD SHOP
 SRVC.     Turan Drilling and Engineering:  CONTRACTOR
 CTRY.              Azerbaijan:  COUNTRY NAME
 PROV.                    Baku:  PROVINCE
 STAT.                    Baku:  STATE NAME
 REGN.                   EESSA:  REGION
 BASE.              Azerbaijan:  LOGGING EQUIPMENT BASE LOCATION
 WTYP.                Deviated:  WELL TYPE
 RIG .              East Azeri:  RIG NAME
 WELL.                    D02y:  WELL NAME
 FLD .                     ACG:  FIELD NAME
 COMP.     BP Exploration (Caspian Sea) Ltd.:  COMPANY
 PDAT.          Mean Sea Level:  PERMANENT DATUM
 MDS .        Operator Entered:  MAG DATA SOURCE
 SON .        AZ-XX-0906997291:  JOB NUMBER
 FTOP.          Formation Tops:  FORM TOPS DESC
 ILTD.               Lithology:  INTERP LTH DESC
 SVYD.                  Survey:  SURVEY DESC
 DMOD.             Drill Model:  DRILL MOD DESC
 HPTY.       Minimum Curvature:  HOLE POS TYPE
 NREF.                    Grid:  NORTH REFERENCE
 SPUD.               05-May-21:  SPUD DATE
 DATE.      09.27.28 12-Jun-21:  END TIME
 STIM.      09.27.28 12-May-21:  START TIME
 DMF .             Drill Floor:  DRILL MEAS FROM
 DFST.                        :  DIST FSL TEXT
 DFWT.                        :  DIST FWL TEXT
 CNTY.                        :  COUNTY
 LOC .                        :  LOCATION
 LMF .             Drill Floor:  LOG MEASURED FROM
 DEP .m                2806.40:  DEPTH
 AGAP.m                  43.60:  AIR GAP
 VSNS.m                  -4.42:  VERT SEC N/S
 VSEW.m                  -7.31:  VERT SEC E/W
 APD .m                  43.60:  DEPTH ABOVE PD
 WDMS.m                 151.80:  WD ELEV
 EGL .m                   0.00:  GROUND ELEVATION
 EPD .m                   0.00:  ELEVATION
 AZTC.deg                 6.18:  AZM TOTAL CORR
 GRDC.deg                 0.29:  GRID CORRECTION
 MDEC.deg                 6.47:  MAGNETIC DECL
 MDIP.deg                59.50:  MAGNETIC DIP
 MFLD.nT              50350.00:  MAGNETIC FIELD
 GVFD.g                   1.00:  GRAVITY FIELD
 VSDR.deg               179.08:  VERT SEC DIRECT
 TDD .m                4300.00:  TOTAL DEPTH (DRILLER)
 SDEP.m                2800.00:  START DEPTH
 DFSL.m                   0.00:  DISTANCE FSL
 DFWL.m                   0.00:  DISTANCE FWL
 UTMY.m             4431871.34:  UTM Y
 UTMX.m              538762.90:  UTM X
 WHEW.m                  -7.31:  WELL HEAD E/W
 WHNS.m                  -4.42:  WELL HEAD N/S
 LONG.deg                51.45:  LONGITUDE
 LATI.deg                40.02:  LATITUDE
 TVDS.m                  43.60:  TVDSS CORRECTN
 EKB .m                  43.60:  KB ELEVATION
 EDF .m                  43.60:  DF ELEVATION
 TDL .m                 806.00:  TOTAL DEPTH (LOGGER)
 MAGU.                 1851231:  MAGUTM CHECKSUM
 VSC .                       0:  VS TO CLOSURE
~Parameter Information Block
#MNEM.UNIT       Value        Description
#---------     -----------    ---------------------------
 AV  .mps                 1.60:  Ann Velocity 
 AVMX.mps                 2.00:  Max Ann Veloc 
 AZIF.deg               140.24:  Azm, Final 
 BHAT.        Rotary Steerable:  BHA Type 
 BROT.°/30m               0.50:  Build Rotating 
 BS  .in                  8.50:  Bit Size 
 BTPL.psig              619.00:  Bit Press Loss 
 CABU.                     Yes:  Customer Abuse 
 CGEO.          Ilgar Gurbanov:  Customer Geo 
 COMM.                     |¡U:  Run Comments 1 
 TCS .hr                 85.88:  Time Ciculation Ended 
 CV  .mps                 3.30:  Crit Velocity 
 CVMX.mps                 3.50:  Max Crit Veloc 
 DD1 .           Hamid Axmedov:  Direct Drillr 1 
 DD2 .           Teymur Aliyev:  Direct Drillr 2 
 DDSV.               Geo-Pilot:  DD Service 
 DEFF.%                 100.00:  % Det Eff 
 DLRX.°/30m               0.00:  Dogleg Rot Max 
 DLSO.°/30m               1.80:  Dogleg Oriented 
 DLSX.°/30m               3.34:  Dogleg Str Max 
 DRET.      11.50.00 27-May-21:  Drill End Time 
 DRST.      21.13.00 24-May-21:  Drill Start Tim 
 DTIM.hr                 45.11:  Time Drilling 
 EDEP.m                4054.00:  End Depth 
 ENG1.         Almaz Almadatov:  Engineer 1 
 ENG2.           Amrah Tahirov:  Engineer 2 
 ENG3.      Bakhtiyar Jabbarli:  Engineer 3 
 ENG4.          Nazrin Asgarli:  Engineer 4 
 ETIM.      10.00.00 30-May-21:  End Time 
 FLOI.gpm               530.00:  Flow In 
 FLON.gpm               400.00:  Flow In Min 
 FLOS.cptm                0.00:  Fluid Loss 
 FLOX.gpm               560.00:  Flow In Max 
 DFT .        Mineral Oil Base:  Mud Type 
 FTRO.       Formation Presure:  FTWD Run Obj 
 HFLO.                      No:  High Flow 
 HPRE.                      No:  High Pressure 
 HTEM.                      No:  High Temp 
 HYDO.m                   1.80:  Hydro Offset 
 IFIN.deg                73.83:  Inc, Final 
 IMAX.deg                73.83:  Inc Max 
 IMIN.deg                57.86:  Inc Min 
 IMND.m                3259.27:  Inc Min Depth 
 IMXD.m                4045.58:  Inc Max Depth 
 JARR.                     Yes:  Jarring 
 LETM.      11.50.00 27-May-21:  Log End Time 
 LOST.hr                     0:  Lost Rig Time 
 LSTM.      21.13.00 24-May-21:  Log Start Time 
 MDCL.ppm             42500.00:  Mud Chlorides 
 MDES.     Inversion Oil/Synthetic:  Mud Desc 
 DFD .sg                  1.52:  Mud Density 
 MDMN.sg                  1.52:  Dens Mud Min 
 MDMX.sg                  1.52:  Dens Mud Max 
 MOIL.                      70:  Run Mud Oil % 
 MOWR.                   70:30:  Run Mud OWR 
 MSND.                     0.2:  Run Mud Sand % 
 MSOL.                      22:  Run Mud Solids% 
 DFV .spqt               77.00:  Mud Viscosity 
 MWOD.in                  6.75:  MWD Tool OD 
 MWSI.                      No:  Serv Intrp, MWD 
 OTIM.hr                151.01:  Time Operating 
 PCON.          Wear / Scratch:  Pad Condition 
 PMAX.psia            11296.93:  Press Op, Max 
 PV  .cP                 37.00:  Mud PV 
 RUN .                     500:  Run Number 
 ROPA.m/hr               25.00:  ROP Avg 
 ROPN.m/hr                9.00:  ROP Min 
 ROPX.m/hr               28.00:  ROP Max 
 RPMA.rpm               140.00:  RPM Surface Avg 
 RPMN.rpm                90.00:  RPM Surface Min 
 RPMX.rpm               140.00:  RPM Surface Max 
 RRUN.                    0500:  Rig Run Number 
 SAZI.deg               172.17:  Azm, Start 
 SDEP.m                3248.00:  Start Depth 
 SIDD.                      No:  Serv Intrp, DD 
 SINC.deg                57.86:  Inc, Start 
 SPPA.psig             5620.00:  SPP Avg 
 SPPN.psig             5190.00:  SPP Min 
 SPPX.psig             6050.00:  SPP Max 
 STIM.      16.00.00 23-May-21:  Start Time 
 SVCS.                 DD, MWD:  Services 
 SVER.                    9.20:  Sperry Version 
 TDAT.m                 806.00:  Tot Depth Attmp 
 TDDF.                      No:  Trip for DD 
 TDLG.m                 806.00:  Tot Depth Loggd 
 TFF .                      No:  Trip for Fail 
 TQAA.f-kp               12.00:  Torque Abs Avg 
 TQAN.f-kp                8.00:  Torque Abs Min 
 TQAX.f-kp               15.00:  Torque Abs Max 
 TRRT.°/30m               0.30:  Turn Rotating 
 MRT .                  EWR-M5:  Maximum Recorded Temperature 
 TTMX.degC               93.00:  Max Tool Temp 
 VS01.                90649155:  Virtual Str1 SN 
 VS02.                90642264:  Virtual Str2 SN 
 VS03.                90642266:  Virtual Str3 SN 
 VS04.                90642261:  Virtual Str4 SN 
 WBMN.klb                 0.00:  WOB Min 
 WITN.             Anar Khalil:  Customer Rep 
 WITN.           Murad Guliyev:  Customer Rep 2 
 WOBA.klb                13.00:  WOB Avg 
 WOBX.klb                25.00:  WOB Max 
 YP  .lhf2               32.00:  Yield Point 
~Curve Information Block
#MNEM.UNIT                 API CODE     Curve Description
#---------               -----------    ---------------------------
 TIME.HHMMSS            00 000 000 000:  GT Time & Date
 GTDEPTH.m              00 000 000 000:  GT Depth
 GTPQH.psia             00 000 000 000:  GT HR Quartz Pressure
 GTTQ.degC              00 000 000 000:  GT Quartz Temperature
 GTTN.NONE              00 000 000 000:  GT Test Number
 GTET.sec               00 000 000 000:  GT Elapsed Test Time
 GTTVD.m                00 000 000 000:  GT True Vertical Depth
#Other Information
#
#WARRANTY: Halliburton will use its best efforts to furnish customers with 
#accurate information and interpretations that are part of, and incident to, the services 
#provided.  However, Halliburton cannot and does not warrant the accuracy 
#or correctness of such information and interpretations.  Under no circumstances should any 
#such information or interpretation be relied upon as the sole basis for any drilling, 
#completion, production, or financial decision or any procedure involving any risk to the 
#safety of any drilling venture, drilling rig or its crew or any other third party.  The 
#Customer has full responsibility for all drilling, completion and production operation.  
#Halliburton makes no representations or warranties, either expressed or 
#implied, including, but not limited to, the implied warranties of merchantability or fitness 
#for a particular purpose, with respect to the services rendered.  In no event will 
#Halliburton be liable for failure to obtain any particular results or for 
#any damages, including, but not limited to, indirect, special or consequential damages, 
#resulting from the use of any information or interpretation provided by Halliburton.
#
~A           TIME           GTDEPTH  GTPQH  GTTQ  GTTN  GTET   GTTVD  
# ...
   23:06:05.326.27-May-2021 3710.50 3095.90 84.61 2.00 161.06 2675.83
   23:06:05.527.27-May-2021 3710.50 3095.90 84.61 2.00 161.26 2675.83
   23:06:05.727.27-May-2021 3710.50 3096.49 84.61 2.00 161.46 2675.83
   23:06:05.927.27-May-2021 3710.50 3096.01 84.61 2.00 161.66 2675.83
   23:06:06.127.27-May-2021 3710.50 3096.36 84.61 2.00 161.86 2675.83
   23:06:06.327.27-May-2021 3710.50 3096.37 84.61 2.00 162.06 2675.83
   23:06:06.527.27-May-2021 3710.50 3096.37 84.61 2.00 162.26 2675.83
   23:06:06.727.27-May-2021 3710.50 3096.90 84.61 2.00 162.46 2675.83
   23:06:06.927.27-May-2021 3710.50 3096.60 84.61 2.00 162.66 2675.83
   23:06:07.127.27-May-2021 3710.50 3096.40 84.61 2.00 162.86 2675.83
   23:06:07.327.27-May-2021 3710.50 3096.67 84.61 2.00 163.06 2675.83
   23:06:07.527.27-May-2021 3710.50 3096.67 84.61 2.00 163.26 2675.83
   23:06:07.727.27-May-2021 3710.50 3096.59 84.61 2.00 163.46 2675.83
   23:06:07.927.27-May-2021 3710.50 3096.19 84.61 2.00 163.66 2675.83
   23:06:08.128.27-May-2021 3710.50 3126.96 84.61 2.00 163.86 2675.83
   23:06:08.328.27-May-2021 3710.50 3138.85 84.61 2.00 164.06 2675.83
   23:06:08.528.27-May-2021 3710.50 3138.85 84.61 2.00 164.26 2675.83
   23:06:08.728.27-May-2021 3710.50 3139.01 84.61 2.00 164.46 2675.83
   23:06:08.928.27-May-2021 3710.50 3139.17 84.61 2.00 164.66 2675.83
   23:06:09.128.27-May-2021 3710.50 3139.26 84.61 2.00 164.86 2675.83
   23:06:09.328.27-May-2021 3710.50 3139.26 84.61 2.00 165.06 2675.83
   23:06:09.528.27-May-2021 3710.50 3139.26 84.61 2.00 165.26 2675.83
   23:06:09.728.27-May-2021 3710.50 3139.29 84.61 2.00 165.46 2675.83
   23:06:09.928.27-May-2021 3710.50 3139.32 84.61 2.00 165.66 2675.83
   23:06:10.128.27-May-2021 3710.50 3139.33 84.61 2.00 165.86 2675.83
   23:06:10.328.27-May-2021 3710.50 3139.34 84.61 2.00 166.06 2675.83
   23:06:10.528.27-May-2021 3710.50 3139.34 84.61 2.00 166.27 2675.83
   23:06:10.729.27-May-2021 3710.50 3139.37 84.61 2.00 166.47 2675.83
   23:06:10.929.27-May-2021 3710.50 3139.38 84.61 2.00 166.67 2675.83
   23:06:11.129.27-May-2021 3710.50 3139.39 84.61 2.00 166.87 2675.83
   23:06:11.329.27-May-2021 3710.50 3139.37 84.61 2.00 167.07 2675.83
   23:06:11.529.27-May-2021 3710.50 3139.37 84.61 2.00 167.27 2675.83
   23:06:11.729.27-May-2021 3710.50 3139.46 84.61 2.00 167.47 2675.83
   23:06:11.929.27-May-2021 3710.50 3139.45 84.61 2.00 167.67 2675.83
   23:06:12.129.27-May-2021 3710.50 3139.35 84.61 2.00 167.87 2675.83
   23:06:12.329.27-May-2021 3710.50 3139.55 84.61 2.00 168.07 2675.83
   23:06:12.529.27-May-2021 3710.50 3139.55 84.61 2.00 168.27 2675.83
   23:06:12.729.27-May-2021 3710.50 3139.49 84.61 2.00 168.47 2675.83
   23:06:12.929.27-May-2021 3710.50 3139.39 84.61 2.00 168.67 2675.83
   23:06:13.129.27-May-2021 3710.50 3139.56 84.61 2.00 168.87 2675.83
   23:06:13.330.27-May-2021 3710.50 3139.49 84.61 2.00 169.07 2675.83
   23:06:13.530.27-May-2021 3710.50 3139.49 84.61 2.00 169.27 2675.83
   23:06:13.730.27-May-2021 3710.50 3139.49 84.61 2.00 169.47 2675.83
   23:06:13.930.27-May-2021 3710.50 3139.51 84.61 2.00 169.67 2675.83
   23:06:14.130.27-May-2021 3710.50 3139.54 84.61 2.00 169.87 2675.83
   23:06:14.330.27-May-2021 3710.50 3139.47 84.61 2.00 170.07 2675.83
   23:06:14.530.27-May-2021 3710.50 3139.47 84.61 2.00 170.27 2675.83
   23:06:14.730.27-May-2021 3710.50 3139.51 84.61 2.00 170.47 2675.83
   23:06:14.930.27-May-2021 3710.50 3139.52 84.61 2.00 170.67 2675.83
   23:06:15.130.27-May-2021 3710.50 3139.52 84.61 2.00 170.87 2675.83
   23:06:15.330.27-May-2021 3710.50 3139.52 84.61 2.00 171.07 2675.83
   23:06:15.530.27-May-2021 3710.50 3139.52 84.61 2.00 171.27 2675.83
   23:06:15.731.27-May-2021 3710.50 3139.52 84.61 2.00 171.47 2675.83
   23:06:15.931.27-May-2021 3710.50 3139.53 84.61 2.00 171.67 2675.83
   23:06:16.131.27-May-2021 3710.50 3139.53 84.61 2.00 171.87 2675.83
   23:06:16.331.27-May-2021 3710.50 3139.52 84.61 2.00 172.07 2675.83
   23:06:16.531.27-May-2021 3710.50 3139.52 84.61 2.00 172.27 2675.83
   23:06:16.731.27-May-2021 3710.50 3139.55 84.61 2.00 172.47 2675.83
   23:06:16.931.27-May-2021 3710.50 3139.49 84.61 2.00 172.67 2675.83
   23:06:17.131.27-May-2021 3710.50 3139.53 84.61 2.00 172.87 2675.83
   23:06:17.331.27-May-2021 3710.50 3139.53 84.61 2.00 173.07 2675.83
   23:06:17.531.27-May-2021 3710.50 3139.53 84.61 2.00 173.27 2675.83
   23:06:17.731.27-May-2021 3710.50 3139.53 84.61 2.00 173.47 2675.83
   23:06:17.931.27-May-2021 3710.50 3139.54 84.61 2.00 173.67 2675.83
   23:06:18.131.27-May-2021 3710.50 3139.55 84.61 2.00 173.87 2675.83
   23:06:18.332.27-May-2021 3710.50 3139.55 84.61 2.00 174.07 2675.83
   23:06:18.532.27-May-2021 3710.50 3139.55 84.61 2.00 174.27 2675.83
   23:06:18.732.27-May-2021 3710.50 3139.55 84.61 2.00 174.47 2675.83
   23:06:18.932.27-May-2021 3710.50 3139.55 84.61 2.00 174.67 2675.83
   23:06:19.132.27-May-2021 3710.50 3139.55 84.61 2.00 174.87 2675.83
   23:06:19.332.27-May-2021 3710.50 3139.58 84.61 2.00 175.07 2675.83
   23:06:19.532.27-May-2021 3710.50 3139.58 84.61 2.00 175.27 2675.83
   23:06:19.732.27-May-2021 3710.50 3139.54 84.61 2.00 175.47 2675.83
   23:06:19.932.27-May-2021 3710.50 3139.47 84.61 2.00 175.67 2675.83
   23:06:20.132.27-May-2021 3710.50 3139.62 84.61 2.00 175.87 2675.83
   23:06:20.332.27-May-2021 3710.50 3139.54 84.61 2.00 176.07 2675.83
   23:06:20.532.27-May-2021 3710.50 3139.54 84.61 2.00 176.27 2675.83
   23:06:20.732.27-May-2021 3710.50 3139.55 84.61 2.00 176.47 2675.83
   23:06:20.933.27-May-2021 3710.50 3139.57 84.61 2.00 176.67 2675.83
   23:06:21.133.27-May-2021 3710.50 3139.51 84.61 2.00 176.87 2675.83
   23:06:21.333.27-May-2021 3710.50 3139.55 84.61 2.00 177.07 2675.83
   23:06:21.533.27-May-2021 3710.50 3139.55 84.61 2.00 177.27 2675.83
   23:06:21.733.27-May-2021 3710.50 3139.56 84.61 2.00 177.47 2675.83
   23:06:21.933.27-May-2021 3710.50 3139.41 84.61 2.00 177.67 2675.83
   23:06:22.133.27-May-2021 3710.50 3139.68 84.61 2.00 177.87 2675.83
   23:06:22.333.27-May-2021 3710.50 3139.56 84.61 2.00 178.07 2675.83
   23:06:22.533.27-May-2021 3710.50 3139.56 84.61 2.00 178.27 2675.83
   23:06:22.733.27-May-2021 3710.50 3139.56 84.61 2.00 178.47 2675.83
   23:06:22.933.27-May-2021 3710.50 3139.55 84.61 2.00 178.67 2675.83
   23:06:23.133.27-May-2021 3710.50 3139.56 84.61 2.00 178.87 2675.83
   23:06:23.333.27-May-2021 3710.50 3139.56 84.61 2.00 179.07 2675.83
   23:06:23.534.27-May-2021 3710.50 3139.56 84.61 2.00 179.27 2675.83
   23:06:23.734.27-May-2021 3710.50 3139.56 84.61 2.00 179.47 2675.83
   23:06:23.934.27-May-2021 3710.50 3139.57 84.61 2.00 179.67 2675.83
   23:06:24.134.27-May-2021 3710.50 3139.57 84.61 2.00 179.87 2675.83
   23:06:24.334.27-May-2021 3710.50 3139.56 84.61 2.00 180.07 2675.83
   23:06:24.534.27-May-2021 3710.50 3139.56 84.61 2.00 180.27 2675.83
   23:06:24.734.27-May-2021 3710.50 3139.70 84.61 2.00 180.47 2675.83
   23:06:24.934.27-May-2021 3710.50 3139.56 84.61 2.00 180.67 2675.83
   23:06:25.134.27-May-2021 3710.50 3139.58 84.61 2.00 180.87 2675.83
   23:06:25.334.27-May-2021 3710.50 3139.57 84.61 2.00 181.07 2675.83
   23:06:25.534.27-May-2021 3710.50 3139.57 84.61 2.00 181.27 2675.83
   23:06:25.734.27-May-2021 3710.50 3139.57 84.61 2.00 181.47 2675.83
   23:06:25.935.27-May-2021 3710.50 3139.58 84.61 2.00 181.67 2675.83
   23:06:26.135.27-May-2021 3710.50 3139.57 84.61 2.00 181.87 2675.83
   23:06:26.335.27-May-2021 3710.50 3139.57 84.61 2.00 182.07 2675.83
   23:06:26.535.27-May-2021 3710.50 3139.57 84.61 2.00 182.27 2675.83
   23:06:26.735.27-May-2021 3710.50 3139.57 84.61 2.00 182.47 2675.83
   23:06:26.935.27-May-2021 3710.50 3139.59 84.61 2.00 182.67 2675.83
   23:06:27.135.27-May-2021 3710.50 3139.41 84.61 2.00 182.87 2675.83
   23:06:27.335.27-May-2021 3710.50 3139.70 84.61 2.00 183.07 2675.83
   23:06:27.535.27-May-2021 3710.50 3139.70 84.61 2.00 183.27 2675.83
   23:06:27.735.27-May-2021 3710.50 3139.55 84.61 2.00 183.47 2675.83
   23:06:27.935.27-May-2021 3710.50 3139.56 84.61 2.00 183.67 2675.83
   23:06:28.135.27-May-2021 3710.50 3139.58 84.61 2.00 183.87 2675.83
