~Version Information
 VERS.                  2.0:   CWLS log ASCII Standard -VERSION 2.0
 WRAP.                   NO:   One line per depth step
~Well Information Block
#MNEM.UNIT     VALUE/NAME     DESCRIPTION
#---------     -----------    ---------------------------
 STRT.S             23:03:24 27-May-21: START TIME 23:03:24 27-May-21
 STOP.S             23:10:28 27-May-21: STOP TIME  23:10:28 27-May-21
 STEP.S                   0.00: STEP TIME
 NULL.                 -999.25: NULL VALUE
 UWI .                     N/A:  UNIQUE WELL IDENTIFIER
 API .                     N/A:  API NUMBER
 UNIT.                     N/A:  LOGGING EQUIPMENT ID
 DCON.         Sperry Drilling:  DIRECTNL CONTR
 DOE .                     N/A:  DOE NUMBER
 MWDS.                    Baku:  MWD SHOP
 SRVC.     Turan Drilling and Engineering:  CONTRACTOR
 CTRY.              Azerbaijan:  COUNTRY NAME
 PROV.                    Baku:  PROVINCE
 STAT.                    Baku:  STATE NAME
 REGN.                   EESSA:  REGION
 BASE.              Azerbaijan:  LOGGING EQUIPMENT BASE LOCATION
 WTYP.                Deviated:  WELL TYPE
 RIG .              East Azeri:  RIG NAME
 WELL.                    D02y:  WELL NAME
 FLD .                     ACG:  FIELD NAME
 COMP.     BP Exploration (Caspian Sea) Ltd.:  COMPANY
 PDAT.          Mean Sea Level:  PERMANENT DATUM
 MDS .        Operator Entered:  MAG DATA SOURCE
 SON .        AZ-XX-0906997291:  JOB NUMBER
 FTOP.          Formation Tops:  FORM TOPS DESC
 ILTD.               Lithology:  INTERP LTH DESC
 SVYD.                  Survey:  SURVEY DESC
 DMOD.             Drill Model:  DRILL MOD DESC
 HPTY.       Minimum Curvature:  HOLE POS TYPE
 NREF.                    Grid:  NORTH REFERENCE
 SPUD.               05-May-21:  SPUD DATE
 DATE.      09.27.28 12-Jun-21:  END TIME
 STIM.      09.27.28 12-May-21:  START TIME
 DMF .             Drill Floor:  DRILL MEAS FROM
 DFST.                        :  DIST FSL TEXT
 DFWT.                        :  DIST FWL TEXT
 CNTY.                        :  COUNTY
 LOC .                        :  LOCATION
 LMF .             Drill Floor:  LOG MEASURED FROM
 DEP .m                2806.40:  DEPTH
 AGAP.m                  43.60:  AIR GAP
 VSNS.m                  -4.42:  VERT SEC N/S
 VSEW.m                  -7.31:  VERT SEC E/W
 APD .m                  43.60:  DEPTH ABOVE PD
 WDMS.m                 151.80:  WD ELEV
 EGL .m                   0.00:  GROUND ELEVATION
 EPD .m                   0.00:  ELEVATION
 AZTC.deg                 6.18:  AZM TOTAL CORR
 GRDC.deg                 0.29:  GRID CORRECTION
 MDEC.deg                 6.47:  MAGNETIC DECL
 MDIP.deg                59.50:  MAGNETIC DIP
 MFLD.nT              50350.00:  MAGNETIC FIELD
 GVFD.g                   1.00:  GRAVITY FIELD
 VSDR.deg               179.08:  VERT SEC DIRECT
 TDD .m                4300.00:  TOTAL DEPTH (DRILLER)
 SDEP.m                2800.00:  START DEPTH
 DFSL.m                   0.00:  DISTANCE FSL
 DFWL.m                   0.00:  DISTANCE FWL
 UTMY.m             4431871.34:  UTM Y
 UTMX.m              538762.90:  UTM X
 WHEW.m                  -7.31:  WELL HEAD E/W
 WHNS.m                  -4.42:  WELL HEAD N/S
 LONG.deg                51.45:  LONGITUDE
 LATI.deg                40.02:  LATITUDE
 TVDS.m                  43.60:  TVDSS CORRECTN
 EKB .m                  43.60:  KB ELEVATION
 EDF .m                  43.60:  DF ELEVATION
 TDL .m                 806.00:  TOTAL DEPTH (LOGGER)
 MAGU.                 1851231:  MAGUTM CHECKSUM
 VSC .                       0:  VS TO CLOSURE
~Parameter Information Block
#MNEM.UNIT       Value        Description
#---------     -----------    ---------------------------
 AV  .mps                 1.60:  Ann Velocity 
 AVMX.mps                 2.00:  Max Ann Veloc 
 AZIF.deg               140.24:  Azm, Final 
 BHAT.        Rotary Steerable:  BHA Type 
 BROT.°/30m               0.50:  Build Rotating 
 BS  .in                  8.50:  Bit Size 
 BTPL.psig              619.00:  Bit Press Loss 
 CABU.                     Yes:  Customer Abuse 
 CGEO.          Ilgar Gurbanov:  Customer Geo 
 COMM.                     |¡U:  Run Comments 1 
 TCS .hr                 85.88:  Time Ciculation Ended 
 CV  .mps                 3.30:  Crit Velocity 
 CVMX.mps                 3.50:  Max Crit Veloc 
 DD1 .           Hamid Axmedov:  Direct Drillr 1 
 DD2 .           Teymur Aliyev:  Direct Drillr 2 
 DDSV.               Geo-Pilot:  DD Service 
 DEFF.%                 100.00:  % Det Eff 
 DLRX.°/30m               0.00:  Dogleg Rot Max 
 DLSO.°/30m               1.80:  Dogleg Oriented 
 DLSX.°/30m               3.34:  Dogleg Str Max 
 DRET.      11.50.00 27-May-21:  Drill End Time 
 DRST.      21.13.00 24-May-21:  Drill Start Tim 
 DTIM.hr                 45.11:  Time Drilling 
 EDEP.m                4054.00:  End Depth 
 ENG1.         Almaz Almadatov:  Engineer 1 
 ENG2.           Amrah Tahirov:  Engineer 2 
 ENG3.      Bakhtiyar Jabbarli:  Engineer 3 
 ENG4.          Nazrin Asgarli:  Engineer 4 
 ETIM.      10.00.00 30-May-21:  End Time 
 FLOI.gpm               530.00:  Flow In 
 FLON.gpm               400.00:  Flow In Min 
 FLOS.cptm                0.00:  Fluid Loss 
 FLOX.gpm               560.00:  Flow In Max 
 DFT .        Mineral Oil Base:  Mud Type 
 FTRO.       Formation Presure:  FTWD Run Obj 
 HFLO.                      No:  High Flow 
 HPRE.                      No:  High Pressure 
 HTEM.                      No:  High Temp 
 HYDO.m                   1.80:  Hydro Offset 
 IFIN.deg                73.83:  Inc, Final 
 IMAX.deg                73.83:  Inc Max 
 IMIN.deg                57.86:  Inc Min 
 IMND.m                3259.27:  Inc Min Depth 
 IMXD.m                4045.58:  Inc Max Depth 
 JARR.                     Yes:  Jarring 
 LETM.      11.50.00 27-May-21:  Log End Time 
 LOST.hr                     0:  Lost Rig Time 
 LSTM.      21.13.00 24-May-21:  Log Start Time 
 MDCL.ppm             42500.00:  Mud Chlorides 
 MDES.     Inversion Oil/Synthetic:  Mud Desc 
 DFD .sg                  1.52:  Mud Density 
 MDMN.sg                  1.52:  Dens Mud Min 
 MDMX.sg                  1.52:  Dens Mud Max 
 MOIL.                      70:  Run Mud Oil % 
 MOWR.                   70:30:  Run Mud OWR 
 MSND.                     0.2:  Run Mud Sand % 
 MSOL.                      22:  Run Mud Solids% 
 DFV .spqt               77.00:  Mud Viscosity 
 MWOD.in                  6.75:  MWD Tool OD 
 MWSI.                      No:  Serv Intrp, MWD 
 OTIM.hr                151.01:  Time Operating 
 PCON.          Wear / Scratch:  Pad Condition 
 PMAX.psia            11296.93:  Press Op, Max 
 PV  .cP                 37.00:  Mud PV 
 RUN .                     500:  Run Number 
 ROPA.m/hr               25.00:  ROP Avg 
 ROPN.m/hr                9.00:  ROP Min 
 ROPX.m/hr               28.00:  ROP Max 
 RPMA.rpm               140.00:  RPM Surface Avg 
 RPMN.rpm                90.00:  RPM Surface Min 
 RPMX.rpm               140.00:  RPM Surface Max 
 RRUN.                    0500:  Rig Run Number 
 SAZI.deg               172.17:  Azm, Start 
 SDEP.m                3248.00:  Start Depth 
 SIDD.                      No:  Serv Intrp, DD 
 SINC.deg                57.86:  Inc, Start 
 SPPA.psig             5620.00:  SPP Avg 
 SPPN.psig             5190.00:  SPP Min 
 SPPX.psig             6050.00:  SPP Max 
 STIM.      16.00.00 23-May-21:  Start Time 
 SVCS.                 DD, MWD:  Services 
 SVER.                    9.20:  Sperry Version 
 TDAT.m                 806.00:  Tot Depth Attmp 
 TDDF.                      No:  Trip for DD 
 TDLG.m                 806.00:  Tot Depth Loggd 
 TFF .                      No:  Trip for Fail 
 TQAA.f-kp               12.00:  Torque Abs Avg 
 TQAN.f-kp                8.00:  Torque Abs Min 
 TQAX.f-kp               15.00:  Torque Abs Max 
 TRRT.°/30m               0.30:  Turn Rotating 
 MRT .                  EWR-M5:  Maximum Recorded Temperature 
 TTMX.degC               93.00:  Max Tool Temp 
 VS01.                90649155:  Virtual Str1 SN 
 VS02.                90642264:  Virtual Str2 SN 
 VS03.                90642266:  Virtual Str3 SN 
 VS04.                90642261:  Virtual Str4 SN 
 WBMN.klb                 0.00:  WOB Min 
 WITN.             Anar Khalil:  Customer Rep 
 WITN.           Murad Guliyev:  Customer Rep 2 
 WOBA.klb                13.00:  WOB Avg 
 WOBX.klb                25.00:  WOB Max 
 YP  .lhf2               32.00:  Yield Point 
~Curve Information Block
#MNEM.UNIT                 API CODE     Curve Description
#---------               -----------    ---------------------------
 TIME.HHMMSS            00 000 000 000:  GT Time & Date
 GTDEPTH.m              00 000 000 000:  GT Depth
 GTPQH.psia             00 000 000 000:  GT HR Quartz Pressure
 GTTQ.degC              00 000 000 000:  GT Quartz Temperature
 GTTN.NONE              00 000 000 000:  GT Test Number
 GTET.sec               00 000 000 000:  GT Elapsed Test Time
 GTTVD.m                00 000 000 000:  GT True Vertical Depth
#Other Information
#
#WARRANTY: Halliburton will use its best efforts to furnish customers with 
#accurate information and interpretations that are part of, and incident to, the services 
#provided.  However, Halliburton cannot and does not warrant the accuracy 
#or correctness of such information and interpretations.  Under no circumstances should any 
#such information or interpretation be relied upon as the sole basis for any drilling, 
#completion, production, or financial decision or any procedure involving any risk to the 
#safety of any drilling venture, drilling rig or its crew or any other third party.  The 
#Customer has full responsibility for all drilling, completion and production operation.  
#Halliburton makes no representations or warranties, either expressed or 
#implied, including, but not limited to, the implied warranties of merchantability or fitness 
#for a particular purpose, with respect to the services rendered.  In no event will 
#Halliburton be liable for failure to obtain any particular results or for 
#any damages, including, but not limited to, indirect, special or consequential damages, 
#resulting from the use of any information or interpretation provided by Halliburton.
#
~A           TIME           GTDEPTH  GTPQH  GTTQ  GTTN  GTET   GTTVD  
# ...
   23:03:47.272.27-May-2021 3710.50 6235.44 84.69 2.00  23.01 2675.83
   23:03:47.472.27-May-2021 3710.50 6235.44 84.69 2.00  23.21 2675.83
   23:03:47.673.27-May-2021 3710.50 6230.10 84.69 2.00  23.41 2675.83
   23:03:47.873.27-May-2021 3710.50 6237.80 84.69 2.00  23.61 2675.83
   23:03:48.073.27-May-2021 3710.50 6227.07 84.69 2.00  23.81 2675.83
   23:03:48.273.27-May-2021 3710.50 6230.11 84.69 2.00  24.01 2675.83
   23:03:48.473.27-May-2021 3710.50 6230.11 84.69 2.00  24.21 2675.83
   23:03:48.673.27-May-2021 3710.50 6230.51 84.69 2.00  24.41 2675.83
   23:03:48.873.27-May-2021 3710.50 6233.22 84.69 2.00  24.61 2675.83
   23:03:49.073.27-May-2021 3710.50 6229.97 84.69 2.00  24.81 2675.83
   23:03:49.273.27-May-2021 3710.50 6230.80 84.69 2.00  25.01 2675.83
   23:03:49.473.27-May-2021 3710.50 6230.80 84.69 2.00  25.21 2675.83
   23:03:49.673.27-May-2021 3710.50 6237.45 84.69 2.00  25.41 2675.83
   23:03:49.873.27-May-2021 3710.50 6229.14 84.69 2.00  25.61 2675.83
   23:03:50.074.27-May-2021 3710.50 6231.61 84.69 2.00  25.81 2675.83
   23:03:50.274.27-May-2021 3710.50 6231.71 84.69 2.00  26.01 2675.83
   23:03:50.474.27-May-2021 3710.50 6231.71 84.69 2.00  26.21 2675.83
   23:03:50.674.27-May-2021 3710.50 6231.51 84.69 2.00  26.41 2675.83
   23:03:50.874.27-May-2021 3710.50 6231.29 84.69 2.00  26.61 2675.83
   23:03:51.074.27-May-2021 3710.50 6232.15 84.69 2.00  26.81 2675.83
   23:03:51.274.27-May-2021 3710.50 6231.64 84.69 2.00  27.01 2675.83
   23:03:51.474.27-May-2021 3710.50 6231.64 84.69 2.00  27.21 2675.83
   23:03:51.674.27-May-2021 3710.50 6232.27 84.69 2.00  27.41 2675.83
   23:03:51.874.27-May-2021 3710.50 6232.63 84.69 2.00  27.61 2675.83
   23:03:52.074.27-May-2021 3710.50 6232.69 84.69 2.00  27.81 2675.83
   23:03:52.274.27-May-2021 3710.50 6239.02 84.69 2.00  28.01 2675.83
   23:03:52.474.27-May-2021 3710.50 6239.02 84.69 2.00  28.21 2675.83
   23:03:52.675.27-May-2021 3710.50 6233.12 84.69 2.00  28.41 2675.83
   23:03:52.875.27-May-2021 3710.50 6232.55 84.69 2.00  28.61 2675.83
   23:03:53.075.27-May-2021 3710.50 6232.89 84.69 2.00  28.81 2675.83
   23:03:53.275.27-May-2021 3710.50 6232.40 84.69 2.00  29.01 2675.83
   23:03:53.475.27-May-2021 3710.50 6232.40 84.69 2.00  29.21 2675.83
   23:03:53.675.27-May-2021 3710.50 6232.68 84.69 2.00  29.41 2675.83
   23:03:53.875.27-May-2021 3710.50 6232.50 84.69 2.00  29.61 2675.83
   23:03:54.075.27-May-2021 3710.50 6233.09 84.69 2.00  29.81 2675.83
   23:03:54.275.27-May-2021 3710.50 6233.29 84.69 2.00  30.01 2675.83
   23:03:54.475.27-May-2021 3710.50 6233.29 84.69 2.00  30.21 2675.83
   23:03:54.675.27-May-2021 3710.50 6233.99 84.68 2.00  30.41 2675.83
   23:03:54.875.27-May-2021 3710.50 6234.31 84.68 2.00  30.61 2675.83
   23:03:55.075.27-May-2021 3710.50 6238.52 84.68 2.00  30.81 2675.83
   23:03:55.276.27-May-2021 3710.50 6234.47 84.68 2.00  31.01 2675.83
   23:03:55.476.27-May-2021 3710.50 6234.47 84.68 2.00  31.21 2675.83
   23:03:55.676.27-May-2021 3710.50 6239.68 84.68 2.00  31.41 2675.83
   23:03:55.876.27-May-2021 3710.50 6232.88 84.68 2.00  31.61 2675.83
   23:03:56.076.27-May-2021 3710.50 6233.80 84.68 2.00  31.81 2675.83
   23:03:56.276.27-May-2021 3710.50 6233.77 84.68 2.00  32.01 2675.83
   23:03:56.476.27-May-2021 3710.50 6233.77 84.68 2.00  32.21 2675.83
   23:03:56.676.27-May-2021 3710.50 6237.32 84.68 2.00  32.41 2675.83
   23:03:56.876.27-May-2021 3710.50 6234.12 84.68 2.00  32.61 2675.83
   23:03:57.076.27-May-2021 3710.50 6234.69 84.68 2.00  32.81 2675.83
   23:03:57.276.27-May-2021 3710.50 6234.58 84.68 2.00  33.01 2675.83
   23:03:57.476.27-May-2021 3710.50 6234.58 84.68 2.00  33.21 2675.83
   23:03:57.676.27-May-2021 3710.50 6239.08 84.68 2.00  33.41 2675.83
   23:03:57.877.27-May-2021 3710.50 6235.05 84.68 2.00  33.61 2675.83
   23:03:58.077.27-May-2021 3710.50 6235.49 84.68 2.00  33.81 2675.83
   23:03:58.277.27-May-2021 3710.50 6235.06 84.68 2.00  34.01 2675.83
   23:03:58.477.27-May-2021 3710.50 6235.06 84.68 2.00  34.21 2675.83
   23:03:58.677.27-May-2021 3710.50 6235.06 84.68 2.00  34.41 2675.83
   23:03:58.877.27-May-2021 3710.50 6235.25 84.68 2.00  34.61 2675.83
   23:03:59.077.27-May-2021 3710.50 6235.09 84.68 2.00  34.81 2675.83
   23:03:59.277.27-May-2021 3710.50 6235.30 84.68 2.00  35.01 2675.83
   23:03:59.477.27-May-2021 3710.50 6235.30 84.68 2.00  35.21 2675.83
   23:03:59.677.27-May-2021 3710.50 6235.91 84.68 2.00  35.41 2675.83
   23:03:59.877.27-May-2021 3710.50 6236.02 84.68 2.00  35.61 2675.83
   23:04:00.077.27-May-2021 3710.50 6236.07 84.68 2.00  35.81 2675.83
   23:04:00.277.27-May-2021 3710.50 6236.12 84.68 2.00  36.01 2675.83
   23:04:00.478.27-May-2021 3710.50 6236.12 84.68 2.00  36.21 2675.83
   23:04:00.678.27-May-2021 3710.50 6234.96 84.68 2.00  36.41 2675.83
   23:04:00.878.27-May-2021 3710.50 6236.29 84.68 2.00  36.61 2675.83
   23:04:01.078.27-May-2021 3710.50 6236.06 84.68 2.00  36.81 2675.83
   23:04:01.278.27-May-2021 3710.50 6236.47 84.68 2.00  37.01 2675.83
   23:04:01.478.27-May-2021 3710.50 6236.47 84.68 2.00  37.21 2675.83
   23:04:01.678.27-May-2021 3710.50 6236.02 84.68 2.00  37.41 2675.83
   23:04:01.878.27-May-2021 3710.50 6236.32 84.68 2.00  37.61 2675.83
   23:04:02.078.27-May-2021 3710.50 6236.86 84.68 2.00  37.81 2675.83
   23:04:02.278.27-May-2021 3710.50 6237.25 84.68 2.00  38.01 2675.83
   23:04:02.478.27-May-2021 3710.50 6237.25 84.68 2.00  38.21 2675.83
   23:04:02.678.27-May-2021 3710.50 6237.82 84.68 2.00  38.42 2675.83
   23:04:02.879.27-May-2021 3710.50 6237.76 84.68 2.00  38.62 2675.83
   23:04:03.079.27-May-2021 3710.50 6237.54 84.68 2.00  38.82 2675.83
   23:04:03.279.27-May-2021 3710.50 6241.56 84.68 2.00  39.02 2675.83
   23:04:03.479.27-May-2021 3710.50 6241.56 84.68 2.00  39.22 2675.83
   23:04:03.679.27-May-2021 3710.50 6237.32 84.68 2.00  39.42 2675.83
   23:04:03.879.27-May-2021 3710.50 6237.05 84.68 2.00  39.62 2675.83
   23:04:04.079.27-May-2021 3710.50 6240.59 84.68 2.00  39.82 2675.83
   23:04:04.279.27-May-2021 3710.50 6236.99 84.68 2.00  40.02 2675.83
   23:04:04.479.27-May-2021 3710.50 6236.99 84.68 2.00  40.22 2675.83
   23:04:04.679.27-May-2021 3710.50 6202.43 84.68 2.00  40.42 2675.83
   23:04:04.879.27-May-2021 3710.50 6146.80 84.68 2.00  40.62 2675.83
   23:04:05.079.27-May-2021 3710.50 6359.68 84.68 2.00  40.82 2675.83
   23:04:05.279.27-May-2021 3710.50 6555.83 84.68 2.00  41.02 2675.83
   23:04:05.480.27-May-2021 3710.50 6555.83 84.68 2.00  41.22 2675.83
   23:04:05.680.27-May-2021 3710.50 6592.28 84.68 2.00  41.42 2675.83
   23:04:05.880.27-May-2021 3710.50 6602.68 84.68 2.00  41.62 2675.83
   23:04:06.080.27-May-2021 3710.50 6623.38 84.68 2.00  41.82 2675.83
   23:04:06.280.27-May-2021 3710.50 6627.20 84.68 2.00  42.02 2675.83
   23:04:06.480.27-May-2021 3710.50 6627.20 84.68 2.00  42.22 2675.83
   23:04:06.680.27-May-2021 3710.50 6649.18 84.68 2.00  42.42 2675.83
   23:04:06.880.27-May-2021 3710.50 6650.99 84.68 2.00  42.62 2675.83
   23:04:07.080.27-May-2021 3710.50 6661.42 84.68 2.00  42.82 2675.83
   23:04:07.280.27-May-2021 3710.50 6645.97 84.68 2.00  43.02 2675.83
   23:04:07.480.27-May-2021 3710.50 6645.97 84.68 2.00  43.22 2675.83
   23:04:07.680.27-May-2021 3710.50 6551.15 84.68 2.00  43.42 2675.83
   23:04:07.880.27-May-2021 3710.50 6507.11 84.68 2.00  43.62 2675.83
   23:04:08.081.27-May-2021 3710.50 6472.28 84.68 2.00  43.82 2675.83
   23:04:08.281.27-May-2021 3710.50 6449.95 84.68 2.00  44.02 2675.83
   23:04:08.481.27-May-2021 3710.50 6449.95 84.68 2.00  44.22 2675.83
   23:04:08.681.27-May-2021 3710.50 6481.97 84.68 2.00  44.42 2675.83
   23:04:08.881.27-May-2021 3710.50 6488.54 84.68 2.00  44.62 2675.83
   23:04:09.081.27-May-2021 3710.50 6493.49 84.68 2.00  44.82 2675.83
   23:04:09.281.27-May-2021 3710.50 6496.88 84.68 2.00  45.02 2675.83
   23:04:09.481.27-May-2021 3710.50 6496.88 84.68 2.00  45.22 2675.83
   23:04:09.681.27-May-2021 3710.50 6500.96 84.68 2.00  45.42 2675.83
   23:04:09.881.27-May-2021 3710.50 6502.79 84.68 2.00  45.62 2675.83
   23:04:10.081.27-May-2021 3710.50 6504.08 84.68 2.00  45.82 2675.83
