~Version Information
 VERS.                  2.0:   CWLS log ASCII Standard -VERSION 2.0
 WRAP.                   NO:   One line per depth step
~Well Information Block
#MNEM.UNIT     VALUE/NAME     DESCRIPTION
#---------     -----------    ---------------------------
 STRT.S             23:52:35 27-May-21: START TIME 23:52:35 27-May-21
 STOP.S             23:59:20 27-May-21: STOP TIME  23:59:20 27-May-21
 STEP.S                   0.00: STEP TIME
 NULL.                 -999.25: NULL VALUE
 UWI .                     N/A:  UNIQUE WELL IDENTIFIER
 API .                     N/A:  API NUMBER
 UNIT.                     N/A:  LOGGING EQUIPMENT ID
 DCON.         Sperry Drilling:  DIRECTNL CONTR
 DOE .                     N/A:  DOE NUMBER
 MWDS.                    Baku:  MWD SHOP
 SRVC.     Turan Drilling and Engineering:  CONTRACTOR
 CTRY.              Azerbaijan:  COUNTRY NAME
 PROV.                    Baku:  PROVINCE
 STAT.                    Baku:  STATE NAME
 REGN.                   EESSA:  REGION
 BASE.              Azerbaijan:  LOGGING EQUIPMENT BASE LOCATION
 WTYP.                Deviated:  WELL TYPE
 RIG .              East Azeri:  RIG NAME
 WELL.                    D02y:  WELL NAME
 FLD .                     ACG:  FIELD NAME
 COMP.     BP Exploration (Caspian Sea) Ltd.:  COMPANY
 PDAT.          Mean Sea Level:  PERMANENT DATUM
 MDS .        Operator Entered:  MAG DATA SOURCE
 SON .        AZ-XX-0906997291:  JOB NUMBER
 FTOP.          Formation Tops:  FORM TOPS DESC
 ILTD.               Lithology:  INTERP LTH DESC
 SVYD.                  Survey:  SURVEY DESC
 DMOD.             Drill Model:  DRILL MOD DESC
 HPTY.       Minimum Curvature:  HOLE POS TYPE
 NREF.                    Grid:  NORTH REFERENCE
 SPUD.               05-May-21:  SPUD DATE
 DATE.      09.27.28 12-Jun-21:  END TIME
 STIM.      09.27.28 12-May-21:  START TIME
 DMF .             Drill Floor:  DRILL MEAS FROM
 DFST.                        :  DIST FSL TEXT
 DFWT.                        :  DIST FWL TEXT
 CNTY.                        :  COUNTY
 LOC .                        :  LOCATION
 LMF .             Drill Floor:  LOG MEASURED FROM
 DEP .m                2806.40:  DEPTH
 AGAP.m                  43.60:  AIR GAP
 VSNS.m                  -4.42:  VERT SEC N/S
 VSEW.m                  -7.31:  VERT SEC E/W
 APD .m                  43.60:  DEPTH ABOVE PD
 WDMS.m                 151.80:  WD ELEV
 EGL .m                   0.00:  GROUND ELEVATION
 EPD .m                   0.00:  ELEVATION
 AZTC.deg                 6.18:  AZM TOTAL CORR
 GRDC.deg                 0.29:  GRID CORRECTION
 MDEC.deg                 6.47:  MAGNETIC DECL
 MDIP.deg                59.50:  MAGNETIC DIP
 MFLD.nT              50350.00:  MAGNETIC FIELD
 GVFD.g                   1.00:  GRAVITY FIELD
 VSDR.deg               179.08:  VERT SEC DIRECT
 TDD .m                4300.00:  TOTAL DEPTH (DRILLER)
 SDEP.m                2800.00:  START DEPTH
 DFSL.m                   0.00:  DISTANCE FSL
 DFWL.m                   0.00:  DISTANCE FWL
 UTMY.m             4431871.34:  UTM Y
 UTMX.m              538762.90:  UTM X
 WHEW.m                  -7.31:  WELL HEAD E/W
 WHNS.m                  -4.42:  WELL HEAD N/S
 LONG.deg                51.45:  LONGITUDE
 LATI.deg                40.02:  LATITUDE
 TVDS.m                  43.60:  TVDSS CORRECTN
 EKB .m                  43.60:  KB ELEVATION
 EDF .m                  43.60:  DF ELEVATION
 TDL .m                 806.00:  TOTAL DEPTH (LOGGER)
 MAGU.                 1851231:  MAGUTM CHECKSUM
 VSC .                       0:  VS TO CLOSURE
~Parameter Information Block
#MNEM.UNIT       Value        Description
#---------     -----------    ---------------------------
 AV  .mps                 1.60:  Ann Velocity 
 AVMX.mps                 2.00:  Max Ann Veloc 
 AZIF.deg               140.24:  Azm, Final 
 BHAT.        Rotary Steerable:  BHA Type 
 BROT.°/30m               0.50:  Build Rotating 
 BS  .in                  8.50:  Bit Size 
 BTPL.psig              619.00:  Bit Press Loss 
 CABU.                     Yes:  Customer Abuse 
 CGEO.          Ilgar Gurbanov:  Customer Geo 
 COMM.                     t\L:  Run Comments 1 
 TCS .hr                 85.88:  Time Ciculation Ended 
 CV  .mps                 3.30:  Crit Velocity 
 CVMX.mps                 3.50:  Max Crit Veloc 
 DD1 .           Hamid Axmedov:  Direct Drillr 1 
 DD2 .           Teymur Aliyev:  Direct Drillr 2 
 DDSV.               Geo-Pilot:  DD Service 
 DEFF.%                 100.00:  % Det Eff 
 DLRX.°/30m               0.00:  Dogleg Rot Max 
 DLSO.°/30m               1.80:  Dogleg Oriented 
 DLSX.°/30m               3.34:  Dogleg Str Max 
 DRET.      11.50.00 27-May-21:  Drill End Time 
 DRST.      21.13.00 24-May-21:  Drill Start Tim 
 DTIM.hr                 45.11:  Time Drilling 
 EDEP.m                4054.00:  End Depth 
 ENG1.         Almaz Almadatov:  Engineer 1 
 ENG2.           Amrah Tahirov:  Engineer 2 
 ENG3.      Bakhtiyar Jabbarli:  Engineer 3 
 ENG4.          Nazrin Asgarli:  Engineer 4 
 ETIM.      10.00.00 30-May-21:  End Time 
 FLOI.gpm               530.00:  Flow In 
 FLON.gpm               400.00:  Flow In Min 
 FLOS.cptm                0.00:  Fluid Loss 
 FLOX.gpm               560.00:  Flow In Max 
 DFT .        Mineral Oil Base:  Mud Type 
 FTRO.       Formation Presure:  FTWD Run Obj 
 HFLO.                      No:  High Flow 
 HPRE.                      No:  High Pressure 
 HTEM.                      No:  High Temp 
 HYDO.m                   1.80:  Hydro Offset 
 IFIN.deg                73.83:  Inc, Final 
 IMAX.deg                73.83:  Inc Max 
 IMIN.deg                57.86:  Inc Min 
 IMND.m                3259.27:  Inc Min Depth 
 IMXD.m                4045.58:  Inc Max Depth 
 JARR.                     Yes:  Jarring 
 LETM.      11.50.00 27-May-21:  Log End Time 
 LOST.hr                     0:  Lost Rig Time 
 LSTM.      21.13.00 24-May-21:  Log Start Time 
 MDCL.ppm             42500.00:  Mud Chlorides 
 MDES.     Inversion Oil/Synthetic:  Mud Desc 
 DFD .sg                  1.52:  Mud Density 
 MDMN.sg                  1.52:  Dens Mud Min 
 MDMX.sg                  1.52:  Dens Mud Max 
 MOIL.                      70:  Run Mud Oil % 
 MOWR.                   70:30:  Run Mud OWR 
 MSND.                     0.2:  Run Mud Sand % 
 MSOL.                      22:  Run Mud Solids% 
 DFV .spqt               77.00:  Mud Viscosity 
 MWOD.in                  6.75:  MWD Tool OD 
 MWSI.                      No:  Serv Intrp, MWD 
 OTIM.hr                151.01:  Time Operating 
 PCON.          Wear / Scratch:  Pad Condition 
 PMAX.psia            11296.93:  Press Op, Max 
 PV  .cP                 37.00:  Mud PV 
 RUN .                     500:  Run Number 
 ROPA.m/hr               25.00:  ROP Avg 
 ROPN.m/hr                9.00:  ROP Min 
 ROPX.m/hr               28.00:  ROP Max 
 RPMA.rpm               140.00:  RPM Surface Avg 
 RPMN.rpm                90.00:  RPM Surface Min 
 RPMX.rpm               140.00:  RPM Surface Max 
 RRUN.                    0500:  Rig Run Number 
 SAZI.deg               172.17:  Azm, Start 
 SDEP.m                3248.00:  Start Depth 
 SIDD.                      No:  Serv Intrp, DD 
 SINC.deg                57.86:  Inc, Start 
 SPPA.psig             5620.00:  SPP Avg 
 SPPN.psig             5190.00:  SPP Min 
 SPPX.psig             6050.00:  SPP Max 
 STIM.      16.00.00 23-May-21:  Start Time 
 SVCS.                 DD, MWD:  Services 
 SVER.                    9.20:  Sperry Version 
 TDAT.m                 806.00:  Tot Depth Attmp 
 TDDF.                      No:  Trip for DD 
 TDLG.m                 806.00:  Tot Depth Loggd 
 TFF .                      No:  Trip for Fail 
 TQAA.f-kp               12.00:  Torque Abs Avg 
 TQAN.f-kp                8.00:  Torque Abs Min 
 TQAX.f-kp               15.00:  Torque Abs Max 
 TRRT.°/30m               0.30:  Turn Rotating 
 MRT .                  EWR-M5:  Maximum Recorded Temperature 
 TTMX.degC               93.00:  Max Tool Temp 
 VS01.                90649155:  Virtual Str1 SN 
 VS02.                90642264:  Virtual Str2 SN 
 VS03.                90642266:  Virtual Str3 SN 
 VS04.                90642261:  Virtual Str4 SN 
 WBMN.klb                 0.00:  WOB Min 
 WITN.             Anar Khalil:  Customer Rep 
 WITN.           Murad Guliyev:  Customer Rep 2 
 WOBA.klb                13.00:  WOB Avg 
 WOBX.klb                25.00:  WOB Max 
 YP  .lhf2               32.00:  Yield Point 
~Curve Information Block
#MNEM.UNIT                 API CODE     Curve Description
#---------               -----------    ---------------------------
 TIME.HHMMSS            00 000 000 000:  GT Time & Date
 GTDEPTH.m              00 000 000 000:  GT Depth
 GTPQH.psia             00 000 000 000:  GT HR Quartz Pressure
 GTTQ.degC              00 000 000 000:  GT Quartz Temperature
 GTTN.NONE              00 000 000 000:  GT Test Number
 GTET.sec               00 000 000 000:  GT Elapsed Test Time
 GTTVD.m                00 000 000 000:  GT True Vertical Depth
#Other Information
#
#WARRANTY: Halliburton will use its best efforts to furnish customers with 
#accurate information and interpretations that are part of, and incident to, the services 
#provided.  However, Halliburton cannot and does not warrant the accuracy 
#or correctness of such information and interpretations.  Under no circumstances should any 
#such information or interpretation be relied upon as the sole basis for any drilling, 
#completion, production, or financial decision or any procedure involving any risk to the 
#safety of any drilling venture, drilling rig or its crew or any other third party.  The 
#Customer has full responsibility for all drilling, completion and production operation.  
#Halliburton makes no representations or warranties, either expressed or 
#implied, including, but not limited to, the implied warranties of merchantability or fitness 
#for a particular purpose, with respect to the services rendered.  In no event will 
#Halliburton be liable for failure to obtain any particular results or for 
#any damages, including, but not limited to, indirect, special or consequential damages, 
#resulting from the use of any information or interpretation provided by Halliburton.
#
~A           TIME           GTDEPTH  GTPQH  GTTQ  GTTN  GTET   GTTVD  
   23:52:35.000.27-May-2021 3671.50 6190.73 84.56 3.00   0.00 2661.54
   23:52:35.200.27-May-2021 3671.50 6190.73 84.56 3.00   0.20 2661.54
   23:52:35.400.27-May-2021 3671.50 6194.82 84.56 3.00   0.40 2661.54
   23:52:35.600.27-May-2021 3671.50 6191.90 84.56 3.00   0.60 2661.54
   23:52:35.800.27-May-2021 3671.50 6191.79 84.56 3.00   0.80 2661.54
   23:52:36.000.27-May-2021 3671.50 6192.60 84.56 3.00   1.00 2661.54
   23:52:36.200.27-May-2021 3671.50 6192.60 84.56 3.00   1.20 2661.54
   23:52:36.400.27-May-2021 3671.50 6192.68 84.56 3.00   1.40 2661.54
   23:52:36.600.27-May-2021 3671.50 6192.98 84.56 3.00   1.60 2661.54
   23:52:36.800.27-May-2021 3671.50 6197.05 84.56 3.00   1.80 2661.54
   23:52:37.000.27-May-2021 3671.50 6193.70 84.56 3.00   2.00 2661.54
   23:52:37.200.27-May-2021 3671.50 6193.70 84.56 3.00   2.20 2661.54
   23:52:37.400.27-May-2021 3671.50 6194.84 84.56 3.00   2.40 2661.54
   23:52:37.600.27-May-2021 3671.50 6194.19 84.56 3.00   2.60 2661.54
   23:52:37.800.27-May-2021 3671.50 6200.68 84.56 3.00   2.80 2661.54
   23:52:38.000.27-May-2021 3671.50 6192.14 84.56 3.00   3.00 2661.54
   23:52:38.200.27-May-2021 3671.50 6192.14 84.56 3.00   3.20 2661.54
   23:52:38.400.27-May-2021 3671.50 6194.98 84.56 3.00   3.40 2661.54
   23:52:38.600.27-May-2021 3671.50 6195.54 84.56 3.00   3.60 2661.54
   23:52:38.800.27-May-2021 3671.50 6195.64 84.55 3.00   3.80 2661.54
   23:52:39.000.27-May-2021 3671.50 6195.45 84.55 3.00   4.00 2661.54
   23:52:39.200.27-May-2021 3671.50 6195.45 84.55 3.00   4.20 2661.54
   23:52:39.400.27-May-2021 3671.50 6195.91 84.55 3.00   4.40 2661.54
   23:52:39.600.27-May-2021 3671.50 6196.06 84.55 3.00   4.60 2661.54
   23:52:39.800.27-May-2021 3671.50 6196.67 84.55 3.00   4.80 2661.54
   23:52:40.000.27-May-2021 3671.50 6196.93 84.55 3.00   5.00 2661.54
   23:52:40.200.27-May-2021 3671.50 6196.93 84.55 3.00   5.20 2661.54
   23:52:40.400.27-May-2021 3671.50 6197.36 84.55 3.00   5.40 2661.54
   23:52:40.600.27-May-2021 3671.50 6202.74 84.55 3.00   5.60 2661.54
   23:52:40.800.27-May-2021 3671.50 6196.30 84.55 3.00   5.80 2661.54
   23:52:41.000.27-May-2021 3671.50 6198.05 84.55 3.00   6.00 2661.54
   23:52:41.200.27-May-2021 3671.50 6198.05 84.55 3.00   6.20 2661.54
   23:52:41.400.27-May-2021 3671.50 6198.69 84.55 3.00   6.40 2661.54
   23:52:41.600.27-May-2021 3671.50 6198.79 84.55 3.00   6.60 2661.54
   23:52:41.800.27-May-2021 3671.50 6198.83 84.55 3.00   6.80 2661.54
   23:52:42.000.27-May-2021 3671.50 6199.44 84.55 3.00   7.00 2661.54
   23:52:42.200.27-May-2021 3671.50 6199.44 84.55 3.00   7.20 2661.54
   23:52:42.400.27-May-2021 3671.50 6199.90 84.55 3.00   7.40 2661.54
   23:52:42.600.27-May-2021 3671.50 6200.31 84.55 3.00   7.60 2661.54
   23:52:42.800.27-May-2021 3671.50 6200.67 84.55 3.00   7.80 2661.54
   23:52:43.000.27-May-2021 3671.50 6200.49 84.55 3.00   8.00 2661.54
   23:52:43.200.27-May-2021 3671.50 6200.49 84.55 3.00   8.20 2661.54
   23:52:43.400.27-May-2021 3671.50 6207.45 84.55 3.00   8.40 2661.54
   23:52:43.600.27-May-2021 3671.50 6198.11 84.55 3.00   8.60 2661.54
   23:52:43.800.27-May-2021 3671.50 6201.10 84.55 3.00   8.80 2661.54
   23:52:44.000.27-May-2021 3671.50 6200.97 84.55 3.00   9.00 2661.54
   23:52:44.200.27-May-2021 3671.50 6200.97 84.55 3.00   9.20 2661.54
   23:52:44.400.27-May-2021 3671.50 6206.90 84.55 3.00   9.40 2661.54
   23:52:44.600.27-May-2021 3671.50 6199.64 84.55 3.00   9.60 2661.54
   23:52:44.800.27-May-2021 3671.50 6201.68 84.55 3.00   9.80 2661.54
   23:52:45.000.27-May-2021 3671.50 6201.96 84.55 3.00  10.00 2661.54
   23:52:45.200.27-May-2021 3671.50 6201.96 84.55 3.00  10.20 2661.54
   23:52:45.400.27-May-2021 3671.50 6205.99 84.55 3.00  10.40 2661.54
   23:52:45.600.27-May-2021 3671.50 6203.10 84.55 3.00  10.60 2661.54
   23:52:45.800.27-May-2021 3671.50 6202.81 84.55 3.00  10.80 2661.54
   23:52:46.000.27-May-2021 3671.50 6203.55 84.55 3.00  11.00 2661.54
   23:52:46.200.27-May-2021 3671.50 6203.55 84.55 3.00  11.20 2661.54
   23:52:46.400.27-May-2021 3671.50 6202.14 84.55 3.00  11.40 2661.54
   23:52:46.600.27-May-2021 3671.50 6204.21 84.55 3.00  11.60 2661.54
   23:52:46.800.27-May-2021 3671.50 6206.11 84.55 3.00  11.80 2661.54
   23:52:47.000.27-May-2021 3671.50 6206.16 84.55 3.00  12.00 2661.54
   23:52:47.200.27-May-2021 3671.50 6206.16 84.55 3.00  12.20 2661.54
   23:52:47.400.27-May-2021 3671.50 6204.62 84.55 3.00  12.40 2661.54
   23:52:47.600.27-May-2021 3671.50 6205.48 84.55 3.00  12.60 2661.54
   23:52:47.800.27-May-2021 3671.50 6205.25 84.55 3.00  12.80 2661.54
   23:52:48.000.27-May-2021 3671.50 6211.54 84.54 3.00  13.00 2661.54
   23:52:48.200.27-May-2021 3671.50 6211.54 84.54 3.00  13.20 2661.54
   23:52:48.400.27-May-2021 3671.50 6211.54 84.54 3.00  13.40 2661.54
   23:52:48.600.27-May-2021 3671.50 6205.86 84.54 3.00  13.60 2661.54
   23:52:48.800.27-May-2021 3671.50 6206.27 84.54 3.00  13.80 2661.54
   23:52:49.000.27-May-2021 3671.50 6206.48 84.54 3.00  14.00 2661.54
   23:52:49.200.27-May-2021 3671.50 6206.48 84.54 3.00  14.20 2661.54
   23:52:49.400.27-May-2021 3671.50 6206.57 84.54 3.00  14.40 2661.54
   23:52:49.600.27-May-2021 3671.50 6206.47 84.54 3.00  14.60 2661.54
   23:52:49.800.27-May-2021 3671.50 6206.79 84.54 3.00  14.80 2661.54
   23:52:50.000.27-May-2021 3671.50 6207.31 84.54 3.00  15.00 2661.54
   23:52:50.200.27-May-2021 3671.50 6207.31 84.54 3.00  15.20 2661.54
   23:52:50.400.27-May-2021 3671.50 6207.57 84.54 3.00  15.40 2661.54
   23:52:50.600.27-May-2021 3671.50 6214.44 84.54 3.00  15.60 2661.54
   23:52:50.800.27-May-2021 3671.50 6205.16 84.54 3.00  15.80 2661.54
   23:52:51.000.27-May-2021 3671.50 6208.17 84.54 3.00  16.00 2661.54
   23:52:51.200.27-May-2021 3671.50 6208.17 84.54 3.00  16.20 2661.54
   23:52:51.400.27-May-2021 3671.50 6208.08 84.54 3.00  16.40 2661.54
   23:52:51.600.27-May-2021 3671.50 6208.11 84.54 3.00  16.60 2661.54
   23:52:51.800.27-May-2021 3671.50 6207.83 84.54 3.00  16.80 2661.54
   23:52:52.000.27-May-2021 3671.50 6208.23 84.54 3.00  17.00 2661.54
   23:52:52.200.27-May-2021 3671.50 6208.23 84.54 3.00  17.20 2661.54
   23:52:52.400.27-May-2021 3671.50 6208.58 84.54 3.00  17.40 2661.54
   23:52:52.600.27-May-2021 3671.50 6209.08 84.54 3.00  17.60 2661.54
   23:52:52.800.27-May-2021 3671.50 6209.32 84.54 3.00  17.80 2661.54
   23:52:53.000.27-May-2021 3671.50 6209.38 84.54 3.00  18.00 2661.54
   23:52:53.200.27-May-2021 3671.50 6209.38 84.54 3.00  18.20 2661.54
   23:52:53.400.27-May-2021 3671.50 6211.48 84.54 3.00  18.40 2661.54
   23:52:53.600.27-May-2021 3671.50 6209.89 84.54 3.00  18.60 2661.54
   23:52:53.800.27-May-2021 3671.50 6209.76 84.54 3.00  18.80 2661.54
   23:52:54.000.27-May-2021 3671.50 6210.35 84.54 3.00  19.00 2661.54
   23:52:54.200.27-May-2021 3671.50 6210.35 84.54 3.00  19.20 2661.54
   23:52:54.400.27-May-2021 3671.50 6207.94 84.54 3.00  19.40 2661.54
   23:52:54.600.27-May-2021 3671.50 6210.54 84.54 3.00  19.60 2661.54
   23:52:54.800.27-May-2021 3671.50 6210.30 84.54 3.00  19.80 2661.54
   23:52:55.000.27-May-2021 3671.50 6215.57 84.54 3.00  20.00 2661.54
   23:52:55.200.27-May-2021 3671.50 6215.57 84.54 3.00  20.20 2661.54
   23:52:55.400.27-May-2021 3671.50 6211.25 84.54 3.00  20.40 2661.54
   23:52:55.600.27-May-2021 3671.50 6210.85 84.54 3.00  20.60 2661.54
   23:52:55.800.27-May-2021 3671.50 6211.58 84.54 3.00  20.80 2661.54
   23:52:56.000.27-May-2021 3671.50 6216.68 84.54 3.00  21.00 2661.54
   23:52:56.200.27-May-2021 3671.50 6216.68 84.54 3.00  21.20 2661.54
   23:52:56.400.27-May-2021 3671.50 6211.88 84.54 3.00  21.40 2661.54
   23:52:56.600.27-May-2021 3671.50 6211.30 84.54 3.00  21.60 2661.54
   23:52:56.800.27-May-2021 3671.50 6212.11 84.54 3.00  21.80 2661.54
   23:52:57.000.27-May-2021 3671.50 6212.20 84.53 3.00  22.00 2661.54
   23:52:57.200.27-May-2021 3671.50 6212.20 84.53 3.00  22.20 2661.54
   23:52:57.400.27-May-2021 3671.50 6212.20 84.53 3.00  22.40 2661.54
   23:52:57.600.27-May-2021 3671.50 6212.11 84.53 3.00  22.60 2661.54
   23:52:57.800.27-May-2021 3671.50 6212.41 84.53 3.00  22.80 2661.54
