~Version Information
 VERS.                  2.0:   CWLS log ASCII Standard -VERSION 2.0
 WRAP.                   NO:   One line per depth step
~Well Information Block
#MNEM.UNIT     VALUE/NAME     DESCRIPTION
#---------     -----------    ---------------------------
 STRT.S             06:06:39 28-May-21: START TIME 06:06:39 28-May-21
 STOP.S             06:13:42 28-May-21: STOP TIME  06:13:42 28-May-21
 STEP.S                   0.00: STEP TIME
 NULL.                 -999.25: NULL VALUE
 UWI .                     N/A:  UNIQUE WELL IDENTIFIER
 API .                     N/A:  API NUMBER
 UNIT.                     N/A:  LOGGING EQUIPMENT ID
 DCON.         Sperry Drilling:  DIRECTNL CONTR
 DOE .                     N/A:  DOE NUMBER
 MWDS.                    Baku:  MWD SHOP
 SRVC.     Turan Drilling and Engineering:  CONTRACTOR
 CTRY.              Azerbaijan:  COUNTRY NAME
 PROV.                    Baku:  PROVINCE
 STAT.                    Baku:  STATE NAME
 REGN.                   EESSA:  REGION
 BASE.              Azerbaijan:  LOGGING EQUIPMENT BASE LOCATION
 WTYP.                Deviated:  WELL TYPE
 RIG .              East Azeri:  RIG NAME
 WELL.                    D02y:  WELL NAME
 FLD .                     ACG:  FIELD NAME
 COMP.     BP Exploration (Caspian Sea) Ltd.:  COMPANY
 PDAT.          Mean Sea Level:  PERMANENT DATUM
 MDS .        Operator Entered:  MAG DATA SOURCE
 SON .        AZ-XX-0906997291:  JOB NUMBER
 FTOP.          Formation Tops:  FORM TOPS DESC
 ILTD.               Lithology:  INTERP LTH DESC
 SVYD.                  Survey:  SURVEY DESC
 DMOD.             Drill Model:  DRILL MOD DESC
 HPTY.       Minimum Curvature:  HOLE POS TYPE
 NREF.                    Grid:  NORTH REFERENCE
 SPUD.               05-May-21:  SPUD DATE
 DATE.      09.27.28 12-Jun-21:  END TIME
 STIM.      09.27.28 12-May-21:  START TIME
 DMF .             Drill Floor:  DRILL MEAS FROM
 DFST.                        :  DIST FSL TEXT
 DFWT.                        :  DIST FWL TEXT
 CNTY.                        :  COUNTY
 LOC .                        :  LOCATION
 LMF .             Drill Floor:  LOG MEASURED FROM
 DEP .m                2806.40:  DEPTH
 AGAP.m                  43.60:  AIR GAP
 VSNS.m                  -4.42:  VERT SEC N/S
 VSEW.m                  -7.31:  VERT SEC E/W
 APD .m                  43.60:  DEPTH ABOVE PD
 WDMS.m                 151.80:  WD ELEV
 EGL .m                   0.00:  GROUND ELEVATION
 EPD .m                   0.00:  ELEVATION
 AZTC.deg                 6.18:  AZM TOTAL CORR
 GRDC.deg                 0.29:  GRID CORRECTION
 MDEC.deg                 6.47:  MAGNETIC DECL
 MDIP.deg                59.50:  MAGNETIC DIP
 MFLD.nT              50350.00:  MAGNETIC FIELD
 GVFD.g                   1.00:  GRAVITY FIELD
 VSDR.deg               179.08:  VERT SEC DIRECT
 TDD .m                4300.00:  TOTAL DEPTH (DRILLER)
 SDEP.m                2800.00:  START DEPTH
 DFSL.m                   0.00:  DISTANCE FSL
 DFWL.m                   0.00:  DISTANCE FWL
 UTMY.m             4431871.34:  UTM Y
 UTMX.m              538762.90:  UTM X
 WHEW.m                  -7.31:  WELL HEAD E/W
 WHNS.m                  -4.42:  WELL HEAD N/S
 LONG.deg                51.45:  LONGITUDE
 LATI.deg                40.02:  LATITUDE
 TVDS.m                  43.60:  TVDSS CORRECTN
 EKB .m                  43.60:  KB ELEVATION
 EDF .m                  43.60:  DF ELEVATION
 TDL .m                 806.00:  TOTAL DEPTH (LOGGER)
 MAGU.                 1851231:  MAGUTM CHECKSUM
 VSC .                       0:  VS TO CLOSURE
~Parameter Information Block
#MNEM.UNIT       Value        Description
#---------     -----------    ---------------------------
 AV  .mps                 1.60:  Ann Velocity 
 AVMX.mps                 2.00:  Max Ann Veloc 
 AZIF.deg               140.24:  Azm, Final 
 BHAT.        Rotary Steerable:  BHA Type 
 BROT.°/30m               0.50:  Build Rotating 
 BS  .in                  8.50:  Bit Size 
 BTPL.psig              619.00:  Bit Press Loss 
 CABU.                     Yes:  Customer Abuse 
 CGEO.          Ilgar Gurbanov:  Customer Geo 
 COMM.                     ´.T:  Run Comments 1 
 TCS .hr                 85.88:  Time Ciculation Ended 
 CV  .mps                 3.30:  Crit Velocity 
 CVMX.mps                 3.50:  Max Crit Veloc 
 DD1 .           Hamid Axmedov:  Direct Drillr 1 
 DD2 .           Teymur Aliyev:  Direct Drillr 2 
 DDSV.               Geo-Pilot:  DD Service 
 DEFF.%                 100.00:  % Det Eff 
 DLRX.°/30m               0.00:  Dogleg Rot Max 
 DLSO.°/30m               1.80:  Dogleg Oriented 
 DLSX.°/30m               3.34:  Dogleg Str Max 
 DRET.      11.50.00 27-May-21:  Drill End Time 
 DRST.      21.13.00 24-May-21:  Drill Start Tim 
 DTIM.hr                 45.11:  Time Drilling 
 EDEP.m                4054.00:  End Depth 
 ENG1.         Almaz Almadatov:  Engineer 1 
 ENG2.           Amrah Tahirov:  Engineer 2 
 ENG3.      Bakhtiyar Jabbarli:  Engineer 3 
 ENG4.          Nazrin Asgarli:  Engineer 4 
 ETIM.      10.00.00 30-May-21:  End Time 
 FLOI.gpm               530.00:  Flow In 
 FLON.gpm               400.00:  Flow In Min 
 FLOS.cptm                0.00:  Fluid Loss 
 FLOX.gpm               560.00:  Flow In Max 
 DFT .        Mineral Oil Base:  Mud Type 
 FTRO.       Formation Presure:  FTWD Run Obj 
 HFLO.                      No:  High Flow 
 HPRE.                      No:  High Pressure 
 HTEM.                      No:  High Temp 
 HYDO.m                   1.80:  Hydro Offset 
 IFIN.deg                73.83:  Inc, Final 
 IMAX.deg                73.83:  Inc Max 
 IMIN.deg                57.86:  Inc Min 
 IMND.m                3259.27:  Inc Min Depth 
 IMXD.m                4045.58:  Inc Max Depth 
 JARR.                     Yes:  Jarring 
 LETM.      11.50.00 27-May-21:  Log End Time 
 LOST.hr                     0:  Lost Rig Time 
 LSTM.      21.13.00 24-May-21:  Log Start Time 
 MDCL.ppm             42500.00:  Mud Chlorides 
 MDES.     Inversion Oil/Synthetic:  Mud Desc 
 DFD .sg                  1.52:  Mud Density 
 MDMN.sg                  1.52:  Dens Mud Min 
 MDMX.sg                  1.52:  Dens Mud Max 
 MOIL.                      70:  Run Mud Oil % 
 MOWR.                   70:30:  Run Mud OWR 
 MSND.                     0.2:  Run Mud Sand % 
 MSOL.                      22:  Run Mud Solids% 
 DFV .spqt               77.00:  Mud Viscosity 
 MWOD.in                  6.75:  MWD Tool OD 
 MWSI.                      No:  Serv Intrp, MWD 
 OTIM.hr                151.01:  Time Operating 
 PCON.          Wear / Scratch:  Pad Condition 
 PMAX.psia            11296.93:  Press Op, Max 
 PV  .cP                 37.00:  Mud PV 
 RUN .                     500:  Run Number 
 ROPA.m/hr               25.00:  ROP Avg 
 ROPN.m/hr                9.00:  ROP Min 
 ROPX.m/hr               28.00:  ROP Max 
 RPMA.rpm               140.00:  RPM Surface Avg 
 RPMN.rpm                90.00:  RPM Surface Min 
 RPMX.rpm               140.00:  RPM Surface Max 
 RRUN.                    0500:  Rig Run Number 
 SAZI.deg               172.17:  Azm, Start 
 SDEP.m                3248.00:  Start Depth 
 SIDD.                      No:  Serv Intrp, DD 
 SINC.deg                57.86:  Inc, Start 
 SPPA.psig             5620.00:  SPP Avg 
 SPPN.psig             5190.00:  SPP Min 
 SPPX.psig             6050.00:  SPP Max 
 STIM.      16.00.00 23-May-21:  Start Time 
 SVCS.                 DD, MWD:  Services 
 SVER.                    9.20:  Sperry Version 
 TDAT.m                 806.00:  Tot Depth Attmp 
 TDDF.                      No:  Trip for DD 
 TDLG.m                 806.00:  Tot Depth Loggd 
 TFF .                      No:  Trip for Fail 
 TQAA.f-kp               12.00:  Torque Abs Avg 
 TQAN.f-kp                8.00:  Torque Abs Min 
 TQAX.f-kp               15.00:  Torque Abs Max 
 TRRT.°/30m               0.30:  Turn Rotating 
 MRT .                  EWR-M5:  Maximum Recorded Temperature 
 TTMX.degC               93.00:  Max Tool Temp 
 VS01.                90649155:  Virtual Str1 SN 
 VS02.                90642264:  Virtual Str2 SN 
 VS03.                90642266:  Virtual Str3 SN 
 VS04.                90642261:  Virtual Str4 SN 
 WBMN.klb                 0.00:  WOB Min 
 WITN.             Anar Khalil:  Customer Rep 
 WITN.           Murad Guliyev:  Customer Rep 2 
 WOBA.klb                13.00:  WOB Avg 
 WOBX.klb                25.00:  WOB Max 
 YP  .lhf2               32.00:  Yield Point 
~Curve Information Block
#MNEM.UNIT                 API CODE     Curve Description
#---------               -----------    ---------------------------
 TIME.HHMMSS            00 000 000 000:  GT Time & Date
 GTDEPTH.m              00 000 000 000:  GT Depth
 GTPQH.psia             00 000 000 000:  GT HR Quartz Pressure
 GTTQ.degC              00 000 000 000:  GT Quartz Temperature
 GTTN.NONE              00 000 000 000:  GT Test Number
 GTET.sec               00 000 000 000:  GT Elapsed Test Time
 GTTVD.m                00 000 000 000:  GT True Vertical Depth
#Other Information
#
#WARRANTY: Halliburton will use its best efforts to furnish customers with 
#accurate information and interpretations that are part of, and incident to, the services 
#provided.  However, Halliburton cannot and does not warrant the accuracy 
#or correctness of such information and interpretations.  Under no circumstances should any 
#such information or interpretation be relied upon as the sole basis for any drilling, 
#completion, production, or financial decision or any procedure involving any risk to the 
#safety of any drilling venture, drilling rig or its crew or any other third party.  The 
#Customer has full responsibility for all drilling, completion and production operation.  
#Halliburton makes no representations or warranties, either expressed or 
#implied, including, but not limited to, the implied warranties of merchantability or fitness 
#for a particular purpose, with respect to the services rendered.  In no event will 
#Halliburton be liable for failure to obtain any particular results or for 
#any damages, including, but not limited to, indirect, special or consequential damages, 
#resulting from the use of any information or interpretation provided by Halliburton.
#
~A           TIME           GTDEPTH  GTPQH  GTTQ  GTTN   GTET   GTTVD  
# ...
   06:07:24.449.28-May-2021 3440.00 6006.69 83.26 12.00  45.22 2569.12
   06:07:24.649.28-May-2021 3440.00 5777.70 83.26 12.00  45.42 2569.12
   06:07:24.849.28-May-2021 3440.00 5249.40 83.26 12.00  45.62 2569.12
   06:07:25.049.28-May-2021 3440.00 4560.32 83.26 12.00  45.82 2569.12
   06:07:25.249.28-May-2021 3440.00 4257.12 83.26 12.00  46.02 2569.12
   06:07:25.449.28-May-2021 3440.00 4257.12 83.26 12.00  46.22 2569.12
   06:07:25.649.28-May-2021 3440.00 4221.15 83.26 12.00  46.42 2569.12
   06:07:25.850.28-May-2021 3440.00 4182.12 83.26 12.00  46.62 2569.12
   06:07:26.050.28-May-2021 3440.00 4093.76 83.26 12.00  46.82 2569.12
   06:07:26.250.28-May-2021 3440.00 4031.94 83.26 12.00  47.02 2569.12
   06:07:26.450.28-May-2021 3440.00 4031.94 83.26 12.00  47.22 2569.12
   06:07:26.650.28-May-2021 3440.00 3987.08 83.25 12.00  47.42 2569.12
   06:07:26.850.28-May-2021 3440.00 3859.55 83.25 12.00  47.62 2569.12
   06:07:27.050.28-May-2021 3440.00 3727.02 83.25 12.00  47.82 2569.12
   06:07:27.250.28-May-2021 3440.00 3682.45 83.25 12.00  48.02 2569.12
   06:07:27.450.28-May-2021 3440.00 3682.45 83.25 12.00  48.22 2569.12
   06:07:27.650.28-May-2021 3440.00 3629.83 83.25 12.00  48.42 2569.12
   06:07:27.850.28-May-2021 3440.00 3576.36 83.25 12.00  48.62 2569.12
   06:07:28.050.28-May-2021 3440.00 3537.26 83.24 12.00  48.82 2569.12
   06:07:28.251.28-May-2021 3440.00 3477.39 83.24 12.00  49.02 2569.12
   06:07:28.451.28-May-2021 3440.00 3477.39 83.24 12.00  49.22 2569.12
   06:07:28.651.28-May-2021 3440.00 3371.32 83.24 12.00  49.42 2569.12
   06:07:28.851.28-May-2021 3440.00 3294.51 83.24 12.00  49.62 2569.12
   06:07:29.051.28-May-2021 3440.00 3224.65 83.23 12.00  49.82 2569.12
   06:07:29.251.28-May-2021 3440.00 3158.24 83.23 12.00  50.02 2569.12
   06:07:29.451.28-May-2021 3440.00 3158.24 83.23 12.00  50.22 2569.12
   06:07:29.651.28-May-2021 3440.00 3074.21 83.23 12.00  50.42 2569.12
   06:07:29.851.28-May-2021 3440.00 3060.66 83.23 12.00  50.62 2569.12
   06:07:30.051.28-May-2021 3440.00 3048.08 83.22 12.00  50.82 2569.12
   06:07:30.251.28-May-2021 3440.00 3011.06 83.22 12.00  51.02 2569.12
   06:07:30.451.28-May-2021 3440.00 3011.06 83.22 12.00  51.22 2569.12
   06:07:30.652.28-May-2021 3440.00 2908.58 83.22 12.00  51.42 2569.12
   06:07:30.852.28-May-2021 3440.00 2820.07 83.22 12.00  51.62 2569.12
   06:07:31.052.28-May-2021 3440.00 2730.06 83.21 12.00  51.82 2569.12
   06:07:31.252.28-May-2021 3440.00 2643.80 83.21 12.00  52.02 2569.12
   06:07:31.452.28-May-2021 3440.00 2643.80 83.21 12.00  52.22 2569.12
   06:07:31.652.28-May-2021 3440.00 2465.86 83.21 12.00  52.42 2569.12
   06:07:31.852.28-May-2021 3440.00 2399.83 83.21 12.00  52.62 2569.12
   06:07:32.052.28-May-2021 3440.00 2358.11 83.20 12.00  52.82 2569.12
   06:07:32.252.28-May-2021 3440.00 2207.42 83.20 12.00  53.02 2569.12
   06:07:32.452.28-May-2021 3440.00 2207.42 83.20 12.00  53.22 2569.12
   06:07:32.652.28-May-2021 3440.00 2484.24 83.20 12.00  53.42 2569.12
   06:07:32.852.28-May-2021 3440.00 2911.15 83.20 12.00  53.62 2569.12
   06:07:33.053.28-May-2021 3440.00 2841.98 83.20 12.00  53.82 2569.12
   06:07:33.253.28-May-2021 3440.00 2786.44 83.19 12.00  54.02 2569.12
   06:07:33.453.28-May-2021 3440.00 2786.44 83.19 12.00  54.22 2569.12
   06:07:33.653.28-May-2021 3440.00 2700.18 83.19 12.00  54.42 2569.12
   06:07:33.853.28-May-2021 3440.00 2651.12 83.19 12.00  54.62 2569.12
   06:07:34.053.28-May-2021 3440.00 2662.75 83.19 12.00  54.82 2569.12
   06:07:34.253.28-May-2021 3440.00 2796.90 83.19 12.00  55.02 2569.12
   06:07:34.453.28-May-2021 3440.00 2796.90 83.19 12.00  55.22 2569.12
   06:07:34.653.28-May-2021 3440.00 3832.55 83.18 12.00  55.42 2569.12
   06:07:34.853.28-May-2021 3440.00 4215.77 83.18 12.00  55.62 2569.12
   06:07:35.053.28-May-2021 3440.00 4236.54 83.18 12.00  55.82 2569.12
   06:07:35.253.28-May-2021 3440.00 4236.53 83.18 12.00  56.02 2569.12
   06:07:35.454.28-May-2021 3440.00 4236.53 83.18 12.00  56.22 2569.12
   06:07:35.654.28-May-2021 3440.00 4236.56 83.18 12.00  56.42 2569.12
   06:07:35.854.28-May-2021 3440.00 4237.99 83.18 12.00  56.62 2569.12
   06:07:36.054.28-May-2021 3440.00 4238.02 83.18 12.00  56.82 2569.12
   06:07:36.254.28-May-2021 3440.00 4238.23 83.18 12.00  57.02 2569.12
   06:07:36.454.28-May-2021 3440.00 4238.23 83.18 12.00  57.22 2569.12
   06:07:36.654.28-May-2021 3440.00 4238.80 83.18 12.00  57.42 2569.12
   06:07:36.854.28-May-2021 3440.00 4239.12 83.18 12.00  57.62 2569.12
   06:07:37.054.28-May-2021 3440.00 4239.35 83.18 12.00  57.82 2569.12
   06:07:37.254.28-May-2021 3440.00 4239.61 83.18 12.00  58.02 2569.12
   06:07:37.454.28-May-2021 3440.00 4239.61 83.18 12.00  58.22 2569.12
   06:07:37.654.28-May-2021 3440.00 4239.97 83.18 12.00  58.42 2569.12
   06:07:37.855.28-May-2021 3440.00 4240.15 83.18 12.00  58.62 2569.12
   06:07:38.055.28-May-2021 3440.00 4240.28 83.18 12.00  58.82 2569.12
   06:07:38.255.28-May-2021 3440.00 4240.41 83.19 12.00  59.02 2569.12
   06:07:38.455.28-May-2021 3440.00 4240.41 83.19 12.00  59.22 2569.12
   06:07:38.655.28-May-2021 3440.00 4240.99 83.19 12.00  59.42 2569.12
   06:07:38.855.28-May-2021 3440.00 4241.05 83.19 12.00  59.62 2569.12
   06:07:39.055.28-May-2021 3440.00 4241.14 83.19 12.00  59.83 2569.12
   06:07:39.255.28-May-2021 3440.00 4241.19 83.19 12.00  60.03 2569.12
   06:07:39.455.28-May-2021 3440.00 4241.19 83.19 12.00  60.23 2569.12
   06:07:39.655.28-May-2021 3440.00 4241.25 83.19 12.00  60.43 2569.12
   06:07:39.855.28-May-2021 3440.00 4241.31 83.19 12.00  60.63 2569.12
   06:07:40.055.28-May-2021 3440.00 4241.34 83.19 12.00  60.83 2569.12
   06:07:40.256.28-May-2021 3440.00 4241.39 83.19 12.00  61.03 2569.12
   06:07:40.456.28-May-2021 3440.00 4241.39 83.19 12.00  61.23 2569.12
   06:07:40.656.28-May-2021 3440.00 4241.45 83.20 12.00  61.43 2569.12
   06:07:40.856.28-May-2021 3440.00 4241.22 83.20 12.00  61.63 2569.12
   06:07:41.056.28-May-2021 3440.00 4241.93 83.20 12.00  61.83 2569.12
   06:07:41.256.28-May-2021 3440.00 4241.67 83.20 12.00  62.03 2569.12
   06:07:41.456.28-May-2021 3440.00 4241.67 83.20 12.00  62.23 2569.12
   06:07:41.656.28-May-2021 3440.00 4241.84 83.20 12.00  62.43 2569.12
   06:07:41.856.28-May-2021 3440.00 4241.69 83.20 12.00  62.63 2569.12
   06:07:42.056.28-May-2021 3440.00 4241.80 83.20 12.00  62.83 2569.12
   06:07:42.256.28-May-2021 3440.00 4241.85 83.20 12.00  63.03 2569.12
   06:07:42.456.28-May-2021 3440.00 4241.85 83.20 12.00  63.23 2569.12
   06:07:42.657.28-May-2021 3440.00 4241.88 83.20 12.00  63.43 2569.12
   06:07:42.857.28-May-2021 3440.00 4241.99 83.20 12.00  63.63 2569.12
   06:07:43.057.28-May-2021 3440.00 4241.88 83.20 12.00  63.83 2569.12
   06:07:43.257.28-May-2021 3440.00 4241.94 83.20 12.00  64.03 2569.12
   06:07:43.457.28-May-2021 3440.00 4241.94 83.20 12.00  64.23 2569.12
   06:07:43.657.28-May-2021 3440.00 4241.75 83.21 12.00  64.43 2569.12
   06:07:43.857.28-May-2021 3440.00 4242.27 83.21 12.00  64.63 2569.12
   06:07:44.057.28-May-2021 3440.00 4242.01 83.21 12.00  64.83 2569.12
   06:07:44.257.28-May-2021 3440.00 4242.06 83.21 12.00  65.03 2569.12
   06:07:44.457.28-May-2021 3440.00 4242.06 83.21 12.00  65.23 2569.12
   06:07:44.657.28-May-2021 3440.00 4242.07 83.21 12.00  65.43 2569.12
   06:07:44.857.28-May-2021 3440.00 4242.11 83.21 12.00  65.63 2569.12
   06:07:45.058.28-May-2021 3440.00 4242.15 83.21 12.00  65.83 2569.12
   06:07:45.258.28-May-2021 3440.00 4242.17 83.21 12.00  66.03 2569.12
   06:07:45.458.28-May-2021 3440.00 4242.17 83.21 12.00  66.23 2569.12
   06:07:45.658.28-May-2021 3440.00 4242.22 83.21 12.00  66.43 2569.12
   06:07:45.858.28-May-2021 3440.00 4242.23 83.21 12.00  66.63 2569.12
   06:07:46.058.28-May-2021 3440.00 4242.23 83.21 12.00  66.83 2569.12
   06:07:46.258.28-May-2021 3440.00 4242.29 83.21 12.00  67.03 2569.12
   06:07:46.458.28-May-2021 3440.00 4242.29 83.21 12.00  67.23 2569.12
   06:07:46.658.28-May-2021 3440.00 4242.17 83.21 12.00  67.43 2569.12
   06:07:46.858.28-May-2021 3440.00 4242.26 83.21 12.00  67.63 2569.12
