~Version Information
 VERS.                  2.0:   CWLS log ASCII Standard -VERSION 2.0
 WRAP.                   NO:   One line per depth step
~Well Information Block
#MNEM.UNIT     VALUE/NAME     DESCRIPTION
#---------     -----------    ---------------------------
 STRT.S             05:31:02 28-May-21: START TIME 05:31:02 28-May-21
 STOP.S             05:38:03 28-May-21: STOP TIME  05:38:03 28-May-21
 STEP.S                   0.00: STEP TIME
 NULL.                 -999.25: NULL VALUE
 UWI .                     N/A:  UNIQUE WELL IDENTIFIER
 API .                     N/A:  API NUMBER
 UNIT.                     N/A:  LOGGING EQUIPMENT ID
 DCON.         Sperry Drilling:  DIRECTNL CONTR
 DOE .                     N/A:  DOE NUMBER
 MWDS.                    Baku:  MWD SHOP
 SRVC.     Turan Drilling and Engineering:  CONTRACTOR
 CTRY.              Azerbaijan:  COUNTRY NAME
 PROV.                    Baku:  PROVINCE
 STAT.                    Baku:  STATE NAME
 REGN.                   EESSA:  REGION
 BASE.              Azerbaijan:  LOGGING EQUIPMENT BASE LOCATION
 WTYP.                Deviated:  WELL TYPE
 RIG .              East Azeri:  RIG NAME
 WELL.                    D02y:  WELL NAME
 FLD .                     ACG:  FIELD NAME
 COMP.     BP Exploration (Caspian Sea) Ltd.:  COMPANY
 PDAT.          Mean Sea Level:  PERMANENT DATUM
 MDS .        Operator Entered:  MAG DATA SOURCE
 SON .        AZ-XX-0906997291:  JOB NUMBER
 FTOP.          Formation Tops:  FORM TOPS DESC
 ILTD.               Lithology:  INTERP LTH DESC
 SVYD.                  Survey:  SURVEY DESC
 DMOD.             Drill Model:  DRILL MOD DESC
 HPTY.       Minimum Curvature:  HOLE POS TYPE
 NREF.                    Grid:  NORTH REFERENCE
 SPUD.               05-May-21:  SPUD DATE
 DATE.      09.27.28 12-Jun-21:  END TIME
 STIM.      09.27.28 12-May-21:  START TIME
 DMF .             Drill Floor:  DRILL MEAS FROM
 DFST.                        :  DIST FSL TEXT
 DFWT.                        :  DIST FWL TEXT
 CNTY.                        :  COUNTY
 LOC .                        :  LOCATION
 LMF .             Drill Floor:  LOG MEASURED FROM
 DEP .m                2806.40:  DEPTH
 AGAP.m                  43.60:  AIR GAP
 VSNS.m                  -4.42:  VERT SEC N/S
 VSEW.m                  -7.31:  VERT SEC E/W
 APD .m                  43.60:  DEPTH ABOVE PD
 WDMS.m                 151.80:  WD ELEV
 EGL .m                   0.00:  GROUND ELEVATION
 EPD .m                   0.00:  ELEVATION
 AZTC.deg                 6.18:  AZM TOTAL CORR
 GRDC.deg                 0.29:  GRID CORRECTION
 MDEC.deg                 6.47:  MAGNETIC DECL
 MDIP.deg                59.50:  MAGNETIC DIP
 MFLD.nT              50350.00:  MAGNETIC FIELD
 GVFD.g                   1.00:  GRAVITY FIELD
 VSDR.deg               179.08:  VERT SEC DIRECT
 TDD .m                4300.00:  TOTAL DEPTH (DRILLER)
 SDEP.m                2800.00:  START DEPTH
 DFSL.m                   0.00:  DISTANCE FSL
 DFWL.m                   0.00:  DISTANCE FWL
 UTMY.m             4431871.34:  UTM Y
 UTMX.m              538762.90:  UTM X
 WHEW.m                  -7.31:  WELL HEAD E/W
 WHNS.m                  -4.42:  WELL HEAD N/S
 LONG.deg                51.45:  LONGITUDE
 LATI.deg                40.02:  LATITUDE
 TVDS.m                  43.60:  TVDSS CORRECTN
 EKB .m                  43.60:  KB ELEVATION
 EDF .m                  43.60:  DF ELEVATION
 TDL .m                 806.00:  TOTAL DEPTH (LOGGER)
 MAGU.                 1851231:  MAGUTM CHECKSUM
 VSC .                       0:  VS TO CLOSURE
~Parameter Information Block
#MNEM.UNIT       Value        Description
#---------     -----------    ---------------------------
 AV  .mps                 1.60:  Ann Velocity 
 AVMX.mps                 2.00:  Max Ann Veloc 
 AZIF.deg               140.24:  Azm, Final 
 BHAT.        Rotary Steerable:  BHA Type 
 BROT.°/30m               0.50:  Build Rotating 
 BS  .in                  8.50:  Bit Size 
 BTPL.psig              619.00:  Bit Press Loss 
 CABU.                     Yes:  Customer Abuse 
 CGEO.          Ilgar Gurbanov:  Customer Geo 
 COMM.                     LMh:  Run Comments 1 
 TCS .hr                 85.88:  Time Ciculation Ended 
 CV  .mps                 3.30:  Crit Velocity 
 CVMX.mps                 3.50:  Max Crit Veloc 
 DD1 .           Hamid Axmedov:  Direct Drillr 1 
 DD2 .           Teymur Aliyev:  Direct Drillr 2 
 DDSV.               Geo-Pilot:  DD Service 
 DEFF.%                 100.00:  % Det Eff 
 DLRX.°/30m               0.00:  Dogleg Rot Max 
 DLSO.°/30m               1.80:  Dogleg Oriented 
 DLSX.°/30m               3.34:  Dogleg Str Max 
 DRET.      11.50.00 27-May-21:  Drill End Time 
 DRST.      21.13.00 24-May-21:  Drill Start Tim 
 DTIM.hr                 45.11:  Time Drilling 
 EDEP.m                4054.00:  End Depth 
 ENG1.         Almaz Almadatov:  Engineer 1 
 ENG2.           Amrah Tahirov:  Engineer 2 
 ENG3.      Bakhtiyar Jabbarli:  Engineer 3 
 ENG4.          Nazrin Asgarli:  Engineer 4 
 ETIM.      10.00.00 30-May-21:  End Time 
 FLOI.gpm               530.00:  Flow In 
 FLON.gpm               400.00:  Flow In Min 
 FLOS.cptm                0.00:  Fluid Loss 
 FLOX.gpm               560.00:  Flow In Max 
 DFT .        Mineral Oil Base:  Mud Type 
 FTRO.       Formation Presure:  FTWD Run Obj 
 HFLO.                      No:  High Flow 
 HPRE.                      No:  High Pressure 
 HTEM.                      No:  High Temp 
 HYDO.m                   1.80:  Hydro Offset 
 IFIN.deg                73.83:  Inc, Final 
 IMAX.deg                73.83:  Inc Max 
 IMIN.deg                57.86:  Inc Min 
 IMND.m                3259.27:  Inc Min Depth 
 IMXD.m                4045.58:  Inc Max Depth 
 JARR.                     Yes:  Jarring 
 LETM.      11.50.00 27-May-21:  Log End Time 
 LOST.hr                     0:  Lost Rig Time 
 LSTM.      21.13.00 24-May-21:  Log Start Time 
 MDCL.ppm             42500.00:  Mud Chlorides 
 MDES.     Inversion Oil/Synthetic:  Mud Desc 
 DFD .sg                  1.52:  Mud Density 
 MDMN.sg                  1.52:  Dens Mud Min 
 MDMX.sg                  1.52:  Dens Mud Max 
 MOIL.                      70:  Run Mud Oil % 
 MOWR.                   70:30:  Run Mud OWR 
 MSND.                     0.2:  Run Mud Sand % 
 MSOL.                      22:  Run Mud Solids% 
 DFV .spqt               77.00:  Mud Viscosity 
 MWOD.in                  6.75:  MWD Tool OD 
 MWSI.                      No:  Serv Intrp, MWD 
 OTIM.hr                151.01:  Time Operating 
 PCON.          Wear / Scratch:  Pad Condition 
 PMAX.psia            11296.93:  Press Op, Max 
 PV  .cP                 37.00:  Mud PV 
 RUN .                     500:  Run Number 
 ROPA.m/hr               25.00:  ROP Avg 
 ROPN.m/hr                9.00:  ROP Min 
 ROPX.m/hr               28.00:  ROP Max 
 RPMA.rpm               140.00:  RPM Surface Avg 
 RPMN.rpm                90.00:  RPM Surface Min 
 RPMX.rpm               140.00:  RPM Surface Max 
 RRUN.                    0500:  Rig Run Number 
 SAZI.deg               172.17:  Azm, Start 
 SDEP.m                3248.00:  Start Depth 
 SIDD.                      No:  Serv Intrp, DD 
 SINC.deg                57.86:  Inc, Start 
 SPPA.psig             5620.00:  SPP Avg 
 SPPN.psig             5190.00:  SPP Min 
 SPPX.psig             6050.00:  SPP Max 
 STIM.      16.00.00 23-May-21:  Start Time 
 SVCS.                 DD, MWD:  Services 
 SVER.                    9.20:  Sperry Version 
 TDAT.m                 806.00:  Tot Depth Attmp 
 TDDF.                      No:  Trip for DD 
 TDLG.m                 806.00:  Tot Depth Loggd 
 TFF .                      No:  Trip for Fail 
 TQAA.f-kp               12.00:  Torque Abs Avg 
 TQAN.f-kp                8.00:  Torque Abs Min 
 TQAX.f-kp               15.00:  Torque Abs Max 
 TRRT.°/30m               0.30:  Turn Rotating 
 MRT .                  EWR-M5:  Maximum Recorded Temperature 
 TTMX.degC               93.00:  Max Tool Temp 
 VS01.                90649155:  Virtual Str1 SN 
 VS02.                90642264:  Virtual Str2 SN 
 VS03.                90642266:  Virtual Str3 SN 
 VS04.                90642261:  Virtual Str4 SN 
 WBMN.klb                 0.00:  WOB Min 
 WITN.             Anar Khalil:  Customer Rep 
 WITN.           Murad Guliyev:  Customer Rep 2 
 WOBA.klb                13.00:  WOB Avg 
 WOBX.klb                25.00:  WOB Max 
 YP  .lhf2               32.00:  Yield Point 
~Curve Information Block
#MNEM.UNIT                 API CODE     Curve Description
#---------               -----------    ---------------------------
 TIME.HHMMSS            00 000 000 000:  GT Time & Date
 GTDEPTH.m              00 000 000 000:  GT Depth
 GTPQH.psia             00 000 000 000:  GT HR Quartz Pressure
 GTTQ.degC              00 000 000 000:  GT Quartz Temperature
 GTTN.NONE              00 000 000 000:  GT Test Number
 GTET.sec               00 000 000 000:  GT Elapsed Test Time
 GTTVD.m                00 000 000 000:  GT True Vertical Depth
#Other Information
#
#WARRANTY: Halliburton will use its best efforts to furnish customers with 
#accurate information and interpretations that are part of, and incident to, the services 
#provided.  However, Halliburton cannot and does not warrant the accuracy 
#or correctness of such information and interpretations.  Under no circumstances should any 
#such information or interpretation be relied upon as the sole basis for any drilling, 
#completion, production, or financial decision or any procedure involving any risk to the 
#safety of any drilling venture, drilling rig or its crew or any other third party.  The 
#Customer has full responsibility for all drilling, completion and production operation.  
#Halliburton makes no representations or warranties, either expressed or 
#implied, including, but not limited to, the implied warranties of merchantability or fitness 
#for a particular purpose, with respect to the services rendered.  In no event will 
#Halliburton be liable for failure to obtain any particular results or for 
#any damages, including, but not limited to, indirect, special or consequential damages, 
#resulting from the use of any information or interpretation provided by Halliburton.
#
~A           TIME           GTDEPTH  GTPQH  GTTQ  GTTN   GTET   GTTVD  
# ...
   05:35:33.650.28-May-2021 3456.50 4230.62 82.94 10.00 271.31 2576.46
   05:35:33.850.28-May-2021 3456.50 4230.64 82.94 10.00 271.51 2576.46
   05:35:34.050.28-May-2021 3456.50 4230.62 82.94 10.00 271.71 2576.46
   05:35:34.251.28-May-2021 3456.50 4230.64 82.94 10.00 271.91 2576.46
   05:35:34.451.28-May-2021 3456.50 4230.64 82.94 10.00 272.11 2576.46
   05:35:34.651.28-May-2021 3456.50 4230.64 82.94 10.00 272.31 2576.46
   05:35:34.851.28-May-2021 3456.50 4230.74 82.94 10.00 272.51 2576.46
   05:35:35.051.28-May-2021 3456.50 4230.61 82.94 10.00 272.71 2576.46
   05:35:35.251.28-May-2021 3456.50 4230.67 82.94 10.00 272.91 2576.46
   05:35:35.451.28-May-2021 3456.50 4230.69 82.94 10.00 273.11 2576.46
   05:35:35.651.28-May-2021 3456.50 4230.69 82.94 10.00 273.31 2576.46
   05:35:35.851.28-May-2021 3456.50 4230.68 82.94 10.00 273.51 2576.46
   05:35:36.051.28-May-2021 3456.50 4230.68 82.94 10.00 273.71 2576.46
   05:35:36.251.28-May-2021 3456.50 4230.68 82.94 10.00 273.91 2576.46
   05:35:36.451.28-May-2021 3456.50 4230.69 82.94 10.00 274.11 2576.46
   05:35:36.652.28-May-2021 3456.50 4230.69 82.94 10.00 274.31 2576.46
   05:35:36.852.28-May-2021 3456.50 4230.69 82.94 10.00 274.51 2576.46
   05:35:37.052.28-May-2021 3456.50 4230.68 82.94 10.00 274.71 2576.46
   05:35:37.252.28-May-2021 3456.50 4230.68 82.94 10.00 274.91 2576.46
   05:35:37.452.28-May-2021 3456.50 4230.56 82.94 10.00 275.11 2576.46
   05:35:37.652.28-May-2021 3456.50 4230.56 82.94 10.00 275.32 2576.46
   05:35:37.852.28-May-2021 3456.50 4230.71 82.94 10.00 275.52 2576.46
   05:35:38.052.28-May-2021 3456.50 4230.73 82.94 10.00 275.72 2576.46
   05:35:38.252.28-May-2021 3456.50 4230.78 82.94 10.00 275.92 2576.46
   05:35:38.452.28-May-2021 3456.50 4230.64 82.94 10.00 276.12 2576.46
   05:35:38.652.28-May-2021 3456.50 4230.64 82.94 10.00 276.32 2576.46
   05:35:38.852.28-May-2021 3456.50 4230.72 82.94 10.00 276.52 2576.46
   05:35:39.053.28-May-2021 3456.50 4230.74 82.94 10.00 276.72 2576.46
   05:35:39.253.28-May-2021 3456.50 4230.81 82.94 10.00 276.92 2576.46
   05:35:39.453.28-May-2021 3456.50 4230.65 82.94 10.00 277.12 2576.46
   05:35:39.653.28-May-2021 3456.50 4230.65 82.94 10.00 277.32 2576.46
   05:35:39.853.28-May-2021 3456.50 4230.61 82.94 10.00 277.52 2576.46
   05:35:40.053.28-May-2021 3456.50 4230.85 82.94 10.00 277.72 2576.46
   05:35:40.253.28-May-2021 3456.50 4230.75 82.94 10.00 277.92 2576.46
   05:35:40.453.28-May-2021 3456.50 4230.75 82.94 10.00 278.12 2576.46
   05:35:40.653.28-May-2021 3456.50 4230.75 82.94 10.00 278.32 2576.46
   05:35:40.853.28-May-2021 3456.50 4230.74 82.94 10.00 278.52 2576.46
   05:35:41.053.28-May-2021 3456.50 4230.74 82.94 10.00 278.72 2576.46
   05:35:41.253.28-May-2021 3456.50 4230.75 82.94 10.00 278.92 2576.46
   05:35:41.454.28-May-2021 3456.50 4230.74 82.93 10.00 279.12 2576.46
   05:35:41.654.28-May-2021 3456.50 4230.74 82.93 10.00 279.32 2576.46
   05:35:41.854.28-May-2021 3456.50 4230.75 82.93 10.00 279.52 2576.46
   05:35:42.054.28-May-2021 3456.50 4230.73 82.93 10.00 279.72 2576.46
   05:35:42.254.28-May-2021 3456.50 4230.74 82.93 10.00 279.92 2576.46
   05:35:42.454.28-May-2021 3456.50 4230.82 82.93 10.00 280.12 2576.46
   05:35:42.654.28-May-2021 3456.50 4230.82 82.93 10.00 280.32 2576.46
   05:35:42.854.28-May-2021 3456.50 4230.75 82.93 10.00 280.52 2576.46
   05:35:43.054.28-May-2021 3456.50 4230.76 82.93 10.00 280.72 2576.46
   05:35:43.254.28-May-2021 3456.50 4230.76 82.93 10.00 280.92 2576.46
   05:35:43.454.28-May-2021 3456.50 4230.75 82.93 10.00 281.12 2576.46
   05:35:43.654.28-May-2021 3456.50 4230.75 82.93 10.00 281.32 2576.46
   05:35:43.855.28-May-2021 3456.50 4230.75 82.93 10.00 281.52 2576.46
   05:35:44.055.28-May-2021 3456.50 4230.75 82.93 10.00 281.72 2576.46
   05:35:44.255.28-May-2021 3456.50 4230.76 82.93 10.00 281.92 2576.46
   05:35:44.455.28-May-2021 3456.50 4230.74 82.93 10.00 282.12 2576.46
   05:35:44.655.28-May-2021 3456.50 4230.74 82.93 10.00 282.32 2576.46
   05:35:44.855.28-May-2021 3456.50 4230.75 82.93 10.00 282.52 2576.46
   05:35:45.055.28-May-2021 3456.50 4230.63 82.93 10.00 282.72 2576.46
   05:35:45.255.28-May-2021 3456.50 4230.86 82.93 10.00 282.92 2576.46
   05:35:45.455.28-May-2021 3456.50 4230.75 82.93 10.00 283.12 2576.46
   05:35:45.655.28-May-2021 3456.50 4230.75 82.93 10.00 283.32 2576.46
   05:35:45.855.28-May-2021 3456.50 4230.74 82.93 10.00 283.52 2576.46
   05:35:46.056.28-May-2021 3456.50 4230.69 82.93 10.00 283.72 2576.46
   05:35:46.256.28-May-2021 3456.50 4230.83 82.93 10.00 283.92 2576.46
   05:35:46.456.28-May-2021 3456.50 4230.76 82.93 10.00 284.12 2576.46
   05:35:46.656.28-May-2021 3456.50 4230.76 82.93 10.00 284.32 2576.46
   05:35:46.856.28-May-2021 3456.50 4230.93 82.93 10.00 284.52 2576.46
   05:35:47.056.28-May-2021 3456.50 4230.76 82.93 10.00 284.72 2576.46
   05:35:47.256.28-May-2021 3456.50 4230.78 82.93 10.00 284.92 2576.46
   05:35:47.456.28-May-2021 3456.50 4230.76 82.93 10.00 285.12 2576.46
   05:35:47.656.28-May-2021 3456.50 4230.76 82.93 10.00 285.32 2576.46
   05:35:47.856.28-May-2021 3456.50 4230.89 82.93 10.00 285.52 2576.46
   05:35:48.056.28-May-2021 3456.50 4230.77 82.93 10.00 285.72 2576.46
   05:35:48.256.28-May-2021 3456.50 4230.78 82.93 10.00 285.92 2576.46
   05:35:48.457.28-May-2021 3456.50 4230.76 82.93 10.00 286.12 2576.46
   05:35:48.657.28-May-2021 3456.50 4230.76 82.93 10.00 286.32 2576.46
   05:35:48.857.28-May-2021 3456.50 4230.77 82.93 10.00 286.52 2576.46
   05:35:49.057.28-May-2021 3456.50 4230.77 82.93 10.00 286.72 2576.46
   05:35:49.257.28-May-2021 3456.50 4230.76 82.93 10.00 286.92 2576.46
   05:35:49.457.28-May-2021 3456.50 4230.77 82.93 10.00 287.12 2576.46
   05:35:49.657.28-May-2021 3456.50 4230.77 82.93 10.00 287.32 2576.46
   05:35:49.857.28-May-2021 3456.50 4230.76 82.93 10.00 287.52 2576.46
   05:35:50.057.28-May-2021 3456.50 4230.76 82.93 10.00 287.72 2576.46
   05:35:50.257.28-May-2021 3456.50 4230.85 82.93 10.00 287.92 2576.46
   05:35:50.457.28-May-2021 3456.50 4230.69 82.93 10.00 288.12 2576.46
   05:35:50.657.28-May-2021 3456.50 4230.69 82.93 10.00 288.32 2576.46
   05:35:50.858.28-May-2021 3456.50 4230.78 82.93 10.00 288.52 2576.46
   05:35:51.058.28-May-2021 3456.50 4230.77 82.93 10.00 288.72 2576.46
   05:35:51.258.28-May-2021 3456.50 4230.77 82.93 10.00 288.92 2576.46
   05:35:51.458.28-May-2021 3456.50 4230.77 82.93 10.00 289.12 2576.46
   05:35:51.658.28-May-2021 3456.50 4230.77 82.93 10.00 289.32 2576.46
   05:35:51.858.28-May-2021 3456.50 4230.77 82.93 10.00 289.52 2576.46
   05:35:52.058.28-May-2021 3456.50 4230.77 82.93 10.00 289.72 2576.46
   05:35:52.258.28-May-2021 3456.50 4230.76 82.93 10.00 289.92 2576.46
   05:35:52.458.28-May-2021 3456.50 4230.76 82.93 10.00 290.12 2576.46
   05:35:52.658.28-May-2021 3456.50 4230.76 82.93 10.00 290.32 2576.46
   05:35:52.858.28-May-2021 3456.50 4230.66 82.93 10.00 290.52 2576.46
   05:35:53.058.28-May-2021 3456.50 4230.87 82.93 10.00 290.72 2576.46
   05:35:53.259.28-May-2021 3456.50 4230.78 82.93 10.00 290.92 2576.46
   05:35:53.459.28-May-2021 3456.50 4230.77 82.93 10.00 291.12 2576.46
   05:35:53.659.28-May-2021 3456.50 4230.77 82.93 10.00 291.32 2576.46
   05:35:53.859.28-May-2021 3456.50 4230.70 82.93 10.00 291.52 2576.46
   05:35:54.059.28-May-2021 3456.50 4230.83 82.93 10.00 291.72 2576.46
   05:35:54.259.28-May-2021 3456.50 4230.77 82.93 10.00 291.92 2576.46
   05:35:54.459.28-May-2021 3456.50 4230.60 82.93 10.00 292.12 2576.46
   05:35:54.659.28-May-2021 3456.50 4230.60 82.93 10.00 292.32 2576.46
   05:35:54.859.28-May-2021 3456.50 4230.77 82.93 10.00 292.52 2576.46
   05:35:55.059.28-May-2021 3456.50 4230.79 82.93 10.00 292.72 2576.46
   05:35:55.259.28-May-2021 3456.50 4230.77 82.93 10.00 292.92 2576.46
   05:35:55.459.28-May-2021 3456.50 4230.66 82.93 10.00 293.12 2576.46
   05:35:55.660.28-May-2021 3456.50 4230.66 82.93 10.00 293.32 2576.46
   05:35:55.860.28-May-2021 3456.50 4230.77 82.93 10.00 293.52 2576.46
   05:35:56.060.28-May-2021 3456.50 4230.79 82.93 10.00 293.72 2576.46
