~Version Information
 VERS.                  2.0:   CWLS log ASCII Standard -VERSION 2.0
 WRAP.                   NO:   One line per depth step
~Well Information Block
#MNEM.UNIT     VALUE/NAME     DESCRIPTION
#---------     -----------    ---------------------------
 STRT.S             22:21:57 27-May-21: START TIME 22:21:57 27-May-21
 STOP.S             22:28:58 27-May-21: STOP TIME  22:28:58 27-May-21
 STEP.S                   0.00: STEP TIME
 NULL.                 -999.25: NULL VALUE
 UWI .                     N/A:  UNIQUE WELL IDENTIFIER
 API .                     N/A:  API NUMBER
 UNIT.                     N/A:  LOGGING EQUIPMENT ID
 DCON.         Sperry Drilling:  DIRECTNL CONTR
 DOE .                     N/A:  DOE NUMBER
 MWDS.                    Baku:  MWD SHOP
 SRVC.     Turan Drilling and Engineering:  CONTRACTOR
 CTRY.              Azerbaijan:  COUNTRY NAME
 PROV.                    Baku:  PROVINCE
 STAT.                    Baku:  STATE NAME
 REGN.                   EESSA:  REGION
 BASE.              Azerbaijan:  LOGGING EQUIPMENT BASE LOCATION
 WTYP.                Deviated:  WELL TYPE
 RIG .              East Azeri:  RIG NAME
 WELL.                    D02y:  WELL NAME
 FLD .                     ACG:  FIELD NAME
 COMP.     BP Exploration (Caspian Sea) Ltd.:  COMPANY
 PDAT.          Mean Sea Level:  PERMANENT DATUM
 MDS .        Operator Entered:  MAG DATA SOURCE
 SON .        AZ-XX-0906997291:  JOB NUMBER
 FTOP.          Formation Tops:  FORM TOPS DESC
 ILTD.               Lithology:  INTERP LTH DESC
 SVYD.                  Survey:  SURVEY DESC
 DMOD.             Drill Model:  DRILL MOD DESC
 HPTY.       Minimum Curvature:  HOLE POS TYPE
 NREF.                    Grid:  NORTH REFERENCE
 SPUD.               05-May-21:  SPUD DATE
 DATE.      09.27.28 12-Jun-21:  END TIME
 STIM.      09.27.28 12-May-21:  START TIME
 DMF .             Drill Floor:  DRILL MEAS FROM
 DFST.                        :  DIST FSL TEXT
 DFWT.                        :  DIST FWL TEXT
 CNTY.                        :  COUNTY
 LOC .                        :  LOCATION
 LMF .             Drill Floor:  LOG MEASURED FROM
 DEP .m                2806.40:  DEPTH
 AGAP.m                  43.60:  AIR GAP
 VSNS.m                  -4.42:  VERT SEC N/S
 VSEW.m                  -7.31:  VERT SEC E/W
 APD .m                  43.60:  DEPTH ABOVE PD
 WDMS.m                 151.80:  WD ELEV
 EGL .m                   0.00:  GROUND ELEVATION
 EPD .m                   0.00:  ELEVATION
 AZTC.deg                 6.18:  AZM TOTAL CORR
 GRDC.deg                 0.29:  GRID CORRECTION
 MDEC.deg                 6.47:  MAGNETIC DECL
 MDIP.deg                59.50:  MAGNETIC DIP
 MFLD.nT              50350.00:  MAGNETIC FIELD
 GVFD.g                   1.00:  GRAVITY FIELD
 VSDR.deg               179.08:  VERT SEC DIRECT
 TDD .m                4300.00:  TOTAL DEPTH (DRILLER)
 SDEP.m                2800.00:  START DEPTH
 DFSL.m                   0.00:  DISTANCE FSL
 DFWL.m                   0.00:  DISTANCE FWL
 UTMY.m             4431871.34:  UTM Y
 UTMX.m              538762.90:  UTM X
 WHEW.m                  -7.31:  WELL HEAD E/W
 WHNS.m                  -4.42:  WELL HEAD N/S
 LONG.deg                51.45:  LONGITUDE
 LATI.deg                40.02:  LATITUDE
 TVDS.m                  43.60:  TVDSS CORRECTN
 EKB .m                  43.60:  KB ELEVATION
 EDF .m                  43.60:  DF ELEVATION
 TDL .m                 806.00:  TOTAL DEPTH (LOGGER)
 MAGU.                 1851231:  MAGUTM CHECKSUM
 VSC .                       0:  VS TO CLOSURE
~Parameter Information Block
#MNEM.UNIT       Value        Description
#---------     -----------    ---------------------------
 AV  .mps                 1.60:  Ann Velocity 
 AVMX.mps                 2.00:  Max Ann Veloc 
 AZIF.deg               140.24:  Azm, Final 
 BHAT.        Rotary Steerable:  BHA Type 
 BROT.°/30m               0.50:  Build Rotating 
 BS  .in                  8.50:  Bit Size 
 BTPL.psig              619.00:  Bit Press Loss 
 CABU.                     Yes:  Customer Abuse 
 CGEO.          Ilgar Gurbanov:  Customer Geo 
 COMM.                     ¼ƒj:  Run Comments 1 
 TCS .hr                 85.88:  Time Ciculation Ended 
 CV  .mps                 3.30:  Crit Velocity 
 CVMX.mps                 3.50:  Max Crit Veloc 
 DD1 .           Hamid Axmedov:  Direct Drillr 1 
 DD2 .           Teymur Aliyev:  Direct Drillr 2 
 DDSV.               Geo-Pilot:  DD Service 
 DEFF.%                 100.00:  % Det Eff 
 DLRX.°/30m               0.00:  Dogleg Rot Max 
 DLSO.°/30m               1.80:  Dogleg Oriented 
 DLSX.°/30m               3.34:  Dogleg Str Max 
 DRET.      11.50.00 27-May-21:  Drill End Time 
 DRST.      21.13.00 24-May-21:  Drill Start Tim 
 DTIM.hr                 45.11:  Time Drilling 
 EDEP.m                4054.00:  End Depth 
 ENG1.         Almaz Almadatov:  Engineer 1 
 ENG2.           Amrah Tahirov:  Engineer 2 
 ENG3.      Bakhtiyar Jabbarli:  Engineer 3 
 ENG4.          Nazrin Asgarli:  Engineer 4 
 ETIM.      10.00.00 30-May-21:  End Time 
 FLOI.gpm               530.00:  Flow In 
 FLON.gpm               400.00:  Flow In Min 
 FLOS.cptm                0.00:  Fluid Loss 
 FLOX.gpm               560.00:  Flow In Max 
 DFT .        Mineral Oil Base:  Mud Type 
 FTRO.       Formation Presure:  FTWD Run Obj 
 HFLO.                      No:  High Flow 
 HPRE.                      No:  High Pressure 
 HTEM.                      No:  High Temp 
 HYDO.m                   1.80:  Hydro Offset 
 IFIN.deg                73.83:  Inc, Final 
 IMAX.deg                73.83:  Inc Max 
 IMIN.deg                57.86:  Inc Min 
 IMND.m                3259.27:  Inc Min Depth 
 IMXD.m                4045.58:  Inc Max Depth 
 JARR.                     Yes:  Jarring 
 LETM.      11.50.00 27-May-21:  Log End Time 
 LOST.hr                     0:  Lost Rig Time 
 LSTM.      21.13.00 24-May-21:  Log Start Time 
 MDCL.ppm             42500.00:  Mud Chlorides 
 MDES.     Inversion Oil/Synthetic:  Mud Desc 
 DFD .sg                  1.52:  Mud Density 
 MDMN.sg                  1.52:  Dens Mud Min 
 MDMX.sg                  1.52:  Dens Mud Max 
 MOIL.                      70:  Run Mud Oil % 
 MOWR.                   70:30:  Run Mud OWR 
 MSND.                     0.2:  Run Mud Sand % 
 MSOL.                      22:  Run Mud Solids% 
 DFV .spqt               77.00:  Mud Viscosity 
 MWOD.in                  6.75:  MWD Tool OD 
 MWSI.                      No:  Serv Intrp, MWD 
 OTIM.hr                151.01:  Time Operating 
 PCON.          Wear / Scratch:  Pad Condition 
 PMAX.psia            11296.93:  Press Op, Max 
 PV  .cP                 37.00:  Mud PV 
 RUN .                     500:  Run Number 
 ROPA.m/hr               25.00:  ROP Avg 
 ROPN.m/hr                9.00:  ROP Min 
 ROPX.m/hr               28.00:  ROP Max 
 RPMA.rpm               140.00:  RPM Surface Avg 
 RPMN.rpm                90.00:  RPM Surface Min 
 RPMX.rpm               140.00:  RPM Surface Max 
 RRUN.                    0500:  Rig Run Number 
 SAZI.deg               172.17:  Azm, Start 
 SDEP.m                3248.00:  Start Depth 
 SIDD.                      No:  Serv Intrp, DD 
 SINC.deg                57.86:  Inc, Start 
 SPPA.psig             5620.00:  SPP Avg 
 SPPN.psig             5190.00:  SPP Min 
 SPPX.psig             6050.00:  SPP Max 
 STIM.      16.00.00 23-May-21:  Start Time 
 SVCS.                 DD, MWD:  Services 
 SVER.                    9.20:  Sperry Version 
 TDAT.m                 806.00:  Tot Depth Attmp 
 TDDF.                      No:  Trip for DD 
 TDLG.m                 806.00:  Tot Depth Loggd 
 TFF .                      No:  Trip for Fail 
 TQAA.f-kp               12.00:  Torque Abs Avg 
 TQAN.f-kp                8.00:  Torque Abs Min 
 TQAX.f-kp               15.00:  Torque Abs Max 
 TRRT.°/30m               0.30:  Turn Rotating 
 MRT .                  EWR-M5:  Maximum Recorded Temperature 
 TTMX.degC               93.00:  Max Tool Temp 
 VS01.                90649155:  Virtual Str1 SN 
 VS02.                90642264:  Virtual Str2 SN 
 VS03.                90642266:  Virtual Str3 SN 
 VS04.                90642261:  Virtual Str4 SN 
 WBMN.klb                 0.00:  WOB Min 
 WITN.             Anar Khalil:  Customer Rep 
 WITN.           Murad Guliyev:  Customer Rep 2 
 WOBA.klb                13.00:  WOB Avg 
 WOBX.klb                25.00:  WOB Max 
 YP  .lhf2               32.00:  Yield Point 
~Curve Information Block
#MNEM.UNIT                 API CODE     Curve Description
#---------               -----------    ---------------------------
 TIME.HHMMSS            00 000 000 000:  GT Time & Date
 GTDEPTH.m              00 000 000 000:  GT Depth
 GTPQH.psia             00 000 000 000:  GT HR Quartz Pressure
 GTTQ.degC              00 000 000 000:  GT Quartz Temperature
 GTTN.NONE              00 000 000 000:  GT Test Number
 GTET.sec               00 000 000 000:  GT Elapsed Test Time
 GTTVD.m                00 000 000 000:  GT True Vertical Depth
#Other Information
#
#WARRANTY: Halliburton will use its best efforts to furnish customers with 
#accurate information and interpretations that are part of, and incident to, the services 
#provided.  However, Halliburton cannot and does not warrant the accuracy 
#or correctness of such information and interpretations.  Under no circumstances should any 
#such information or interpretation be relied upon as the sole basis for any drilling, 
#completion, production, or financial decision or any procedure involving any risk to the 
#safety of any drilling venture, drilling rig or its crew or any other third party.  The 
#Customer has full responsibility for all drilling, completion and production operation.  
#Halliburton makes no representations or warranties, either expressed or 
#implied, including, but not limited to, the implied warranties of merchantability or fitness 
#for a particular purpose, with respect to the services rendered.  In no event will 
#Halliburton be liable for failure to obtain any particular results or for 
#any damages, including, but not limited to, indirect, special or consequential damages, 
#resulting from the use of any information or interpretation provided by Halliburton.
#
~A           TIME           GTDEPTH  GTPQH  GTTQ  GTTN  GTET   GTTVD  
# ...
   22:27:42.761.27-May-2021 3723.00 3141.33 84.32 1.00 345.06 2680.40
   22:27:42.961.27-May-2021 3723.00 3141.33 84.32 1.00 345.26 2680.40
   22:27:43.161.27-May-2021 3723.00 3141.20 84.32 1.00 345.46 2680.40
   22:27:43.361.27-May-2021 3723.00 3141.20 84.32 1.00 345.66 2680.40
   22:27:43.561.27-May-2021 3723.00 3141.19 84.32 1.00 345.86 2680.40
   22:27:43.761.27-May-2021 3723.00 3141.07 84.32 1.00 346.06 2680.40
   22:27:43.961.27-May-2021 3723.00 3141.07 84.32 1.00 346.26 2680.40
   22:27:44.161.27-May-2021 3723.00 3141.20 84.32 1.00 346.46 2680.40
   22:27:44.361.27-May-2021 3723.00 3141.21 84.32 1.00 346.66 2680.40
   22:27:44.561.27-May-2021 3723.00 3141.18 84.32 1.00 346.86 2680.40
   22:27:44.761.27-May-2021 3723.00 3141.20 84.32 1.00 347.06 2680.40
   22:27:44.961.27-May-2021 3723.00 3141.20 84.32 1.00 347.26 2680.40
   22:27:45.161.27-May-2021 3723.00 3141.19 84.32 1.00 347.46 2680.40
   22:27:45.361.27-May-2021 3723.00 3141.21 84.32 1.00 347.66 2680.40
   22:27:45.561.27-May-2021 3723.00 3141.18 84.32 1.00 347.86 2680.40
   22:27:45.761.27-May-2021 3723.00 3141.19 84.32 1.00 348.06 2680.40
   22:27:45.961.27-May-2021 3723.00 3141.19 84.32 1.00 348.26 2680.40
   22:27:46.161.27-May-2021 3723.00 3141.19 84.32 1.00 348.46 2680.40
   22:27:46.361.27-May-2021 3723.00 3141.06 84.32 1.00 348.66 2680.40
   22:27:46.561.27-May-2021 3723.00 3141.31 84.32 1.00 348.86 2680.40
   22:27:46.761.27-May-2021 3723.00 3141.19 84.32 1.00 349.06 2680.40
   22:27:46.961.27-May-2021 3723.00 3141.19 84.32 1.00 349.26 2680.40
   22:27:47.161.27-May-2021 3723.00 3141.18 84.32 1.00 349.46 2680.40
   22:27:47.361.27-May-2021 3723.00 3141.18 84.32 1.00 349.66 2680.40
   22:27:47.562.27-May-2021 3723.00 3141.19 84.32 1.00 349.86 2680.40
   22:27:47.762.27-May-2021 3723.00 3141.19 84.32 1.00 350.06 2680.40
   22:27:47.962.27-May-2021 3723.00 3141.19 84.32 1.00 350.26 2680.40
   22:27:48.162.27-May-2021 3723.00 3141.19 84.32 1.00 350.46 2680.40
   22:27:48.362.27-May-2021 3723.00 3141.19 84.32 1.00 350.66 2680.40
   22:27:48.562.27-May-2021 3723.00 3141.19 84.32 1.00 350.86 2680.40
   22:27:48.762.27-May-2021 3723.00 3141.19 84.32 1.00 351.06 2680.40
   22:27:48.962.27-May-2021 3723.00 3141.19 84.32 1.00 351.26 2680.40
   22:27:49.162.27-May-2021 3723.00 3141.32 84.32 1.00 351.46 2680.40
   22:27:49.362.27-May-2021 3723.00 3141.19 84.32 1.00 351.66 2680.40
   22:27:49.562.27-May-2021 3723.00 3141.06 84.32 1.00 351.86 2680.40
   22:27:49.762.27-May-2021 3723.00 3141.30 84.32 1.00 352.06 2680.40
   22:27:49.962.27-May-2021 3723.00 3141.30 84.32 1.00 352.26 2680.40
   22:27:50.162.27-May-2021 3723.00 3141.19 84.32 1.00 352.46 2680.40
   22:27:50.362.27-May-2021 3723.00 3141.18 84.32 1.00 352.66 2680.40
   22:27:50.562.27-May-2021 3723.00 3141.05 84.32 1.00 352.86 2680.40
   22:27:50.762.27-May-2021 3723.00 3141.30 84.32 1.00 353.06 2680.40
   22:27:50.962.27-May-2021 3723.00 3141.30 84.32 1.00 353.26 2680.40
   22:27:51.162.27-May-2021 3723.00 3141.20 84.32 1.00 353.46 2680.40
   22:27:51.362.27-May-2021 3723.00 3141.17 84.32 1.00 353.66 2680.40
   22:27:51.562.27-May-2021 3723.00 3141.20 84.32 1.00 353.86 2680.40
   22:27:51.762.27-May-2021 3723.00 3141.20 84.32 1.00 354.06 2680.40
   22:27:51.962.27-May-2021 3723.00 3141.20 84.32 1.00 354.26 2680.40
   22:27:52.162.27-May-2021 3723.00 3141.19 84.32 1.00 354.46 2680.40
   22:27:52.362.27-May-2021 3723.00 3141.19 84.32 1.00 354.66 2680.40
   22:27:52.562.27-May-2021 3723.00 3141.19 84.32 1.00 354.86 2680.40
   22:27:52.762.27-May-2021 3723.00 3141.19 84.32 1.00 355.06 2680.40
   22:27:52.962.27-May-2021 3723.00 3141.19 84.32 1.00 355.26 2680.40
   22:27:53.162.27-May-2021 3723.00 3141.18 84.32 1.00 355.46 2680.40
   22:27:53.362.27-May-2021 3723.00 3141.19 84.32 1.00 355.66 2680.40
   22:27:53.563.27-May-2021 3723.00 3141.18 84.32 1.00 355.86 2680.40
   22:27:53.763.27-May-2021 3723.00 3141.19 84.32 1.00 356.06 2680.40
   22:27:53.963.27-May-2021 3723.00 3141.19 84.32 1.00 356.26 2680.40
   22:27:54.163.27-May-2021 3723.00 3141.18 84.32 1.00 356.46 2680.40
   22:27:54.363.27-May-2021 3723.00 3141.21 84.32 1.00 356.66 2680.40
   22:27:54.563.27-May-2021 3723.00 3141.15 84.32 1.00 356.86 2680.40
   22:27:54.763.27-May-2021 3723.00 3141.18 84.32 1.00 357.06 2680.40
   22:27:54.963.27-May-2021 3723.00 3141.18 84.32 1.00 357.26 2680.40
   22:27:55.163.27-May-2021 3723.00 3141.18 84.32 1.00 357.46 2680.40
   22:27:55.363.27-May-2021 3723.00 3141.18 84.32 1.00 357.66 2680.40
   22:27:55.563.27-May-2021 3723.00 3141.18 84.32 1.00 357.86 2680.40
   22:27:55.763.27-May-2021 3723.00 3141.18 84.32 1.00 358.06 2680.40
   22:27:55.963.27-May-2021 3723.00 3141.18 84.32 1.00 358.26 2680.40
   22:27:56.163.27-May-2021 3723.00 3141.17 84.32 1.00 358.46 2680.40
   22:27:56.363.27-May-2021 3723.00 3141.18 84.32 1.00 358.66 2680.40
   22:27:56.563.27-May-2021 3723.00 3141.18 84.32 1.00 358.86 2680.40
   22:27:56.763.27-May-2021 3723.00 3141.18 84.32 1.00 359.06 2680.40
   22:27:56.963.27-May-2021 3723.00 3141.18 84.32 1.00 359.26 2680.40
   22:27:57.163.27-May-2021 3723.00 3141.15 84.32 1.00 359.46 2680.40
   22:27:57.363.27-May-2021 3723.00 3141.17 84.32 1.00 359.66 2680.40
   22:27:57.563.27-May-2021 3723.00 3141.20 84.32 1.00 359.86 2680.40
   22:27:57.763.27-May-2021 3723.00 3141.15 84.32 1.00 360.06 2680.40
   22:27:57.963.27-May-2021 3723.00 3141.15 84.32 1.00 360.26 2680.40
   22:27:58.163.27-May-2021 3723.00 3141.17 84.32 1.00 360.46 2680.40
   22:27:58.363.27-May-2021 3723.00 3141.18 84.32 1.00 360.66 2680.40
   22:27:58.563.27-May-2021 3723.00 3141.04 84.32 1.00 360.86 2680.40
   22:27:58.763.27-May-2021 3723.00 3141.30 84.32 1.00 361.06 2680.40
   22:27:58.963.27-May-2021 3723.00 3141.30 84.32 1.00 361.26 2680.40
   22:27:59.163.27-May-2021 3723.00 3141.19 84.32 1.00 361.46 2680.40
   22:27:59.363.27-May-2021 3723.00 3141.16 84.32 1.00 361.66 2680.40
   22:27:59.563.27-May-2021 3723.00 3141.18 84.32 1.00 361.86 2680.40
   22:27:59.764.27-May-2021 3723.00 3141.17 84.32 1.00 362.06 2680.40
   22:27:59.964.27-May-2021 3723.00 3141.17 84.32 1.00 362.26 2680.40
   22:28:00.164.27-May-2021 3723.00 3141.17 84.32 1.00 362.46 2680.40
   22:28:00.364.27-May-2021 3723.00 3141.17 84.32 1.00 362.66 2680.40
   22:28:00.564.27-May-2021 3723.00 3141.17 84.32 1.00 362.86 2680.40
   22:28:00.764.27-May-2021 3723.00 3141.18 84.32 1.00 363.06 2680.40
   22:28:00.964.27-May-2021 3723.00 3141.18 84.32 1.00 363.26 2680.40
   22:28:01.164.27-May-2021 3723.00 3141.17 84.32 1.00 363.46 2680.40
   22:28:01.364.27-May-2021 3723.00 3141.17 84.32 1.00 363.66 2680.40
   22:28:01.564.27-May-2021 3723.00 3141.17 84.32 1.00 363.86 2680.40
   22:28:01.764.27-May-2021 3723.00 3141.17 84.32 1.00 364.06 2680.40
   22:28:01.964.27-May-2021 3723.00 3141.17 84.32 1.00 364.26 2680.40
   22:28:02.164.27-May-2021 3723.00 3142.06 84.32 1.00 364.46 2680.40
   22:28:02.364.27-May-2021 3723.00 3169.03 84.32 1.00 364.66 2680.40
   22:28:02.564.27-May-2021 3723.00 4548.44 84.32 1.00 364.86 2680.40
   22:28:02.764.27-May-2021 3723.00 6235.63 84.32 1.00 365.06 2680.40
   22:28:02.964.27-May-2021 3723.00 6235.63 84.32 1.00 365.26 2680.40
   22:28:03.164.27-May-2021 3723.00 6233.99 84.32 1.00 365.46 2680.40
   22:28:03.364.27-May-2021 3723.00 6233.80 84.33 1.00 365.66 2680.40
   22:28:03.564.27-May-2021 3723.00 6234.04 84.33 1.00 365.86 2680.40
   22:28:03.764.27-May-2021 3723.00 6234.78 84.33 1.00 366.06 2680.40
   22:28:03.964.27-May-2021 3723.00 6234.78 84.33 1.00 366.26 2680.40
   22:28:04.164.27-May-2021 3723.00 6236.33 84.33 1.00 366.46 2680.40
   22:28:04.364.27-May-2021 3723.00 6237.39 84.33 1.00 366.66 2680.40
   22:28:04.564.27-May-2021 3723.00 6238.26 84.34 1.00 366.86 2680.40
   22:28:04.764.27-May-2021 3723.00 6238.80 84.34 1.00 367.06 2680.40
   22:28:04.964.27-May-2021 3723.00 6238.80 84.34 1.00 367.26 2680.40
   22:28:05.164.27-May-2021 3723.00 6239.99 84.34 1.00 367.46 2680.40
   22:28:05.364.27-May-2021 3723.00 6240.21 84.34 1.00 367.66 2680.40
   22:28:05.564.27-May-2021 3723.00 6244.83 84.35 1.00 367.86 2680.40
