~Version Information
 VERS.                  2.0:   CWLS log ASCII Standard -VERSION 2.0
 WRAP.                   NO:   One line per depth step
~Well Information Block
#MNEM.UNIT     VALUE/NAME     DESCRIPTION
#---------     -----------    ---------------------------
 STRT.S             23:52:35 27-May-21: START TIME 23:52:35 27-May-21
 STOP.S             23:59:20 27-May-21: STOP TIME  23:59:20 27-May-21
 STEP.S                   0.00: STEP TIME
 NULL.                 -999.25: NULL VALUE
 UWI .                     N/A:  UNIQUE WELL IDENTIFIER
 API .                     N/A:  API NUMBER
 UNIT.                     N/A:  LOGGING EQUIPMENT ID
 DCON.         Sperry Drilling:  DIRECTNL CONTR
 DOE .                     N/A:  DOE NUMBER
 MWDS.                    Baku:  MWD SHOP
 SRVC.     Turan Drilling and Engineering:  CONTRACTOR
 CTRY.              Azerbaijan:  COUNTRY NAME
 PROV.                    Baku:  PROVINCE
 STAT.                    Baku:  STATE NAME
 REGN.                   EESSA:  REGION
 BASE.              Azerbaijan:  LOGGING EQUIPMENT BASE LOCATION
 WTYP.                Deviated:  WELL TYPE
 RIG .              East Azeri:  RIG NAME
 WELL.                    D02y:  WELL NAME
 FLD .                     ACG:  FIELD NAME
 COMP.     BP Exploration (Caspian Sea) Ltd.:  COMPANY
 PDAT.          Mean Sea Level:  PERMANENT DATUM
 MDS .        Operator Entered:  MAG DATA SOURCE
 SON .        AZ-XX-0906997291:  JOB NUMBER
 FTOP.          Formation Tops:  FORM TOPS DESC
 ILTD.               Lithology:  INTERP LTH DESC
 SVYD.                  Survey:  SURVEY DESC
 DMOD.             Drill Model:  DRILL MOD DESC
 HPTY.       Minimum Curvature:  HOLE POS TYPE
 NREF.                    Grid:  NORTH REFERENCE
 SPUD.               05-May-21:  SPUD DATE
 DATE.      09.27.28 12-Jun-21:  END TIME
 STIM.      09.27.28 12-May-21:  START TIME
 DMF .             Drill Floor:  DRILL MEAS FROM
 DFST.                        :  DIST FSL TEXT
 DFWT.                        :  DIST FWL TEXT
 CNTY.                        :  COUNTY
 LOC .                        :  LOCATION
 LMF .             Drill Floor:  LOG MEASURED FROM
 DEP .m                2806.40:  DEPTH
 AGAP.m                  43.60:  AIR GAP
 VSNS.m                  -4.42:  VERT SEC N/S
 VSEW.m                  -7.31:  VERT SEC E/W
 APD .m                  43.60:  DEPTH ABOVE PD
 WDMS.m                 151.80:  WD ELEV
 EGL .m                   0.00:  GROUND ELEVATION
 EPD .m                   0.00:  ELEVATION
 AZTC.deg                 6.18:  AZM TOTAL CORR
 GRDC.deg                 0.29:  GRID CORRECTION
 MDEC.deg                 6.47:  MAGNETIC DECL
 MDIP.deg                59.50:  MAGNETIC DIP
 MFLD.nT              50350.00:  MAGNETIC FIELD
 GVFD.g                   1.00:  GRAVITY FIELD
 VSDR.deg               179.08:  VERT SEC DIRECT
 TDD .m                4300.00:  TOTAL DEPTH (DRILLER)
 SDEP.m                2800.00:  START DEPTH
 DFSL.m                   0.00:  DISTANCE FSL
 DFWL.m                   0.00:  DISTANCE FWL
 UTMY.m             4431871.34:  UTM Y
 UTMX.m              538762.90:  UTM X
 WHEW.m                  -7.31:  WELL HEAD E/W
 WHNS.m                  -4.42:  WELL HEAD N/S
 LONG.deg                51.45:  LONGITUDE
 LATI.deg                40.02:  LATITUDE
 TVDS.m                  43.60:  TVDSS CORRECTN
 EKB .m                  43.60:  KB ELEVATION
 EDF .m                  43.60:  DF ELEVATION
 TDL .m                 806.00:  TOTAL DEPTH (LOGGER)
 MAGU.                 1851231:  MAGUTM CHECKSUM
 VSC .                       0:  VS TO CLOSURE
~Parameter Information Block
#MNEM.UNIT       Value        Description
#---------     -----------    ---------------------------
 AV  .mps                 1.60:  Ann Velocity 
 AVMX.mps                 2.00:  Max Ann Veloc 
 AZIF.deg               140.24:  Azm, Final 
 BHAT.        Rotary Steerable:  BHA Type 
 BROT.°/30m               0.50:  Build Rotating 
 BS  .in                  8.50:  Bit Size 
 BTPL.psig              619.00:  Bit Press Loss 
 CABU.                     Yes:  Customer Abuse 
 CGEO.          Ilgar Gurbanov:  Customer Geo 
 COMM.                     t\L:  Run Comments 1 
 TCS .hr                 85.88:  Time Ciculation Ended 
 CV  .mps                 3.30:  Crit Velocity 
 CVMX.mps                 3.50:  Max Crit Veloc 
 DD1 .           Hamid Axmedov:  Direct Drillr 1 
 DD2 .           Teymur Aliyev:  Direct Drillr 2 
 DDSV.               Geo-Pilot:  DD Service 
 DEFF.%                 100.00:  % Det Eff 
 DLRX.°/30m               0.00:  Dogleg Rot Max 
 DLSO.°/30m               1.80:  Dogleg Oriented 
 DLSX.°/30m               3.34:  Dogleg Str Max 
 DRET.      11.50.00 27-May-21:  Drill End Time 
 DRST.      21.13.00 24-May-21:  Drill Start Tim 
 DTIM.hr                 45.11:  Time Drilling 
 EDEP.m                4054.00:  End Depth 
 ENG1.         Almaz Almadatov:  Engineer 1 
 ENG2.           Amrah Tahirov:  Engineer 2 
 ENG3.      Bakhtiyar Jabbarli:  Engineer 3 
 ENG4.          Nazrin Asgarli:  Engineer 4 
 ETIM.      10.00.00 30-May-21:  End Time 
 FLOI.gpm               530.00:  Flow In 
 FLON.gpm               400.00:  Flow In Min 
 FLOS.cptm                0.00:  Fluid Loss 
 FLOX.gpm               560.00:  Flow In Max 
 DFT .        Mineral Oil Base:  Mud Type 
 FTRO.       Formation Presure:  FTWD Run Obj 
 HFLO.                      No:  High Flow 
 HPRE.                      No:  High Pressure 
 HTEM.                      No:  High Temp 
 HYDO.m                   1.80:  Hydro Offset 
 IFIN.deg                73.83:  Inc, Final 
 IMAX.deg                73.83:  Inc Max 
 IMIN.deg                57.86:  Inc Min 
 IMND.m                3259.27:  Inc Min Depth 
 IMXD.m                4045.58:  Inc Max Depth 
 JARR.                     Yes:  Jarring 
 LETM.      11.50.00 27-May-21:  Log End Time 
 LOST.hr                     0:  Lost Rig Time 
 LSTM.      21.13.00 24-May-21:  Log Start Time 
 MDCL.ppm             42500.00:  Mud Chlorides 
 MDES.     Inversion Oil/Synthetic:  Mud Desc 
 DFD .sg                  1.52:  Mud Density 
 MDMN.sg                  1.52:  Dens Mud Min 
 MDMX.sg                  1.52:  Dens Mud Max 
 MOIL.                      70:  Run Mud Oil % 
 MOWR.                   70:30:  Run Mud OWR 
 MSND.                     0.2:  Run Mud Sand % 
 MSOL.                      22:  Run Mud Solids% 
 DFV .spqt               77.00:  Mud Viscosity 
 MWOD.in                  6.75:  MWD Tool OD 
 MWSI.                      No:  Serv Intrp, MWD 
 OTIM.hr                151.01:  Time Operating 
 PCON.          Wear / Scratch:  Pad Condition 
 PMAX.psia            11296.93:  Press Op, Max 
 PV  .cP                 37.00:  Mud PV 
 RUN .                     500:  Run Number 
 ROPA.m/hr               25.00:  ROP Avg 
 ROPN.m/hr                9.00:  ROP Min 
 ROPX.m/hr               28.00:  ROP Max 
 RPMA.rpm               140.00:  RPM Surface Avg 
 RPMN.rpm                90.00:  RPM Surface Min 
 RPMX.rpm               140.00:  RPM Surface Max 
 RRUN.                    0500:  Rig Run Number 
 SAZI.deg               172.17:  Azm, Start 
 SDEP.m                3248.00:  Start Depth 
 SIDD.                      No:  Serv Intrp, DD 
 SINC.deg                57.86:  Inc, Start 
 SPPA.psig             5620.00:  SPP Avg 
 SPPN.psig             5190.00:  SPP Min 
 SPPX.psig             6050.00:  SPP Max 
 STIM.      16.00.00 23-May-21:  Start Time 
 SVCS.                 DD, MWD:  Services 
 SVER.                    9.20:  Sperry Version 
 TDAT.m                 806.00:  Tot Depth Attmp 
 TDDF.                      No:  Trip for DD 
 TDLG.m                 806.00:  Tot Depth Loggd 
 TFF .                      No:  Trip for Fail 
 TQAA.f-kp               12.00:  Torque Abs Avg 
 TQAN.f-kp                8.00:  Torque Abs Min 
 TQAX.f-kp               15.00:  Torque Abs Max 
 TRRT.°/30m               0.30:  Turn Rotating 
 MRT .                  EWR-M5:  Maximum Recorded Temperature 
 TTMX.degC               93.00:  Max Tool Temp 
 VS01.                90649155:  Virtual Str1 SN 
 VS02.                90642264:  Virtual Str2 SN 
 VS03.                90642266:  Virtual Str3 SN 
 VS04.                90642261:  Virtual Str4 SN 
 WBMN.klb                 0.00:  WOB Min 
 WITN.             Anar Khalil:  Customer Rep 
 WITN.           Murad Guliyev:  Customer Rep 2 
 WOBA.klb                13.00:  WOB Avg 
 WOBX.klb                25.00:  WOB Max 
 YP  .lhf2               32.00:  Yield Point 
~Curve Information Block
#MNEM.UNIT                 API CODE     Curve Description
#---------               -----------    ---------------------------
 TIME.HHMMSS            00 000 000 000:  GT Time & Date
 GTDEPTH.m              00 000 000 000:  GT Depth
 GTPQH.psia             00 000 000 000:  GT HR Quartz Pressure
 GTTQ.degC              00 000 000 000:  GT Quartz Temperature
 GTTN.NONE              00 000 000 000:  GT Test Number
 GTET.sec               00 000 000 000:  GT Elapsed Test Time
 GTTVD.m                00 000 000 000:  GT True Vertical Depth
#Other Information
#
#WARRANTY: Halliburton will use its best efforts to furnish customers with 
#accurate information and interpretations that are part of, and incident to, the services 
#provided.  However, Halliburton cannot and does not warrant the accuracy 
#or correctness of such information and interpretations.  Under no circumstances should any 
#such information or interpretation be relied upon as the sole basis for any drilling, 
#completion, production, or financial decision or any procedure involving any risk to the 
#safety of any drilling venture, drilling rig or its crew or any other third party.  The 
#Customer has full responsibility for all drilling, completion and production operation.  
#Halliburton makes no representations or warranties, either expressed or 
#implied, including, but not limited to, the implied warranties of merchantability or fitness 
#for a particular purpose, with respect to the services rendered.  In no event will 
#Halliburton be liable for failure to obtain any particular results or for 
#any damages, including, but not limited to, indirect, special or consequential damages, 
#resulting from the use of any information or interpretation provided by Halliburton.
#
~A           TIME           GTDEPTH  GTPQH  GTTQ  GTTN  GTET   GTTVD  
# ...
   23:56:48.000.27-May-2021 3671.50   82.00 84.35 3.00 253.00 2661.54
   23:56:48.200.27-May-2021 3671.50   82.00 84.35 3.00 253.20 2661.54
   23:56:48.400.27-May-2021 3671.50   82.02 84.35 3.00 253.40 2661.54
   23:56:48.600.27-May-2021 3671.50   82.04 84.35 3.00 253.60 2661.54
   23:56:48.800.27-May-2021 3671.50   82.05 84.35 3.00 253.80 2661.54
   23:56:49.000.27-May-2021 3671.50   82.04 84.35 3.00 254.00 2661.54
   23:56:49.200.27-May-2021 3671.50   82.04 84.35 3.00 254.20 2661.54
   23:56:49.400.27-May-2021 3671.50   82.08 84.35 3.00 254.40 2661.54
   23:56:49.600.27-May-2021 3671.50   82.08 84.35 3.00 254.60 2661.54
   23:56:49.800.27-May-2021 3671.50   82.09 84.35 3.00 254.80 2661.54
   23:56:50.000.27-May-2021 3671.50   82.12 84.35 3.00 255.00 2661.54
   23:56:50.200.27-May-2021 3671.50   82.12 84.35 3.00 255.20 2661.54
   23:56:50.400.27-May-2021 3671.50   82.13 84.35 3.00 255.40 2661.54
   23:56:50.600.27-May-2021 3671.50   82.15 84.35 3.00 255.60 2661.54
   23:56:50.800.27-May-2021 3671.50   82.15 84.35 3.00 255.80 2661.54
   23:56:51.000.27-May-2021 3671.50   82.17 84.35 3.00 256.00 2661.54
   23:56:51.200.27-May-2021 3671.50   82.17 84.35 3.00 256.20 2661.54
   23:56:51.400.27-May-2021 3671.50   82.19 84.35 3.00 256.40 2661.54
   23:56:51.600.27-May-2021 3671.50   82.20 84.35 3.00 256.60 2661.54
   23:56:51.800.27-May-2021 3671.50   82.21 84.35 3.00 256.80 2661.54
   23:56:52.000.27-May-2021 3671.50   82.22 84.35 3.00 257.00 2661.54
   23:56:52.200.27-May-2021 3671.50   82.22 84.35 3.00 257.20 2661.54
   23:56:52.400.27-May-2021 3671.50   82.25 84.35 3.00 257.40 2661.54
   23:56:52.600.27-May-2021 3671.50   82.26 84.35 3.00 257.60 2661.54
   23:56:52.800.27-May-2021 3671.50   82.26 84.35 3.00 257.80 2661.54
   23:56:53.000.27-May-2021 3671.50   82.27 84.35 3.00 258.00 2661.54
   23:56:53.200.27-May-2021 3671.50   82.27 84.35 3.00 258.20 2661.54
   23:56:53.400.27-May-2021 3671.50   82.29 84.35 3.00 258.40 2661.54
   23:56:53.600.27-May-2021 3671.50   82.30 84.35 3.00 258.60 2661.54
   23:56:53.800.27-May-2021 3671.50   82.29 84.35 3.00 258.80 2661.54
   23:56:54.000.27-May-2021 3671.50   81.96 84.35 3.00 259.00 2661.54
   23:56:54.200.27-May-2021 3671.50   81.96 84.35 3.00 259.20 2661.54
   23:56:54.400.27-May-2021 3671.50   79.86 84.35 3.00 259.40 2661.54
   23:56:54.600.27-May-2021 3671.50   78.87 84.35 3.00 259.60 2661.54
   23:56:54.800.27-May-2021 3671.50   77.94 84.35 3.00 259.80 2661.54
   23:56:55.000.27-May-2021 3671.50   77.11 84.35 3.00 260.00 2661.54
   23:56:55.200.27-May-2021 3671.50   77.11 84.35 3.00 260.20 2661.54
   23:56:55.400.27-May-2021 3671.50   75.37 84.35 3.00 260.40 2661.54
   23:56:55.600.27-May-2021 3671.50   74.59 84.35 3.00 260.60 2661.54
   23:56:55.800.27-May-2021 3671.50   73.80 84.35 3.00 260.80 2661.54
   23:56:56.000.27-May-2021 3671.50   73.04 84.35 3.00 261.00 2661.54
   23:56:56.200.27-May-2021 3671.50   73.04 84.35 3.00 261.20 2661.54
   23:56:56.400.27-May-2021 3671.50   71.61 84.35 3.00 261.40 2661.54
   23:56:56.600.27-May-2021 3671.50   70.94 84.35 3.00 261.60 2661.54
   23:56:56.800.27-May-2021 3671.50   70.30 84.35 3.00 261.80 2661.54
   23:56:57.000.27-May-2021 3671.50   69.68 84.35 3.00 262.00 2661.54
   23:56:57.200.27-May-2021 3671.50   69.68 84.35 3.00 262.20 2661.54
   23:56:57.400.27-May-2021 3671.50   68.51 84.35 3.00 262.40 2661.54
   23:56:57.600.27-May-2021 3671.50   67.93 84.35 3.00 262.60 2661.54
   23:56:57.800.27-May-2021 3671.50   67.37 84.35 3.00 262.80 2661.54
   23:56:58.000.27-May-2021 3671.50   66.85 84.35 3.00 263.00 2661.54
   23:56:58.200.27-May-2021 3671.50   66.85 84.35 3.00 263.20 2661.54
   23:56:58.400.27-May-2021 3671.50   65.87 84.35 3.00 263.40 2661.54
   23:56:58.600.27-May-2021 3671.50   65.41 84.35 3.00 263.60 2661.54
   23:56:58.800.27-May-2021 3671.50   64.95 84.35 3.00 263.80 2661.54
   23:56:59.000.27-May-2021 3671.50   64.52 84.35 3.00 264.00 2661.54
   23:56:59.200.27-May-2021 3671.50   64.52 84.35 3.00 264.20 2661.54
   23:56:59.400.27-May-2021 3671.50   63.75 84.35 3.00 264.40 2661.54
   23:56:59.600.27-May-2021 3671.50   63.37 84.35 3.00 264.60 2661.54
   23:56:59.800.27-May-2021 3671.50   63.01 84.35 3.00 264.80 2661.54
   23:57:00.000.27-May-2021 3671.50   62.68 84.35 3.00 265.00 2661.54
   23:57:00.200.27-May-2021 3671.50   62.68 84.35 3.00 265.20 2661.54
   23:57:00.400.27-May-2021 3671.50   62.01 84.35 3.00 265.40 2661.54
   23:57:00.600.27-May-2021 3671.50   61.69 84.35 3.00 265.60 2661.54
   23:57:00.800.27-May-2021 3671.50   61.38 84.35 3.00 265.80 2661.54
   23:57:01.000.27-May-2021 3671.50   61.09 84.35 3.00 266.00 2661.54
   23:57:01.200.27-May-2021 3671.50   61.09 84.35 3.00 266.20 2661.54
   23:57:01.400.27-May-2021 3671.50   60.55 84.35 3.00 266.40 2661.54
   23:57:01.600.27-May-2021 3671.50   60.27 84.35 3.00 266.60 2661.54
   23:57:01.800.27-May-2021 3671.50   60.01 84.35 3.00 266.80 2661.54
   23:57:02.000.27-May-2021 3671.50   59.74 84.35 3.00 267.00 2661.54
   23:57:02.200.27-May-2021 3671.50   59.74 84.35 3.00 267.20 2661.54
   23:57:02.400.27-May-2021 3671.50   59.22 84.35 3.00 267.40 2661.54
   23:57:02.600.27-May-2021 3671.50   58.95 84.35 3.00 267.60 2661.54
   23:57:02.800.27-May-2021 3671.50   58.66 84.35 3.00 267.80 2661.54
   23:57:03.000.27-May-2021 3671.50   58.39 84.35 3.00 268.00 2661.54
   23:57:03.200.27-May-2021 3671.50   58.39 84.35 3.00 268.20 2661.54
   23:57:03.400.27-May-2021 3671.50   57.86 84.35 3.00 268.40 2661.54
   23:57:03.600.27-May-2021 3671.50   57.60 84.35 3.00 268.60 2661.54
   23:57:03.800.27-May-2021 3671.50   57.36 84.35 3.00 268.80 2661.54
   23:57:04.000.27-May-2021 3671.50   57.21 84.35 3.00 269.00 2661.54
   23:57:04.200.27-May-2021 3671.50   57.21 84.35 3.00 269.20 2661.54
   23:57:04.400.27-May-2021 3671.50   57.22 84.35 3.00 269.40 2661.54
   23:57:04.600.27-May-2021 3671.50   57.22 84.35 3.00 269.60 2661.54
   23:57:04.800.27-May-2021 3671.50   57.27 84.35 3.00 269.80 2661.54
   23:57:05.000.27-May-2021 3671.50   57.29 84.35 3.00 270.00 2661.54
   23:57:05.200.27-May-2021 3671.50   57.29 84.35 3.00 270.20 2661.54
   23:57:05.400.27-May-2021 3671.50   57.34 84.35 3.00 270.40 2661.54
   23:57:05.600.27-May-2021 3671.50   57.37 84.35 3.00 270.60 2661.54
   23:57:05.800.27-May-2021 3671.50   57.38 84.35 3.00 270.80 2661.54
   23:57:06.000.27-May-2021 3671.50   57.41 84.35 3.00 271.00 2661.54
   23:57:06.200.27-May-2021 3671.50   57.41 84.35 3.00 271.20 2661.54
   23:57:06.400.27-May-2021 3671.50   57.45 84.35 3.00 271.40 2661.54
   23:57:06.600.27-May-2021 3671.50   57.48 84.35 3.00 271.60 2661.54
   23:57:06.800.27-May-2021 3671.50   57.50 84.35 3.00 271.80 2661.54
   23:57:07.000.27-May-2021 3671.50   57.52 84.35 3.00 272.00 2661.54
   23:57:07.200.27-May-2021 3671.50   57.52 84.35 3.00 272.20 2661.54
   23:57:07.400.27-May-2021 3671.50   57.57 84.35 3.00 272.40 2661.54
   23:57:07.600.27-May-2021 3671.50   57.59 84.35 3.00 272.60 2661.54
   23:57:07.800.27-May-2021 3671.50   57.61 84.35 3.00 272.80 2661.54
   23:57:08.000.27-May-2021 3671.50   57.63 84.35 3.00 273.00 2661.54
   23:57:08.200.27-May-2021 3671.50   57.63 84.35 3.00 273.20 2661.54
   23:57:08.400.27-May-2021 3671.50   57.67 84.35 3.00 273.40 2661.54
   23:57:08.600.27-May-2021 3671.50   57.69 84.35 3.00 273.60 2661.54
   23:57:08.800.27-May-2021 3671.50   57.71 84.35 3.00 273.80 2661.54
   23:57:09.000.27-May-2021 3671.50   57.73 84.35 3.00 274.00 2661.54
   23:57:09.200.27-May-2021 3671.50   57.73 84.35 3.00 274.20 2661.54
   23:57:09.400.27-May-2021 3671.50   57.77 84.35 3.00 274.40 2661.54
   23:57:09.600.27-May-2021 3671.50   57.78 84.35 3.00 274.60 2661.54
   23:57:09.800.27-May-2021 3671.50   57.81 84.35 3.00 274.80 2661.54
   23:57:10.000.27-May-2021 3671.50   57.83 84.35 3.00 275.00 2661.54
   23:57:10.200.27-May-2021 3671.50   57.83 84.35 3.00 275.20 2661.54
   23:57:10.400.27-May-2021 3671.50   57.88 84.35 3.00 275.40 2661.54
   23:57:10.600.27-May-2021 3671.50   57.88 84.35 3.00 275.60 2661.54
   23:57:10.800.27-May-2021 3671.50   57.93 84.35 3.00 275.80 2661.54
