~Version Information
 VERS.                  2.0:   CWLS log ASCII Standard -VERSION 2.0
 WRAP.                   NO:   One line per depth step
~Well Information Block
#MNEM.UNIT     VALUE/NAME     DESCRIPTION
#---------     -----------    ---------------------------
 STRT.S             08:05:02 28-May-21: START TIME 08:05:02 28-May-21
 STOP.S             08:12:05 28-May-21: STOP TIME  08:12:05 28-May-21
 STEP.S                   0.00: STEP TIME
 NULL.                 -999.25: NULL VALUE
 UWI .                     N/A:  UNIQUE WELL IDENTIFIER
 API .                     N/A:  API NUMBER
 UNIT.                     N/A:  LOGGING EQUIPMENT ID
 DCON.         Sperry Drilling:  DIRECTNL CONTR
 DOE .                     N/A:  DOE NUMBER
 MWDS.                    Baku:  MWD SHOP
 SRVC.     Turan Drilling and Engineering:  CONTRACTOR
 CTRY.              Azerbaijan:  COUNTRY NAME
 PROV.                    Baku:  PROVINCE
 STAT.                    Baku:  STATE NAME
 REGN.                   EESSA:  REGION
 BASE.              Azerbaijan:  LOGGING EQUIPMENT BASE LOCATION
 WTYP.                Deviated:  WELL TYPE
 RIG .              East Azeri:  RIG NAME
 WELL.                    D02y:  WELL NAME
 FLD .                     ACG:  FIELD NAME
 COMP.     BP Exploration (Caspian Sea) Ltd.:  COMPANY
 PDAT.          Mean Sea Level:  PERMANENT DATUM
 MDS .        Operator Entered:  MAG DATA SOURCE
 SON .        AZ-XX-0906997291:  JOB NUMBER
 FTOP.          Formation Tops:  FORM TOPS DESC
 ILTD.               Lithology:  INTERP LTH DESC
 SVYD.                  Survey:  SURVEY DESC
 DMOD.             Drill Model:  DRILL MOD DESC
 HPTY.       Minimum Curvature:  HOLE POS TYPE
 NREF.                    Grid:  NORTH REFERENCE
 SPUD.               05-May-21:  SPUD DATE
 DATE.      09.27.28 12-Jun-21:  END TIME
 STIM.      09.27.28 12-May-21:  START TIME
 DMF .             Drill Floor:  DRILL MEAS FROM
 DFST.                        :  DIST FSL TEXT
 DFWT.                        :  DIST FWL TEXT
 CNTY.                        :  COUNTY
 LOC .                        :  LOCATION
 LMF .             Drill Floor:  LOG MEASURED FROM
 DEP .m                2806.40:  DEPTH
 AGAP.m                  43.60:  AIR GAP
 VSNS.m                  -4.42:  VERT SEC N/S
 VSEW.m                  -7.31:  VERT SEC E/W
 APD .m                  43.60:  DEPTH ABOVE PD
 WDMS.m                 151.80:  WD ELEV
 EGL .m                   0.00:  GROUND ELEVATION
 EPD .m                   0.00:  ELEVATION
 AZTC.deg                 6.18:  AZM TOTAL CORR
 GRDC.deg                 0.29:  GRID CORRECTION
 MDEC.deg                 6.47:  MAGNETIC DECL
 MDIP.deg                59.50:  MAGNETIC DIP
 MFLD.nT              50350.00:  MAGNETIC FIELD
 GVFD.g                   1.00:  GRAVITY FIELD
 VSDR.deg               179.08:  VERT SEC DIRECT
 TDD .m                4300.00:  TOTAL DEPTH (DRILLER)
 SDEP.m                2800.00:  START DEPTH
 DFSL.m                   0.00:  DISTANCE FSL
 DFWL.m                   0.00:  DISTANCE FWL
 UTMY.m             4431871.34:  UTM Y
 UTMX.m              538762.90:  UTM X
 WHEW.m                  -7.31:  WELL HEAD E/W
 WHNS.m                  -4.42:  WELL HEAD N/S
 LONG.deg                51.45:  LONGITUDE
 LATI.deg                40.02:  LATITUDE
 TVDS.m                  43.60:  TVDSS CORRECTN
 EKB .m                  43.60:  KB ELEVATION
 EDF .m                  43.60:  DF ELEVATION
 TDL .m                 806.00:  TOTAL DEPTH (LOGGER)
 MAGU.                 1851231:  MAGUTM CHECKSUM
 VSC .                       0:  VS TO CLOSURE
~Parameter Information Block
#MNEM.UNIT       Value        Description
#---------     -----------    ---------------------------
 AV  .mps                 1.60:  Ann Velocity 
 AVMX.mps                 2.00:  Max Ann Veloc 
 AZIF.deg               140.24:  Azm, Final 
 BHAT.        Rotary Steerable:  BHA Type 
 BROT.°/30m               0.50:  Build Rotating 
 BS  .in                  8.50:  Bit Size 
 BTPL.psig              619.00:  Bit Press Loss 
 CABU.                     Yes:  Customer Abuse 
 CGEO.          Ilgar Gurbanov:  Customer Geo 
 TCS .hr                 85.88:  Time Ciculation Ended 
 CV  .mps                 3.30:  Crit Velocity 
 CVMX.mps                 3.50:  Max Crit Veloc 
 DD1 .           Hamid Axmedov:  Direct Drillr 1 
 DD2 .           Teymur Aliyev:  Direct Drillr 2 
 DDSV.               Geo-Pilot:  DD Service 
 DEFF.%                 100.00:  % Det Eff 
 DLRX.°/30m               0.00:  Dogleg Rot Max 
 DLSO.°/30m               1.80:  Dogleg Oriented 
 DLSX.°/30m               3.34:  Dogleg Str Max 
 DRET.      11.50.00 27-May-21:  Drill End Time 
 DRST.      21.13.00 24-May-21:  Drill Start Tim 
 DTIM.hr                 45.11:  Time Drilling 
 EDEP.m                4054.00:  End Depth 
 ENG1.         Almaz Almadatov:  Engineer 1 
 ENG2.           Amrah Tahirov:  Engineer 2 
 ENG3.      Bakhtiyar Jabbarli:  Engineer 3 
 ENG4.          Nazrin Asgarli:  Engineer 4 
 ETIM.      10.00.00 30-May-21:  End Time 
 FLOI.gpm               530.00:  Flow In 
 FLON.gpm               400.00:  Flow In Min 
 FLOS.cptm                0.00:  Fluid Loss 
 FLOX.gpm               560.00:  Flow In Max 
 DFT .        Mineral Oil Base:  Mud Type 
 FTRO.       Formation Presure:  FTWD Run Obj 
 HFLO.                      No:  High Flow 
 HPRE.                      No:  High Pressure 
 HTEM.                      No:  High Temp 
 HYDO.m                   1.80:  Hydro Offset 
 IFIN.deg                73.83:  Inc, Final 
 IMAX.deg                73.83:  Inc Max 
 IMIN.deg                57.86:  Inc Min 
 IMND.m                3259.27:  Inc Min Depth 
 IMXD.m                4045.58:  Inc Max Depth 
 JARR.                     Yes:  Jarring 
 LETM.      11.50.00 27-May-21:  Log End Time 
 LOST.hr                     0:  Lost Rig Time 
 LSTM.      21.13.00 24-May-21:  Log Start Time 
 MDCL.ppm             42500.00:  Mud Chlorides 
 MDES.     Inversion Oil/Synthetic:  Mud Desc 
 DFD .sg                  1.52:  Mud Density 
 MDMN.sg                  1.52:  Dens Mud Min 
 MDMX.sg                  1.52:  Dens Mud Max 
 MOIL.                      70:  Run Mud Oil % 
 MOWR.                   70:30:  Run Mud OWR 
 MSND.                     0.2:  Run Mud Sand % 
 MSOL.                      22:  Run Mud Solids% 
 DFV .spqt               77.00:  Mud Viscosity 
 MWOD.in                  6.75:  MWD Tool OD 
 MWSI.                      No:  Serv Intrp, MWD 
 OTIM.hr                151.01:  Time Operating 
 PCON.          Wear / Scratch:  Pad Condition 
 PMAX.psia            11296.93:  Press Op, Max 
 PV  .cP                 37.00:  Mud PV 
 RUN .                     500:  Run Number 
 ROPA.m/hr               25.00:  ROP Avg 
 ROPN.m/hr                9.00:  ROP Min 
 ROPX.m/hr               28.00:  ROP Max 
 RPMA.rpm               140.00:  RPM Surface Avg 
 RPMN.rpm                90.00:  RPM Surface Min 
 RPMX.rpm               140.00:  RPM Surface Max 
 RRUN.                    0500:  Rig Run Number 
 SAZI.deg               172.17:  Azm, Start 
 SDEP.m                3248.00:  Start Depth 
 SIDD.                      No:  Serv Intrp, DD 
 SINC.deg                57.86:  Inc, Start 
 SPPA.psig             5620.00:  SPP Avg 
 SPPN.psig             5190.00:  SPP Min 
 SPPX.psig             6050.00:  SPP Max 
 STIM.      16.00.00 23-May-21:  Start Time 
 SVCS.                 DD, MWD:  Services 
 SVER.                    9.20:  Sperry Version 
 TDAT.m                 806.00:  Tot Depth Attmp 
 TDDF.                      No:  Trip for DD 
 TDLG.m                 806.00:  Tot Depth Loggd 
 TFF .                      No:  Trip for Fail 
 TQAA.f-kp               12.00:  Torque Abs Avg 
 TQAN.f-kp                8.00:  Torque Abs Min 
 TQAX.f-kp               15.00:  Torque Abs Max 
 TRRT.°/30m               0.30:  Turn Rotating 
 MRT .                  EWR-M5:  Maximum Recorded Temperature 
 TTMX.degC               93.00:  Max Tool Temp 
 VS01.                90649155:  Virtual Str1 SN 
 VS02.                90642264:  Virtual Str2 SN 
 VS03.                90642266:  Virtual Str3 SN 
 VS04.                90642261:  Virtual Str4 SN 
 WBMN.klb                 0.00:  WOB Min 
 WITN.             Anar Khalil:  Customer Rep 
 WITN.           Murad Guliyev:  Customer Rep 2 
 WOBA.klb                13.00:  WOB Avg 
 WOBX.klb                25.00:  WOB Max 
 YP  .lhf2               32.00:  Yield Point 
~Curve Information Block
#MNEM.UNIT                 API CODE     Curve Description
#---------               -----------    ---------------------------
 TIME.HHMMSS            00 000 000 000:  GT Time & Date
 GTDEPTH.m              00 000 000 000:  GT Depth
 GTPQH.psia             00 000 000 000:  GT HR Quartz Pressure
 GTTQ.degC              00 000 000 000:  GT Quartz Temperature
 GTTN.NONE              00 000 000 000:  GT Test Number
 GTET.sec               00 000 000 000:  GT Elapsed Test Time
 GTTVD.m                00 000 000 000:  GT True Vertical Depth
#Other Information
#
#WARRANTY: Halliburton will use its best efforts to furnish customers with 
#accurate information and interpretations that are part of, and incident to, the services 
#provided.  However, Halliburton cannot and does not warrant the accuracy 
#or correctness of such information and interpretations.  Under no circumstances should any 
#such information or interpretation be relied upon as the sole basis for any drilling, 
#completion, production, or financial decision or any procedure involving any risk to the 
#safety of any drilling venture, drilling rig or its crew or any other third party.  The 
#Customer has full responsibility for all drilling, completion and production operation.  
#Halliburton makes no representations or warranties, either expressed or 
#implied, including, but not limited to, the implied warranties of merchantability or fitness 
#for a particular purpose, with respect to the services rendered.  In no event will 
#Halliburton be liable for failure to obtain any particular results or for 
#any damages, including, but not limited to, indirect, special or consequential damages, 
#resulting from the use of any information or interpretation provided by Halliburton.
#
~A           TIME           GTDEPTH  GTPQH  GTTQ  GTTN   GTET   GTTVD  
# ...
   08:06:55.000.28-May-2021 3306.50 4644.45 82.13 14.00 113.00 2504.31
   08:06:55.200.28-May-2021 3306.50 4644.45 82.13 14.00 113.20 2504.31
   08:06:55.400.28-May-2021 3306.50 4644.49 82.13 14.00 113.40 2504.31
   08:06:55.600.28-May-2021 3306.50 4643.87 82.13 14.00 113.60 2504.31
   08:06:55.800.28-May-2021 3306.50 4643.82 82.13 14.00 113.80 2504.31
   08:06:56.000.28-May-2021 3306.50 4646.14 82.13 14.00 114.00 2504.31
   08:06:56.200.28-May-2021 3306.50 4646.14 82.13 14.00 114.20 2504.31
   08:06:56.400.28-May-2021 3306.50 4646.14 82.13 14.00 114.40 2504.31
   08:06:56.600.28-May-2021 3306.50 4646.29 82.13 14.00 114.60 2504.31
   08:06:56.800.28-May-2021 3306.50 4646.37 82.13 14.00 114.80 2504.31
   08:06:57.000.28-May-2021 3306.50 4646.35 82.13 14.00 115.00 2504.31
   08:06:57.200.28-May-2021 3306.50 4646.35 82.13 14.00 115.20 2504.31
   08:06:57.400.28-May-2021 3306.50 4646.47 82.13 14.00 115.40 2504.31
   08:06:57.600.28-May-2021 3306.50 4646.47 82.13 14.00 115.60 2504.31
   08:06:57.800.28-May-2021 3306.50 4646.53 82.13 14.00 115.80 2504.31
   08:06:58.000.28-May-2021 3306.50 4646.59 82.13 14.00 116.00 2504.31
   08:06:58.200.28-May-2021 3306.50 4646.59 82.13 14.00 116.20 2504.31
   08:06:58.400.28-May-2021 3306.50 4644.79 82.13 14.00 116.40 2504.31
   08:06:58.600.28-May-2021 3306.50 4646.74 82.13 14.00 116.60 2504.31
   08:06:58.800.28-May-2021 3306.50 4646.63 82.13 14.00 116.80 2504.31
   08:06:59.000.28-May-2021 3306.50 4646.77 82.13 14.00 117.00 2504.31
   08:06:59.200.28-May-2021 3306.50 4646.77 82.13 14.00 117.20 2504.31
   08:06:59.400.28-May-2021 3306.50 4646.72 82.13 14.00 117.40 2504.31
   08:06:59.600.28-May-2021 3306.50 4646.76 82.13 14.00 117.60 2504.31
   08:06:59.800.28-May-2021 3306.50 4645.08 82.13 14.00 117.80 2504.31
   08:07:00.000.28-May-2021 3306.50 4646.78 82.13 14.00 118.00 2504.31
   08:07:00.200.28-May-2021 3306.50 4646.78 82.13 14.00 118.20 2504.31
   08:07:00.400.28-May-2021 3306.50 4646.96 82.14 14.00 118.40 2504.31
   08:07:00.600.28-May-2021 3306.50 4646.89 82.14 14.00 118.60 2504.31
   08:07:00.800.28-May-2021 3306.50 4647.02 82.14 14.00 118.80 2504.31
   08:07:01.000.28-May-2021 3306.50 4645.22 82.14 14.00 119.00 2504.31
   08:07:01.200.28-May-2021 3306.50 4645.22 82.14 14.00 119.20 2504.31
   08:07:01.400.28-May-2021 3306.50 4647.07 82.14 14.00 119.40 2504.31
   08:07:01.600.28-May-2021 3306.50 4647.19 82.14 14.00 119.60 2504.31
   08:07:01.800.28-May-2021 3306.50 4647.10 82.14 14.00 119.80 2504.31
   08:07:02.000.28-May-2021 3306.50 4647.28 82.14 14.00 120.00 2504.31
   08:07:02.200.28-May-2021 3306.50 4647.28 82.14 14.00 120.20 2504.31
   08:07:02.400.28-May-2021 3306.50 4647.32 82.14 14.00 120.40 2504.31
   08:07:02.600.28-May-2021 3306.50 4647.44 82.14 14.00 120.60 2504.31
   08:07:02.800.28-May-2021 3306.50 4647.44 82.14 14.00 120.80 2504.31
   08:07:03.000.28-May-2021 3306.50 4647.48 82.14 14.00 121.00 2504.31
   08:07:03.200.28-May-2021 3306.50 4647.48 82.14 14.00 121.20 2504.31
   08:07:03.400.28-May-2021 3306.50 4647.60 82.14 14.00 121.40 2504.31
   08:07:03.600.28-May-2021 3306.50 4645.84 82.14 14.00 121.60 2504.31
   08:07:03.800.28-May-2021 3306.50 4647.62 82.14 14.00 121.80 2504.31
   08:07:04.000.28-May-2021 3306.50 4647.60 82.14 14.00 122.00 2504.31
   08:07:04.200.28-May-2021 3306.50 4647.60 82.14 14.00 122.20 2504.31
   08:07:04.400.28-May-2021 3306.50 4647.82 82.14 14.00 122.40 2504.31
   08:07:04.600.28-May-2021 3306.50 4647.82 82.14 14.00 122.60 2504.31
   08:07:04.800.28-May-2021 3306.50 4647.86 82.14 14.00 122.80 2504.31
   08:07:05.000.28-May-2021 3306.50 4647.97 82.14 14.00 123.00 2504.31
   08:07:05.200.28-May-2021 3306.50 4647.97 82.14 14.00 123.20 2504.31
   08:07:05.400.28-May-2021 3306.50 4648.00 82.14 14.00 123.40 2504.31
   08:07:05.600.28-May-2021 3306.50 4648.13 82.14 14.00 123.60 2504.31
   08:07:05.800.28-May-2021 3306.50 4648.10 82.14 14.00 123.80 2504.31
   08:07:06.000.28-May-2021 3306.50 4648.15 82.14 14.00 124.00 2504.31
   08:07:06.200.28-May-2021 3306.50 4648.15 82.14 14.00 124.20 2504.31
   08:07:06.400.28-May-2021 3306.50 4648.36 82.14 14.00 124.40 2504.31
   08:07:06.600.28-May-2021 3306.50 4648.23 82.14 14.00 124.60 2504.31
   08:07:06.800.28-May-2021 3306.50 4648.36 82.14 14.00 124.80 2504.31
   08:07:07.000.28-May-2021 3306.50 4646.31 82.14 14.00 125.00 2504.31
   08:07:07.200.28-May-2021 3306.50 4646.31 82.14 14.00 125.20 2504.31
   08:07:07.400.28-May-2021 3306.50 4648.41 82.14 14.00 125.40 2504.31
   08:07:07.600.28-May-2021 3306.50 4647.72 82.14 14.00 125.60 2504.31
   08:07:07.800.28-May-2021 3306.50 4647.36 82.14 14.00 125.80 2504.31
   08:07:08.000.28-May-2021 3306.50 4648.47 82.14 14.00 126.00 2504.31
   08:07:08.200.28-May-2021 3306.50 4648.47 82.14 14.00 126.20 2504.31
   08:07:08.400.28-May-2021 3306.50 4648.65 82.14 14.00 126.40 2504.31
   08:07:08.600.28-May-2021 3306.50 4648.65 82.14 14.00 126.60 2504.31
   08:07:08.800.28-May-2021 3306.50 4646.94 82.14 14.00 126.80 2504.31
   08:07:09.000.28-May-2021 3306.50 4648.78 82.14 14.00 127.00 2504.31
   08:07:09.200.28-May-2021 3306.50 4648.78 82.14 14.00 127.20 2504.31
   08:07:09.400.28-May-2021 3306.50 4648.98 82.14 14.00 127.40 2504.31
   08:07:09.600.28-May-2021 3306.50 4649.03 82.14 14.00 127.60 2504.31
   08:07:09.800.28-May-2021 3306.50 4649.12 82.14 14.00 127.80 2504.31
   08:07:10.000.28-May-2021 3306.50 4649.28 82.14 14.00 128.00 2504.31
   08:07:10.200.28-May-2021 3306.50 4649.28 82.14 14.00 128.20 2504.31
   08:07:10.400.28-May-2021 3306.50 4649.58 82.14 14.00 128.40 2504.31
   08:07:10.600.28-May-2021 3306.50 4649.56 82.14 14.00 128.60 2504.31
   08:07:10.800.28-May-2021 3306.50 4649.68 82.14 14.00 128.80 2504.31
   08:07:11.000.28-May-2021 3306.50 4649.74 82.14 14.00 129.00 2504.31
   08:07:11.200.28-May-2021 3306.50 4649.74 82.14 14.00 129.20 2504.31
   08:07:11.400.28-May-2021 3306.50 4648.80 82.14 14.00 129.40 2504.31
   08:07:11.600.28-May-2021 3306.50 4649.89 82.14 14.00 129.60 2504.31
   08:07:11.800.28-May-2021 3306.50 4649.84 82.14 14.00 129.80 2504.31
   08:07:12.000.28-May-2021 3306.50 4650.12 82.14 14.00 130.00 2504.31
   08:07:12.200.28-May-2021 3306.50 4650.12 82.14 14.00 130.20 2504.31
   08:07:12.400.28-May-2021 3306.50 4650.10 82.14 14.00 130.40 2504.31
   08:07:12.600.28-May-2021 3306.50 4650.21 82.14 14.00 130.60 2504.31
   08:07:12.800.28-May-2021 3306.50 4650.26 82.14 14.00 130.80 2504.31
   08:07:13.000.28-May-2021 3306.50 4650.27 82.14 14.00 131.00 2504.31
   08:07:13.200.28-May-2021 3306.50 4650.27 82.14 14.00 131.20 2504.31
   08:07:13.400.28-May-2021 3306.50 4650.41 82.14 14.00 131.40 2504.31
   08:07:13.600.28-May-2021 3306.50 4650.41 82.14 14.00 131.60 2504.31
   08:07:13.800.28-May-2021 3306.50 4650.50 82.14 14.00 131.80 2504.31
   08:07:14.000.28-May-2021 3306.50 4648.70 82.14 14.00 132.00 2504.31
   08:07:14.200.28-May-2021 3306.50 4648.70 82.14 14.00 132.20 2504.31
   08:07:14.400.28-May-2021 3306.50 4650.58 82.14 14.00 132.40 2504.31
   08:07:14.600.28-May-2021 3306.50 4650.66 82.14 14.00 132.60 2504.31
   08:07:14.800.28-May-2021 3306.50 4648.84 82.14 14.00 132.80 2504.31
   08:07:15.000.28-May-2021 3306.50 4650.63 82.14 14.00 133.00 2504.31
   08:07:15.200.28-May-2021 3306.50 4650.63 82.14 14.00 133.20 2504.31
   08:07:15.400.28-May-2021 3306.50 4649.44 82.14 14.00 133.40 2504.31
   08:07:15.600.28-May-2021 3306.50 4650.40 82.14 14.00 133.60 2504.31
   08:07:15.800.28-May-2021 3306.50 4650.77 82.14 14.00 133.80 2504.31
   08:07:16.000.28-May-2021 3306.50 4650.83 82.14 14.00 134.00 2504.31
   08:07:16.200.28-May-2021 3306.50 4650.83 82.14 14.00 134.20 2504.31
   08:07:16.400.28-May-2021 3306.50 4650.83 82.14 14.00 134.40 2504.31
   08:07:16.600.28-May-2021 3306.50 4649.20 82.14 14.00 134.60 2504.31
   08:07:16.800.28-May-2021 3306.50 4651.12 82.14 14.00 134.80 2504.31
   08:07:17.000.28-May-2021 3306.50 4651.04 82.14 14.00 135.00 2504.31
   08:07:17.200.28-May-2021 3306.50 4651.04 82.14 14.00 135.20 2504.31
   08:07:17.400.28-May-2021 3306.50 4651.19 82.14 14.00 135.40 2504.31
