~Version Information
 VERS.                  2.0:   CWLS log ASCII Standard -VERSION 2.0
 WRAP.                   NO:   One line per depth step
~Well Information Block
#MNEM.UNIT     VALUE/NAME     DESCRIPTION
#---------     -----------    ---------------------------
 STRT.S             22:21:57 27-May-21: START TIME 22:21:57 27-May-21
 STOP.S             22:28:58 27-May-21: STOP TIME  22:28:58 27-May-21
 STEP.S                   0.00: STEP TIME
 NULL.                 -999.25: NULL VALUE
 UWI .                     N/A:  UNIQUE WELL IDENTIFIER
 API .                     N/A:  API NUMBER
 UNIT.                     N/A:  LOGGING EQUIPMENT ID
 DCON.         Sperry Drilling:  DIRECTNL CONTR
 DOE .                     N/A:  DOE NUMBER
 MWDS.                    Baku:  MWD SHOP
 SRVC.     Turan Drilling and Engineering:  CONTRACTOR
 CTRY.              Azerbaijan:  COUNTRY NAME
 PROV.                    Baku:  PROVINCE
 STAT.                    Baku:  STATE NAME
 REGN.                   EESSA:  REGION
 BASE.              Azerbaijan:  LOGGING EQUIPMENT BASE LOCATION
 WTYP.                Deviated:  WELL TYPE
 RIG .              East Azeri:  RIG NAME
 WELL.                    D02y:  WELL NAME
 FLD .                     ACG:  FIELD NAME
 COMP.     BP Exploration (Caspian Sea) Ltd.:  COMPANY
 PDAT.          Mean Sea Level:  PERMANENT DATUM
 MDS .        Operator Entered:  MAG DATA SOURCE
 SON .        AZ-XX-0906997291:  JOB NUMBER
 FTOP.          Formation Tops:  FORM TOPS DESC
 ILTD.               Lithology:  INTERP LTH DESC
 SVYD.                  Survey:  SURVEY DESC
 DMOD.             Drill Model:  DRILL MOD DESC
 HPTY.       Minimum Curvature:  HOLE POS TYPE
 NREF.                    Grid:  NORTH REFERENCE
 SPUD.               05-May-21:  SPUD DATE
 DATE.      09.27.28 12-Jun-21:  END TIME
 STIM.      09.27.28 12-May-21:  START TIME
 DMF .             Drill Floor:  DRILL MEAS FROM
 DFST.                        :  DIST FSL TEXT
 DFWT.                        :  DIST FWL TEXT
 CNTY.                        :  COUNTY
 LOC .                        :  LOCATION
 LMF .             Drill Floor:  LOG MEASURED FROM
 DEP .m                2806.40:  DEPTH
 AGAP.m                  43.60:  AIR GAP
 VSNS.m                  -4.42:  VERT SEC N/S
 VSEW.m                  -7.31:  VERT SEC E/W
 APD .m                  43.60:  DEPTH ABOVE PD
 WDMS.m                 151.80:  WD ELEV
 EGL .m                   0.00:  GROUND ELEVATION
 EPD .m                   0.00:  ELEVATION
 AZTC.deg                 6.18:  AZM TOTAL CORR
 GRDC.deg                 0.29:  GRID CORRECTION
 MDEC.deg                 6.47:  MAGNETIC DECL
 MDIP.deg                59.50:  MAGNETIC DIP
 MFLD.nT              50350.00:  MAGNETIC FIELD
 GVFD.g                   1.00:  GRAVITY FIELD
 VSDR.deg               179.08:  VERT SEC DIRECT
 TDD .m                4300.00:  TOTAL DEPTH (DRILLER)
 SDEP.m                2800.00:  START DEPTH
 DFSL.m                   0.00:  DISTANCE FSL
 DFWL.m                   0.00:  DISTANCE FWL
 UTMY.m             4431871.34:  UTM Y
 UTMX.m              538762.90:  UTM X
 WHEW.m                  -7.31:  WELL HEAD E/W
 WHNS.m                  -4.42:  WELL HEAD N/S
 LONG.deg                51.45:  LONGITUDE
 LATI.deg                40.02:  LATITUDE
 TVDS.m                  43.60:  TVDSS CORRECTN
 EKB .m                  43.60:  KB ELEVATION
 EDF .m                  43.60:  DF ELEVATION
 TDL .m                 806.00:  TOTAL DEPTH (LOGGER)
 MAGU.                 1851231:  MAGUTM CHECKSUM
 VSC .                       0:  VS TO CLOSURE
~Parameter Information Block
#MNEM.UNIT       Value        Description
#---------     -----------    ---------------------------
 AV  .mps                 1.60:  Ann Velocity 
 AVMX.mps                 2.00:  Max Ann Veloc 
 AZIF.deg               140.24:  Azm, Final 
 BHAT.        Rotary Steerable:  BHA Type 
 BROT.°/30m               0.50:  Build Rotating 
 BS  .in                  8.50:  Bit Size 
 BTPL.psig              619.00:  Bit Press Loss 
 CABU.                     Yes:  Customer Abuse 
 CGEO.          Ilgar Gurbanov:  Customer Geo 
 COMM.                     ¼ƒj:  Run Comments 1 
 TCS .hr                 85.88:  Time Ciculation Ended 
 CV  .mps                 3.30:  Crit Velocity 
 CVMX.mps                 3.50:  Max Crit Veloc 
 DD1 .           Hamid Axmedov:  Direct Drillr 1 
 DD2 .           Teymur Aliyev:  Direct Drillr 2 
 DDSV.               Geo-Pilot:  DD Service 
 DEFF.%                 100.00:  % Det Eff 
 DLRX.°/30m               0.00:  Dogleg Rot Max 
 DLSO.°/30m               1.80:  Dogleg Oriented 
 DLSX.°/30m               3.34:  Dogleg Str Max 
 DRET.      11.50.00 27-May-21:  Drill End Time 
 DRST.      21.13.00 24-May-21:  Drill Start Tim 
 DTIM.hr                 45.11:  Time Drilling 
 EDEP.m                4054.00:  End Depth 
 ENG1.         Almaz Almadatov:  Engineer 1 
 ENG2.           Amrah Tahirov:  Engineer 2 
 ENG3.      Bakhtiyar Jabbarli:  Engineer 3 
 ENG4.          Nazrin Asgarli:  Engineer 4 
 ETIM.      10.00.00 30-May-21:  End Time 
 FLOI.gpm               530.00:  Flow In 
 FLON.gpm               400.00:  Flow In Min 
 FLOS.cptm                0.00:  Fluid Loss 
 FLOX.gpm               560.00:  Flow In Max 
 DFT .        Mineral Oil Base:  Mud Type 
 FTRO.       Formation Presure:  FTWD Run Obj 
 HFLO.                      No:  High Flow 
 HPRE.                      No:  High Pressure 
 HTEM.                      No:  High Temp 
 HYDO.m                   1.80:  Hydro Offset 
 IFIN.deg                73.83:  Inc, Final 
 IMAX.deg                73.83:  Inc Max 
 IMIN.deg                57.86:  Inc Min 
 IMND.m                3259.27:  Inc Min Depth 
 IMXD.m                4045.58:  Inc Max Depth 
 JARR.                     Yes:  Jarring 
 LETM.      11.50.00 27-May-21:  Log End Time 
 LOST.hr                     0:  Lost Rig Time 
 LSTM.      21.13.00 24-May-21:  Log Start Time 
 MDCL.ppm             42500.00:  Mud Chlorides 
 MDES.     Inversion Oil/Synthetic:  Mud Desc 
 DFD .sg                  1.52:  Mud Density 
 MDMN.sg                  1.52:  Dens Mud Min 
 MDMX.sg                  1.52:  Dens Mud Max 
 MOIL.                      70:  Run Mud Oil % 
 MOWR.                   70:30:  Run Mud OWR 
 MSND.                     0.2:  Run Mud Sand % 
 MSOL.                      22:  Run Mud Solids% 
 DFV .spqt               77.00:  Mud Viscosity 
 MWOD.in                  6.75:  MWD Tool OD 
 MWSI.                      No:  Serv Intrp, MWD 
 OTIM.hr                151.01:  Time Operating 
 PCON.          Wear / Scratch:  Pad Condition 
 PMAX.psia            11296.93:  Press Op, Max 
 PV  .cP                 37.00:  Mud PV 
 RUN .                     500:  Run Number 
 ROPA.m/hr               25.00:  ROP Avg 
 ROPN.m/hr                9.00:  ROP Min 
 ROPX.m/hr               28.00:  ROP Max 
 RPMA.rpm               140.00:  RPM Surface Avg 
 RPMN.rpm                90.00:  RPM Surface Min 
 RPMX.rpm               140.00:  RPM Surface Max 
 RRUN.                    0500:  Rig Run Number 
 SAZI.deg               172.17:  Azm, Start 
 SDEP.m                3248.00:  Start Depth 
 SIDD.                      No:  Serv Intrp, DD 
 SINC.deg                57.86:  Inc, Start 
 SPPA.psig             5620.00:  SPP Avg 
 SPPN.psig             5190.00:  SPP Min 
 SPPX.psig             6050.00:  SPP Max 
 STIM.      16.00.00 23-May-21:  Start Time 
 SVCS.                 DD, MWD:  Services 
 SVER.                    9.20:  Sperry Version 
 TDAT.m                 806.00:  Tot Depth Attmp 
 TDDF.                      No:  Trip for DD 
 TDLG.m                 806.00:  Tot Depth Loggd 
 TFF .                      No:  Trip for Fail 
 TQAA.f-kp               12.00:  Torque Abs Avg 
 TQAN.f-kp                8.00:  Torque Abs Min 
 TQAX.f-kp               15.00:  Torque Abs Max 
 TRRT.°/30m               0.30:  Turn Rotating 
 MRT .                  EWR-M5:  Maximum Recorded Temperature 
 TTMX.degC               93.00:  Max Tool Temp 
 VS01.                90649155:  Virtual Str1 SN 
 VS02.                90642264:  Virtual Str2 SN 
 VS03.                90642266:  Virtual Str3 SN 
 VS04.                90642261:  Virtual Str4 SN 
 WBMN.klb                 0.00:  WOB Min 
 WITN.             Anar Khalil:  Customer Rep 
 WITN.           Murad Guliyev:  Customer Rep 2 
 WOBA.klb                13.00:  WOB Avg 
 WOBX.klb                25.00:  WOB Max 
 YP  .lhf2               32.00:  Yield Point 
~Curve Information Block
#MNEM.UNIT                 API CODE     Curve Description
#---------               -----------    ---------------------------
 TIME.HHMMSS            00 000 000 000:  GT Time & Date
 GTDEPTH.m              00 000 000 000:  GT Depth
 GTPQH.psia             00 000 000 000:  GT HR Quartz Pressure
 GTTQ.degC              00 000 000 000:  GT Quartz Temperature
 GTTN.NONE              00 000 000 000:  GT Test Number
 GTET.sec               00 000 000 000:  GT Elapsed Test Time
 GTTVD.m                00 000 000 000:  GT True Vertical Depth
#Other Information
#
#WARRANTY: Halliburton will use its best efforts to furnish customers with 
#accurate information and interpretations that are part of, and incident to, the services 
#provided.  However, Halliburton cannot and does not warrant the accuracy 
#or correctness of such information and interpretations.  Under no circumstances should any 
#such information or interpretation be relied upon as the sole basis for any drilling, 
#completion, production, or financial decision or any procedure involving any risk to the 
#safety of any drilling venture, drilling rig or its crew or any other third party.  The 
#Customer has full responsibility for all drilling, completion and production operation.  
#Halliburton makes no representations or warranties, either expressed or 
#implied, including, but not limited to, the implied warranties of merchantability or fitness 
#for a particular purpose, with respect to the services rendered.  In no event will 
#Halliburton be liable for failure to obtain any particular results or for 
#any damages, including, but not limited to, indirect, special or consequential damages, 
#resulting from the use of any information or interpretation provided by Halliburton.
#
~A           TIME           GTDEPTH  GTPQH  GTTQ  GTTN  GTET   GTTVD  
# ...
   22:24:15.727.27-May-2021 3723.00 3141.59 84.30 1.00 138.02 2680.40
   22:24:15.927.27-May-2021 3723.00 3141.59 84.30 1.00 138.22 2680.40
   22:24:16.127.27-May-2021 3723.00 3141.71 84.30 1.00 138.42 2680.40
   22:24:16.327.27-May-2021 3723.00 3141.73 84.30 1.00 138.62 2680.40
   22:24:16.527.27-May-2021 3723.00 3141.73 84.30 1.00 138.82 2680.40
   22:24:16.727.27-May-2021 3723.00 3141.72 84.30 1.00 139.02 2680.40
   22:24:16.927.27-May-2021 3723.00 3141.72 84.30 1.00 139.22 2680.40
   22:24:17.127.27-May-2021 3723.00 3141.83 84.30 1.00 139.42 2680.40
   22:24:17.327.27-May-2021 3723.00 3141.71 84.30 1.00 139.62 2680.40
   22:24:17.527.27-May-2021 3723.00 3141.73 84.30 1.00 139.82 2680.40
   22:24:17.727.27-May-2021 3723.00 3141.72 84.30 1.00 140.02 2680.40
   22:24:17.927.27-May-2021 3723.00 3141.72 84.30 1.00 140.22 2680.40
   22:24:18.127.27-May-2021 3723.00 3141.73 84.30 1.00 140.42 2680.40
   22:24:18.327.27-May-2021 3723.00 3141.72 84.30 1.00 140.62 2680.40
   22:24:18.528.27-May-2021 3723.00 3141.72 84.30 1.00 140.82 2680.40
   22:24:18.728.27-May-2021 3723.00 3141.73 84.30 1.00 141.02 2680.40
   22:24:18.928.27-May-2021 3723.00 3141.73 84.30 1.00 141.22 2680.40
   22:24:19.128.27-May-2021 3723.00 3141.73 84.30 1.00 141.42 2680.40
   22:24:19.328.27-May-2021 3723.00 3141.74 84.30 1.00 141.62 2680.40
   22:24:19.528.27-May-2021 3723.00 3141.61 84.30 1.00 141.82 2680.40
   22:24:19.728.27-May-2021 3723.00 3141.83 84.30 1.00 142.02 2680.40
   22:24:19.928.27-May-2021 3723.00 3141.83 84.30 1.00 142.22 2680.40
   22:24:20.128.27-May-2021 3723.00 3141.72 84.30 1.00 142.42 2680.40
   22:24:20.328.27-May-2021 3723.00 3141.71 84.30 1.00 142.62 2680.40
   22:24:20.528.27-May-2021 3723.00 3141.72 84.30 1.00 142.82 2680.40
   22:24:20.728.27-May-2021 3723.00 3141.72 84.30 1.00 143.02 2680.40
   22:24:20.928.27-May-2021 3723.00 3141.72 84.30 1.00 143.22 2680.40
   22:24:21.128.27-May-2021 3723.00 3141.72 84.30 1.00 143.42 2680.40
   22:24:21.328.27-May-2021 3723.00 3141.72 84.30 1.00 143.62 2680.40
   22:24:21.528.27-May-2021 3723.00 3141.72 84.30 1.00 143.82 2680.40
   22:24:21.728.27-May-2021 3723.00 3141.72 84.30 1.00 144.02 2680.40
   22:24:21.928.27-May-2021 3723.00 3141.72 84.30 1.00 144.22 2680.40
   22:24:22.128.27-May-2021 3723.00 3141.61 84.30 1.00 144.42 2680.40
   22:24:22.328.27-May-2021 3723.00 3141.82 84.30 1.00 144.62 2680.40
   22:24:22.528.27-May-2021 3723.00 3141.70 84.30 1.00 144.82 2680.40
   22:24:22.728.27-May-2021 3723.00 3141.62 84.30 1.00 145.02 2680.40
   22:24:22.928.27-May-2021 3723.00 3141.62 84.30 1.00 145.22 2680.40
   22:24:23.128.27-May-2021 3723.00 3141.69 84.30 1.00 145.42 2680.40
   22:24:23.328.27-May-2021 3723.00 3141.71 84.30 1.00 145.62 2680.40
   22:24:23.528.27-May-2021 3723.00 3141.69 84.30 1.00 145.82 2680.40
   22:24:23.728.27-May-2021 3723.00 3141.59 84.30 1.00 146.02 2680.40
   22:24:23.928.27-May-2021 3723.00 3141.59 84.30 1.00 146.22 2680.40
   22:24:24.128.27-May-2021 3723.00 3141.69 84.30 1.00 146.42 2680.40
   22:24:24.328.27-May-2021 3723.00 3141.70 84.30 1.00 146.62 2680.40
   22:24:24.528.27-May-2021 3723.00 3141.70 84.30 1.00 146.82 2680.40
   22:24:24.729.27-May-2021 3723.00 3141.69 84.30 1.00 147.02 2680.40
   22:24:24.929.27-May-2021 3723.00 3141.69 84.30 1.00 147.22 2680.40
   22:24:25.129.27-May-2021 3723.00 3141.66 84.30 1.00 147.42 2680.40
   22:24:25.329.27-May-2021 3723.00 3141.68 84.30 1.00 147.62 2680.40
   22:24:25.529.27-May-2021 3723.00 3141.70 84.30 1.00 147.82 2680.40
   22:24:25.729.27-May-2021 3723.00 3141.70 84.30 1.00 148.02 2680.40
   22:24:25.929.27-May-2021 3723.00 3141.70 84.30 1.00 148.22 2680.40
   22:24:26.129.27-May-2021 3723.00 3141.69 84.30 1.00 148.42 2680.40
   22:24:26.329.27-May-2021 3723.00 3141.70 84.30 1.00 148.62 2680.40
   22:24:26.529.27-May-2021 3723.00 3141.70 84.30 1.00 148.82 2680.40
   22:24:26.729.27-May-2021 3723.00 3141.70 84.30 1.00 149.02 2680.40
   22:24:26.929.27-May-2021 3723.00 3141.70 84.30 1.00 149.22 2680.40
   22:24:27.129.27-May-2021 3723.00 3141.70 84.30 1.00 149.42 2680.40
   22:24:27.329.27-May-2021 3723.00 3141.71 84.30 1.00 149.62 2680.40
   22:24:27.529.27-May-2021 3723.00 3141.72 84.30 1.00 149.82 2680.40
   22:24:27.729.27-May-2021 3723.00 3141.69 84.30 1.00 150.02 2680.40
   22:24:27.929.27-May-2021 3723.00 3141.69 84.30 1.00 150.22 2680.40
   22:24:28.129.27-May-2021 3723.00 3083.55 84.30 1.00 150.42 2680.40
   22:24:28.329.27-May-2021 3723.00 3078.76 84.30 1.00 150.62 2680.40
   22:24:28.529.27-May-2021 3723.00 3078.37 84.30 1.00 150.82 2680.40
   22:24:28.729.27-May-2021 3723.00 3077.70 84.30 1.00 151.02 2680.40
   22:24:28.929.27-May-2021 3723.00 3077.70 84.30 1.00 151.22 2680.40
   22:24:29.129.27-May-2021 3723.00 3075.32 84.30 1.00 151.42 2680.40
   22:24:29.329.27-May-2021 3723.00 3074.65 84.30 1.00 151.62 2680.40
   22:24:29.529.27-May-2021 3723.00 3072.62 84.30 1.00 151.82 2680.40
   22:24:29.729.27-May-2021 3723.00 3072.59 84.30 1.00 152.02 2680.40
   22:24:29.929.27-May-2021 3723.00 3072.59 84.30 1.00 152.22 2680.40
   22:24:30.129.27-May-2021 3723.00 3071.74 84.30 1.00 152.42 2680.40
   22:24:30.329.27-May-2021 3723.00 3071.17 84.30 1.00 152.62 2680.40
   22:24:30.529.27-May-2021 3723.00 3067.51 84.30 1.00 152.82 2680.40
   22:24:30.729.27-May-2021 3723.00 3067.12 84.30 1.00 153.02 2680.40
   22:24:30.930.27-May-2021 3723.00 3067.12 84.30 1.00 153.22 2680.40
   22:24:31.130.27-May-2021 3723.00 3065.76 84.30 1.00 153.42 2680.40
   22:24:31.330.27-May-2021 3723.00 3065.28 84.30 1.00 153.62 2680.40
   22:24:31.530.27-May-2021 3723.00 3066.48 84.30 1.00 153.83 2680.40
   22:24:31.730.27-May-2021 3723.00 3065.51 84.30 1.00 154.03 2680.40
   22:24:31.930.27-May-2021 3723.00 3065.51 84.30 1.00 154.23 2680.40
   22:24:32.130.27-May-2021 3723.00 3063.95 84.30 1.00 154.43 2680.40
   22:24:32.330.27-May-2021 3723.00 3065.06 84.30 1.00 154.63 2680.40
   22:24:32.530.27-May-2021 3723.00 3066.03 84.30 1.00 154.83 2680.40
   22:24:32.730.27-May-2021 3723.00 3069.17 84.30 1.00 155.03 2680.40
   22:24:32.930.27-May-2021 3723.00 3069.17 84.30 1.00 155.23 2680.40
   22:24:33.130.27-May-2021 3723.00 3061.92 84.30 1.00 155.43 2680.40
   22:24:33.330.27-May-2021 3723.00 3060.12 84.30 1.00 155.63 2680.40
   22:24:33.530.27-May-2021 3723.00 3057.97 84.30 1.00 155.83 2680.40
   22:24:33.730.27-May-2021 3723.00 3055.67 84.30 1.00 156.03 2680.40
   22:24:33.930.27-May-2021 3723.00 3055.67 84.30 1.00 156.23 2680.40
   22:24:34.130.27-May-2021 3723.00 3056.52 84.30 1.00 156.43 2680.40
   22:24:34.330.27-May-2021 3723.00 3055.81 84.30 1.00 156.63 2680.40
   22:24:34.530.27-May-2021 3723.00 3052.34 84.30 1.00 156.83 2680.40
   22:24:34.730.27-May-2021 3723.00 3051.82 84.30 1.00 157.03 2680.40
   22:24:34.930.27-May-2021 3723.00 3051.82 84.30 1.00 157.23 2680.40
   22:24:35.130.27-May-2021 3723.00 3049.59 84.30 1.00 157.43 2680.40
   22:24:35.330.27-May-2021 3723.00 3049.74 84.30 1.00 157.63 2680.40
   22:24:35.530.27-May-2021 3723.00 3051.39 84.30 1.00 157.83 2680.40
   22:24:35.730.27-May-2021 3723.00 3053.32 84.30 1.00 158.03 2680.40
   22:24:35.930.27-May-2021 3723.00 3053.32 84.30 1.00 158.23 2680.40
   22:24:36.130.27-May-2021 3723.00 3050.49 84.30 1.00 158.43 2680.40
   22:24:36.330.27-May-2021 3723.00 3046.95 84.30 1.00 158.63 2680.40
   22:24:36.530.27-May-2021 3723.00 3046.17 84.30 1.00 158.83 2680.40
   22:24:36.730.27-May-2021 3723.00 3044.84 84.30 1.00 159.03 2680.40
   22:24:36.931.27-May-2021 3723.00 3044.84 84.30 1.00 159.23 2680.40
   22:24:37.131.27-May-2021 3723.00 3048.88 84.30 1.00 159.43 2680.40
   22:24:37.331.27-May-2021 3723.00 3050.25 84.30 1.00 159.63 2680.40
   22:24:37.531.27-May-2021 3723.00 3045.32 84.30 1.00 159.83 2680.40
   22:24:37.731.27-May-2021 3723.00 3043.41 84.30 1.00 160.03 2680.40
   22:24:37.931.27-May-2021 3723.00 3043.41 84.30 1.00 160.23 2680.40
   22:24:38.131.27-May-2021 3723.00 3124.26 84.30 1.00 160.43 2680.40
   22:24:38.331.27-May-2021 3723.00 3140.33 84.30 1.00 160.63 2680.40
   22:24:38.531.27-May-2021 3723.00 3140.72 84.30 1.00 160.83 2680.40
