~Version Information
 VERS.                  2.0:   CWLS log ASCII Standard -VERSION 2.0
 WRAP.                   NO:   One line per depth step
~Well Information Block
#MNEM.UNIT     VALUE/NAME     DESCRIPTION
#---------     -----------    ---------------------------
 STRT.S             03:01:37 28-May-21: START TIME 03:01:37 28-May-21
 STOP.S             03:08:42 28-May-21: STOP TIME  03:08:42 28-May-21
 STEP.S                   0.00: STEP TIME
 NULL.                 -999.25: NULL VALUE
 UWI .                     N/A:  UNIQUE WELL IDENTIFIER
 API .                     N/A:  API NUMBER
 UNIT.                     N/A:  LOGGING EQUIPMENT ID
 DCON.         Sperry Drilling:  DIRECTNL CONTR
 DOE .                     N/A:  DOE NUMBER
 MWDS.                    Baku:  MWD SHOP
 SRVC.     Turan Drilling and Engineering:  CONTRACTOR
 CTRY.              Azerbaijan:  COUNTRY NAME
 PROV.                    Baku:  PROVINCE
 STAT.                    Baku:  STATE NAME
 REGN.                   EESSA:  REGION
 BASE.              Azerbaijan:  LOGGING EQUIPMENT BASE LOCATION
 WTYP.                Deviated:  WELL TYPE
 RIG .              East Azeri:  RIG NAME
 WELL.                    D02y:  WELL NAME
 FLD .                     ACG:  FIELD NAME
 COMP.     BP Exploration (Caspian Sea) Ltd.:  COMPANY
 PDAT.          Mean Sea Level:  PERMANENT DATUM
 MDS .        Operator Entered:  MAG DATA SOURCE
 SON .        AZ-XX-0906997291:  JOB NUMBER
 FTOP.          Formation Tops:  FORM TOPS DESC
 ILTD.               Lithology:  INTERP LTH DESC
 SVYD.                  Survey:  SURVEY DESC
 DMOD.             Drill Model:  DRILL MOD DESC
 HPTY.       Minimum Curvature:  HOLE POS TYPE
 NREF.                    Grid:  NORTH REFERENCE
 SPUD.               05-May-21:  SPUD DATE
 DATE.      09.27.28 12-Jun-21:  END TIME
 STIM.      09.27.28 12-May-21:  START TIME
 DMF .             Drill Floor:  DRILL MEAS FROM
 DFST.                        :  DIST FSL TEXT
 DFWT.                        :  DIST FWL TEXT
 CNTY.                        :  COUNTY
 LOC .                        :  LOCATION
 LMF .             Drill Floor:  LOG MEASURED FROM
 DEP .m                2806.40:  DEPTH
 AGAP.m                  43.60:  AIR GAP
 VSNS.m                  -4.42:  VERT SEC N/S
 VSEW.m                  -7.31:  VERT SEC E/W
 APD .m                  43.60:  DEPTH ABOVE PD
 WDMS.m                 151.80:  WD ELEV
 EGL .m                   0.00:  GROUND ELEVATION
 EPD .m                   0.00:  ELEVATION
 AZTC.deg                 6.18:  AZM TOTAL CORR
 GRDC.deg                 0.29:  GRID CORRECTION
 MDEC.deg                 6.47:  MAGNETIC DECL
 MDIP.deg                59.50:  MAGNETIC DIP
 MFLD.nT              50350.00:  MAGNETIC FIELD
 GVFD.g                   1.00:  GRAVITY FIELD
 VSDR.deg               179.08:  VERT SEC DIRECT
 TDD .m                4300.00:  TOTAL DEPTH (DRILLER)
 SDEP.m                2800.00:  START DEPTH
 DFSL.m                   0.00:  DISTANCE FSL
 DFWL.m                   0.00:  DISTANCE FWL
 UTMY.m             4431871.34:  UTM Y
 UTMX.m              538762.90:  UTM X
 WHEW.m                  -7.31:  WELL HEAD E/W
 WHNS.m                  -4.42:  WELL HEAD N/S
 LONG.deg                51.45:  LONGITUDE
 LATI.deg                40.02:  LATITUDE
 TVDS.m                  43.60:  TVDSS CORRECTN
 EKB .m                  43.60:  KB ELEVATION
 EDF .m                  43.60:  DF ELEVATION
 TDL .m                 806.00:  TOTAL DEPTH (LOGGER)
 MAGU.                 1851231:  MAGUTM CHECKSUM
 VSC .                       0:  VS TO CLOSURE
~Parameter Information Block
#MNEM.UNIT       Value        Description
#---------     -----------    ---------------------------
 AV  .mps                 1.60:  Ann Velocity 
 AVMX.mps                 2.00:  Max Ann Veloc 
 AZIF.deg               140.24:  Azm, Final 
 BHAT.        Rotary Steerable:  BHA Type 
 BROT.°/30m               0.50:  Build Rotating 
 BS  .in                  8.50:  Bit Size 
 BTPL.psig              619.00:  Bit Press Loss 
 CABU.                     Yes:  Customer Abuse 
 CGEO.          Ilgar Gurbanov:  Customer Geo 
 COMM.                     dr:  Run Comments 1 
 TCS .hr                 85.88:  Time Ciculation Ended 
 CV  .mps                 3.30:  Crit Velocity 
 CVMX.mps                 3.50:  Max Crit Veloc 
 DD1 .           Hamid Axmedov:  Direct Drillr 1 
 DD2 .           Teymur Aliyev:  Direct Drillr 2 
 DDSV.               Geo-Pilot:  DD Service 
 DEFF.%                 100.00:  % Det Eff 
 DLRX.°/30m               0.00:  Dogleg Rot Max 
 DLSO.°/30m               1.80:  Dogleg Oriented 
 DLSX.°/30m               3.34:  Dogleg Str Max 
 DRET.      11.50.00 27-May-21:  Drill End Time 
 DRST.      21.13.00 24-May-21:  Drill Start Tim 
 DTIM.hr                 45.11:  Time Drilling 
 EDEP.m                4054.00:  End Depth 
 ENG1.         Almaz Almadatov:  Engineer 1 
 ENG2.           Amrah Tahirov:  Engineer 2 
 ENG3.      Bakhtiyar Jabbarli:  Engineer 3 
 ENG4.          Nazrin Asgarli:  Engineer 4 
 ETIM.      10.00.00 30-May-21:  End Time 
 FLOI.gpm               530.00:  Flow In 
 FLON.gpm               400.00:  Flow In Min 
 FLOS.cptm                0.00:  Fluid Loss 
 FLOX.gpm               560.00:  Flow In Max 
 DFT .        Mineral Oil Base:  Mud Type 
 FTRO.       Formation Presure:  FTWD Run Obj 
 HFLO.                      No:  High Flow 
 HPRE.                      No:  High Pressure 
 HTEM.                      No:  High Temp 
 HYDO.m                   1.80:  Hydro Offset 
 IFIN.deg                73.83:  Inc, Final 
 IMAX.deg                73.83:  Inc Max 
 IMIN.deg                57.86:  Inc Min 
 IMND.m                3259.27:  Inc Min Depth 
 IMXD.m                4045.58:  Inc Max Depth 
 JARR.                     Yes:  Jarring 
 LETM.      11.50.00 27-May-21:  Log End Time 
 LOST.hr                     0:  Lost Rig Time 
 LSTM.      21.13.00 24-May-21:  Log Start Time 
 MDCL.ppm             42500.00:  Mud Chlorides 
 MDES.     Inversion Oil/Synthetic:  Mud Desc 
 DFD .sg                  1.52:  Mud Density 
 MDMN.sg                  1.52:  Dens Mud Min 
 MDMX.sg                  1.52:  Dens Mud Max 
 MOIL.                      70:  Run Mud Oil % 
 MOWR.                   70:30:  Run Mud OWR 
 MSND.                     0.2:  Run Mud Sand % 
 MSOL.                      22:  Run Mud Solids% 
 DFV .spqt               77.00:  Mud Viscosity 
 MWOD.in                  6.75:  MWD Tool OD 
 MWSI.                      No:  Serv Intrp, MWD 
 OTIM.hr                151.01:  Time Operating 
 PCON.          Wear / Scratch:  Pad Condition 
 PMAX.psia            11296.93:  Press Op, Max 
 PV  .cP                 37.00:  Mud PV 
 RUN .                     500:  Run Number 
 ROPA.m/hr               25.00:  ROP Avg 
 ROPN.m/hr                9.00:  ROP Min 
 ROPX.m/hr               28.00:  ROP Max 
 RPMA.rpm               140.00:  RPM Surface Avg 
 RPMN.rpm                90.00:  RPM Surface Min 
 RPMX.rpm               140.00:  RPM Surface Max 
 RRUN.                    0500:  Rig Run Number 
 SAZI.deg               172.17:  Azm, Start 
 SDEP.m                3248.00:  Start Depth 
 SIDD.                      No:  Serv Intrp, DD 
 SINC.deg                57.86:  Inc, Start 
 SPPA.psig             5620.00:  SPP Avg 
 SPPN.psig             5190.00:  SPP Min 
 SPPX.psig             6050.00:  SPP Max 
 STIM.      16.00.00 23-May-21:  Start Time 
 SVCS.                 DD, MWD:  Services 
 SVER.                    9.20:  Sperry Version 
 TDAT.m                 806.00:  Tot Depth Attmp 
 TDDF.                      No:  Trip for DD 
 TDLG.m                 806.00:  Tot Depth Loggd 
 TFF .                      No:  Trip for Fail 
 TQAA.f-kp               12.00:  Torque Abs Avg 
 TQAN.f-kp                8.00:  Torque Abs Min 
 TQAX.f-kp               15.00:  Torque Abs Max 
 TRRT.°/30m               0.30:  Turn Rotating 
 MRT .                  EWR-M5:  Maximum Recorded Temperature 
 TTMX.degC               93.00:  Max Tool Temp 
 VS01.                90649155:  Virtual Str1 SN 
 VS02.                90642264:  Virtual Str2 SN 
 VS03.                90642266:  Virtual Str3 SN 
 VS04.                90642261:  Virtual Str4 SN 
 WBMN.klb                 0.00:  WOB Min 
 WITN.             Anar Khalil:  Customer Rep 
 WITN.           Murad Guliyev:  Customer Rep 2 
 WOBA.klb                13.00:  WOB Avg 
 WOBX.klb                25.00:  WOB Max 
 YP  .lhf2               32.00:  Yield Point 
~Curve Information Block
#MNEM.UNIT                 API CODE     Curve Description
#---------               -----------    ---------------------------
 TIME.HHMMSS            00 000 000 000:  GT Time & Date
 GTDEPTH.m              00 000 000 000:  GT Depth
 GTPQH.psia             00 000 000 000:  GT HR Quartz Pressure
 GTTQ.degC              00 000 000 000:  GT Quartz Temperature
 GTTN.NONE              00 000 000 000:  GT Test Number
 GTET.sec               00 000 000 000:  GT Elapsed Test Time
 GTTVD.m                00 000 000 000:  GT True Vertical Depth
#Other Information
#
#WARRANTY: Halliburton will use its best efforts to furnish customers with 
#accurate information and interpretations that are part of, and incident to, the services 
#provided.  However, Halliburton cannot and does not warrant the accuracy 
#or correctness of such information and interpretations.  Under no circumstances should any 
#such information or interpretation be relied upon as the sole basis for any drilling, 
#completion, production, or financial decision or any procedure involving any risk to the 
#safety of any drilling venture, drilling rig or its crew or any other third party.  The 
#Customer has full responsibility for all drilling, completion and production operation.  
#Halliburton makes no representations or warranties, either expressed or 
#implied, including, but not limited to, the implied warranties of merchantability or fitness 
#for a particular purpose, with respect to the services rendered.  In no event will 
#Halliburton be liable for failure to obtain any particular results or for 
#any damages, including, but not limited to, indirect, special or consequential damages, 
#resulting from the use of any information or interpretation provided by Halliburton.
#
~A           TIME           GTDEPTH  GTPQH  GTTQ  GTTN  GTET   GTTVD  
# ...
   03:02:00.000.28-May-2021 3537.00 6109.87 84.05 7.00  23.00 2609.82
   03:02:00.200.28-May-2021 3537.00 6109.87 84.05 7.00  23.20 2609.82
   03:02:00.400.28-May-2021 3537.00 6109.76 84.05 7.00  23.40 2609.82
   03:02:00.600.28-May-2021 3537.00 6115.88 84.05 7.00  23.60 2609.82
   03:02:00.800.28-May-2021 3537.00 6107.16 84.05 7.00  23.80 2609.82
   03:02:01.000.28-May-2021 3537.00 6110.21 84.05 7.00  24.00 2609.82
   03:02:01.200.28-May-2021 3537.00 6110.21 84.05 7.00  24.20 2609.82
   03:02:01.400.28-May-2021 3537.00 6109.56 84.05 7.00  24.40 2609.82
   03:02:01.600.28-May-2021 3537.00 6110.23 84.05 7.00  24.60 2609.82
   03:02:01.800.28-May-2021 3537.00 6110.09 84.04 7.00  24.80 2609.82
   03:02:02.000.28-May-2021 3537.00 6110.41 84.04 7.00  25.00 2609.82
   03:02:02.200.28-May-2021 3537.00 6110.41 84.04 7.00  25.20 2609.82
   03:02:02.400.28-May-2021 3537.00 6111.09 84.04 7.00  25.40 2609.82
   03:02:02.600.28-May-2021 3537.00 6111.04 84.04 7.00  25.60 2609.82
   03:02:02.800.28-May-2021 3537.00 6111.02 84.04 7.00  25.80 2609.82
   03:02:03.000.28-May-2021 3537.00 6110.85 84.04 7.00  26.00 2609.82
   03:02:03.200.28-May-2021 3537.00 6110.85 84.04 7.00  26.20 2609.82
   03:02:03.400.28-May-2021 3537.00 6117.32 84.04 7.00  26.40 2609.82
   03:02:03.600.28-May-2021 3537.00 6108.51 84.04 7.00  26.60 2609.82
   03:02:03.800.28-May-2021 3537.00 6111.46 84.04 7.00  26.80 2609.82
   03:02:04.000.28-May-2021 3537.00 6111.22 84.04 7.00  27.00 2609.82
   03:02:04.200.28-May-2021 3537.00 6111.22 84.04 7.00  27.20 2609.82
   03:02:04.400.28-May-2021 3537.00 6117.59 84.04 7.00  27.40 2609.82
   03:02:04.600.28-May-2021 3537.00 6108.54 84.04 7.00  27.60 2609.82
   03:02:04.800.28-May-2021 3537.00 6112.01 84.04 7.00  27.80 2609.82
   03:02:05.000.28-May-2021 3537.00 6112.18 84.04 7.00  28.00 2609.82
   03:02:05.200.28-May-2021 3537.00 6112.18 84.04 7.00  28.20 2609.82
   03:02:05.400.28-May-2021 3537.00 6114.08 84.04 7.00  28.40 2609.82
   03:02:05.600.28-May-2021 3537.00 6113.64 84.04 7.00  28.60 2609.82
   03:02:05.800.28-May-2021 3537.00 6111.81 84.04 7.00  28.80 2609.82
   03:02:06.000.28-May-2021 3537.00 6112.30 84.04 7.00  29.00 2609.82
   03:02:06.200.28-May-2021 3537.00 6112.30 84.04 7.00  29.20 2609.82
   03:02:06.400.28-May-2021 3537.00 6109.44 84.04 7.00  29.40 2609.82
   03:02:06.600.28-May-2021 3537.00 6112.58 84.04 7.00  29.60 2609.82
   03:02:06.800.28-May-2021 3537.00 6112.86 84.04 7.00  29.80 2609.82
   03:02:07.000.28-May-2021 3537.00 6111.97 84.04 7.00  30.00 2609.82
   03:02:07.200.28-May-2021 3537.00 6111.97 84.04 7.00  30.20 2609.82
   03:02:07.400.28-May-2021 3537.00 6112.60 84.04 7.00  30.40 2609.82
   03:02:07.600.28-May-2021 3537.00 6112.97 84.04 7.00  30.60 2609.82
   03:02:07.800.28-May-2021 3537.00 6113.31 84.04 7.00  30.80 2609.82
   03:02:08.000.28-May-2021 3537.00 6113.54 84.04 7.00  31.00 2609.82
   03:02:08.200.28-May-2021 3537.00 6113.54 84.04 7.00  31.20 2609.82
   03:02:08.400.28-May-2021 3537.00 6113.26 84.04 7.00  31.40 2609.82
   03:02:08.600.28-May-2021 3537.00 6113.10 84.04 7.00  31.60 2609.82
   03:02:08.800.28-May-2021 3537.00 6117.46 84.04 7.00  31.80 2609.82
   03:02:09.000.28-May-2021 3537.00 6112.63 84.04 7.00  32.00 2609.82
   03:02:09.200.28-May-2021 3537.00 6112.63 84.04 7.00  32.20 2609.82
   03:02:09.400.28-May-2021 3537.00 6113.60 84.03 7.00  32.40 2609.82
   03:02:09.600.28-May-2021 3537.00 6113.05 84.03 7.00  32.60 2609.82
   03:02:09.800.28-May-2021 3537.00 6113.47 84.03 7.00  32.80 2609.82
   03:02:10.000.28-May-2021 3537.00 6113.41 84.03 7.00  33.00 2609.82
   03:02:10.200.28-May-2021 3537.00 6113.41 84.03 7.00  33.20 2609.82
   03:02:10.400.28-May-2021 3537.00 6114.15 84.03 7.00  33.40 2609.82
   03:02:10.600.28-May-2021 3537.00 6114.34 84.03 7.00  33.60 2609.82
   03:02:10.800.28-May-2021 3537.00 6114.30 84.03 7.00  33.80 2609.82
   03:02:11.000.28-May-2021 3537.00 6114.15 84.03 7.00  34.00 2609.82
   03:02:11.200.28-May-2021 3537.00 6114.15 84.03 7.00  34.20 2609.82
   03:02:11.400.28-May-2021 3537.00 6113.94 84.03 7.00  34.40 2609.82
   03:02:11.600.28-May-2021 3537.00 6118.50 84.03 7.00  34.60 2609.82
   03:02:11.800.28-May-2021 3537.00 6113.52 84.03 7.00  34.80 2609.82
   03:02:12.000.28-May-2021 3537.00 6114.22 84.03 7.00  35.00 2609.82
   03:02:12.200.28-May-2021 3537.00 6114.22 84.03 7.00  35.20 2609.82
   03:02:12.400.28-May-2021 3537.00 6113.68 84.03 7.00  35.40 2609.82
   03:02:12.600.28-May-2021 3537.00 6120.59 84.03 7.00  35.60 2609.82
   03:02:12.800.28-May-2021 3537.00 6111.76 84.03 7.00  35.80 2609.82
   03:02:13.000.28-May-2021 3537.00 6114.94 84.03 7.00  36.00 2609.82
   03:02:13.200.28-May-2021 3537.00 6114.94 84.03 7.00  36.20 2609.82
   03:02:13.400.28-May-2021 3537.00 6114.43 84.03 7.00  36.40 2609.82
   03:02:13.600.28-May-2021 3537.00 6114.89 84.03 7.00  36.60 2609.82
   03:02:13.800.28-May-2021 3537.00 6118.91 84.03 7.00  36.80 2609.82
   03:02:14.000.28-May-2021 3537.00 6113.96 84.03 7.00  37.00 2609.82
   03:02:14.200.28-May-2021 3537.00 6113.96 84.03 7.00  37.20 2609.82
   03:02:14.400.28-May-2021 3537.00 6120.02 84.03 7.00  37.40 2609.82
   03:02:14.600.28-May-2021 3537.00 6113.99 84.03 7.00  37.60 2609.82
   03:02:14.800.28-May-2021 3537.00 6115.31 84.03 7.00  37.80 2609.82
   03:02:15.000.28-May-2021 3537.00 6115.38 84.03 7.00  38.00 2609.82
   03:02:15.200.28-May-2021 3537.00 6115.38 84.03 7.00  38.20 2609.82
   03:02:15.400.28-May-2021 3537.00 6115.90 84.03 7.00  38.40 2609.82
   03:02:15.600.28-May-2021 3537.00 6115.64 84.03 7.00  38.60 2609.82
   03:02:15.800.28-May-2021 3537.00 6115.66 84.03 7.00  38.80 2609.82
   03:02:16.000.28-May-2021 3537.00 6116.38 84.03 7.00  39.00 2609.82
   03:02:16.200.28-May-2021 3537.00 6116.38 84.03 7.00  39.20 2609.82
   03:02:16.400.28-May-2021 3537.00 6116.04 84.03 7.00  39.40 2609.82
   03:02:16.600.28-May-2021 3537.00 6115.89 84.03 7.00  39.60 2609.82
   03:02:16.800.28-May-2021 3537.00 6115.67 84.03 7.00  39.80 2609.82
   03:02:17.000.28-May-2021 3537.00 6115.55 84.03 7.00  40.00 2609.82
   03:02:17.200.28-May-2021 3537.00 6115.55 84.03 7.00  40.20 2609.82
   03:02:17.400.28-May-2021 3537.00 6113.17 84.03 7.00  40.40 2609.82
   03:02:17.600.28-May-2021 3537.00 6116.26 84.02 7.00  40.60 2609.82
   03:02:17.800.28-May-2021 3537.00 6116.27 84.02 7.00  40.80 2609.82
   03:02:18.000.28-May-2021 3537.00 6115.47 84.02 7.00  41.00 2609.82
   03:02:18.200.28-May-2021 3537.00 6115.47 84.02 7.00  41.20 2609.82
   03:02:18.400.28-May-2021 3537.00 5922.43 84.02 7.00  41.40 2609.82
   03:02:18.600.28-May-2021 3537.00 5903.79 84.02 7.00  41.60 2609.82
   03:02:18.800.28-May-2021 3537.00 6095.99 84.02 7.00  41.80 2609.82
   03:02:19.000.28-May-2021 3537.00 6390.52 84.02 7.00  42.00 2609.82
   03:02:19.200.28-May-2021 3537.00 6390.52 84.02 7.00  42.20 2609.82
   03:02:19.400.28-May-2021 3537.00 6561.37 84.02 7.00  42.40 2609.82
   03:02:19.600.28-May-2021 3537.00 6574.63 84.02 7.00  42.60 2609.82
   03:02:19.800.28-May-2021 3537.00 6609.35 84.02 7.00  42.80 2609.82
   03:02:20.000.28-May-2021 3537.00 6634.88 84.02 7.00  43.00 2609.82
   03:02:20.200.28-May-2021 3537.00 6634.88 84.02 7.00  43.20 2609.82
   03:02:20.400.28-May-2021 3537.00 6662.97 84.02 7.00  43.40 2609.82
   03:02:20.600.28-May-2021 3537.00 6692.13 84.02 7.00  43.60 2609.82
   03:02:20.800.28-May-2021 3537.00 6720.00 84.02 7.00  43.80 2609.82
   03:02:21.000.28-May-2021 3537.00 6732.06 84.02 7.00  44.00 2609.82
   03:02:21.200.28-May-2021 3537.00 6732.06 84.02 7.00  44.20 2609.82
   03:02:21.400.28-May-2021 3537.00 6665.10 84.02 7.00  44.40 2609.82
   03:02:21.600.28-May-2021 3537.00 6696.54 84.02 7.00  44.60 2609.82
   03:02:21.800.28-May-2021 3537.00 6705.18 84.02 7.00  44.80 2609.82
   03:02:22.000.28-May-2021 3537.00 6707.86 84.02 7.00  45.00 2609.82
   03:02:22.200.28-May-2021 3537.00 6707.86 84.02 7.00  45.20 2609.82
   03:02:22.400.28-May-2021 3537.00 6708.03 84.02 7.00  45.40 2609.82
   03:02:22.600.28-May-2021 3537.00 6707.33 84.02 7.00  45.60 2609.82
   03:02:22.800.28-May-2021 3537.00 6710.53 84.02 7.00  45.80 2609.82
