~Version Information
 VERS.                  2.0:   CWLS log ASCII Standard -VERSION 2.0
 WRAP.                   NO:   One line per depth step
~Well Information Block
#MNEM.UNIT     VALUE/NAME     DESCRIPTION
#---------     -----------    ---------------------------
 STRT.S             09:05:41 28-May-21: START TIME 09:05:41 28-May-21
 STOP.S             09:12:44 28-May-21: STOP TIME  09:12:44 28-May-21
 STEP.S                   0.00: STEP TIME
 NULL.                 -999.25: NULL VALUE
 UWI .                     N/A:  UNIQUE WELL IDENTIFIER
 API .                     N/A:  API NUMBER
 UNIT.                     N/A:  LOGGING EQUIPMENT ID
 DCON.         Sperry Drilling:  DIRECTNL CONTR
 DOE .                     N/A:  DOE NUMBER
 MWDS.                    Baku:  MWD SHOP
 SRVC.     Turan Drilling and Engineering:  CONTRACTOR
 CTRY.              Azerbaijan:  COUNTRY NAME
 PROV.                    Baku:  PROVINCE
 STAT.                    Baku:  STATE NAME
 REGN.                   EESSA:  REGION
 BASE.              Azerbaijan:  LOGGING EQUIPMENT BASE LOCATION
 WTYP.                Deviated:  WELL TYPE
 RIG .              East Azeri:  RIG NAME
 WELL.                    D02y:  WELL NAME
 FLD .                     ACG:  FIELD NAME
 COMP.     BP Exploration (Caspian Sea) Ltd.:  COMPANY
 PDAT.          Mean Sea Level:  PERMANENT DATUM
 MDS .        Operator Entered:  MAG DATA SOURCE
 SON .        AZ-XX-0906997291:  JOB NUMBER
 FTOP.          Formation Tops:  FORM TOPS DESC
 ILTD.               Lithology:  INTERP LTH DESC
 SVYD.                  Survey:  SURVEY DESC
 DMOD.             Drill Model:  DRILL MOD DESC
 HPTY.       Minimum Curvature:  HOLE POS TYPE
 NREF.                    Grid:  NORTH REFERENCE
 SPUD.               05-May-21:  SPUD DATE
 DATE.      09.27.28 12-Jun-21:  END TIME
 STIM.      09.27.28 12-May-21:  START TIME
 DMF .             Drill Floor:  DRILL MEAS FROM
 DFST.                        :  DIST FSL TEXT
 DFWT.                        :  DIST FWL TEXT
 CNTY.                        :  COUNTY
 LOC .                        :  LOCATION
 LMF .             Drill Floor:  LOG MEASURED FROM
 DEP .m                2806.40:  DEPTH
 AGAP.m                  43.60:  AIR GAP
 VSNS.m                  -4.42:  VERT SEC N/S
 VSEW.m                  -7.31:  VERT SEC E/W
 APD .m                  43.60:  DEPTH ABOVE PD
 WDMS.m                 151.80:  WD ELEV
 EGL .m                   0.00:  GROUND ELEVATION
 EPD .m                   0.00:  ELEVATION
 AZTC.deg                 6.18:  AZM TOTAL CORR
 GRDC.deg                 0.29:  GRID CORRECTION
 MDEC.deg                 6.47:  MAGNETIC DECL
 MDIP.deg                59.50:  MAGNETIC DIP
 MFLD.nT              50350.00:  MAGNETIC FIELD
 GVFD.g                   1.00:  GRAVITY FIELD
 VSDR.deg               179.08:  VERT SEC DIRECT
 TDD .m                4300.00:  TOTAL DEPTH (DRILLER)
 SDEP.m                2800.00:  START DEPTH
 DFSL.m                   0.00:  DISTANCE FSL
 DFWL.m                   0.00:  DISTANCE FWL
 UTMY.m             4431871.34:  UTM Y
 UTMX.m              538762.90:  UTM X
 WHEW.m                  -7.31:  WELL HEAD E/W
 WHNS.m                  -4.42:  WELL HEAD N/S
 LONG.deg                51.45:  LONGITUDE
 LATI.deg                40.02:  LATITUDE
 TVDS.m                  43.60:  TVDSS CORRECTN
 EKB .m                  43.60:  KB ELEVATION
 EDF .m                  43.60:  DF ELEVATION
 TDL .m                 806.00:  TOTAL DEPTH (LOGGER)
 MAGU.                 1851231:  MAGUTM CHECKSUM
 VSC .                       0:  VS TO CLOSURE
~Parameter Information Block
#MNEM.UNIT       Value        Description
#---------     -----------    ---------------------------
 AV  .mps                 1.60:  Ann Velocity 
 AVMX.mps                 2.00:  Max Ann Veloc 
 AZIF.deg               140.24:  Azm, Final 
 BHAT.        Rotary Steerable:  BHA Type 
 BROT.°/30m               0.50:  Build Rotating 
 BS  .in                  8.50:  Bit Size 
 BTPL.psig              619.00:  Bit Press Loss 
 CABU.                     Yes:  Customer Abuse 
 CGEO.          Ilgar Gurbanov:  Customer Geo 
 COMM.                     ÜøQ:  Run Comments 1 
 TCS .hr                 85.88:  Time Ciculation Ended 
 CV  .mps                 3.30:  Crit Velocity 
 CVMX.mps                 3.50:  Max Crit Veloc 
 DD1 .           Hamid Axmedov:  Direct Drillr 1 
 DD2 .           Teymur Aliyev:  Direct Drillr 2 
 DDSV.               Geo-Pilot:  DD Service 
 DEFF.%                 100.00:  % Det Eff 
 DLRX.°/30m               0.00:  Dogleg Rot Max 
 DLSO.°/30m               1.80:  Dogleg Oriented 
 DLSX.°/30m               3.34:  Dogleg Str Max 
 DRET.      11.50.00 27-May-21:  Drill End Time 
 DRST.      21.13.00 24-May-21:  Drill Start Tim 
 DTIM.hr                 45.11:  Time Drilling 
 EDEP.m                4054.00:  End Depth 
 ENG1.         Almaz Almadatov:  Engineer 1 
 ENG2.           Amrah Tahirov:  Engineer 2 
 ENG3.      Bakhtiyar Jabbarli:  Engineer 3 
 ENG4.          Nazrin Asgarli:  Engineer 4 
 ETIM.      10.00.00 30-May-21:  End Time 
 FLOI.gpm               530.00:  Flow In 
 FLON.gpm               400.00:  Flow In Min 
 FLOS.cptm                0.00:  Fluid Loss 
 FLOX.gpm               560.00:  Flow In Max 
 DFT .        Mineral Oil Base:  Mud Type 
 FTRO.       Formation Presure:  FTWD Run Obj 
 HFLO.                      No:  High Flow 
 HPRE.                      No:  High Pressure 
 HTEM.                      No:  High Temp 
 HYDO.m                   1.80:  Hydro Offset 
 IFIN.deg                73.83:  Inc, Final 
 IMAX.deg                73.83:  Inc Max 
 IMIN.deg                57.86:  Inc Min 
 IMND.m                3259.27:  Inc Min Depth 
 IMXD.m                4045.58:  Inc Max Depth 
 JARR.                     Yes:  Jarring 
 LETM.      11.50.00 27-May-21:  Log End Time 
 LOST.hr                     0:  Lost Rig Time 
 LSTM.      21.13.00 24-May-21:  Log Start Time 
 MDCL.ppm             42500.00:  Mud Chlorides 
 MDES.     Inversion Oil/Synthetic:  Mud Desc 
 DFD .sg                  1.52:  Mud Density 
 MDMN.sg                  1.52:  Dens Mud Min 
 MDMX.sg                  1.52:  Dens Mud Max 
 MOIL.                      70:  Run Mud Oil % 
 MOWR.                   70:30:  Run Mud OWR 
 MSND.                     0.2:  Run Mud Sand % 
 MSOL.                      22:  Run Mud Solids% 
 DFV .spqt               77.00:  Mud Viscosity 
 MWOD.in                  6.75:  MWD Tool OD 
 MWSI.                      No:  Serv Intrp, MWD 
 OTIM.hr                151.01:  Time Operating 
 PCON.          Wear / Scratch:  Pad Condition 
 PMAX.psia            11296.93:  Press Op, Max 
 PV  .cP                 37.00:  Mud PV 
 RUN .                     500:  Run Number 
 ROPA.m/hr               25.00:  ROP Avg 
 ROPN.m/hr                9.00:  ROP Min 
 ROPX.m/hr               28.00:  ROP Max 
 RPMA.rpm               140.00:  RPM Surface Avg 
 RPMN.rpm                90.00:  RPM Surface Min 
 RPMX.rpm               140.00:  RPM Surface Max 
 RRUN.                    0500:  Rig Run Number 
 SAZI.deg               172.17:  Azm, Start 
 SDEP.m                3248.00:  Start Depth 
 SIDD.                      No:  Serv Intrp, DD 
 SINC.deg                57.86:  Inc, Start 
 SPPA.psig             5620.00:  SPP Avg 
 SPPN.psig             5190.00:  SPP Min 
 SPPX.psig             6050.00:  SPP Max 
 STIM.      16.00.00 23-May-21:  Start Time 
 SVCS.                 DD, MWD:  Services 
 SVER.                    9.20:  Sperry Version 
 TDAT.m                 806.00:  Tot Depth Attmp 
 TDDF.                      No:  Trip for DD 
 TDLG.m                 806.00:  Tot Depth Loggd 
 TFF .                      No:  Trip for Fail 
 TQAA.f-kp               12.00:  Torque Abs Avg 
 TQAN.f-kp                8.00:  Torque Abs Min 
 TQAX.f-kp               15.00:  Torque Abs Max 
 TRRT.°/30m               0.30:  Turn Rotating 
 MRT .                  EWR-M5:  Maximum Recorded Temperature 
 TTMX.degC               93.00:  Max Tool Temp 
 VS01.                90649155:  Virtual Str1 SN 
 VS02.                90642264:  Virtual Str2 SN 
 VS03.                90642266:  Virtual Str3 SN 
 VS04.                90642261:  Virtual Str4 SN 
 WBMN.klb                 0.00:  WOB Min 
 WITN.             Anar Khalil:  Customer Rep 
 WITN.           Murad Guliyev:  Customer Rep 2 
 WOBA.klb                13.00:  WOB Avg 
 WOBX.klb                25.00:  WOB Max 
 YP  .lhf2               32.00:  Yield Point 
~Curve Information Block
#MNEM.UNIT                 API CODE     Curve Description
#---------               -----------    ---------------------------
 TIME.HHMMSS            00 000 000 000:  GT Time & Date
 GTDEPTH.m              00 000 000 000:  GT Depth
 GTPQH.psia             00 000 000 000:  GT HR Quartz Pressure
 GTTQ.degC              00 000 000 000:  GT Quartz Temperature
 GTTN.NONE              00 000 000 000:  GT Test Number
 GTET.sec               00 000 000 000:  GT Elapsed Test Time
 GTTVD.m                00 000 000 000:  GT True Vertical Depth
#Other Information
#
#WARRANTY: Halliburton will use its best efforts to furnish customers with 
#accurate information and interpretations that are part of, and incident to, the services 
#provided.  However, Halliburton cannot and does not warrant the accuracy 
#or correctness of such information and interpretations.  Under no circumstances should any 
#such information or interpretation be relied upon as the sole basis for any drilling, 
#completion, production, or financial decision or any procedure involving any risk to the 
#safety of any drilling venture, drilling rig or its crew or any other third party.  The 
#Customer has full responsibility for all drilling, completion and production operation.  
#Halliburton makes no representations or warranties, either expressed or 
#implied, including, but not limited to, the implied warranties of merchantability or fitness 
#for a particular purpose, with respect to the services rendered.  In no event will 
#Halliburton be liable for failure to obtain any particular results or for 
#any damages, including, but not limited to, indirect, special or consequential damages, 
#resulting from the use of any information or interpretation provided by Halliburton.
#
~A           TIME           GTDEPTH  GTPQH  GTTQ  GTTN   GTET   GTTVD  
# ...
   09:09:27.150.28-May-2021 3286.00 4017.76 82.16 15.00 226.03 2493.81
   09:09:27.351.28-May-2021 3286.00 4017.76 82.16 15.00 226.23 2493.81
   09:09:27.551.28-May-2021 3286.00 4017.77 82.16 15.00 226.43 2493.81
   09:09:27.751.28-May-2021 3286.00 4016.78 82.16 15.00 226.63 2493.81
   09:09:27.951.28-May-2021 3286.00 4018.36 82.16 15.00 226.83 2493.81
   09:09:28.151.28-May-2021 3286.00 4017.88 82.16 15.00 227.03 2493.81
   09:09:28.351.28-May-2021 3286.00 4017.88 82.16 15.00 227.23 2493.81
   09:09:28.551.28-May-2021 3286.00 4017.80 82.16 15.00 227.43 2493.81
   09:09:28.751.28-May-2021 3286.00 4017.80 82.16 15.00 227.63 2493.81
   09:09:28.951.28-May-2021 3286.00 4017.79 82.16 15.00 227.83 2493.81
   09:09:29.151.28-May-2021 3286.00 4017.79 82.16 15.00 228.03 2493.81
   09:09:29.351.28-May-2021 3286.00 4017.79 82.16 15.00 228.23 2493.81
   09:09:29.551.28-May-2021 3286.00 4017.78 82.16 15.00 228.43 2493.81
   09:09:29.751.28-May-2021 3286.00 4017.76 82.16 15.00 228.63 2493.81
   09:09:29.951.28-May-2021 3286.00 4017.76 82.16 15.00 228.83 2493.81
   09:09:30.151.28-May-2021 3286.00 4017.75 82.16 15.00 229.03 2493.81
   09:09:30.351.28-May-2021 3286.00 4017.75 82.16 15.00 229.23 2493.81
   09:09:30.551.28-May-2021 3286.00 4018.12 82.16 15.00 229.43 2493.81
   09:09:30.751.28-May-2021 3286.00 4017.89 82.16 15.00 229.63 2493.81
   09:09:30.951.28-May-2021 3286.00 4017.85 82.16 15.00 229.83 2493.81
   09:09:31.151.28-May-2021 3286.00 4017.80 82.16 15.00 230.03 2493.81
   09:09:31.351.28-May-2021 3286.00 4017.80 82.16 15.00 230.23 2493.81
   09:09:31.551.28-May-2021 3286.00 4017.80 82.16 15.00 230.43 2493.81
   09:09:31.751.28-May-2021 3286.00 4017.99 82.16 15.00 230.63 2493.81
   09:09:31.951.28-May-2021 3286.00 4017.84 82.16 15.00 230.83 2493.81
   09:09:32.151.28-May-2021 3286.00 4017.84 82.16 15.00 231.03 2493.81
   09:09:32.351.28-May-2021 3286.00 4017.84 82.16 15.00 231.23 2493.81
   09:09:32.551.28-May-2021 3286.00 4017.97 82.16 15.00 231.43 2493.81
   09:09:32.751.28-May-2021 3286.00 4017.84 82.16 15.00 231.63 2493.81
   09:09:32.951.28-May-2021 3286.00 4017.83 82.16 15.00 231.83 2493.81
   09:09:33.151.28-May-2021 3286.00 4017.80 82.16 15.00 232.03 2493.81
   09:09:33.351.28-May-2021 3286.00 4017.80 82.16 15.00 232.23 2493.81
   09:09:33.551.28-May-2021 3286.00 4018.00 82.16 15.00 232.43 2493.81
   09:09:33.751.28-May-2021 3286.00 4017.85 82.16 15.00 232.63 2493.81
   09:09:33.951.28-May-2021 3286.00 4017.83 82.16 15.00 232.83 2493.81
   09:09:34.151.28-May-2021 3286.00 4017.82 82.16 15.00 233.03 2493.81
   09:09:34.351.28-May-2021 3286.00 4017.82 82.16 15.00 233.23 2493.81
   09:09:34.551.28-May-2021 3286.00 4017.79 82.16 15.00 233.43 2493.81
   09:09:34.752.28-May-2021 3286.00 4017.80 82.16 15.00 233.63 2493.81
   09:09:34.952.28-May-2021 3286.00 4017.77 82.16 15.00 233.83 2493.81
   09:09:35.152.28-May-2021 3286.00 4017.78 82.16 15.00 234.03 2493.81
   09:09:35.352.28-May-2021 3286.00 4017.78 82.16 15.00 234.23 2493.81
   09:09:35.552.28-May-2021 3286.00 4017.78 82.16 15.00 234.43 2493.81
   09:09:35.752.28-May-2021 3286.00 4017.75 82.16 15.00 234.63 2493.81
   09:09:35.952.28-May-2021 3286.00 4016.94 82.16 15.00 234.83 2493.81
   09:09:36.152.28-May-2021 3286.00 4018.25 82.16 15.00 235.03 2493.81
   09:09:36.352.28-May-2021 3286.00 4018.25 82.16 15.00 235.23 2493.81
   09:09:36.552.28-May-2021 3286.00 4017.86 82.16 15.00 235.43 2493.81
   09:09:36.752.28-May-2021 3286.00 4017.79 82.16 15.00 235.63 2493.81
   09:09:36.952.28-May-2021 3286.00 4017.79 82.15 15.00 235.83 2493.81
   09:09:37.152.28-May-2021 3286.00 4017.79 82.15 15.00 236.03 2493.81
   09:09:37.352.28-May-2021 3286.00 4017.79 82.15 15.00 236.23 2493.81
   09:09:37.552.28-May-2021 3286.00 4017.78 82.15 15.00 236.43 2493.81
   09:09:37.752.28-May-2021 3286.00 4017.76 82.15 15.00 236.63 2493.81
   09:09:37.952.28-May-2021 3286.00 4017.76 82.15 15.00 236.83 2493.81
   09:09:38.152.28-May-2021 3286.00 4017.76 82.15 15.00 237.03 2493.81
   09:09:38.352.28-May-2021 3286.00 4017.76 82.15 15.00 237.23 2493.81
   09:09:38.552.28-May-2021 3286.00 4016.77 82.15 15.00 237.43 2493.81
   09:09:38.752.28-May-2021 3286.00 4018.36 82.15 15.00 237.63 2493.81
   09:09:38.952.28-May-2021 3286.00 4017.88 82.15 15.00 237.83 2493.81
   09:09:39.152.28-May-2021 3286.00 4017.85 82.15 15.00 238.03 2493.81
   09:09:39.352.28-May-2021 3286.00 4017.85 82.15 15.00 238.23 2493.81
   09:09:39.552.28-May-2021 3286.00 4017.78 82.15 15.00 238.43 2493.81
   09:09:39.752.28-May-2021 3286.00 4017.64 82.15 15.00 238.63 2493.81
   09:09:39.952.28-May-2021 3286.00 4017.97 82.15 15.00 238.83 2493.81
   09:09:40.152.28-May-2021 3286.00 4017.82 82.15 15.00 239.03 2493.81
   09:09:40.352.28-May-2021 3286.00 4017.82 82.15 15.00 239.23 2493.81
   09:09:40.552.28-May-2021 3286.00 4017.65 82.15 15.00 239.43 2493.81
   09:09:40.752.28-May-2021 3286.00 4017.95 82.15 15.00 239.63 2493.81
   09:09:40.952.28-May-2021 3286.00 4017.83 82.15 15.00 239.83 2493.81
   09:09:41.152.28-May-2021 3286.00 4017.85 82.15 15.00 240.03 2493.81
   09:09:41.352.28-May-2021 3286.00 4017.85 82.15 15.00 240.23 2493.81
   09:09:41.552.28-May-2021 3286.00 4017.63 82.15 15.00 240.43 2493.81
   09:09:41.752.28-May-2021 3286.00 4017.95 82.15 15.00 240.63 2493.81
   09:09:41.952.28-May-2021 3286.00 4017.81 82.15 15.00 240.83 2493.81
   09:09:42.153.28-May-2021 3286.00 4017.84 82.15 15.00 241.03 2493.81
   09:09:42.353.28-May-2021 3286.00 4017.84 82.15 15.00 241.23 2493.81
   09:09:42.553.28-May-2021 3286.00 4017.78 82.15 15.00 241.43 2493.81
   09:09:42.753.28-May-2021 3286.00 4017.78 82.15 15.00 241.63 2493.81
   09:09:42.953.28-May-2021 3286.00 4017.78 82.15 15.00 241.83 2493.81
   09:09:43.153.28-May-2021 3286.00 4017.76 82.15 15.00 242.03 2493.81
   09:09:43.353.28-May-2021 3286.00 4017.76 82.15 15.00 242.23 2493.81
   09:09:43.553.28-May-2021 3286.00 4017.76 82.15 15.00 242.43 2493.81
   09:09:43.753.28-May-2021 3286.00 4017.76 82.15 15.00 242.63 2493.81
   09:09:43.953.28-May-2021 3286.00 4017.75 82.15 15.00 242.83 2493.81
   09:09:44.153.28-May-2021 3286.00 4017.24 82.15 15.00 243.03 2493.81
   09:09:44.353.28-May-2021 3286.00 4017.24 82.15 15.00 243.23 2493.81
   09:09:44.553.28-May-2021 3286.00 4017.85 82.15 15.00 243.43 2493.81
   09:09:44.753.28-May-2021 3286.00 4017.83 82.15 15.00 243.63 2493.81
   09:09:44.953.28-May-2021 3286.00 4017.80 82.15 15.00 243.83 2493.81
   09:09:45.153.28-May-2021 3286.00 4017.78 82.15 15.00 244.03 2493.81
   09:09:45.353.28-May-2021 3286.00 4017.78 82.15 15.00 244.23 2493.81
   09:09:45.553.28-May-2021 3286.00 4017.77 82.15 15.00 244.43 2493.81
   09:09:45.753.28-May-2021 3286.00 4017.76 82.15 15.00 244.63 2493.81
   09:09:45.953.28-May-2021 3286.00 4017.77 82.15 15.00 244.83 2493.81
   09:09:46.153.28-May-2021 3286.00 4017.75 82.15 15.00 245.03 2493.81
   09:09:46.353.28-May-2021 3286.00 4017.75 82.15 15.00 245.23 2493.81
   09:09:46.553.28-May-2021 3286.00 4017.74 82.15 15.00 245.43 2493.81
   09:09:46.753.28-May-2021 3286.00 4016.94 82.15 15.00 245.63 2493.81
   09:09:46.953.28-May-2021 3286.00 4018.26 82.15 15.00 245.83 2493.81
   09:09:47.153.28-May-2021 3286.00 4017.87 82.15 15.00 246.03 2493.81
   09:09:47.353.28-May-2021 3286.00 4017.87 82.15 15.00 246.23 2493.81
   09:09:47.553.28-May-2021 3286.00 4017.84 82.15 15.00 246.43 2493.81
   09:09:47.753.28-May-2021 3286.00 4017.02 82.15 15.00 246.63 2493.81
   09:09:47.953.28-May-2021 3286.00 4018.15 82.15 15.00 246.83 2493.81
   09:09:48.153.28-May-2021 3286.00 4017.90 82.15 15.00 247.03 2493.81
   09:09:48.353.28-May-2021 3286.00 4017.90 82.15 15.00 247.23 2493.81
   09:09:48.553.28-May-2021 3286.00 4017.03 82.15 15.00 247.43 2493.81
   09:09:48.753.28-May-2021 3286.00 4018.15 82.15 15.00 247.63 2493.81
   09:09:48.953.28-May-2021 3286.00 4017.89 82.15 15.00 247.83 2493.81
   09:09:49.153.28-May-2021 3286.00 4017.85 82.15 15.00 248.03 2493.81
   09:09:49.353.28-May-2021 3286.00 4017.85 82.15 15.00 248.23 2493.81
   09:09:49.554.28-May-2021 3286.00 4017.03 82.15 15.00 248.43 2493.81
