~Version Information
 VERS.                  2.0:   CWLS log ASCII Standard -VERSION 2.0
 WRAP.                   NO:   One line per depth step
~Well Information Block
#MNEM.UNIT     VALUE/NAME     DESCRIPTION
#---------     -----------    ---------------------------
 STRT.S             23:03:24 27-May-21: START TIME 23:03:24 27-May-21
 STOP.S             23:10:28 27-May-21: STOP TIME  23:10:28 27-May-21
 STEP.S                   0.00: STEP TIME
 NULL.                 -999.25: NULL VALUE
 UWI .                     N/A:  UNIQUE WELL IDENTIFIER
 API .                     N/A:  API NUMBER
 UNIT.                     N/A:  LOGGING EQUIPMENT ID
 DCON.         Sperry Drilling:  DIRECTNL CONTR
 DOE .                     N/A:  DOE NUMBER
 MWDS.                    Baku:  MWD SHOP
 SRVC.     Turan Drilling and Engineering:  CONTRACTOR
 CTRY.              Azerbaijan:  COUNTRY NAME
 PROV.                    Baku:  PROVINCE
 STAT.                    Baku:  STATE NAME
 REGN.                   EESSA:  REGION
 BASE.              Azerbaijan:  LOGGING EQUIPMENT BASE LOCATION
 WTYP.                Deviated:  WELL TYPE
 RIG .              East Azeri:  RIG NAME
 WELL.                    D02y:  WELL NAME
 FLD .                     ACG:  FIELD NAME
 COMP.     BP Exploration (Caspian Sea) Ltd.:  COMPANY
 PDAT.          Mean Sea Level:  PERMANENT DATUM
 MDS .        Operator Entered:  MAG DATA SOURCE
 SON .        AZ-XX-0906997291:  JOB NUMBER
 FTOP.          Formation Tops:  FORM TOPS DESC
 ILTD.               Lithology:  INTERP LTH DESC
 SVYD.                  Survey:  SURVEY DESC
 DMOD.             Drill Model:  DRILL MOD DESC
 HPTY.       Minimum Curvature:  HOLE POS TYPE
 NREF.                    Grid:  NORTH REFERENCE
 SPUD.               05-May-21:  SPUD DATE
 DATE.      09.27.28 12-Jun-21:  END TIME
 STIM.      09.27.28 12-May-21:  START TIME
 DMF .             Drill Floor:  DRILL MEAS FROM
 DFST.                        :  DIST FSL TEXT
 DFWT.                        :  DIST FWL TEXT
 CNTY.                        :  COUNTY
 LOC .                        :  LOCATION
 LMF .             Drill Floor:  LOG MEASURED FROM
 DEP .m                2806.40:  DEPTH
 AGAP.m                  43.60:  AIR GAP
 VSNS.m                  -4.42:  VERT SEC N/S
 VSEW.m                  -7.31:  VERT SEC E/W
 APD .m                  43.60:  DEPTH ABOVE PD
 WDMS.m                 151.80:  WD ELEV
 EGL .m                   0.00:  GROUND ELEVATION
 EPD .m                   0.00:  ELEVATION
 AZTC.deg                 6.18:  AZM TOTAL CORR
 GRDC.deg                 0.29:  GRID CORRECTION
 MDEC.deg                 6.47:  MAGNETIC DECL
 MDIP.deg                59.50:  MAGNETIC DIP
 MFLD.nT              50350.00:  MAGNETIC FIELD
 GVFD.g                   1.00:  GRAVITY FIELD
 VSDR.deg               179.08:  VERT SEC DIRECT
 TDD .m                4300.00:  TOTAL DEPTH (DRILLER)
 SDEP.m                2800.00:  START DEPTH
 DFSL.m                   0.00:  DISTANCE FSL
 DFWL.m                   0.00:  DISTANCE FWL
 UTMY.m             4431871.34:  UTM Y
 UTMX.m              538762.90:  UTM X
 WHEW.m                  -7.31:  WELL HEAD E/W
 WHNS.m                  -4.42:  WELL HEAD N/S
 LONG.deg                51.45:  LONGITUDE
 LATI.deg                40.02:  LATITUDE
 TVDS.m                  43.60:  TVDSS CORRECTN
 EKB .m                  43.60:  KB ELEVATION
 EDF .m                  43.60:  DF ELEVATION
 TDL .m                 806.00:  TOTAL DEPTH (LOGGER)
 MAGU.                 1851231:  MAGUTM CHECKSUM
 VSC .                       0:  VS TO CLOSURE
~Parameter Information Block
#MNEM.UNIT       Value        Description
#---------     -----------    ---------------------------
 AV  .mps                 1.60:  Ann Velocity 
 AVMX.mps                 2.00:  Max Ann Veloc 
 AZIF.deg               140.24:  Azm, Final 
 BHAT.        Rotary Steerable:  BHA Type 
 BROT.°/30m               0.50:  Build Rotating 
 BS  .in                  8.50:  Bit Size 
 BTPL.psig              619.00:  Bit Press Loss 
 CABU.                     Yes:  Customer Abuse 
 CGEO.          Ilgar Gurbanov:  Customer Geo 
 COMM.                     |¡U:  Run Comments 1 
 TCS .hr                 85.88:  Time Ciculation Ended 
 CV  .mps                 3.30:  Crit Velocity 
 CVMX.mps                 3.50:  Max Crit Veloc 
 DD1 .           Hamid Axmedov:  Direct Drillr 1 
 DD2 .           Teymur Aliyev:  Direct Drillr 2 
 DDSV.               Geo-Pilot:  DD Service 
 DEFF.%                 100.00:  % Det Eff 
 DLRX.°/30m               0.00:  Dogleg Rot Max 
 DLSO.°/30m               1.80:  Dogleg Oriented 
 DLSX.°/30m               3.34:  Dogleg Str Max 
 DRET.      11.50.00 27-May-21:  Drill End Time 
 DRST.      21.13.00 24-May-21:  Drill Start Tim 
 DTIM.hr                 45.11:  Time Drilling 
 EDEP.m                4054.00:  End Depth 
 ENG1.         Almaz Almadatov:  Engineer 1 
 ENG2.           Amrah Tahirov:  Engineer 2 
 ENG3.      Bakhtiyar Jabbarli:  Engineer 3 
 ENG4.          Nazrin Asgarli:  Engineer 4 
 ETIM.      10.00.00 30-May-21:  End Time 
 FLOI.gpm               530.00:  Flow In 
 FLON.gpm               400.00:  Flow In Min 
 FLOS.cptm                0.00:  Fluid Loss 
 FLOX.gpm               560.00:  Flow In Max 
 DFT .        Mineral Oil Base:  Mud Type 
 FTRO.       Formation Presure:  FTWD Run Obj 
 HFLO.                      No:  High Flow 
 HPRE.                      No:  High Pressure 
 HTEM.                      No:  High Temp 
 HYDO.m                   1.80:  Hydro Offset 
 IFIN.deg                73.83:  Inc, Final 
 IMAX.deg                73.83:  Inc Max 
 IMIN.deg                57.86:  Inc Min 
 IMND.m                3259.27:  Inc Min Depth 
 IMXD.m                4045.58:  Inc Max Depth 
 JARR.                     Yes:  Jarring 
 LETM.      11.50.00 27-May-21:  Log End Time 
 LOST.hr                     0:  Lost Rig Time 
 LSTM.      21.13.00 24-May-21:  Log Start Time 
 MDCL.ppm             42500.00:  Mud Chlorides 
 MDES.     Inversion Oil/Synthetic:  Mud Desc 
 DFD .sg                  1.52:  Mud Density 
 MDMN.sg                  1.52:  Dens Mud Min 
 MDMX.sg                  1.52:  Dens Mud Max 
 MOIL.                      70:  Run Mud Oil % 
 MOWR.                   70:30:  Run Mud OWR 
 MSND.                     0.2:  Run Mud Sand % 
 MSOL.                      22:  Run Mud Solids% 
 DFV .spqt               77.00:  Mud Viscosity 
 MWOD.in                  6.75:  MWD Tool OD 
 MWSI.                      No:  Serv Intrp, MWD 
 OTIM.hr                151.01:  Time Operating 
 PCON.          Wear / Scratch:  Pad Condition 
 PMAX.psia            11296.93:  Press Op, Max 
 PV  .cP                 37.00:  Mud PV 
 RUN .                     500:  Run Number 
 ROPA.m/hr               25.00:  ROP Avg 
 ROPN.m/hr                9.00:  ROP Min 
 ROPX.m/hr               28.00:  ROP Max 
 RPMA.rpm               140.00:  RPM Surface Avg 
 RPMN.rpm                90.00:  RPM Surface Min 
 RPMX.rpm               140.00:  RPM Surface Max 
 RRUN.                    0500:  Rig Run Number 
 SAZI.deg               172.17:  Azm, Start 
 SDEP.m                3248.00:  Start Depth 
 SIDD.                      No:  Serv Intrp, DD 
 SINC.deg                57.86:  Inc, Start 
 SPPA.psig             5620.00:  SPP Avg 
 SPPN.psig             5190.00:  SPP Min 
 SPPX.psig             6050.00:  SPP Max 
 STIM.      16.00.00 23-May-21:  Start Time 
 SVCS.                 DD, MWD:  Services 
 SVER.                    9.20:  Sperry Version 
 TDAT.m                 806.00:  Tot Depth Attmp 
 TDDF.                      No:  Trip for DD 
 TDLG.m                 806.00:  Tot Depth Loggd 
 TFF .                      No:  Trip for Fail 
 TQAA.f-kp               12.00:  Torque Abs Avg 
 TQAN.f-kp                8.00:  Torque Abs Min 
 TQAX.f-kp               15.00:  Torque Abs Max 
 TRRT.°/30m               0.30:  Turn Rotating 
 MRT .                  EWR-M5:  Maximum Recorded Temperature 
 TTMX.degC               93.00:  Max Tool Temp 
 VS01.                90649155:  Virtual Str1 SN 
 VS02.                90642264:  Virtual Str2 SN 
 VS03.                90642266:  Virtual Str3 SN 
 VS04.                90642261:  Virtual Str4 SN 
 WBMN.klb                 0.00:  WOB Min 
 WITN.             Anar Khalil:  Customer Rep 
 WITN.           Murad Guliyev:  Customer Rep 2 
 WOBA.klb                13.00:  WOB Avg 
 WOBX.klb                25.00:  WOB Max 
 YP  .lhf2               32.00:  Yield Point 
~Curve Information Block
#MNEM.UNIT                 API CODE     Curve Description
#---------               -----------    ---------------------------
 TIME.HHMMSS            00 000 000 000:  GT Time & Date
 GTDEPTH.m              00 000 000 000:  GT Depth
 GTPQH.psia             00 000 000 000:  GT HR Quartz Pressure
 GTTQ.degC              00 000 000 000:  GT Quartz Temperature
 GTTN.NONE              00 000 000 000:  GT Test Number
 GTET.sec               00 000 000 000:  GT Elapsed Test Time
 GTTVD.m                00 000 000 000:  GT True Vertical Depth
#Other Information
#
#WARRANTY: Halliburton will use its best efforts to furnish customers with 
#accurate information and interpretations that are part of, and incident to, the services 
#provided.  However, Halliburton cannot and does not warrant the accuracy 
#or correctness of such information and interpretations.  Under no circumstances should any 
#such information or interpretation be relied upon as the sole basis for any drilling, 
#completion, production, or financial decision or any procedure involving any risk to the 
#safety of any drilling venture, drilling rig or its crew or any other third party.  The 
#Customer has full responsibility for all drilling, completion and production operation.  
#Halliburton makes no representations or warranties, either expressed or 
#implied, including, but not limited to, the implied warranties of merchantability or fitness 
#for a particular purpose, with respect to the services rendered.  In no event will 
#Halliburton be liable for failure to obtain any particular results or for 
#any damages, including, but not limited to, indirect, special or consequential damages, 
#resulting from the use of any information or interpretation provided by Halliburton.
#
~A           TIME           GTDEPTH  GTPQH  GTTQ  GTTN  GTET   GTTVD  
# ...
   23:09:32.407.27-May-2021 3710.50 3157.95 84.59 2.00 368.14 2675.83
   23:09:32.608.27-May-2021 3710.50 3157.95 84.59 2.00 368.34 2675.83
   23:09:32.808.27-May-2021 3710.50 6239.89 84.59 2.00 368.54 2675.83
   23:09:33.008.27-May-2021 3710.50 6237.44 84.59 2.00 368.74 2675.83
   23:09:33.208.27-May-2021 3710.50 6236.97 84.59 2.00 368.94 2675.83
   23:09:33.408.27-May-2021 3710.50 6236.48 84.60 2.00 369.14 2675.83
   23:09:33.608.27-May-2021 3710.50 6236.48 84.60 2.00 369.34 2675.83
   23:09:33.808.27-May-2021 3710.50 6238.26 84.60 2.00 369.54 2675.83
   23:09:34.008.27-May-2021 3710.50 6239.20 84.60 2.00 369.74 2675.83
   23:09:34.208.27-May-2021 3710.50 6239.82 84.60 2.00 369.94 2675.83
   23:09:34.408.27-May-2021 3710.50 6247.00 84.60 2.00 370.14 2675.83
   23:09:34.608.27-May-2021 3710.50 6247.00 84.60 2.00 370.34 2675.83
   23:09:34.808.27-May-2021 3710.50 6242.46 84.61 2.00 370.55 2675.83
   23:09:35.009.27-May-2021 3710.50 6242.45 84.61 2.00 370.75 2675.83
   23:09:35.209.27-May-2021 3710.50 6243.72 84.61 2.00 370.95 2675.83
   23:09:35.409.27-May-2021 3710.50 6242.98 84.61 2.00 371.15 2675.83
   23:09:35.609.27-May-2021 3710.50 6242.98 84.61 2.00 371.35 2675.83
   23:09:35.809.27-May-2021 3710.50 6243.49 84.62 2.00 371.55 2675.83
   23:09:36.009.27-May-2021 3710.50 6243.11 84.62 2.00 371.75 2675.83
   23:09:36.209.27-May-2021 3710.50 6243.86 84.62 2.00 371.95 2675.83
   23:09:36.409.27-May-2021 3710.50 6244.09 84.63 2.00 372.15 2675.83
   23:09:36.609.27-May-2021 3710.50 6244.09 84.63 2.00 372.35 2675.83
   23:09:36.809.27-May-2021 3710.50 6244.86 84.63 2.00 372.55 2675.83
   23:09:37.009.27-May-2021 3710.50 6251.37 84.63 2.00 372.75 2675.83
   23:09:37.209.27-May-2021 3710.50 6243.57 84.64 2.00 372.95 2675.83
   23:09:37.409.27-May-2021 3710.50 6245.85 84.64 2.00 373.15 2675.83
   23:09:37.610.27-May-2021 3710.50 6245.85 84.64 2.00 373.35 2675.83
   23:09:37.810.27-May-2021 3710.50 6246.84 84.64 2.00 373.55 2675.83
   23:09:38.010.27-May-2021 3710.50 6245.48 84.64 2.00 373.75 2675.83
   23:09:38.210.27-May-2021 3710.50 6245.10 84.65 2.00 373.95 2675.83
   23:09:38.410.27-May-2021 3710.50 6246.09 84.65 2.00 374.15 2675.83
   23:09:38.610.27-May-2021 3710.50 6246.09 84.65 2.00 374.35 2675.83
   23:09:38.810.27-May-2021 3710.50 6246.09 84.65 2.00 374.55 2675.83
   23:09:39.010.27-May-2021 3710.50 6245.55 84.65 2.00 374.75 2675.83
   23:09:39.210.27-May-2021 3710.50 6245.32 84.66 2.00 374.95 2675.83
   23:09:39.410.27-May-2021 3710.50 6246.48 84.66 2.00 375.15 2675.83
   23:09:39.610.27-May-2021 3710.50 6246.48 84.66 2.00 375.35 2675.83
   23:09:39.810.27-May-2021 3710.50 6251.56 84.66 2.00 375.55 2675.83
   23:09:40.010.27-May-2021 3710.50 6244.80 84.66 2.00 375.75 2675.83
   23:09:40.211.27-May-2021 3710.50 6245.89 84.66 2.00 375.95 2675.83
   23:09:40.411.27-May-2021 3710.50 6246.24 84.66 2.00 376.15 2675.83
   23:09:40.611.27-May-2021 3710.50 6246.24 84.66 2.00 376.35 2675.83
   23:09:40.811.27-May-2021 3710.50 6245.96 84.67 2.00 376.55 2675.83
   23:09:41.011.27-May-2021 3710.50 6245.45 84.67 2.00 376.75 2675.83
   23:09:41.211.27-May-2021 3710.50 6245.86 84.67 2.00 376.95 2675.83
   23:09:41.411.27-May-2021 3710.50 6245.62 84.67 2.00 377.15 2675.83
   23:09:41.611.27-May-2021 3710.50 6245.62 84.67 2.00 377.35 2675.83
   23:09:41.811.27-May-2021 3710.50 6245.80 84.67 2.00 377.55 2675.83
   23:09:42.011.27-May-2021 3710.50 6245.83 84.67 2.00 377.75 2675.83
   23:09:42.211.27-May-2021 3710.50 6245.83 84.67 2.00 377.95 2675.83
   23:09:42.411.27-May-2021 3710.50 6252.02 84.67 2.00 378.15 2675.83
   23:09:42.611.27-May-2021 3710.50 6252.02 84.67 2.00 378.35 2675.83
   23:09:42.812.27-May-2021 3710.50 6246.25 84.67 2.00 378.55 2675.83
   23:09:43.012.27-May-2021 3710.50 6246.23 84.67 2.00 378.75 2675.83
   23:09:43.212.27-May-2021 3710.50 6246.92 84.67 2.00 378.95 2675.83
   23:09:43.412.27-May-2021 3710.50 6245.89 84.67 2.00 379.15 2675.83
   23:09:43.612.27-May-2021 3710.50 6245.89 84.67 2.00 379.35 2675.83
   23:09:43.812.27-May-2021 3710.50 6245.73 84.68 2.00 379.55 2675.83
   23:09:44.012.27-May-2021 3710.50 6245.60 84.68 2.00 379.75 2675.83
   23:09:44.212.27-May-2021 3710.50 6245.95 84.68 2.00 379.95 2675.83
   23:09:44.412.27-May-2021 3710.50 6245.95 84.68 2.00 380.15 2675.83
   23:09:44.612.27-May-2021 3710.50 6245.95 84.68 2.00 380.35 2675.83
   23:09:44.812.27-May-2021 3710.50 6246.17 84.68 2.00 380.55 2675.83
   23:09:45.012.27-May-2021 3710.50 6252.55 84.68 2.00 380.75 2675.83
   23:09:45.212.27-May-2021 3710.50 6244.39 84.68 2.00 380.95 2675.83
   23:09:45.413.27-May-2021 3710.50 6246.64 84.68 2.00 381.15 2675.83
   23:09:45.613.27-May-2021 3710.50 6246.64 84.68 2.00 381.35 2675.83
   23:09:45.813.27-May-2021 3710.50 6253.29 84.68 2.00 381.55 2675.83
   23:09:46.013.27-May-2021 3710.50 6243.66 84.68 2.00 381.75 2675.83
   23:09:46.213.27-May-2021 3710.50 6245.95 84.68 2.00 381.95 2675.83
   23:09:46.413.27-May-2021 3710.50 6246.17 84.68 2.00 382.15 2675.83
   23:09:46.613.27-May-2021 3710.50 6246.17 84.68 2.00 382.35 2675.83
   23:09:46.813.27-May-2021 3710.50 6251.28 84.68 2.00 382.55 2675.83
   23:09:47.013.27-May-2021 3710.50 6244.12 84.68 2.00 382.75 2675.83
   23:09:47.213.27-May-2021 3710.50 6246.40 84.68 2.00 382.95 2675.83
   23:09:47.413.27-May-2021 3710.50 6245.78 84.68 2.00 383.15 2675.83
   23:09:47.613.27-May-2021 3710.50 6245.78 84.68 2.00 383.35 2675.83
   23:09:47.814.27-May-2021 3710.50 6249.94 84.68 2.00 383.55 2675.83
   23:09:48.014.27-May-2021 3710.50 6247.09 84.68 2.00 383.75 2675.83
   23:09:48.214.27-May-2021 3710.50 6246.93 84.68 2.00 383.95 2675.83
   23:09:48.414.27-May-2021 3710.50 6246.46 84.68 2.00 384.15 2675.83
   23:09:48.614.27-May-2021 3710.50 6246.46 84.68 2.00 384.35 2675.83
   23:09:48.814.27-May-2021 3710.50 6246.81 84.68 2.00 384.55 2675.83
   23:09:49.014.27-May-2021 3710.50 6246.30 84.68 2.00 384.75 2675.83
   23:09:49.214.27-May-2021 3710.50 6246.30 84.68 2.00 384.95 2675.83
   23:09:49.414.27-May-2021 3710.50 6245.97 84.68 2.00 385.15 2675.83
   23:09:49.614.27-May-2021 3710.50 6245.97 84.68 2.00 385.35 2675.83
   23:09:49.814.27-May-2021 3710.50 6246.23 84.68 2.00 385.55 2675.83
   23:09:50.014.27-May-2021 3710.50 6246.69 84.68 2.00 385.75 2675.83
   23:09:50.214.27-May-2021 3710.50 6246.39 84.68 2.00 385.95 2675.83
   23:09:50.415.27-May-2021 3710.50 6249.86 84.68 2.00 386.15 2675.83
   23:09:50.615.27-May-2021 3710.50 6249.86 84.68 2.00 386.35 2675.83
   23:09:50.815.27-May-2021 3710.50 6246.87 84.68 2.00 386.55 2675.83
   23:09:51.015.27-May-2021 3710.50 6246.76 84.68 2.00 386.75 2675.83
   23:09:51.215.27-May-2021 3710.50 6247.16 84.68 2.00 386.95 2675.83
   23:09:51.415.27-May-2021 3710.50 6246.47 84.67 2.00 387.15 2675.83
   23:09:51.615.27-May-2021 3710.50 6246.47 84.67 2.00 387.35 2675.83
   23:09:51.815.27-May-2021 3710.50 6246.30 84.67 2.00 387.55 2675.83
   23:09:52.015.27-May-2021 3710.50 6245.77 84.67 2.00 387.75 2675.83
   23:09:52.215.27-May-2021 3710.50 6246.09 84.67 2.00 387.95 2675.83
   23:09:52.415.27-May-2021 3710.50 6245.96 84.67 2.00 388.15 2675.83
   23:09:52.615.27-May-2021 3710.50 6245.96 84.67 2.00 388.35 2675.83
   23:09:52.815.27-May-2021 3710.50 6246.56 84.67 2.00 388.55 2675.83
   23:09:53.016.27-May-2021 3710.50 6246.62 84.67 2.00 388.75 2675.83
   23:09:53.216.27-May-2021 3710.50 6252.34 84.67 2.00 388.95 2675.83
   23:09:53.416.27-May-2021 3710.50 6245.24 84.67 2.00 389.15 2675.83
   23:09:53.616.27-May-2021 3710.50 6245.24 84.67 2.00 389.35 2675.83
   23:09:53.816.27-May-2021 3710.50 6246.28 84.67 2.00 389.55 2675.83
   23:09:54.016.27-May-2021 3710.50 6254.91 84.67 2.00 389.75 2675.83
   23:09:54.216.27-May-2021 3710.50 6242.37 84.67 2.00 389.95 2675.83
   23:09:54.416.27-May-2021 3710.50 6246.00 84.67 2.00 390.15 2675.83
   23:09:54.616.27-May-2021 3710.50 6246.00 84.67 2.00 390.35 2675.83
   23:09:54.816.27-May-2021 3710.50 6246.37 84.67 2.00 390.55 2675.83
   23:09:55.016.27-May-2021 3710.50 6253.62 84.67 2.00 390.75 2675.83
   23:09:55.216.27-May-2021 3710.50 6242.11 84.67 2.00 390.95 2675.83
