~Version Information
 VERS.                  2.0:   CWLS log ASCII Standard -VERSION 2.0
 WRAP.                   NO:   One line per depth step
~Well Information Block
#MNEM.UNIT     VALUE/NAME     DESCRIPTION
#---------     -----------    ---------------------------
 STRT.S             22:21:57 27-May-21: START TIME 22:21:57 27-May-21
 STOP.S             22:28:58 27-May-21: STOP TIME  22:28:58 27-May-21
 STEP.S                   0.00: STEP TIME
 NULL.                 -999.25: NULL VALUE
 UWI .                     N/A:  UNIQUE WELL IDENTIFIER
 API .                     N/A:  API NUMBER
 UNIT.                     N/A:  LOGGING EQUIPMENT ID
 DCON.         Sperry Drilling:  DIRECTNL CONTR
 DOE .                     N/A:  DOE NUMBER
 MWDS.                    Baku:  MWD SHOP
 SRVC.     Turan Drilling and Engineering:  CONTRACTOR
 CTRY.              Azerbaijan:  COUNTRY NAME
 PROV.                    Baku:  PROVINCE
 STAT.                    Baku:  STATE NAME
 REGN.                   EESSA:  REGION
 BASE.              Azerbaijan:  LOGGING EQUIPMENT BASE LOCATION
 WTYP.                Deviated:  WELL TYPE
 RIG .              East Azeri:  RIG NAME
 WELL.                    D02y:  WELL NAME
 FLD .                     ACG:  FIELD NAME
 COMP.     BP Exploration (Caspian Sea) Ltd.:  COMPANY
 PDAT.          Mean Sea Level:  PERMANENT DATUM
 MDS .        Operator Entered:  MAG DATA SOURCE
 SON .        AZ-XX-0906997291:  JOB NUMBER
 FTOP.          Formation Tops:  FORM TOPS DESC
 ILTD.               Lithology:  INTERP LTH DESC
 SVYD.                  Survey:  SURVEY DESC
 DMOD.             Drill Model:  DRILL MOD DESC
 HPTY.       Minimum Curvature:  HOLE POS TYPE
 NREF.                    Grid:  NORTH REFERENCE
 SPUD.               05-May-21:  SPUD DATE
 DATE.      09.27.28 12-Jun-21:  END TIME
 STIM.      09.27.28 12-May-21:  START TIME
 DMF .             Drill Floor:  DRILL MEAS FROM
 DFST.                        :  DIST FSL TEXT
 DFWT.                        :  DIST FWL TEXT
 CNTY.                        :  COUNTY
 LOC .                        :  LOCATION
 LMF .             Drill Floor:  LOG MEASURED FROM
 DEP .m                2806.40:  DEPTH
 AGAP.m                  43.60:  AIR GAP
 VSNS.m                  -4.42:  VERT SEC N/S
 VSEW.m                  -7.31:  VERT SEC E/W
 APD .m                  43.60:  DEPTH ABOVE PD
 WDMS.m                 151.80:  WD ELEV
 EGL .m                   0.00:  GROUND ELEVATION
 EPD .m                   0.00:  ELEVATION
 AZTC.deg                 6.18:  AZM TOTAL CORR
 GRDC.deg                 0.29:  GRID CORRECTION
 MDEC.deg                 6.47:  MAGNETIC DECL
 MDIP.deg                59.50:  MAGNETIC DIP
 MFLD.nT              50350.00:  MAGNETIC FIELD
 GVFD.g                   1.00:  GRAVITY FIELD
 VSDR.deg               179.08:  VERT SEC DIRECT
 TDD .m                4300.00:  TOTAL DEPTH (DRILLER)
 SDEP.m                2800.00:  START DEPTH
 DFSL.m                   0.00:  DISTANCE FSL
 DFWL.m                   0.00:  DISTANCE FWL
 UTMY.m             4431871.34:  UTM Y
 UTMX.m              538762.90:  UTM X
 WHEW.m                  -7.31:  WELL HEAD E/W
 WHNS.m                  -4.42:  WELL HEAD N/S
 LONG.deg                51.45:  LONGITUDE
 LATI.deg                40.02:  LATITUDE
 TVDS.m                  43.60:  TVDSS CORRECTN
 EKB .m                  43.60:  KB ELEVATION
 EDF .m                  43.60:  DF ELEVATION
 TDL .m                 806.00:  TOTAL DEPTH (LOGGER)
 MAGU.                 1851231:  MAGUTM CHECKSUM
 VSC .                       0:  VS TO CLOSURE
~Parameter Information Block
#MNEM.UNIT       Value        Description
#---------     -----------    ---------------------------
 AV  .mps                 1.60:  Ann Velocity 
 AVMX.mps                 2.00:  Max Ann Veloc 
 AZIF.deg               140.24:  Azm, Final 
 BHAT.        Rotary Steerable:  BHA Type 
 BROT.°/30m               0.50:  Build Rotating 
 BS  .in                  8.50:  Bit Size 
 BTPL.psig              619.00:  Bit Press Loss 
 CABU.                     Yes:  Customer Abuse 
 CGEO.          Ilgar Gurbanov:  Customer Geo 
 COMM.                     ¼ƒj:  Run Comments 1 
 TCS .hr                 85.88:  Time Ciculation Ended 
 CV  .mps                 3.30:  Crit Velocity 
 CVMX.mps                 3.50:  Max Crit Veloc 
 DD1 .           Hamid Axmedov:  Direct Drillr 1 
 DD2 .           Teymur Aliyev:  Direct Drillr 2 
 DDSV.               Geo-Pilot:  DD Service 
 DEFF.%                 100.00:  % Det Eff 
 DLRX.°/30m               0.00:  Dogleg Rot Max 
 DLSO.°/30m               1.80:  Dogleg Oriented 
 DLSX.°/30m               3.34:  Dogleg Str Max 
 DRET.      11.50.00 27-May-21:  Drill End Time 
 DRST.      21.13.00 24-May-21:  Drill Start Tim 
 DTIM.hr                 45.11:  Time Drilling 
 EDEP.m                4054.00:  End Depth 
 ENG1.         Almaz Almadatov:  Engineer 1 
 ENG2.           Amrah Tahirov:  Engineer 2 
 ENG3.      Bakhtiyar Jabbarli:  Engineer 3 
 ENG4.          Nazrin Asgarli:  Engineer 4 
 ETIM.      10.00.00 30-May-21:  End Time 
 FLOI.gpm               530.00:  Flow In 
 FLON.gpm               400.00:  Flow In Min 
 FLOS.cptm                0.00:  Fluid Loss 
 FLOX.gpm               560.00:  Flow In Max 
 DFT .        Mineral Oil Base:  Mud Type 
 FTRO.       Formation Presure:  FTWD Run Obj 
 HFLO.                      No:  High Flow 
 HPRE.                      No:  High Pressure 
 HTEM.                      No:  High Temp 
 HYDO.m                   1.80:  Hydro Offset 
 IFIN.deg                73.83:  Inc, Final 
 IMAX.deg                73.83:  Inc Max 
 IMIN.deg                57.86:  Inc Min 
 IMND.m                3259.27:  Inc Min Depth 
 IMXD.m                4045.58:  Inc Max Depth 
 JARR.                     Yes:  Jarring 
 LETM.      11.50.00 27-May-21:  Log End Time 
 LOST.hr                     0:  Lost Rig Time 
 LSTM.      21.13.00 24-May-21:  Log Start Time 
 MDCL.ppm             42500.00:  Mud Chlorides 
 MDES.     Inversion Oil/Synthetic:  Mud Desc 
 DFD .sg                  1.52:  Mud Density 
 MDMN.sg                  1.52:  Dens Mud Min 
 MDMX.sg                  1.52:  Dens Mud Max 
 MOIL.                      70:  Run Mud Oil % 
 MOWR.                   70:30:  Run Mud OWR 
 MSND.                     0.2:  Run Mud Sand % 
 MSOL.                      22:  Run Mud Solids% 
 DFV .spqt               77.00:  Mud Viscosity 
 MWOD.in                  6.75:  MWD Tool OD 
 MWSI.                      No:  Serv Intrp, MWD 
 OTIM.hr                151.01:  Time Operating 
 PCON.          Wear / Scratch:  Pad Condition 
 PMAX.psia            11296.93:  Press Op, Max 
 PV  .cP                 37.00:  Mud PV 
 RUN .                     500:  Run Number 
 ROPA.m/hr               25.00:  ROP Avg 
 ROPN.m/hr                9.00:  ROP Min 
 ROPX.m/hr               28.00:  ROP Max 
 RPMA.rpm               140.00:  RPM Surface Avg 
 RPMN.rpm                90.00:  RPM Surface Min 
 RPMX.rpm               140.00:  RPM Surface Max 
 RRUN.                    0500:  Rig Run Number 
 SAZI.deg               172.17:  Azm, Start 
 SDEP.m                3248.00:  Start Depth 
 SIDD.                      No:  Serv Intrp, DD 
 SINC.deg                57.86:  Inc, Start 
 SPPA.psig             5620.00:  SPP Avg 
 SPPN.psig             5190.00:  SPP Min 
 SPPX.psig             6050.00:  SPP Max 
 STIM.      16.00.00 23-May-21:  Start Time 
 SVCS.                 DD, MWD:  Services 
 SVER.                    9.20:  Sperry Version 
 TDAT.m                 806.00:  Tot Depth Attmp 
 TDDF.                      No:  Trip for DD 
 TDLG.m                 806.00:  Tot Depth Loggd 
 TFF .                      No:  Trip for Fail 
 TQAA.f-kp               12.00:  Torque Abs Avg 
 TQAN.f-kp                8.00:  Torque Abs Min 
 TQAX.f-kp               15.00:  Torque Abs Max 
 TRRT.°/30m               0.30:  Turn Rotating 
 MRT .                  EWR-M5:  Maximum Recorded Temperature 
 TTMX.degC               93.00:  Max Tool Temp 
 VS01.                90649155:  Virtual Str1 SN 
 VS02.                90642264:  Virtual Str2 SN 
 VS03.                90642266:  Virtual Str3 SN 
 VS04.                90642261:  Virtual Str4 SN 
 WBMN.klb                 0.00:  WOB Min 
 WITN.             Anar Khalil:  Customer Rep 
 WITN.           Murad Guliyev:  Customer Rep 2 
 WOBA.klb                13.00:  WOB Avg 
 WOBX.klb                25.00:  WOB Max 
 YP  .lhf2               32.00:  Yield Point 
~Curve Information Block
#MNEM.UNIT                 API CODE     Curve Description
#---------               -----------    ---------------------------
 TIME.HHMMSS            00 000 000 000:  GT Time & Date
 GTDEPTH.m              00 000 000 000:  GT Depth
 GTPQH.psia             00 000 000 000:  GT HR Quartz Pressure
 GTTQ.degC              00 000 000 000:  GT Quartz Temperature
 GTTN.NONE              00 000 000 000:  GT Test Number
 GTET.sec               00 000 000 000:  GT Elapsed Test Time
 GTTVD.m                00 000 000 000:  GT True Vertical Depth
#Other Information
#
#WARRANTY: Halliburton will use its best efforts to furnish customers with 
#accurate information and interpretations that are part of, and incident to, the services 
#provided.  However, Halliburton cannot and does not warrant the accuracy 
#or correctness of such information and interpretations.  Under no circumstances should any 
#such information or interpretation be relied upon as the sole basis for any drilling, 
#completion, production, or financial decision or any procedure involving any risk to the 
#safety of any drilling venture, drilling rig or its crew or any other third party.  The 
#Customer has full responsibility for all drilling, completion and production operation.  
#Halliburton makes no representations or warranties, either expressed or 
#implied, including, but not limited to, the implied warranties of merchantability or fitness 
#for a particular purpose, with respect to the services rendered.  In no event will 
#Halliburton be liable for failure to obtain any particular results or for 
#any damages, including, but not limited to, indirect, special or consequential damages, 
#resulting from the use of any information or interpretation provided by Halliburton.
#
~A           TIME           GTDEPTH  GTPQH  GTTQ  GTTN  GTET   GTTVD  
# ...
   22:23:52.723.27-May-2021 3723.00 3141.78 84.30 1.00 115.02 2680.40
   22:23:52.923.27-May-2021 3723.00 3141.78 84.30 1.00 115.22 2680.40
   22:23:53.123.27-May-2021 3723.00 3141.79 84.30 1.00 115.42 2680.40
   22:23:53.323.27-May-2021 3723.00 3141.77 84.30 1.00 115.62 2680.40
   22:23:53.523.27-May-2021 3723.00 3141.76 84.30 1.00 115.82 2680.40
   22:23:53.723.27-May-2021 3723.00 3141.80 84.30 1.00 116.02 2680.40
   22:23:53.924.27-May-2021 3723.00 3141.80 84.30 1.00 116.22 2680.40
   22:23:54.124.27-May-2021 3723.00 3141.80 84.30 1.00 116.42 2680.40
   22:23:54.324.27-May-2021 3723.00 3141.81 84.30 1.00 116.62 2680.40
   22:23:54.524.27-May-2021 3723.00 3141.80 84.30 1.00 116.82 2680.40
   22:23:54.724.27-May-2021 3723.00 3141.80 84.30 1.00 117.02 2680.40
   22:23:54.924.27-May-2021 3723.00 3141.80 84.30 1.00 117.22 2680.40
   22:23:55.124.27-May-2021 3723.00 3141.81 84.30 1.00 117.42 2680.40
   22:23:55.324.27-May-2021 3723.00 3141.82 84.30 1.00 117.62 2680.40
   22:23:55.524.27-May-2021 3723.00 3141.81 84.30 1.00 117.82 2680.40
   22:23:55.724.27-May-2021 3723.00 3141.80 84.30 1.00 118.02 2680.40
   22:23:55.924.27-May-2021 3723.00 3141.80 84.30 1.00 118.22 2680.40
   22:23:56.124.27-May-2021 3723.00 3141.78 84.30 1.00 118.42 2680.40
   22:23:56.324.27-May-2021 3723.00 3141.79 84.30 1.00 118.62 2680.40
   22:23:56.524.27-May-2021 3723.00 3141.80 84.30 1.00 118.82 2680.40
   22:23:56.724.27-May-2021 3723.00 3141.79 84.30 1.00 119.02 2680.40
   22:23:56.924.27-May-2021 3723.00 3141.79 84.30 1.00 119.22 2680.40
   22:23:57.124.27-May-2021 3723.00 3141.80 84.30 1.00 119.42 2680.40
   22:23:57.324.27-May-2021 3723.00 3141.80 84.30 1.00 119.62 2680.40
   22:23:57.524.27-May-2021 3723.00 3141.80 84.30 1.00 119.82 2680.40
   22:23:57.724.27-May-2021 3723.00 3141.81 84.30 1.00 120.02 2680.40
   22:23:57.924.27-May-2021 3723.00 3141.81 84.30 1.00 120.22 2680.40
   22:23:58.124.27-May-2021 3723.00 3141.82 84.30 1.00 120.42 2680.40
   22:23:58.324.27-May-2021 3723.00 3141.79 84.30 1.00 120.62 2680.40
   22:23:58.524.27-May-2021 3723.00 3141.77 84.30 1.00 120.82 2680.40
   22:23:58.724.27-May-2021 3723.00 3141.77 84.30 1.00 121.02 2680.40
   22:23:58.924.27-May-2021 3723.00 3141.77 84.30 1.00 121.22 2680.40
   22:23:59.124.27-May-2021 3723.00 3141.76 84.30 1.00 121.42 2680.40
   22:23:59.324.27-May-2021 3723.00 3141.76 84.30 1.00 121.62 2680.40
   22:23:59.524.27-May-2021 3723.00 3141.77 84.30 1.00 121.82 2680.40
   22:23:59.724.27-May-2021 3723.00 3141.78 84.30 1.00 122.02 2680.40
   22:23:59.924.27-May-2021 3723.00 3141.78 84.30 1.00 122.22 2680.40
   22:24:00.125.27-May-2021 3723.00 3141.72 84.30 1.00 122.42 2680.40
   22:24:00.325.27-May-2021 3723.00 3141.75 84.30 1.00 122.62 2680.40
   22:24:00.525.27-May-2021 3723.00 3141.77 84.30 1.00 122.82 2680.40
   22:24:00.725.27-May-2021 3723.00 3141.77 84.30 1.00 123.02 2680.40
   22:24:00.925.27-May-2021 3723.00 3141.77 84.30 1.00 123.22 2680.40
   22:24:01.125.27-May-2021 3723.00 3141.89 84.30 1.00 123.42 2680.40
   22:24:01.325.27-May-2021 3723.00 3141.75 84.30 1.00 123.62 2680.40
   22:24:01.525.27-May-2021 3723.00 3141.76 84.30 1.00 123.82 2680.40
   22:24:01.725.27-May-2021 3723.00 3141.77 84.30 1.00 124.02 2680.40
   22:24:01.925.27-May-2021 3723.00 3141.77 84.30 1.00 124.22 2680.40
   22:24:02.125.27-May-2021 3723.00 3141.77 84.30 1.00 124.42 2680.40
   22:24:02.325.27-May-2021 3723.00 3141.77 84.30 1.00 124.62 2680.40
   22:24:02.525.27-May-2021 3723.00 3141.77 84.30 1.00 124.82 2680.40
   22:24:02.725.27-May-2021 3723.00 3141.78 84.30 1.00 125.02 2680.40
   22:24:02.925.27-May-2021 3723.00 3141.78 84.30 1.00 125.22 2680.40
   22:24:03.125.27-May-2021 3723.00 3141.78 84.30 1.00 125.42 2680.40
   22:24:03.325.27-May-2021 3723.00 3141.79 84.30 1.00 125.62 2680.40
   22:24:03.525.27-May-2021 3723.00 3141.65 84.30 1.00 125.82 2680.40
   22:24:03.725.27-May-2021 3723.00 3141.90 84.30 1.00 126.02 2680.40
   22:24:03.925.27-May-2021 3723.00 3141.90 84.30 1.00 126.22 2680.40
   22:24:04.125.27-May-2021 3723.00 3141.77 84.30 1.00 126.42 2680.40
   22:24:04.325.27-May-2021 3723.00 3141.76 84.30 1.00 126.62 2680.40
   22:24:04.525.27-May-2021 3723.00 3141.77 84.30 1.00 126.82 2680.40
   22:24:04.725.27-May-2021 3723.00 3141.77 84.30 1.00 127.02 2680.40
   22:24:04.925.27-May-2021 3723.00 3141.77 84.30 1.00 127.22 2680.40
   22:24:05.125.27-May-2021 3723.00 3141.78 84.30 1.00 127.42 2680.40
   22:24:05.325.27-May-2021 3723.00 3141.77 84.30 1.00 127.62 2680.40
   22:24:05.525.27-May-2021 3723.00 3141.78 84.30 1.00 127.82 2680.40
   22:24:05.725.27-May-2021 3723.00 3141.79 84.30 1.00 128.02 2680.40
   22:24:05.925.27-May-2021 3723.00 3141.79 84.30 1.00 128.22 2680.40
   22:24:06.125.27-May-2021 3723.00 3141.66 84.30 1.00 128.42 2680.40
   22:24:06.326.27-May-2021 3723.00 3141.90 84.30 1.00 128.62 2680.40
   22:24:06.526.27-May-2021 3723.00 3141.74 84.30 1.00 128.82 2680.40
   22:24:06.726.27-May-2021 3723.00 3141.63 84.30 1.00 129.02 2680.40
   22:24:06.926.27-May-2021 3723.00 3141.63 84.30 1.00 129.22 2680.40
   22:24:07.126.27-May-2021 3723.00 3141.73 84.30 1.00 129.42 2680.40
   22:24:07.326.27-May-2021 3723.00 3141.76 84.30 1.00 129.62 2680.40
   22:24:07.526.27-May-2021 3723.00 3141.75 84.30 1.00 129.82 2680.40
   22:24:07.726.27-May-2021 3723.00 3141.76 84.30 1.00 130.02 2680.40
   22:24:07.926.27-May-2021 3723.00 3141.76 84.30 1.00 130.22 2680.40
   22:24:08.126.27-May-2021 3723.00 3141.73 84.30 1.00 130.42 2680.40
   22:24:08.326.27-May-2021 3723.00 3141.73 84.30 1.00 130.62 2680.40
   22:24:08.526.27-May-2021 3723.00 3141.75 84.30 1.00 130.82 2680.40
   22:24:08.726.27-May-2021 3723.00 3141.75 84.30 1.00 131.02 2680.40
   22:24:08.926.27-May-2021 3723.00 3141.75 84.30 1.00 131.22 2680.40
   22:24:09.126.27-May-2021 3723.00 3141.84 84.30 1.00 131.42 2680.40
   22:24:09.326.27-May-2021 3723.00 3141.73 84.30 1.00 131.62 2680.40
   22:24:09.526.27-May-2021 3723.00 3141.75 84.30 1.00 131.82 2680.40
   22:24:09.726.27-May-2021 3723.00 3141.74 84.30 1.00 132.02 2680.40
   22:24:09.926.27-May-2021 3723.00 3141.74 84.30 1.00 132.22 2680.40
   22:24:10.126.27-May-2021 3723.00 3141.75 84.30 1.00 132.42 2680.40
   22:24:10.326.27-May-2021 3723.00 3141.75 84.30 1.00 132.62 2680.40
   22:24:10.526.27-May-2021 3723.00 3141.75 84.30 1.00 132.82 2680.40
   22:24:10.726.27-May-2021 3723.00 3141.75 84.30 1.00 133.02 2680.40
   22:24:10.926.27-May-2021 3723.00 3141.75 84.30 1.00 133.22 2680.40
   22:24:11.126.27-May-2021 3723.00 3141.75 84.30 1.00 133.42 2680.40
   22:24:11.326.27-May-2021 3723.00 3141.76 84.30 1.00 133.62 2680.40
   22:24:11.526.27-May-2021 3723.00 3141.65 84.30 1.00 133.82 2680.40
   22:24:11.726.27-May-2021 3723.00 3141.85 84.30 1.00 134.02 2680.40
   22:24:11.926.27-May-2021 3723.00 3141.85 84.30 1.00 134.22 2680.40
   22:24:12.126.27-May-2021 3723.00 3141.74 84.30 1.00 134.42 2680.40
   22:24:12.327.27-May-2021 3723.00 3141.74 84.30 1.00 134.62 2680.40
   22:24:12.527.27-May-2021 3723.00 3141.74 84.30 1.00 134.82 2680.40
   22:24:12.727.27-May-2021 3723.00 3141.74 84.30 1.00 135.02 2680.40
   22:24:12.927.27-May-2021 3723.00 3141.74 84.30 1.00 135.22 2680.40
   22:24:13.127.27-May-2021 3723.00 3141.75 84.30 1.00 135.42 2680.40
   22:24:13.327.27-May-2021 3723.00 3141.74 84.30 1.00 135.62 2680.40
   22:24:13.527.27-May-2021 3723.00 3141.76 84.30 1.00 135.82 2680.40
   22:24:13.727.27-May-2021 3723.00 3141.76 84.30 1.00 136.02 2680.40
   22:24:13.927.27-May-2021 3723.00 3141.76 84.30 1.00 136.22 2680.40
   22:24:14.127.27-May-2021 3723.00 3141.65 84.30 1.00 136.42 2680.40
   22:24:14.327.27-May-2021 3723.00 3141.84 84.30 1.00 136.62 2680.40
   22:24:14.527.27-May-2021 3723.00 3141.73 84.30 1.00 136.82 2680.40
   22:24:14.727.27-May-2021 3723.00 3141.64 84.30 1.00 137.02 2680.40
   22:24:14.927.27-May-2021 3723.00 3141.64 84.30 1.00 137.22 2680.40
   22:24:15.127.27-May-2021 3723.00 3141.72 84.30 1.00 137.42 2680.40
   22:24:15.327.27-May-2021 3723.00 3141.73 84.30 1.00 137.62 2680.40
   22:24:15.527.27-May-2021 3723.00 3141.72 84.30 1.00 137.82 2680.40
