~Version Information
 VERS.                  2.0:   CWLS log ASCII Standard -VERSION 2.0
 WRAP.                   NO:   One line per depth step
~Well Information Block
#MNEM.UNIT     VALUE/NAME     DESCRIPTION
#---------     -----------    ---------------------------
 STRT.S             05:48:37 28-May-21: START TIME 05:48:37 28-May-21
 STOP.S             05:55:44 28-May-21: STOP TIME  05:55:44 28-May-21
 STEP.S                   0.00: STEP TIME
 NULL.                 -999.25: NULL VALUE
 UWI .                     N/A:  UNIQUE WELL IDENTIFIER
 API .                     N/A:  API NUMBER
 UNIT.                     N/A:  LOGGING EQUIPMENT ID
 DCON.         Sperry Drilling:  DIRECTNL CONTR
 DOE .                     N/A:  DOE NUMBER
 MWDS.                    Baku:  MWD SHOP
 SRVC.     Turan Drilling and Engineering:  CONTRACTOR
 CTRY.              Azerbaijan:  COUNTRY NAME
 PROV.                    Baku:  PROVINCE
 STAT.                    Baku:  STATE NAME
 REGN.                   EESSA:  REGION
 BASE.              Azerbaijan:  LOGGING EQUIPMENT BASE LOCATION
 WTYP.                Deviated:  WELL TYPE
 RIG .              East Azeri:  RIG NAME
 WELL.                    D02y:  WELL NAME
 FLD .                     ACG:  FIELD NAME
 COMP.     BP Exploration (Caspian Sea) Ltd.:  COMPANY
 PDAT.          Mean Sea Level:  PERMANENT DATUM
 MDS .        Operator Entered:  MAG DATA SOURCE
 SON .        AZ-XX-0906997291:  JOB NUMBER
 FTOP.          Formation Tops:  FORM TOPS DESC
 ILTD.               Lithology:  INTERP LTH DESC
 SVYD.                  Survey:  SURVEY DESC
 DMOD.             Drill Model:  DRILL MOD DESC
 HPTY.       Minimum Curvature:  HOLE POS TYPE
 NREF.                    Grid:  NORTH REFERENCE
 SPUD.               05-May-21:  SPUD DATE
 DATE.      09.27.28 12-Jun-21:  END TIME
 STIM.      09.27.28 12-May-21:  START TIME
 DMF .             Drill Floor:  DRILL MEAS FROM
 DFST.                        :  DIST FSL TEXT
 DFWT.                        :  DIST FWL TEXT
 CNTY.                        :  COUNTY
 LOC .                        :  LOCATION
 LMF .             Drill Floor:  LOG MEASURED FROM
 DEP .m                2806.40:  DEPTH
 AGAP.m                  43.60:  AIR GAP
 VSNS.m                  -4.42:  VERT SEC N/S
 VSEW.m                  -7.31:  VERT SEC E/W
 APD .m                  43.60:  DEPTH ABOVE PD
 WDMS.m                 151.80:  WD ELEV
 EGL .m                   0.00:  GROUND ELEVATION
 EPD .m                   0.00:  ELEVATION
 AZTC.deg                 6.18:  AZM TOTAL CORR
 GRDC.deg                 0.29:  GRID CORRECTION
 MDEC.deg                 6.47:  MAGNETIC DECL
 MDIP.deg                59.50:  MAGNETIC DIP
 MFLD.nT              50350.00:  MAGNETIC FIELD
 GVFD.g                   1.00:  GRAVITY FIELD
 VSDR.deg               179.08:  VERT SEC DIRECT
 TDD .m                4300.00:  TOTAL DEPTH (DRILLER)
 SDEP.m                2800.00:  START DEPTH
 DFSL.m                   0.00:  DISTANCE FSL
 DFWL.m                   0.00:  DISTANCE FWL
 UTMY.m             4431871.34:  UTM Y
 UTMX.m              538762.90:  UTM X
 WHEW.m                  -7.31:  WELL HEAD E/W
 WHNS.m                  -4.42:  WELL HEAD N/S
 LONG.deg                51.45:  LONGITUDE
 LATI.deg                40.02:  LATITUDE
 TVDS.m                  43.60:  TVDSS CORRECTN
 EKB .m                  43.60:  KB ELEVATION
 EDF .m                  43.60:  DF ELEVATION
 TDL .m                 806.00:  TOTAL DEPTH (LOGGER)
 MAGU.                 1851231:  MAGUTM CHECKSUM
 VSC .                       0:  VS TO CLOSURE
~Parameter Information Block
#MNEM.UNIT       Value        Description
#---------     -----------    ---------------------------
 AV  .mps                 1.60:  Ann Velocity 
 AVMX.mps                 2.00:  Max Ann Veloc 
 AZIF.deg               140.24:  Azm, Final 
 BHAT.        Rotary Steerable:  BHA Type 
 BROT.°/30m               0.50:  Build Rotating 
 BS  .in                  8.50:  Bit Size 
 BTPL.psig              619.00:  Bit Press Loss 
 CABU.                     Yes:  Customer Abuse 
 CGEO.          Ilgar Gurbanov:  Customer Geo 
 COMM.                     dAY:  Run Comments 1 
 TCS .hr                 85.88:  Time Ciculation Ended 
 CV  .mps                 3.30:  Crit Velocity 
 CVMX.mps                 3.50:  Max Crit Veloc 
 DD1 .           Hamid Axmedov:  Direct Drillr 1 
 DD2 .           Teymur Aliyev:  Direct Drillr 2 
 DDSV.               Geo-Pilot:  DD Service 
 DEFF.%                 100.00:  % Det Eff 
 DLRX.°/30m               0.00:  Dogleg Rot Max 
 DLSO.°/30m               1.80:  Dogleg Oriented 
 DLSX.°/30m               3.34:  Dogleg Str Max 
 DRET.      11.50.00 27-May-21:  Drill End Time 
 DRST.      21.13.00 24-May-21:  Drill Start Tim 
 DTIM.hr                 45.11:  Time Drilling 
 EDEP.m                4054.00:  End Depth 
 ENG1.         Almaz Almadatov:  Engineer 1 
 ENG2.           Amrah Tahirov:  Engineer 2 
 ENG3.      Bakhtiyar Jabbarli:  Engineer 3 
 ENG4.          Nazrin Asgarli:  Engineer 4 
 ETIM.      10.00.00 30-May-21:  End Time 
 FLOI.gpm               530.00:  Flow In 
 FLON.gpm               400.00:  Flow In Min 
 FLOS.cptm                0.00:  Fluid Loss 
 FLOX.gpm               560.00:  Flow In Max 
 DFT .        Mineral Oil Base:  Mud Type 
 FTRO.       Formation Presure:  FTWD Run Obj 
 HFLO.                      No:  High Flow 
 HPRE.                      No:  High Pressure 
 HTEM.                      No:  High Temp 
 HYDO.m                   1.80:  Hydro Offset 
 IFIN.deg                73.83:  Inc, Final 
 IMAX.deg                73.83:  Inc Max 
 IMIN.deg                57.86:  Inc Min 
 IMND.m                3259.27:  Inc Min Depth 
 IMXD.m                4045.58:  Inc Max Depth 
 JARR.                     Yes:  Jarring 
 LETM.      11.50.00 27-May-21:  Log End Time 
 LOST.hr                     0:  Lost Rig Time 
 LSTM.      21.13.00 24-May-21:  Log Start Time 
 MDCL.ppm             42500.00:  Mud Chlorides 
 MDES.     Inversion Oil/Synthetic:  Mud Desc 
 DFD .sg                  1.52:  Mud Density 
 MDMN.sg                  1.52:  Dens Mud Min 
 MDMX.sg                  1.52:  Dens Mud Max 
 MOIL.                      70:  Run Mud Oil % 
 MOWR.                   70:30:  Run Mud OWR 
 MSND.                     0.2:  Run Mud Sand % 
 MSOL.                      22:  Run Mud Solids% 
 DFV .spqt               77.00:  Mud Viscosity 
 MWOD.in                  6.75:  MWD Tool OD 
 MWSI.                      No:  Serv Intrp, MWD 
 OTIM.hr                151.01:  Time Operating 
 PCON.          Wear / Scratch:  Pad Condition 
 PMAX.psia            11296.93:  Press Op, Max 
 PV  .cP                 37.00:  Mud PV 
 RUN .                     500:  Run Number 
 ROPA.m/hr               25.00:  ROP Avg 
 ROPN.m/hr                9.00:  ROP Min 
 ROPX.m/hr               28.00:  ROP Max 
 RPMA.rpm               140.00:  RPM Surface Avg 
 RPMN.rpm                90.00:  RPM Surface Min 
 RPMX.rpm               140.00:  RPM Surface Max 
 RRUN.                    0500:  Rig Run Number 
 SAZI.deg               172.17:  Azm, Start 
 SDEP.m                3248.00:  Start Depth 
 SIDD.                      No:  Serv Intrp, DD 
 SINC.deg                57.86:  Inc, Start 
 SPPA.psig             5620.00:  SPP Avg 
 SPPN.psig             5190.00:  SPP Min 
 SPPX.psig             6050.00:  SPP Max 
 STIM.      16.00.00 23-May-21:  Start Time 
 SVCS.                 DD, MWD:  Services 
 SVER.                    9.20:  Sperry Version 
 TDAT.m                 806.00:  Tot Depth Attmp 
 TDDF.                      No:  Trip for DD 
 TDLG.m                 806.00:  Tot Depth Loggd 
 TFF .                      No:  Trip for Fail 
 TQAA.f-kp               12.00:  Torque Abs Avg 
 TQAN.f-kp                8.00:  Torque Abs Min 
 TQAX.f-kp               15.00:  Torque Abs Max 
 TRRT.°/30m               0.30:  Turn Rotating 
 MRT .                  EWR-M5:  Maximum Recorded Temperature 
 TTMX.degC               93.00:  Max Tool Temp 
 VS01.                90649155:  Virtual Str1 SN 
 VS02.                90642264:  Virtual Str2 SN 
 VS03.                90642266:  Virtual Str3 SN 
 VS04.                90642261:  Virtual Str4 SN 
 WBMN.klb                 0.00:  WOB Min 
 WITN.             Anar Khalil:  Customer Rep 
 WITN.           Murad Guliyev:  Customer Rep 2 
 WOBA.klb                13.00:  WOB Avg 
 WOBX.klb                25.00:  WOB Max 
 YP  .lhf2               32.00:  Yield Point 
~Curve Information Block
#MNEM.UNIT                 API CODE     Curve Description
#---------               -----------    ---------------------------
 TIME.HHMMSS            00 000 000 000:  GT Time & Date
 GTDEPTH.m              00 000 000 000:  GT Depth
 GTPQH.psia             00 000 000 000:  GT HR Quartz Pressure
 GTTQ.degC              00 000 000 000:  GT Quartz Temperature
 GTTN.NONE              00 000 000 000:  GT Test Number
 GTET.sec               00 000 000 000:  GT Elapsed Test Time
 GTTVD.m                00 000 000 000:  GT True Vertical Depth
#Other Information
#
#WARRANTY: Halliburton will use its best efforts to furnish customers with 
#accurate information and interpretations that are part of, and incident to, the services 
#provided.  However, Halliburton cannot and does not warrant the accuracy 
#or correctness of such information and interpretations.  Under no circumstances should any 
#such information or interpretation be relied upon as the sole basis for any drilling, 
#completion, production, or financial decision or any procedure involving any risk to the 
#safety of any drilling venture, drilling rig or its crew or any other third party.  The 
#Customer has full responsibility for all drilling, completion and production operation.  
#Halliburton makes no representations or warranties, either expressed or 
#implied, including, but not limited to, the implied warranties of merchantability or fitness 
#for a particular purpose, with respect to the services rendered.  In no event will 
#Halliburton be liable for failure to obtain any particular results or for 
#any damages, including, but not limited to, indirect, special or consequential damages, 
#resulting from the use of any information or interpretation provided by Halliburton.
#
~A           TIME           GTDEPTH  GTPQH  GTTQ  GTTN   GTET   GTTVD  
# ...
   05:55:24.748.28-May-2021 3439.00 6011.79 83.03 11.00 406.97 2568.67
   05:55:24.948.28-May-2021 3439.00 6014.88 83.03 11.00 407.17 2568.67
   05:55:25.148.28-May-2021 3439.00 6014.88 83.03 11.00 407.37 2568.67
   05:55:25.348.28-May-2021 3439.00 6017.67 83.03 11.00 407.57 2568.67
   05:55:25.548.28-May-2021 3439.00 6016.35 83.03 11.00 407.77 2568.67
   05:55:25.749.28-May-2021 3439.00 6015.16 83.03 11.00 407.97 2568.67
   05:55:25.949.28-May-2021 3439.00 6014.52 83.03 11.00 408.17 2568.67
   05:55:26.149.28-May-2021 3439.00 6014.52 83.03 11.00 408.37 2568.67
   05:55:26.349.28-May-2021 3439.00 6014.42 83.03 11.00 408.57 2568.67
   05:55:26.549.28-May-2021 3439.00 6020.73 83.03 11.00 408.77 2568.67
   05:55:26.749.28-May-2021 3439.00 6013.51 83.03 11.00 408.97 2568.67
   05:55:26.949.28-May-2021 3439.00 6015.16 83.03 11.00 409.17 2568.67
   05:55:27.149.28-May-2021 3439.00 6015.16 83.03 11.00 409.37 2568.67
   05:55:27.349.28-May-2021 3439.00 6021.39 83.03 11.00 409.57 2568.67
   05:55:27.549.28-May-2021 3439.00 6013.05 83.03 11.00 409.77 2568.67
   05:55:27.749.28-May-2021 3439.00 6015.53 83.03 11.00 409.97 2568.67
   05:55:27.949.28-May-2021 3439.00 6015.35 83.03 11.00 410.17 2568.67
   05:55:28.150.28-May-2021 3439.00 6015.35 83.03 11.00 410.37 2568.67
   05:55:28.350.28-May-2021 3439.00 6015.14 83.03 11.00 410.57 2568.67
   05:55:28.550.28-May-2021 3439.00 6014.91 83.03 11.00 410.77 2568.67
   05:55:28.750.28-May-2021 3439.00 6015.35 83.03 11.00 410.97 2568.67
   05:55:28.950.28-May-2021 3439.00 6015.24 83.03 11.00 411.17 2568.67
   05:55:29.150.28-May-2021 3439.00 6015.24 83.03 11.00 411.37 2568.67
   05:55:29.350.28-May-2021 3439.00 6014.87 83.03 11.00 411.57 2568.67
   05:55:29.550.28-May-2021 3439.00 6014.73 83.03 11.00 411.77 2568.67
   05:55:29.750.28-May-2021 3439.00 6014.62 83.03 11.00 411.97 2568.67
   05:55:29.950.28-May-2021 3439.00 6018.94 83.03 11.00 412.17 2568.67
   05:55:30.150.28-May-2021 3439.00 6018.94 83.03 11.00 412.37 2568.67
   05:55:30.350.28-May-2021 3439.00 6014.72 83.03 11.00 412.57 2568.67
   05:55:30.551.28-May-2021 3439.00 6015.11 83.03 11.00 412.77 2568.67
   05:55:30.751.28-May-2021 3439.00 6014.67 83.03 11.00 412.97 2568.67
   05:55:30.951.28-May-2021 3439.00 6015.31 83.03 11.00 413.17 2568.67
   05:55:31.151.28-May-2021 3439.00 6015.31 83.03 11.00 413.37 2568.67
   05:55:31.351.28-May-2021 3439.00 6015.23 83.03 11.00 413.57 2568.67
   05:55:31.551.28-May-2021 3439.00 6015.04 83.03 11.00 413.77 2568.67
   05:55:31.751.28-May-2021 3439.00 6015.18 83.03 11.00 413.97 2568.67
   05:55:31.951.28-May-2021 3439.00 6014.85 83.03 11.00 414.17 2568.67
   05:55:32.151.28-May-2021 3439.00 6014.85 83.03 11.00 414.37 2568.67
   05:55:32.351.28-May-2021 3439.00 6014.58 83.03 11.00 414.57 2568.67
   05:55:32.551.28-May-2021 3439.00 6014.57 83.03 11.00 414.77 2568.67
   05:55:32.751.28-May-2021 3439.00 6018.79 83.03 11.00 414.97 2568.67
   05:55:32.952.28-May-2021 3439.00 6014.49 83.03 11.00 415.17 2568.67
   05:55:33.152.28-May-2021 3439.00 6014.49 83.03 11.00 415.37 2568.67
   05:55:33.352.28-May-2021 3439.00 6014.92 83.03 11.00 415.57 2568.67
   05:55:33.552.28-May-2021 3439.00 6020.18 83.03 11.00 415.77 2568.67
   05:55:33.752.28-May-2021 3439.00 6013.43 83.03 11.00 415.97 2568.67
   05:55:33.952.28-May-2021 3439.00 6014.64 83.03 11.00 416.17 2568.67
   05:55:34.152.28-May-2021 3439.00 6014.64 83.03 11.00 416.37 2568.67
   05:55:34.352.28-May-2021 3439.00 6014.60 83.03 11.00 416.57 2568.67
   05:55:34.552.28-May-2021 3439.00 6014.64 83.03 11.00 416.77 2568.67
   05:55:34.752.28-May-2021 3439.00 6018.63 83.03 11.00 416.97 2568.67
   05:55:34.952.28-May-2021 3439.00 6014.78 83.03 11.00 417.17 2568.67
   05:55:35.152.28-May-2021 3439.00 6014.78 83.03 11.00 417.37 2568.67
   05:55:35.353.28-May-2021 3439.00 6014.81 83.03 11.00 417.57 2568.67
   05:55:35.553.28-May-2021 3439.00 6021.48 83.03 11.00 417.77 2568.67
   05:55:35.753.28-May-2021 3439.00 6012.36 83.03 11.00 417.97 2568.67
   05:55:35.953.28-May-2021 3439.00 6014.87 83.03 11.00 418.17 2568.67
   05:55:36.153.28-May-2021 3439.00 6014.87 83.03 11.00 418.37 2568.67
   05:55:36.353.28-May-2021 3439.00 6015.04 83.03 11.00 418.57 2568.67
   05:55:36.553.28-May-2021 3439.00 6014.48 83.03 11.00 418.78 2568.67
   05:55:36.753.28-May-2021 3439.00 6014.83 83.03 11.00 418.98 2568.67
   05:55:36.953.28-May-2021 3439.00 6015.02 83.03 11.00 419.18 2568.67
   05:55:37.153.28-May-2021 3439.00 6015.02 83.03 11.00 419.38 2568.67
   05:55:37.353.28-May-2021 3439.00 6014.57 83.03 11.00 419.58 2568.67
   05:55:37.553.28-May-2021 3439.00 6014.42 83.03 11.00 419.78 2568.67
   05:55:37.754.28-May-2021 3439.00 6014.50 83.03 11.00 419.98 2568.67
   05:55:37.954.28-May-2021 3439.00 6014.37 83.03 11.00 420.18 2568.67
   05:55:38.154.28-May-2021 3439.00 6014.37 83.03 11.00 420.38 2568.67
   05:55:38.354.28-May-2021 3439.00 6012.66 83.03 11.00 420.58 2568.67
   05:55:38.554.28-May-2021 3439.00 6014.53 83.03 11.00 420.78 2568.67
   05:55:38.754.28-May-2021 3439.00 6014.68 83.03 11.00 420.98 2568.67
   05:55:38.954.28-May-2021 3439.00 6014.47 83.03 11.00 421.18 2568.67
   05:55:39.154.28-May-2021 3439.00 6014.47 83.03 11.00 421.38 2568.67
   05:55:39.354.28-May-2021 3439.00 6014.62 83.03 11.00 421.58 2568.67
   05:55:39.554.28-May-2021 3439.00 6014.75 83.03 11.00 421.78 2568.67
   05:55:39.754.28-May-2021 3439.00 6014.91 83.03 11.00 421.98 2568.67
   05:55:39.954.28-May-2021 3439.00 6014.77 83.03 11.00 422.18 2568.67
   05:55:40.155.28-May-2021 3439.00 6014.77 83.03 11.00 422.38 2568.67
   05:55:40.355.28-May-2021 3439.00 6014.42 83.03 11.00 422.58 2568.67
   05:55:40.555.28-May-2021 3439.00 6014.23 83.03 11.00 422.78 2568.67
   05:55:40.755.28-May-2021 3439.00 6014.04 83.03 11.00 422.98 2568.67
   05:55:40.955.28-May-2021 3439.00 6020.00 83.03 11.00 423.18 2568.67
   05:55:41.155.28-May-2021 3439.00 6020.00 83.03 11.00 423.38 2568.67
   05:55:41.355.28-May-2021 3439.00 6014.36 83.03 11.00 423.58 2568.67
   05:55:41.555.28-May-2021 3439.00 6014.47 83.03 11.00 423.78 2568.67
   05:55:41.755.28-May-2021 3439.00 6014.31 83.03 11.00 423.98 2568.67
   05:55:41.955.28-May-2021 3439.00 6018.54 83.03 11.00 424.18 2568.67
   05:55:42.155.28-May-2021 3439.00 6018.54 83.03 11.00 424.38 2568.67
   05:55:42.355.28-May-2021 3439.00 6014.00 83.03 11.00 424.58 2568.67
   05:55:42.556.28-May-2021 3439.00 6018.64 83.03 11.00 424.78 2568.67
   05:55:42.756.28-May-2021 3439.00 6013.65 83.03 11.00 424.98 2568.67
   05:55:42.956.28-May-2021 3439.00 6013.90 83.03 11.00 425.18 2568.67
   05:55:43.156.28-May-2021 3439.00 6013.90 83.03 11.00 425.38 2568.67
   05:55:43.356.28-May-2021 3439.00 6017.77 83.03 11.00 425.58 2568.67
   05:55:43.556.28-May-2021 3439.00 6013.86 83.03 11.00 425.78 2568.67
   05:55:43.756.28-May-2021 3439.00 6013.53 83.03 11.00 425.98 2568.67
   05:55:43.956.28-May-2021 3439.00 6014.20 83.03 11.00 426.18 2568.67
   05:55:44.156.28-May-2021 3439.00 6014.20 83.03 11.00 426.38 2568.67
   05:55:44.356.28-May-2021 3439.00 6014.08 83.03 11.00 426.58 2568.67
   05:55:44.556.28-May-2021 3439.00 6013.64 83.03 11.00 426.78 2568.67
   05:55:44.756.28-May-2021 3439.00 6014.02 83.03 11.00 426.98 2568.67
