~Version Information
 VERS.                  2.0:   CWLS log ASCII Standard -VERSION 2.0
 WRAP.                   NO:   One line per depth step
~Well Information Block
#MNEM.UNIT     VALUE/NAME     DESCRIPTION
#---------     -----------    ---------------------------
 STRT.S             00:16:40 28-May-21: START TIME 00:16:40 28-May-21
 STOP.S             00:23:42 28-May-21: STOP TIME  00:23:42 28-May-21
 STEP.S                   0.00: STEP TIME
 NULL.                 -999.25: NULL VALUE
 UWI .                     N/A:  UNIQUE WELL IDENTIFIER
 API .                     N/A:  API NUMBER
 UNIT.                     N/A:  LOGGING EQUIPMENT ID
 DCON.         Sperry Drilling:  DIRECTNL CONTR
 DOE .                     N/A:  DOE NUMBER
 MWDS.                    Baku:  MWD SHOP
 SRVC.     Turan Drilling and Engineering:  CONTRACTOR
 CTRY.              Azerbaijan:  COUNTRY NAME
 PROV.                    Baku:  PROVINCE
 STAT.                    Baku:  STATE NAME
 REGN.                   EESSA:  REGION
 BASE.              Azerbaijan:  LOGGING EQUIPMENT BASE LOCATION
 WTYP.                Deviated:  WELL TYPE
 RIG .              East Azeri:  RIG NAME
 WELL.                    D02y:  WELL NAME
 FLD .                     ACG:  FIELD NAME
 COMP.     BP Exploration (Caspian Sea) Ltd.:  COMPANY
 PDAT.          Mean Sea Level:  PERMANENT DATUM
 MDS .        Operator Entered:  MAG DATA SOURCE
 SON .        AZ-XX-0906997291:  JOB NUMBER
 FTOP.          Formation Tops:  FORM TOPS DESC
 ILTD.               Lithology:  INTERP LTH DESC
 SVYD.                  Survey:  SURVEY DESC
 DMOD.             Drill Model:  DRILL MOD DESC
 HPTY.       Minimum Curvature:  HOLE POS TYPE
 NREF.                    Grid:  NORTH REFERENCE
 SPUD.               05-May-21:  SPUD DATE
 DATE.      09.27.28 12-Jun-21:  END TIME
 STIM.      09.27.28 12-May-21:  START TIME
 DMF .             Drill Floor:  DRILL MEAS FROM
 DFST.                        :  DIST FSL TEXT
 DFWT.                        :  DIST FWL TEXT
 CNTY.                        :  COUNTY
 LOC .                        :  LOCATION
 LMF .             Drill Floor:  LOG MEASURED FROM
 DEP .m                2806.40:  DEPTH
 AGAP.m                  43.60:  AIR GAP
 VSNS.m                  -4.42:  VERT SEC N/S
 VSEW.m                  -7.31:  VERT SEC E/W
 APD .m                  43.60:  DEPTH ABOVE PD
 WDMS.m                 151.80:  WD ELEV
 EGL .m                   0.00:  GROUND ELEVATION
 EPD .m                   0.00:  ELEVATION
 AZTC.deg                 6.18:  AZM TOTAL CORR
 GRDC.deg                 0.29:  GRID CORRECTION
 MDEC.deg                 6.47:  MAGNETIC DECL
 MDIP.deg                59.50:  MAGNETIC DIP
 MFLD.nT              50350.00:  MAGNETIC FIELD
 GVFD.g                   1.00:  GRAVITY FIELD
 VSDR.deg               179.08:  VERT SEC DIRECT
 TDD .m                4300.00:  TOTAL DEPTH (DRILLER)
 SDEP.m                2800.00:  START DEPTH
 DFSL.m                   0.00:  DISTANCE FSL
 DFWL.m                   0.00:  DISTANCE FWL
 UTMY.m             4431871.34:  UTM Y
 UTMX.m              538762.90:  UTM X
 WHEW.m                  -7.31:  WELL HEAD E/W
 WHNS.m                  -4.42:  WELL HEAD N/S
 LONG.deg                51.45:  LONGITUDE
 LATI.deg                40.02:  LATITUDE
 TVDS.m                  43.60:  TVDSS CORRECTN
 EKB .m                  43.60:  KB ELEVATION
 EDF .m                  43.60:  DF ELEVATION
 TDL .m                 806.00:  TOTAL DEPTH (LOGGER)
 MAGU.                 1851231:  MAGUTM CHECKSUM
 VSC .                       0:  VS TO CLOSURE
~Parameter Information Block
#MNEM.UNIT       Value        Description
#---------     -----------    ---------------------------
 AV  .mps                 1.60:  Ann Velocity 
 AVMX.mps                 2.00:  Max Ann Veloc 
 AZIF.deg               140.24:  Azm, Final 
 BHAT.        Rotary Steerable:  BHA Type 
 BROT.°/30m               0.50:  Build Rotating 
 BS  .in                  8.50:  Bit Size 
 BTPL.psig              619.00:  Bit Press Loss 
 CABU.                     Yes:  Customer Abuse 
 CGEO.          Ilgar Gurbanov:  Customer Geo 
 COMM.                     ”)T:  Run Comments 1 
 TCS .hr                 85.88:  Time Ciculation Ended 
 CV  .mps                 3.30:  Crit Velocity 
 CVMX.mps                 3.50:  Max Crit Veloc 
 DD1 .           Hamid Axmedov:  Direct Drillr 1 
 DD2 .           Teymur Aliyev:  Direct Drillr 2 
 DDSV.               Geo-Pilot:  DD Service 
 DEFF.%                 100.00:  % Det Eff 
 DLRX.°/30m               0.00:  Dogleg Rot Max 
 DLSO.°/30m               1.80:  Dogleg Oriented 
 DLSX.°/30m               3.34:  Dogleg Str Max 
 DRET.      11.50.00 27-May-21:  Drill End Time 
 DRST.      21.13.00 24-May-21:  Drill Start Tim 
 DTIM.hr                 45.11:  Time Drilling 
 EDEP.m                4054.00:  End Depth 
 ENG1.         Almaz Almadatov:  Engineer 1 
 ENG2.           Amrah Tahirov:  Engineer 2 
 ENG3.      Bakhtiyar Jabbarli:  Engineer 3 
 ENG4.          Nazrin Asgarli:  Engineer 4 
 ETIM.      10.00.00 30-May-21:  End Time 
 FLOI.gpm               530.00:  Flow In 
 FLON.gpm               400.00:  Flow In Min 
 FLOS.cptm                0.00:  Fluid Loss 
 FLOX.gpm               560.00:  Flow In Max 
 DFT .        Mineral Oil Base:  Mud Type 
 FTRO.       Formation Presure:  FTWD Run Obj 
 HFLO.                      No:  High Flow 
 HPRE.                      No:  High Pressure 
 HTEM.                      No:  High Temp 
 HYDO.m                   1.80:  Hydro Offset 
 IFIN.deg                73.83:  Inc, Final 
 IMAX.deg                73.83:  Inc Max 
 IMIN.deg                57.86:  Inc Min 
 IMND.m                3259.27:  Inc Min Depth 
 IMXD.m                4045.58:  Inc Max Depth 
 JARR.                     Yes:  Jarring 
 LETM.      11.50.00 27-May-21:  Log End Time 
 LOST.hr                     0:  Lost Rig Time 
 LSTM.      21.13.00 24-May-21:  Log Start Time 
 MDCL.ppm             42500.00:  Mud Chlorides 
 MDES.     Inversion Oil/Synthetic:  Mud Desc 
 DFD .sg                  1.52:  Mud Density 
 MDMN.sg                  1.52:  Dens Mud Min 
 MDMX.sg                  1.52:  Dens Mud Max 
 MOIL.                      70:  Run Mud Oil % 
 MOWR.                   70:30:  Run Mud OWR 
 MSND.                     0.2:  Run Mud Sand % 
 MSOL.                      22:  Run Mud Solids% 
 DFV .spqt               77.00:  Mud Viscosity 
 MWOD.in                  6.75:  MWD Tool OD 
 MWSI.                      No:  Serv Intrp, MWD 
 OTIM.hr                151.01:  Time Operating 
 PCON.          Wear / Scratch:  Pad Condition 
 PMAX.psia            11296.93:  Press Op, Max 
 PV  .cP                 37.00:  Mud PV 
 RUN .                     500:  Run Number 
 ROPA.m/hr               25.00:  ROP Avg 
 ROPN.m/hr                9.00:  ROP Min 
 ROPX.m/hr               28.00:  ROP Max 
 RPMA.rpm               140.00:  RPM Surface Avg 
 RPMN.rpm                90.00:  RPM Surface Min 
 RPMX.rpm               140.00:  RPM Surface Max 
 RRUN.                    0500:  Rig Run Number 
 SAZI.deg               172.17:  Azm, Start 
 SDEP.m                3248.00:  Start Depth 
 SIDD.                      No:  Serv Intrp, DD 
 SINC.deg                57.86:  Inc, Start 
 SPPA.psig             5620.00:  SPP Avg 
 SPPN.psig             5190.00:  SPP Min 
 SPPX.psig             6050.00:  SPP Max 
 STIM.      16.00.00 23-May-21:  Start Time 
 SVCS.                 DD, MWD:  Services 
 SVER.                    9.20:  Sperry Version 
 TDAT.m                 806.00:  Tot Depth Attmp 
 TDDF.                      No:  Trip for DD 
 TDLG.m                 806.00:  Tot Depth Loggd 
 TFF .                      No:  Trip for Fail 
 TQAA.f-kp               12.00:  Torque Abs Avg 
 TQAN.f-kp                8.00:  Torque Abs Min 
 TQAX.f-kp               15.00:  Torque Abs Max 
 TRRT.°/30m               0.30:  Turn Rotating 
 MRT .                  EWR-M5:  Maximum Recorded Temperature 
 TTMX.degC               93.00:  Max Tool Temp 
 VS01.                90649155:  Virtual Str1 SN 
 VS02.                90642264:  Virtual Str2 SN 
 VS03.                90642266:  Virtual Str3 SN 
 VS04.                90642261:  Virtual Str4 SN 
 WBMN.klb                 0.00:  WOB Min 
 WITN.             Anar Khalil:  Customer Rep 
 WITN.           Murad Guliyev:  Customer Rep 2 
 WOBA.klb                13.00:  WOB Avg 
 WOBX.klb                25.00:  WOB Max 
 YP  .lhf2               32.00:  Yield Point 
~Curve Information Block
#MNEM.UNIT                 API CODE     Curve Description
#---------               -----------    ---------------------------
 TIME.HHMMSS            00 000 000 000:  GT Time & Date
 GTDEPTH.m              00 000 000 000:  GT Depth
 GTPQH.psia             00 000 000 000:  GT HR Quartz Pressure
 GTTQ.degC              00 000 000 000:  GT Quartz Temperature
 GTTN.NONE              00 000 000 000:  GT Test Number
 GTET.sec               00 000 000 000:  GT Elapsed Test Time
 GTTVD.m                00 000 000 000:  GT True Vertical Depth
#Other Information
#
#WARRANTY: Halliburton will use its best efforts to furnish customers with 
#accurate information and interpretations that are part of, and incident to, the services 
#provided.  However, Halliburton cannot and does not warrant the accuracy 
#or correctness of such information and interpretations.  Under no circumstances should any 
#such information or interpretation be relied upon as the sole basis for any drilling, 
#completion, production, or financial decision or any procedure involving any risk to the 
#safety of any drilling venture, drilling rig or its crew or any other third party.  The 
#Customer has full responsibility for all drilling, completion and production operation.  
#Halliburton makes no representations or warranties, either expressed or 
#implied, including, but not limited to, the implied warranties of merchantability or fitness 
#for a particular purpose, with respect to the services rendered.  In no event will 
#Halliburton be liable for failure to obtain any particular results or for 
#any damages, including, but not limited to, indirect, special or consequential damages, 
#resulting from the use of any information or interpretation provided by Halliburton.
#
~A           TIME           GTDEPTH  GTPQH  GTTQ  GTTN  GTET   GTTVD  
# ...
   00:20:07.000.28-May-2021 3671.00 3178.04 84.54 4.00 207.00 2661.36
   00:20:07.200.28-May-2021 3671.00 3178.04 84.54 4.00 207.20 2661.36
   00:20:07.400.28-May-2021 3671.00 3177.94 84.54 4.00 207.40 2661.36
   00:20:07.600.28-May-2021 3671.00 3177.93 84.54 4.00 207.60 2661.36
   00:20:07.800.28-May-2021 3671.00 3177.93 84.54 4.00 207.80 2661.36
   00:20:08.000.28-May-2021 3671.00 3177.93 84.54 4.00 208.00 2661.36
   00:20:08.200.28-May-2021 3671.00 3177.93 84.54 4.00 208.20 2661.36
   00:20:08.400.28-May-2021 3671.00 3177.94 84.54 4.00 208.40 2661.36
   00:20:08.600.28-May-2021 3671.00 3177.93 84.54 4.00 208.60 2661.36
   00:20:08.800.28-May-2021 3671.00 3177.93 84.54 4.00 208.80 2661.36
   00:20:09.000.28-May-2021 3671.00 3177.95 84.54 4.00 209.00 2661.36
   00:20:09.200.28-May-2021 3671.00 3177.95 84.54 4.00 209.20 2661.36
   00:20:09.400.28-May-2021 3671.00 3177.83 84.54 4.00 209.40 2661.36
   00:20:09.600.28-May-2021 3671.00 3178.06 84.54 4.00 209.60 2661.36
   00:20:09.800.28-May-2021 3671.00 3177.91 84.54 4.00 209.80 2661.36
   00:20:10.000.28-May-2021 3671.00 3177.92 84.54 4.00 210.00 2661.36
   00:20:10.200.28-May-2021 3671.00 3177.92 84.54 4.00 210.20 2661.36
   00:20:10.400.28-May-2021 3671.00 3177.92 84.54 4.00 210.40 2661.36
   00:20:10.600.28-May-2021 3671.00 3177.94 84.54 4.00 210.60 2661.36
   00:20:10.800.28-May-2021 3671.00 3177.94 84.54 4.00 210.80 2661.36
   00:20:11.000.28-May-2021 3671.00 3177.92 84.54 4.00 211.00 2661.36
   00:20:11.200.28-May-2021 3671.00 3177.92 84.54 4.00 211.20 2661.36
   00:20:11.400.28-May-2021 3671.00 3177.94 84.54 4.00 211.40 2661.36
   00:20:11.600.28-May-2021 3671.00 3177.93 84.54 4.00 211.60 2661.36
   00:20:11.800.28-May-2021 3671.00 3177.95 84.54 4.00 211.80 2661.36
   00:20:12.000.28-May-2021 3671.00 3177.82 84.54 4.00 212.00 2661.36
   00:20:12.200.28-May-2021 3671.00 3177.82 84.54 4.00 212.20 2661.36
   00:20:12.400.28-May-2021 3671.00 3177.93 84.54 4.00 212.40 2661.36
   00:20:12.600.28-May-2021 3671.00 3177.93 84.54 4.00 212.60 2661.36
   00:20:12.800.28-May-2021 3671.00 3177.93 84.54 4.00 212.80 2661.36
   00:20:13.000.28-May-2021 3671.00 3177.86 84.54 4.00 213.00 2661.36
   00:20:13.200.28-May-2021 3671.00 3177.86 84.54 4.00 213.20 2661.36
   00:20:13.400.28-May-2021 3671.00 3177.92 84.54 4.00 213.40 2661.36
   00:20:13.600.28-May-2021 3671.00 3177.94 84.54 4.00 213.60 2661.36
   00:20:13.800.28-May-2021 3671.00 3177.80 84.54 4.00 213.80 2661.36
   00:20:14.000.28-May-2021 3671.00 3178.03 84.54 4.00 214.00 2661.36
   00:20:14.200.28-May-2021 3671.00 3178.03 84.54 4.00 214.20 2661.36
   00:20:14.400.28-May-2021 3671.00 3177.92 84.54 4.00 214.40 2661.36
   00:20:14.600.28-May-2021 3671.00 3177.94 84.54 4.00 214.60 2661.36
   00:20:14.800.28-May-2021 3671.00 3177.97 84.54 4.00 214.80 2661.36
   00:20:15.000.28-May-2021 3671.00 3177.88 84.54 4.00 215.00 2661.36
   00:20:15.200.28-May-2021 3671.00 3177.88 84.54 4.00 215.20 2661.36
   00:20:15.400.28-May-2021 3671.00 3177.93 84.54 4.00 215.40 2661.36
   00:20:15.600.28-May-2021 3671.00 3177.93 84.54 4.00 215.60 2661.36
   00:20:15.800.28-May-2021 3671.00 3177.93 84.54 4.00 215.80 2661.36
   00:20:16.000.28-May-2021 3671.00 3177.93 84.54 4.00 216.00 2661.36
   00:20:16.200.28-May-2021 3671.00 3177.93 84.54 4.00 216.20 2661.36
   00:20:16.400.28-May-2021 3671.00 3177.92 84.54 4.00 216.40 2661.36
   00:20:16.600.28-May-2021 3671.00 3177.94 84.54 4.00 216.60 2661.36
   00:20:16.800.28-May-2021 3671.00 3177.94 84.54 4.00 216.80 2661.36
   00:20:17.000.28-May-2021 3671.00 3177.93 84.54 4.00 217.00 2661.36
   00:20:17.200.28-May-2021 3671.00 3177.93 84.54 4.00 217.20 2661.36
   00:20:17.400.28-May-2021 3671.00 3177.96 84.54 4.00 217.40 2661.36
   00:20:17.600.28-May-2021 3671.00 3177.89 84.54 4.00 217.60 2661.36
   00:20:17.800.28-May-2021 3671.00 3177.92 84.54 4.00 217.80 2661.36
   00:20:18.000.28-May-2021 3671.00 3177.93 84.54 4.00 218.00 2661.36
   00:20:18.200.28-May-2021 3671.00 3177.93 84.54 4.00 218.20 2661.36
   00:20:18.400.28-May-2021 3671.00 3177.93 84.54 4.00 218.40 2661.36
   00:20:18.600.28-May-2021 3671.00 3177.93 84.54 4.00 218.60 2661.36
   00:20:18.800.28-May-2021 3671.00 3177.93 84.54 4.00 218.80 2661.36
   00:20:19.000.28-May-2021 3671.00 3177.94 84.54 4.00 219.00 2661.36
   00:20:19.200.28-May-2021 3671.00 3177.94 84.54 4.00 219.20 2661.36
   00:20:19.400.28-May-2021 3671.00 3177.94 84.54 4.00 219.40 2661.36
   00:20:19.600.28-May-2021 3671.00 3177.95 84.54 4.00 219.60 2661.36
   00:20:19.800.28-May-2021 3671.00 3177.92 84.54 4.00 219.80 2661.36
   00:20:20.000.28-May-2021 3671.00 3177.97 84.54 4.00 220.00 2661.36
   00:20:20.200.28-May-2021 3671.00 3177.97 84.54 4.00 220.20 2661.36
   00:20:20.400.28-May-2021 3671.00 3177.91 84.54 4.00 220.40 2661.36
   00:20:20.600.28-May-2021 3671.00 3177.93 84.54 4.00 220.60 2661.36
   00:20:20.800.28-May-2021 3671.00 3177.86 84.54 4.00 220.80 2661.36
   00:20:21.000.28-May-2021 3671.00 3177.99 84.54 4.00 221.00 2661.36
   00:20:21.200.28-May-2021 3671.00 3177.99 84.54 4.00 221.20 2661.36
   00:20:21.400.28-May-2021 3671.00 3177.94 84.54 4.00 221.40 2661.36
   00:20:21.600.28-May-2021 3671.00 3177.91 84.54 4.00 221.60 2661.36
   00:20:21.800.28-May-2021 3671.00 3177.96 84.54 4.00 221.80 2661.36
   00:20:22.000.28-May-2021 3671.00 3177.89 84.54 4.00 222.00 2661.36
   00:20:22.200.28-May-2021 3671.00 3177.89 84.54 4.00 222.20 2661.36
   00:20:22.400.28-May-2021 3671.00 3177.98 84.54 4.00 222.40 2661.36
   00:20:22.600.28-May-2021 3671.00 3177.88 84.54 4.00 222.60 2661.36
   00:20:22.800.28-May-2021 3671.00 3177.90 84.54 4.00 222.80 2661.36
   00:20:23.000.28-May-2021 3671.00 3177.94 84.54 4.00 223.00 2661.36
   00:20:23.200.28-May-2021 3671.00 3177.94 84.54 4.00 223.20 2661.36
   00:20:23.400.28-May-2021 3671.00 3177.93 84.54 4.00 223.40 2661.36
   00:20:23.600.28-May-2021 3671.00 3177.93 84.55 4.00 223.60 2661.36
   00:20:23.800.28-May-2021 3671.00 3177.93 84.54 4.00 223.80 2661.36
   00:20:24.000.28-May-2021 3671.00 3177.93 84.55 4.00 224.00 2661.36
   00:20:24.200.28-May-2021 3671.00 3177.93 84.55 4.00 224.20 2661.36
   00:20:24.400.28-May-2021 3671.00 3177.94 84.54 4.00 224.40 2661.36
   00:20:24.600.28-May-2021 3671.00 3177.93 84.55 4.00 224.60 2661.36
   00:20:24.800.28-May-2021 3671.00 3177.94 84.55 4.00 224.80 2661.36
   00:20:25.000.28-May-2021 3671.00 3177.96 84.55 4.00 225.00 2661.36
   00:20:25.200.28-May-2021 3671.00 3177.96 84.55 4.00 225.20 2661.36
   00:20:25.400.28-May-2021 3671.00 3177.92 84.55 4.00 225.40 2661.36
   00:20:25.600.28-May-2021 3671.00 3177.93 84.55 4.00 225.60 2661.36
   00:20:25.800.28-May-2021 3671.00 3177.93 84.55 4.00 225.80 2661.36
   00:20:26.000.28-May-2021 3671.00 3177.93 84.55 4.00 226.00 2661.36
   00:20:26.200.28-May-2021 3671.00 3177.93 84.55 4.00 226.20 2661.36
   00:20:26.400.28-May-2021 3671.00 3177.93 84.55 4.00 226.40 2661.36
   00:20:26.600.28-May-2021 3671.00 3177.93 84.55 4.00 226.60 2661.36
   00:20:26.800.28-May-2021 3671.00 3177.93 84.55 4.00 226.80 2661.36
   00:20:27.000.28-May-2021 3671.00 3177.93 84.55 4.00 227.00 2661.36
   00:20:27.200.28-May-2021 3671.00 3177.93 84.55 4.00 227.20 2661.36
   00:20:27.400.28-May-2021 3671.00 3177.94 84.55 4.00 227.40 2661.36
   00:20:27.600.28-May-2021 3671.00 3177.97 84.55 4.00 227.60 2661.36
   00:20:27.800.28-May-2021 3671.00 3177.89 84.55 4.00 227.80 2661.36
   00:20:28.000.28-May-2021 3671.00 3177.91 84.55 4.00 228.00 2661.36
   00:20:28.200.28-May-2021 3671.00 3177.91 84.55 4.00 228.20 2661.36
   00:20:28.400.28-May-2021 3671.00 3177.85 84.55 4.00 228.40 2661.36
   00:20:28.600.28-May-2021 3671.00 3178.00 84.55 4.00 228.60 2661.36
   00:20:28.800.28-May-2021 3671.00 3177.91 84.55 4.00 228.80 2661.36
   00:20:29.000.28-May-2021 3671.00 3177.94 84.55 4.00 229.00 2661.36
   00:20:29.200.28-May-2021 3671.00 3177.94 84.55 4.00 229.20 2661.36
   00:20:29.400.28-May-2021 3671.00 3177.97 84.55 4.00 229.40 2661.36
   00:20:29.600.28-May-2021 3671.00 3177.88 84.55 4.00 229.60 2661.36
   00:20:29.800.28-May-2021 3671.00 3177.90 84.55 4.00 229.80 2661.36
