~Version Information
 VERS.                  2.0:   CWLS log ASCII Standard -VERSION 2.0
 WRAP.                   NO:   One line per depth step
~Well Information Block
#MNEM.UNIT     VALUE/NAME     DESCRIPTION
#---------     -----------    ---------------------------
 STRT.S             00:59:34 28-May-21: START TIME 00:59:34 28-May-21
 STOP.S             01:06:40 28-May-21: STOP TIME  01:06:40 28-May-21
 STEP.S                   0.00: STEP TIME
 NULL.                 -999.25: NULL VALUE
 UWI .                     N/A:  UNIQUE WELL IDENTIFIER
 API .                     N/A:  API NUMBER
 UNIT.                     N/A:  LOGGING EQUIPMENT ID
 DCON.         Sperry Drilling:  DIRECTNL CONTR
 DOE .                     N/A:  DOE NUMBER
 MWDS.                    Baku:  MWD SHOP
 SRVC.     Turan Drilling and Engineering:  CONTRACTOR
 CTRY.              Azerbaijan:  COUNTRY NAME
 PROV.                    Baku:  PROVINCE
 STAT.                    Baku:  STATE NAME
 REGN.                   EESSA:  REGION
 BASE.              Azerbaijan:  LOGGING EQUIPMENT BASE LOCATION
 WTYP.                Deviated:  WELL TYPE
 RIG .              East Azeri:  RIG NAME
 WELL.                    D02y:  WELL NAME
 FLD .                     ACG:  FIELD NAME
 COMP.     BP Exploration (Caspian Sea) Ltd.:  COMPANY
 PDAT.          Mean Sea Level:  PERMANENT DATUM
 MDS .        Operator Entered:  MAG DATA SOURCE
 SON .        AZ-XX-0906997291:  JOB NUMBER
 FTOP.          Formation Tops:  FORM TOPS DESC
 ILTD.               Lithology:  INTERP LTH DESC
 SVYD.                  Survey:  SURVEY DESC
 DMOD.             Drill Model:  DRILL MOD DESC
 HPTY.       Minimum Curvature:  HOLE POS TYPE
 NREF.                    Grid:  NORTH REFERENCE
 SPUD.               05-May-21:  SPUD DATE
 DATE.      09.27.28 12-Jun-21:  END TIME
 STIM.      09.27.28 12-May-21:  START TIME
 DMF .             Drill Floor:  DRILL MEAS FROM
 DFST.                        :  DIST FSL TEXT
 DFWT.                        :  DIST FWL TEXT
 CNTY.                        :  COUNTY
 LOC .                        :  LOCATION
 LMF .             Drill Floor:  LOG MEASURED FROM
 DEP .m                2806.40:  DEPTH
 AGAP.m                  43.60:  AIR GAP
 VSNS.m                  -4.42:  VERT SEC N/S
 VSEW.m                  -7.31:  VERT SEC E/W
 APD .m                  43.60:  DEPTH ABOVE PD
 WDMS.m                 151.80:  WD ELEV
 EGL .m                   0.00:  GROUND ELEVATION
 EPD .m                   0.00:  ELEVATION
 AZTC.deg                 6.18:  AZM TOTAL CORR
 GRDC.deg                 0.29:  GRID CORRECTION
 MDEC.deg                 6.47:  MAGNETIC DECL
 MDIP.deg                59.50:  MAGNETIC DIP
 MFLD.nT              50350.00:  MAGNETIC FIELD
 GVFD.g                   1.00:  GRAVITY FIELD
 VSDR.deg               179.08:  VERT SEC DIRECT
 TDD .m                4300.00:  TOTAL DEPTH (DRILLER)
 SDEP.m                2800.00:  START DEPTH
 DFSL.m                   0.00:  DISTANCE FSL
 DFWL.m                   0.00:  DISTANCE FWL
 UTMY.m             4431871.34:  UTM Y
 UTMX.m              538762.90:  UTM X
 WHEW.m                  -7.31:  WELL HEAD E/W
 WHNS.m                  -4.42:  WELL HEAD N/S
 LONG.deg                51.45:  LONGITUDE
 LATI.deg                40.02:  LATITUDE
 TVDS.m                  43.60:  TVDSS CORRECTN
 EKB .m                  43.60:  KB ELEVATION
 EDF .m                  43.60:  DF ELEVATION
 TDL .m                 806.00:  TOTAL DEPTH (LOGGER)
 MAGU.                 1851231:  MAGUTM CHECKSUM
 VSC .                       0:  VS TO CLOSURE
~Parameter Information Block
#MNEM.UNIT       Value        Description
#---------     -----------    ---------------------------
 AV  .mps                 1.60:  Ann Velocity 
 AVMX.mps                 2.00:  Max Ann Veloc 
 AZIF.deg               140.24:  Azm, Final 
 BHAT.        Rotary Steerable:  BHA Type 
 BROT.°/30m               0.50:  Build Rotating 
 BS  .in                  8.50:  Bit Size 
 BTPL.psig              619.00:  Bit Press Loss 
 CABU.                     Yes:  Customer Abuse 
 CGEO.          Ilgar Gurbanov:  Customer Geo 
 COMM.                     ô:r:  Run Comments 1 
 TCS .hr                 85.88:  Time Ciculation Ended 
 CV  .mps                 3.30:  Crit Velocity 
 CVMX.mps                 3.50:  Max Crit Veloc 
 DD1 .           Hamid Axmedov:  Direct Drillr 1 
 DD2 .           Teymur Aliyev:  Direct Drillr 2 
 DDSV.               Geo-Pilot:  DD Service 
 DEFF.%                 100.00:  % Det Eff 
 DLRX.°/30m               0.00:  Dogleg Rot Max 
 DLSO.°/30m               1.80:  Dogleg Oriented 
 DLSX.°/30m               3.34:  Dogleg Str Max 
 DRET.      11.50.00 27-May-21:  Drill End Time 
 DRST.      21.13.00 24-May-21:  Drill Start Tim 
 DTIM.hr                 45.11:  Time Drilling 
 EDEP.m                4054.00:  End Depth 
 ENG1.         Almaz Almadatov:  Engineer 1 
 ENG2.           Amrah Tahirov:  Engineer 2 
 ENG3.      Bakhtiyar Jabbarli:  Engineer 3 
 ENG4.          Nazrin Asgarli:  Engineer 4 
 ETIM.      10.00.00 30-May-21:  End Time 
 FLOI.gpm               530.00:  Flow In 
 FLON.gpm               400.00:  Flow In Min 
 FLOS.cptm                0.00:  Fluid Loss 
 FLOX.gpm               560.00:  Flow In Max 
 DFT .        Mineral Oil Base:  Mud Type 
 FTRO.       Formation Presure:  FTWD Run Obj 
 HFLO.                      No:  High Flow 
 HPRE.                      No:  High Pressure 
 HTEM.                      No:  High Temp 
 HYDO.m                   1.80:  Hydro Offset 
 IFIN.deg                73.83:  Inc, Final 
 IMAX.deg                73.83:  Inc Max 
 IMIN.deg                57.86:  Inc Min 
 IMND.m                3259.27:  Inc Min Depth 
 IMXD.m                4045.58:  Inc Max Depth 
 JARR.                     Yes:  Jarring 
 LETM.      11.50.00 27-May-21:  Log End Time 
 LOST.hr                     0:  Lost Rig Time 
 LSTM.      21.13.00 24-May-21:  Log Start Time 
 MDCL.ppm             42500.00:  Mud Chlorides 
 MDES.     Inversion Oil/Synthetic:  Mud Desc 
 DFD .sg                  1.52:  Mud Density 
 MDMN.sg                  1.52:  Dens Mud Min 
 MDMX.sg                  1.52:  Dens Mud Max 
 MOIL.                      70:  Run Mud Oil % 
 MOWR.                   70:30:  Run Mud OWR 
 MSND.                     0.2:  Run Mud Sand % 
 MSOL.                      22:  Run Mud Solids% 
 DFV .spqt               77.00:  Mud Viscosity 
 MWOD.in                  6.75:  MWD Tool OD 
 MWSI.                      No:  Serv Intrp, MWD 
 OTIM.hr                151.01:  Time Operating 
 PCON.          Wear / Scratch:  Pad Condition 
 PMAX.psia            11296.93:  Press Op, Max 
 PV  .cP                 37.00:  Mud PV 
 RUN .                     500:  Run Number 
 ROPA.m/hr               25.00:  ROP Avg 
 ROPN.m/hr                9.00:  ROP Min 
 ROPX.m/hr               28.00:  ROP Max 
 RPMA.rpm               140.00:  RPM Surface Avg 
 RPMN.rpm                90.00:  RPM Surface Min 
 RPMX.rpm               140.00:  RPM Surface Max 
 RRUN.                    0500:  Rig Run Number 
 SAZI.deg               172.17:  Azm, Start 
 SDEP.m                3248.00:  Start Depth 
 SIDD.                      No:  Serv Intrp, DD 
 SINC.deg                57.86:  Inc, Start 
 SPPA.psig             5620.00:  SPP Avg 
 SPPN.psig             5190.00:  SPP Min 
 SPPX.psig             6050.00:  SPP Max 
 STIM.      16.00.00 23-May-21:  Start Time 
 SVCS.                 DD, MWD:  Services 
 SVER.                    9.20:  Sperry Version 
 TDAT.m                 806.00:  Tot Depth Attmp 
 TDDF.                      No:  Trip for DD 
 TDLG.m                 806.00:  Tot Depth Loggd 
 TFF .                      No:  Trip for Fail 
 TQAA.f-kp               12.00:  Torque Abs Avg 
 TQAN.f-kp                8.00:  Torque Abs Min 
 TQAX.f-kp               15.00:  Torque Abs Max 
 TRRT.°/30m               0.30:  Turn Rotating 
 MRT .                  EWR-M5:  Maximum Recorded Temperature 
 TTMX.degC               93.00:  Max Tool Temp 
 VS01.                90649155:  Virtual Str1 SN 
 VS02.                90642264:  Virtual Str2 SN 
 VS03.                90642266:  Virtual Str3 SN 
 VS04.                90642261:  Virtual Str4 SN 
 WBMN.klb                 0.00:  WOB Min 
 WITN.             Anar Khalil:  Customer Rep 
 WITN.           Murad Guliyev:  Customer Rep 2 
 WOBA.klb                13.00:  WOB Avg 
 WOBX.klb                25.00:  WOB Max 
 YP  .lhf2               32.00:  Yield Point 
~Curve Information Block
#MNEM.UNIT                 API CODE     Curve Description
#---------               -----------    ---------------------------
 TIME.HHMMSS            00 000 000 000:  GT Time & Date
 GTDEPTH.m              00 000 000 000:  GT Depth
 GTPQH.psia             00 000 000 000:  GT HR Quartz Pressure
 GTTQ.degC              00 000 000 000:  GT Quartz Temperature
 GTTN.NONE              00 000 000 000:  GT Test Number
 GTET.sec               00 000 000 000:  GT Elapsed Test Time
 GTTVD.m                00 000 000 000:  GT True Vertical Depth
#Other Information
#
#WARRANTY: Halliburton will use its best efforts to furnish customers with 
#accurate information and interpretations that are part of, and incident to, the services 
#provided.  However, Halliburton cannot and does not warrant the accuracy 
#or correctness of such information and interpretations.  Under no circumstances should any 
#such information or interpretation be relied upon as the sole basis for any drilling, 
#completion, production, or financial decision or any procedure involving any risk to the 
#safety of any drilling venture, drilling rig or its crew or any other third party.  The 
#Customer has full responsibility for all drilling, completion and production operation.  
#Halliburton makes no representations or warranties, either expressed or 
#implied, including, but not limited to, the implied warranties of merchantability or fitness 
#for a particular purpose, with respect to the services rendered.  In no event will 
#Halliburton be liable for failure to obtain any particular results or for 
#any damages, including, but not limited to, indirect, special or consequential damages, 
#resulting from the use of any information or interpretation provided by Halliburton.
#
~A           TIME           GTDEPTH  GTPQH  GTTQ  GTTN  GTET   GTTVD  
   00:59:34.951.28-May-2021 3649.00 6182.81 85.06 5.00   0.00 2653.32
   00:59:35.152.28-May-2021 3649.00 6182.81 85.06 5.00   0.20 2653.32
   00:59:35.352.28-May-2021 3649.00 6177.17 85.06 5.00   0.40 2653.32
   00:59:35.552.28-May-2021 3649.00 6176.88 85.06 5.00   0.60 2653.32
   00:59:35.752.28-May-2021 3649.00 6177.18 85.06 5.00   0.80 2653.32
   00:59:35.952.28-May-2021 3649.00 6184.16 85.06 5.00   1.00 2653.32
   00:59:36.153.28-May-2021 3649.00 6184.16 85.06 5.00   1.20 2653.32
   00:59:36.353.28-May-2021 3649.00 6177.81 85.06 5.00   1.40 2653.32
   00:59:36.553.28-May-2021 3649.00 6180.23 85.06 5.00   1.60 2653.32
   00:59:36.753.28-May-2021 3649.00 6180.23 85.06 5.00   1.80 2653.32
   00:59:36.953.28-May-2021 3649.00 6179.19 85.06 5.00   2.00 2653.32
   00:59:37.154.28-May-2021 3649.00 6179.19 85.06 5.00   2.20 2653.32
   00:59:37.354.28-May-2021 3649.00 6185.76 85.06 5.00   2.40 2653.32
   00:59:37.554.28-May-2021 3649.00 6176.71 85.06 5.00   2.60 2653.32
   00:59:37.754.28-May-2021 3649.00 6179.33 85.06 5.00   2.80 2653.32
   00:59:37.954.28-May-2021 3649.00 6180.00 85.06 5.00   3.00 2653.32
   00:59:38.155.28-May-2021 3649.00 6180.00 85.06 5.00   3.20 2653.32
   00:59:38.355.28-May-2021 3649.00 6179.92 85.06 5.00   3.40 2653.32
   00:59:38.555.28-May-2021 3649.00 6180.24 85.06 5.00   3.60 2653.32
   00:59:38.755.28-May-2021 3649.00 6180.65 85.06 5.00   3.80 2653.32
   00:59:38.956.28-May-2021 3649.00 6180.94 85.06 5.00   4.00 2653.32
   00:59:39.156.28-May-2021 3649.00 6180.94 85.06 5.00   4.20 2653.32
   00:59:39.356.28-May-2021 3649.00 6181.38 85.06 5.00   4.40 2653.32
   00:59:39.556.28-May-2021 3649.00 6181.69 85.06 5.00   4.60 2653.32
   00:59:39.756.28-May-2021 3649.00 6181.64 85.06 5.00   4.80 2653.32
   00:59:39.957.28-May-2021 3649.00 6181.67 85.06 5.00   5.01 2653.32
   00:59:40.157.28-May-2021 3649.00 6181.67 85.06 5.00   5.21 2653.32
   00:59:40.357.28-May-2021 3649.00 6181.51 85.06 5.00   5.41 2653.32
   00:59:40.557.28-May-2021 3649.00 6182.48 85.06 5.00   5.61 2653.32
   00:59:40.757.28-May-2021 3649.00 6182.11 85.06 5.00   5.81 2653.32
   00:59:40.958.28-May-2021 3649.00 6182.84 85.06 5.00   6.01 2653.32
   00:59:41.158.28-May-2021 3649.00 6182.84 85.06 5.00   6.21 2653.32
   00:59:41.358.28-May-2021 3649.00 6182.80 85.06 5.00   6.41 2653.32
   00:59:41.558.28-May-2021 3649.00 6183.09 85.06 5.00   6.61 2653.32
   00:59:41.758.28-May-2021 3649.00 6183.34 85.06 5.00   6.81 2653.32
   00:59:41.959.28-May-2021 3649.00 6183.59 85.06 5.00   7.01 2653.32
   00:59:42.159.28-May-2021 3649.00 6183.59 85.06 5.00   7.21 2653.32
   00:59:42.359.28-May-2021 3649.00 6184.22 85.06 5.00   7.41 2653.32
   00:59:42.559.28-May-2021 3649.00 6184.27 85.06 5.00   7.61 2653.32
   00:59:42.759.28-May-2021 3649.00 6184.38 85.06 5.00   7.81 2653.32
   00:59:42.960.28-May-2021 3649.00 6191.27 85.06 5.00   8.01 2653.32
   00:59:43.160.28-May-2021 3649.00 6191.27 85.06 5.00   8.21 2653.32
   00:59:43.360.28-May-2021 3649.00 6184.68 85.06 5.00   8.41 2653.32
   00:59:43.560.28-May-2021 3649.00 6184.97 85.06 5.00   8.61 2653.32
   00:59:43.761.28-May-2021 3649.00 6184.95 85.06 5.00   8.81 2653.32
   00:59:43.961.28-May-2021 3649.00 6191.67 85.06 5.00   9.01 2653.32
   00:59:44.161.28-May-2021 3649.00 6191.67 85.06 5.00   9.21 2653.32
   00:59:44.361.28-May-2021 3649.00 6185.27 85.06 5.00   9.41 2653.32
   00:59:44.561.28-May-2021 3649.00 6185.98 85.06 5.00   9.61 2653.32
   00:59:44.762.28-May-2021 3649.00 6185.39 85.06 5.00   9.81 2653.32
   00:59:44.962.28-May-2021 3649.00 6190.87 85.06 5.00  10.01 2653.32
   00:59:45.162.28-May-2021 3649.00 6190.87 85.06 5.00  10.21 2653.32
   00:59:45.362.28-May-2021 3649.00 6185.95 85.06 5.00  10.41 2653.32
   00:59:45.562.28-May-2021 3649.00 6187.29 85.05 5.00  10.61 2653.32
   00:59:45.763.28-May-2021 3649.00 6191.49 85.05 5.00  10.81 2653.32
   00:59:45.963.28-May-2021 3649.00 6186.49 85.05 5.00  11.01 2653.32
   00:59:46.163.28-May-2021 3649.00 6186.49 85.05 5.00  11.21 2653.32
   00:59:46.363.28-May-2021 3649.00 6188.45 85.05 5.00  11.41 2653.32
   00:59:46.563.28-May-2021 3649.00 6190.83 85.05 5.00  11.61 2653.32
   00:59:46.764.28-May-2021 3649.00 6188.33 85.05 5.00  11.81 2653.32
   00:59:46.964.28-May-2021 3649.00 6187.96 85.05 5.00  12.01 2653.32
   00:59:47.164.28-May-2021 3649.00 6187.96 85.05 5.00  12.21 2653.32
   00:59:47.364.28-May-2021 3649.00 6188.58 85.05 5.00  12.41 2653.32
   00:59:47.564.28-May-2021 3649.00 6195.06 85.05 5.00  12.61 2653.32
   00:59:47.765.28-May-2021 3649.00 6186.64 85.05 5.00  12.81 2653.32
   00:59:47.965.28-May-2021 3649.00 6189.16 85.05 5.00  13.01 2653.32
   00:59:48.165.28-May-2021 3649.00 6189.16 85.05 5.00  13.21 2653.32
   00:59:48.365.28-May-2021 3649.00 6189.16 85.05 5.00  13.41 2653.32
   00:59:48.565.28-May-2021 3649.00 6189.53 85.05 5.00  13.61 2653.32
   00:59:48.766.28-May-2021 3649.00 6189.44 85.05 5.00  13.81 2653.32
   00:59:48.966.28-May-2021 3649.00 6189.53 85.05 5.00  14.01 2653.32
   00:59:49.166.28-May-2021 3649.00 6189.53 85.05 5.00  14.21 2653.32
   00:59:49.366.28-May-2021 3649.00 6189.92 85.05 5.00  14.41 2653.32
   00:59:49.567.28-May-2021 3649.00 6190.62 85.05 5.00  14.62 2653.32
   00:59:49.767.28-May-2021 3649.00 6190.69 85.05 5.00  14.82 2653.32
   00:59:49.967.28-May-2021 3649.00 6190.80 85.05 5.00  15.02 2653.32
   00:59:50.167.28-May-2021 3649.00 6190.80 85.05 5.00  15.22 2653.32
   00:59:50.367.28-May-2021 3649.00 6188.84 85.05 5.00  15.42 2653.32
   00:59:50.568.28-May-2021 3649.00 6191.62 85.05 5.00  15.62 2653.32
   00:59:50.768.28-May-2021 3649.00 6191.61 85.05 5.00  15.82 2653.32
   00:59:50.968.28-May-2021 3649.00 6191.30 85.05 5.00  16.02 2653.32
   00:59:51.168.28-May-2021 3649.00 6191.30 85.05 5.00  16.22 2653.32
   00:59:51.368.28-May-2021 3649.00 6191.40 85.05 5.00  16.42 2653.32
   00:59:51.569.28-May-2021 3649.00 6191.49 85.05 5.00  16.62 2653.32
   00:59:51.769.28-May-2021 3649.00 6191.84 85.05 5.00  16.82 2653.32
   00:59:51.969.28-May-2021 3649.00 6192.05 85.05 5.00  17.02 2653.32
   00:59:52.169.28-May-2021 3649.00 6192.05 85.05 5.00  17.22 2653.32
   00:59:52.369.28-May-2021 3649.00 6192.65 85.05 5.00  17.42 2653.32
   00:59:52.570.28-May-2021 3649.00 6192.80 85.05 5.00  17.62 2653.32
   00:59:52.770.28-May-2021 3649.00 6194.15 85.05 5.00  17.82 2653.32
   00:59:52.970.28-May-2021 3649.00 6195.71 85.05 5.00  18.02 2653.32
   00:59:53.170.28-May-2021 3649.00 6195.71 85.05 5.00  18.22 2653.32
   00:59:53.370.28-May-2021 3649.00 6192.68 85.05 5.00  18.42 2653.32
   00:59:53.571.28-May-2021 3649.00 6194.83 85.05 5.00  18.62 2653.32
   00:59:53.771.28-May-2021 3649.00 6195.70 85.05 5.00  18.82 2653.32
   00:59:53.971.28-May-2021 3649.00 6193.01 85.05 5.00  19.02 2653.32
   00:59:54.171.28-May-2021 3649.00 6193.01 85.05 5.00  19.22 2653.32
   00:59:54.372.28-May-2021 3649.00 6200.38 85.05 5.00  19.42 2653.32
   00:59:54.572.28-May-2021 3649.00 6190.69 85.05 5.00  19.62 2653.32
   00:59:54.772.28-May-2021 3649.00 6193.62 85.05 5.00  19.82 2653.32
   00:59:54.972.28-May-2021 3649.00 6194.28 85.05 5.00  20.02 2653.32
   00:59:55.172.28-May-2021 3649.00 6194.28 85.05 5.00  20.22 2653.32
   00:59:55.373.28-May-2021 3649.00 6200.95 85.05 5.00  20.42 2653.32
   00:59:55.573.28-May-2021 3649.00 6191.95 85.05 5.00  20.62 2653.32
   00:59:55.773.28-May-2021 3649.00 6194.63 85.05 5.00  20.82 2653.32
   00:59:55.973.28-May-2021 3649.00 6194.95 85.05 5.00  21.02 2653.32
   00:59:56.173.28-May-2021 3649.00 6194.95 85.05 5.00  21.22 2653.32
   00:59:56.374.28-May-2021 3649.00 6194.91 85.05 5.00  21.42 2653.32
   00:59:56.574.28-May-2021 3649.00 6195.15 85.05 5.00  21.62 2653.32
   00:59:56.774.28-May-2021 3649.00 6195.13 85.05 5.00  21.82 2653.32
   00:59:56.974.28-May-2021 3649.00 6195.42 85.05 5.00  22.02 2653.32
   00:59:57.174.28-May-2021 3649.00 6195.42 85.05 5.00  22.22 2653.32
   00:59:57.375.28-May-2021 3649.00 6196.04 85.05 5.00  22.42 2653.32
   00:59:57.575.28-May-2021 3649.00 6196.14 85.05 5.00  22.62 2653.32
   00:59:57.775.28-May-2021 3649.00 6196.08 85.04 5.00  22.82 2653.32
